~Version Information
VERS.                      2.0: CWLS Log ASCII Standard - VERSION 2.0
WRAP.                       NO: One line per depth step
~Well Information Block
STRT.FT                -9.5000: 
STOP.FT              2451.0000: 
STEP.FT                 0.2500: 
NULL.                -999.2500: 
COMP.          Petrogulf Corporation: COMPANY
WELL.           Vallejo 19-31V: WELL
FLD.           Purgatorie River: FIELD
LOC.           345' FNL & 2457' FEL: LOCATION
CNTY.               Las Animas: COUNTY
SRVC.                         : SERVICE COMPANY
DATE.          Mon Mar 08 08:24:37 2004: LOG DATE
UWI.           05-071-07919-00: UNIQUE WELL ID
STAT.                 Colorado: STATE
~Curve Information Block
DEPT.FT            0 000 00 00: Depth
MINMK.                        : Surface Line Tension
GR.GAPI                       : Gamma Ray
CCL.                          : Casing Collar Locator
TT3.usec                      : CBL 3' Travel Time
AMP3.mV                       : CBL 3' Amplitude
~Parameter Information Block
~A  Depth      MINMK         GR         CCL         TT3         AMP3    
# ...
  2090.5000      0.0000     71.5541      0.0000    668.0919      2.4934
  2090.7500      0.0000     70.0856      0.0000    668.1352      2.6037
  2091.0000      0.0000     68.9134      0.0000    660.9126      2.8060
  2091.2500      0.0000     68.9690      0.0000    646.9549      3.2133
  2091.5000      0.0000     70.9304      0.0000    637.2217      3.6791
  2091.7500      0.0000     74.1688      0.0000    643.7674      3.9258
  2092.0000      0.0000     77.0858      0.0000    665.0387      3.9292
  2092.2500      0.0000     78.3607      5.0000    683.9452      3.8779
  2092.5000      0.0000     77.7731      0.0000    688.0173      3.8682
  2092.7500      0.0000     76.1891      0.0000    684.3298      3.8695
  2093.0000      0.0000     74.9520      0.0000    683.3723      3.8762
  2093.2500      0.0000     75.0637      0.0000    682.8141      3.9455
  2093.5000      0.0000     76.7364      0.0000    676.7194      4.1609
  2093.7500      0.0000     79.5219      0.0000    668.5731      4.5645
  2094.0000      0.0000     82.5480      0.0000    669.6647      4.9671
  2094.2500      0.0000     84.6835      0.0000    685.4394      5.0246
  2094.5000      0.0000     85.0694      0.0000    705.8508      4.7937
  2094.7500      0.0000     83.8838      0.0000    714.2805      4.7845
  2095.0000      0.0000     82.4837      0.0000    705.6453      5.2571
  2095.2500      0.0000     82.5798      0.0000    683.1814      6.0134
  2095.5000      0.0000     84.9476      0.0000    638.7665      6.8138
  2095.7500      0.0000     88.6160      0.0000    561.9993      7.5894
  2096.0000      0.0000     91.4625      0.0000    469.8128      8.3713
  2096.2500      1.0000     91.8180      0.0000    398.4639      9.1548
  2096.5000      0.0000     89.4305      0.0000    366.6100      9.8455
  2096.7500      0.0000     85.0971      0.0000    370.1102     10.3686
  2097.0000      0.0000     79.9046      0.0000    399.3159     10.7529
  2097.2500      0.0000     74.8343      0.0000    435.2247     11.0601
  2097.5000      0.0000     70.6666      0.0000    447.1905     11.3010
  2097.7500      0.0000     68.0062      0.0000    425.9595     11.4329
  2098.0000      0.0000     67.3113      0.0000    403.7479     11.3852
  2098.2500      0.0000     68.7447      0.0000    420.5143     11.1063
  2098.5000      0.0000     71.8711      0.0000    484.3052     10.5857
  2098.7500      0.0000     75.5330      0.0000    565.6588      9.8431
  2099.0000      0.0000     78.3437      0.0000    626.4436      8.9554
  2099.2500      0.0000     79.6487      0.0000    655.1969      8.0389
  2099.5000      0.0000     79.9241      0.0000    665.6464      7.1783
  2099.7500      0.0000     79.8372      0.0000    671.0364      6.4334
  2100.0000      0.0000     79.0794      0.0000    674.2244      5.8650
  2100.2500      0.0000     76.7070      0.0000    676.5050      5.4969
  2100.5000      0.0000     72.5942      0.0000    683.4857      5.2823
  2100.7500      0.0000     67.9632      0.0000    697.2069      5.1431
  2101.0000      0.0000     64.3991      0.0000    709.2007      5.0341
  2101.2500      0.0000     62.7500      0.0000    707.5679      4.9697
  2101.5000      0.0000     63.0693      0.0000    690.6215      4.9859
  2101.7500      0.0000     65.2496      0.0000    667.4788      5.0852
  2102.0000      0.0000     69.2925      0.0000    641.7734      5.2658
  2102.2500      0.0000     74.9238      0.0000    605.0386      5.5746
  2102.5000      0.0000     81.3762      0.0000    553.7702      6.0426
  2102.7500      0.0000     87.9385      0.0000    505.9342      6.6095
  2103.0000      0.0000     94.5831      0.0000    479.6709      7.1771
  2103.2500      0.0000    101.7746      0.0000    459.7765      7.6997
  2103.5000      0.0000    109.7349      0.0000    423.2276      8.2411
  2103.7500      0.0000    117.9710      0.0000    380.3039      8.9927
  2104.0000      0.0000    125.2809      0.0000    352.6180     10.1855
  2104.2500      0.0000    130.0584      0.0000    342.0294     11.9097
  2104.5000      0.0000    130.9933      0.0000    339.3637     14.0238
  2104.7500      0.0000    128.0344      0.0000    338.7089     16.2274
  2105.0000      0.0000    122.7466      0.0000    338.3758     18.1295
  2105.2500      0.0000    117.3691      0.0000    338.1564     19.3386
  2105.5000      0.0000    113.2568      0.0000    338.0547     19.6485
  2105.7500      0.0000    110.2766      0.0000    338.0633     19.0829
  2106.0000      0.0000    107.6062      0.0000    338.2087     17.8240
  2106.2500      0.0000    104.7531      0.0000    338.5999     16.1860
  2106.5000      0.0000    101.6795      0.0000    339.5772     14.5206
  2106.7500      0.0000     98.2200      0.0000    343.1260     13.0665
  2107.0000      0.0000     93.7892      0.0000    357.2092     11.9005
  2107.2500      0.0000     88.0587      0.0000    398.4294     10.9737
  2107.5000      0.0000     81.9732      0.0000    477.5338     10.1836
  2107.7500      0.0000     77.7152      0.0000    574.0210      9.4460
  2108.0000      0.0000     77.3917      0.0000    647.2635      8.7056
  2108.2500      0.0000     81.6243      0.0000    680.9564      7.9324
  2108.5000      0.0000     89.1156      0.0000    689.3527      7.1283
  2108.7500      0.0000     97.4249      0.0000    687.2461      6.3236
  2109.0000      0.0000    104.4591      0.0000    681.2277      5.5545
  2109.2500      0.0000    109.5228      0.0000    677.9136      4.8521
  2109.5000      0.0000    113.0692      0.0000    682.1175      4.2382
  2109.7500      0.0000    115.6135      0.0000    690.7759      3.7128
  2110.0000      0.0000    117.0180      0.0000    695.2758      3.2773
  2110.2500      0.0000    116.6790      0.0000    690.2881      2.9277
  2110.5000      0.0000    114.1544      0.0000    678.7606      2.6153
  2110.7500      0.0000    109.6503      0.0000    667.7618      2.2980
  2111.0000      0.0000    104.1229      0.0000    661.1278      1.9982
  2111.2500      0.0000     98.8503      0.0000    658.0111      1.7468
  2111.5000      0.0000     94.6883      0.0000    656.3981      1.5474
  2111.7500      0.0000     91.6984      0.0000    655.2693      1.4144
  2112.0000      0.0000     89.4733      0.0000    654.3685      1.3547
  2112.2500      0.0000     87.7465      0.0000    653.4752      1.3291
  2112.5000      0.0000     86.7519      0.0000    651.8384      1.3069
  2112.7500      0.0000     87.0170      0.0000    648.2780      1.2998
  2113.0000      0.0000     88.6981      0.0000    643.2988      1.3100
  2113.2500      0.0000     91.0985      0.0000    640.6154      1.3210
  2113.5000      0.0000     92.9675      0.0000    642.9795      1.3345
  2113.7500      0.0000     93.3958      0.0000    647.9583      1.3605
  2114.0000      0.0000     92.6130      0.0000    651.2120      1.4080
  2114.2500      0.0000     91.9803      0.0000    650.4246      1.4830
  2114.5000      0.0000     93.0648      0.0000    645.5136      1.5599
  2114.7500      0.0000     96.5698      0.0000    639.1917      1.6066
  2115.0000      0.0000    102.0543      0.0000    636.2378      1.6393
  2115.2500      0.0000    108.3566      0.0000    639.3026      1.6856
  2115.5000      0.0000    113.9719      0.0000    646.0799      1.7382
  2115.7500      0.0000    117.1927      0.0000    651.6640      1.7837
  2116.0000      0.0000    116.6209      0.0000    653.1125      1.8082
  2116.2500      0.0000    112.3614      0.0000    651.4910      1.7987
  2116.5000      0.0000    106.8657      0.0000    650.5128      1.7729
  2116.7500      0.0000    103.7926      0.0000    652.5226      1.7397
  2117.0000      0.0000    105.2373      0.0000    655.9774      1.6820
  2117.2500      0.0000    109.9802      0.0000    658.2764      1.6211
  2117.5000      0.0000    114.4372      0.0000    658.9060      1.5937
  2117.7500      0.0000    115.1843      0.0000    658.8325      1.5746
  2118.0000      0.0000    110.9849      0.0000    658.8762      1.5110
  2118.2500      0.0000    103.1857      0.0000    659.1884      1.4029
