~Version Information
VERS.                      2.0: CWLS Log ASCII Standard - VERSION 2.0
WRAP.                       NO: One line per depth step
~Well Information Block
STRT.FT                17.7500: 
STOP.FT              1139.0000: 
STEP.FT                 0.2500: 
NULL.                -999.2500: 
COMP.          El Paso E&P Company L.P.: COMPANY
WELL.              VPR "ST" 38: WELL
FLD.           Purgatorie River: FIELD
LOC.           687' FNL & 2121' FEL: LOCATION
CNTY.               Las Animas: COUNTY
SRVC.          Superior Well Services: SERVICE COMPANY
DATE.          Sat Oct 13 22-40-21 2007: LOG DATE
UWI.           05-071-08357-00: UNIQUE WELL ID
STAT.                       CO: STATE
~Curve Information Block
DEPT.FT            0 000 00 00: Depth
CCL.                          : Casing Collar Locator
TT3.usec                      : CBL 3' Travel Time
AMP3.mV                       : CBL 3' Amplitude
GR.GAPI                       : Gamma Ray
~Parameter Information Block
~A  Depth       CCL         TT3         AMP3         GR     
# ...
  1022.7500      0.0000    476.8653      3.7221     62.6610
  1023.0000      0.0000    484.6461      3.7192     61.3025
  1023.2500      0.0000    493.2771      3.7167     58.3325
  1023.5000      0.0000    500.4741      3.7122     55.8602
  1023.7500      0.0000    504.4453      3.7009     52.2861
  1024.0000      0.0000    504.4669      3.6809     50.2536
  1024.2500      0.0000    500.6918      3.6531     47.6119
  1024.5000      0.0000    494.0418      3.6189     46.2108
  1024.7500      0.0000    486.2826      3.5795     45.3336
  1025.0000      0.0000    479.6962      3.5355     45.7674
  1025.2500      0.0000    476.4490      3.4878     47.4176
  1025.5000      0.0000    478.4765      3.4381     48.8330
  1025.7500      0.0000    487.3612      3.3893     51.5075
  1026.0000      0.0000    502.5783      3.3441     53.7238
  1026.2500      0.0000    519.0379      3.3033     57.1853
  1026.5000      0.0000    528.3720      3.2654     59.4525
  1026.7500      0.0000    525.3248      3.2281     63.9566
  1027.0000      0.0000    512.8472      3.1913     68.5473
  1027.2500      0.0000    499.8350      3.1565     77.0081
  1027.5000      0.0000    495.0943      3.1239     81.5564
  1027.7500      0.0000    504.3202      3.0889     83.1039
  1028.0000      0.0000    529.7107      3.0459     80.4881
  1028.2500      0.0000    568.1804      2.9936     74.3279
  1028.5000      0.0000    609.5109      2.9367     70.6830
  1028.7500      0.0000    639.4037      2.8831     66.7240
  1029.0000      0.0000    647.2209      2.8384     64.5055
  1029.2500      0.0000    632.1267      2.8045     60.8216
  1029.5000      0.0000    602.8381      2.7814     57.8849
  1029.7500      0.0000    571.6958      2.7686     52.9390
  1030.0000      0.0000    547.7274      2.7648     49.9013
  1030.2500      0.0000    533.4896      2.7682     47.4046
  1030.5000      0.0000    526.7704      2.7779     47.6970
  1030.7500      0.0000    524.1307      2.7938     50.2277
  1031.0000      0.0000    523.0942      2.8147     52.0612
  1031.2500      0.0000    522.4031      2.8362     53.4503
  1031.5000      0.0000    521.4420      2.8548     53.4269
  1031.7500      0.0000    519.6824      2.8697     52.7033
  1032.0000      0.0000    516.4790      2.8829     52.0586
  1032.2500      0.0000    511.4072      2.8980     50.9602
  1032.5000      0.0000    504.8882      2.9198     50.2457
  1032.7500      0.0000    498.2171      2.9530     49.7705
  1033.0000      0.0000    492.5233      2.9986     50.3694
  1033.2500      0.0000    487.8435      3.0522     53.3155
  1033.5000      0.0000    483.6884      3.1061     56.4398
  1033.7500      0.0000    480.3598      3.1524     61.0878
  1034.0000      0.0000    479.1858      3.1883     62.7713
  1034.2500      0.0000    481.4073      3.2162     61.7636
  1034.5000      0.0000    486.9492      3.2422     58.9763
  1034.7500      0.0000    494.1652      3.2695     53.3564
  1035.0000      0.0000    500.7751      3.2970     49.6986
  1035.2500      0.0000    505.2273      3.3241     45.4432
  1035.5000      0.0000    507.3232      3.3541     43.9005
  1035.7500      0.0000    507.7926      3.3927     44.5428
  1036.0000      0.0000    507.5288      3.4416     47.3412
  1036.2500      0.0000    507.1432      3.4976     54.3846
  1036.5000      0.0000    506.8834      3.5557     59.6454
  1036.7500      0.0000    506.7453      3.6137     65.6758
  1037.0000      0.0000    506.6065      3.6715     67.5793
  1037.2500      0.0000    506.2042      3.7278     67.9300
  1037.5000      0.0000    504.9072      3.7766     67.7288
  1037.7500      0.0000    501.5770      3.8098     68.4050
  1038.0000      0.0000    495.0417      3.8239     69.4458
  1038.2500      0.0000    485.2744      3.8229     70.5274
  1038.5000      0.0000    474.1390      3.8148     70.2496
  1038.7500      0.0000    464.3916      3.8070     68.3496
  1039.0000      0.0000    457.6146      3.8027     66.6250
  1039.2500      0.0000    453.4738      3.8001     64.2205
  1039.5000      0.0000    450.9377      3.7947     62.8753
  1039.7500      0.0000    449.5398      3.7825     61.0363
  1040.0000      0.0000    449.3904      3.7618     59.9836
  1040.2500      0.0000    450.6542      3.7310     59.4169
  1040.5000      0.0000    453.5262      3.6884     60.1835
  1040.7500      0.0000    458.8034      3.6366     62.8664
  1041.0000      0.0000    468.3880      3.5955     64.7973
  1041.2500      0.0000    483.9976      3.6082     65.8808
  1041.5000      0.0000    503.5944      3.7163     64.7064
  1041.7500      0.0000    519.5533      3.9041     60.5694
  1042.0000      0.0000    523.5406      4.0782     57.1441
  1042.2500      0.0000    514.8838      4.1336     52.5696
  1042.5000      0.0000    502.6163      4.0481     50.4180
  1042.7500      0.0000    498.2961      3.8993     48.5127
  1043.0000     -2.0000    507.1235      3.7985     47.6912
  1043.2500      2.0000    524.5925      3.8137     46.3751
  1043.5000      2.0000    540.3850      3.9304     45.3125
  1043.7500     -2.0000    546.9402      4.0679     43.7758
  1044.0000      0.0000    544.9697      4.1471     43.1572
  1044.2500      0.0000    539.2882      4.1529     43.3096
  1044.5000      0.0000    531.2350      4.1253     44.0461
  1044.7500      0.0000    519.2679      4.1038     45.4319
  1045.0000      0.0000    505.6593      4.0971     46.3503
  1045.2500      0.0000    498.1994      4.0997     48.4394
  1045.5000      0.0000    505.1826      4.1124     51.0554
  1045.7500      0.0000    529.9404      4.1395     57.3541
  1046.0000      0.0000    568.1288      4.1690     62.5114
  1046.2500      0.0000    608.9298      4.1633     69.3479
  1046.5000      0.0000    641.1865      4.0849     72.0219
  1046.7500      0.0000    660.2805      3.9403     72.6678
  1047.0000      0.0000    667.9009      3.7839     71.5778
  1047.2500      0.0000    664.9336      3.6691     69.3159
  1047.5000      0.0000    647.8681      3.6042     67.8134
  1047.7500      0.0000    614.5707      3.5631     65.1758
  1048.0000      0.0000    571.5327      3.5234     62.8309
  1048.2500      0.0000    532.1469      3.4841     58.6793
  1048.5000      0.0000    507.7344      3.4550     56.0515
  1048.7500      0.0000    501.1728      3.4408     53.2090
  1049.0000      0.0000    507.4501      3.4376     52.2649
  1049.2500      0.0000    518.0630      3.4392     52.2297
  1049.5000      0.0000    525.7599      3.4444     52.8428
  1049.7500      0.0000    527.6742      3.4563     53.5926
  1050.0000      0.0000    525.1284      3.4760     53.2240
  1050.2500      0.0000    520.7104      3.4988     51.0160
  1050.5000      0.0000    515.9109      3.5177     49.0033
  1050.7500      0.0000    511.7390      3.5303     46.3203
  1051.0000      0.0000    511.3545      3.5404     44.8781
  1051.2500      0.0000    521.3375      3.5531     43.0292
  1051.5000      0.0000    548.0698      3.5690     42.4142
  1051.7500      0.0000    590.2785      3.5861     44.0706
  1052.0000      0.0000    635.3106      3.6046     47.4889
  1052.2500      0.0000    665.9023      3.6268     55.0128
  1052.5000      0.0000    672.7260      3.6527     60.0743
  1052.7500      0.0000    659.5651      3.6788     65.6067
  1053.0000      0.0000    635.7186      3.7014     67.7185
  1053.2500      0.0000    605.5188      3.7189     68.8394
  1053.5000      0.0000    567.8713      3.7314     67.8832
  1053.7500      0.0000    524.4612      3.7397     63.1059
  1054.0000      0.0000    483.3713      3.7452     58.2985
  1054.2500      0.0000    453.0384      3.7497     51.6324
  1054.5000      0.0000    435.7578      3.7540     49.0591
  1054.7500      0.0000    428.2881      3.7572     48.2722
  1055.0000      0.0000    426.5284      3.7578     49.0390
  1055.2500      0.0000    428.5356      3.7565     51.4756
  1055.5000      0.0000    434.5645      3.7559     54.4291
  1055.7500      0.0000    445.6793      3.7579     61.4914
  1056.0000      0.0000    462.0714      3.7611     67.0146
