~Version Information
VERS.                      2.0: CWLS Log ASCII Standard - VERSION 2.0
WRAP.                       NO: One line per depth step
~Well Information Block
STRT.FT                10.0000: 
STOP.FT               859.0000: 
STEP.FT                 0.2500: 
NULL.                -999.2500: 
COMP.          Pioneer Natural Resources: COMPANY
WELL.          Prospector 12-19: WELL
FLD.           Purgatoire River: FIELD
LOC.           2262' FNL & 634' FWL: LOCATION
PROV.                 Colorado: PROVINCE
CNTY.               Las Animas: COUNTRY
SRVC.                Patterson: SERVICE COMPANY
DATE.          Tue May 10 11:52:48 2005: LOG DATE
UWI.           05 071 08191 00: UNIQUE WELL ID
~Curve Information Block
DEPT.FT            0 000 00 00: Depth
CCL.                          : Casing Collar Locator
TT3.usec                      : CBL 3' Travel Time
AMP3.mV                       : CBL 3' Amplitude
GR.GAPI                       : Gamma Ray
~Parameter Information Block
~A  Depth       CCL         TT3         AMP3         GR     
# ...
   747.0000      0.0000    920.9083      6.3382     58.3159
   747.2500      0.0000    924.9808      6.1558     60.3090
   747.5000      0.0000    927.4019      6.0105     62.7361
   747.7500      0.0000    929.2253      5.9203     64.6585
   748.0000      0.0000    929.6931      5.8816     64.9539
   748.2500      0.0000    925.2673      5.8668     63.1140
   748.5000      0.0000    913.1646      5.8513     59.7308
   748.7500      0.0000    896.2900      5.8335     56.0943
   749.0000      0.0000    883.6501      5.8200     53.1529
   749.2500      0.0000    883.7844      5.8114     50.9559
   749.5000      0.0000    897.1719      5.8114     49.1154
   749.7500      0.0000    916.1927      5.8269     47.5620
   750.0000      0.0000    932.3148      5.8538     46.7612
   750.2500      0.0000    941.9470      5.8803     47.3296
   750.5000      0.0000    946.1887      5.8996     49.4398
   750.7500      0.0000    947.5526      5.9085     52.3737
   751.0000      0.0000    947.8337      5.9056     54.6396
   751.2500      0.0000    947.8231      5.8955     54.8867
   751.5000      0.0000    947.7028      5.8886     53.0585
   751.7500      0.0000    947.2327      5.8946     50.5244
   752.0000      0.0000    945.4611      5.9148     48.8378
   752.2500      0.0000    940.0939      5.9405     48.4514
   752.5000      0.0000    927.4483      5.9642     48.7657
   752.7500      0.0000    904.3911      5.9852     49.2784
   753.0000      0.0000    871.9407      5.9991     50.3904
   753.2500      0.0000    836.8061      5.9959     53.0475
   753.5000      0.0000    807.6772      5.9744     57.7607
   753.7500      0.0000    789.3085      5.9418     64.0649
   754.0000      0.0000    780.5856      5.8979     70.9345
   754.2500      0.0000    777.6597      5.8358     77.5226
   754.5000      0.0000    777.7240      5.7613     83.2390
   754.7500      0.0000    780.2354      5.6978     87.3916
   755.0000      0.0000    785.6761      5.6724     89.3307
   755.2500      0.0000    793.1071      5.6920     88.9094
   755.5000      0.0000    798.6957      5.7323     86.3965
   755.7500      0.0000    797.9005      5.7553     81.9376
   756.0000      0.0000    790.3252      5.7364     75.5396
   756.2500      0.0000    781.2849      5.6770     67.7041
   756.5000      0.0000    777.5714      5.6036     59.7911
   756.7500      0.0000    782.3674      5.5538     53.5176
   757.0000      0.0000    793.8834      5.5415     50.0350
   757.2500      0.0000    806.7468      5.5340     49.4993
   757.5000      0.0000    814.7103      5.4851     51.3387
   757.7500      0.0000    814.4853      5.3959     54.6242
   758.0000      0.0000    808.0698      5.3240     58.1183
   758.2500      0.0000    800.9164      5.3243     60.4530
   758.5000      0.0000    798.1768      5.3870     60.8955
   758.7500      0.0000    803.1556      5.4443     59.9265
   759.0000      0.0000    817.8060      5.4369     58.6488
   759.2500      0.0000    842.1544      5.3713     57.7787
   759.5000      0.0000    872.4927      5.3043     57.5885
   759.7500      0.0000    901.8978      5.2723     58.4255
   760.0000      0.0000    924.1886      5.2541     60.6228
   760.2500      0.0000    937.3766      5.2151     63.9113
   760.5000      0.0000    943.4102      5.1641     67.2850
   760.7500      0.0000    945.5726      5.1355     69.5277
   761.0000      0.0000    946.5477      5.1287     69.9443
   761.2500      0.0000    947.7903      5.1032     69.0245
   761.5000      0.0000    949.1463      5.0364     68.5568
   761.7500      0.0000    948.4453      4.9527     70.5864
   762.0000      0.0000    942.2880      4.8810     75.6599
   762.2500      0.0000    928.9819      4.8107     82.0173
   762.5000      0.0000    911.6935      4.7170     86.8189
   762.7500      0.0000    897.6602      4.6103     88.3124
   763.0000      0.0000    892.1802      4.5277     86.6986
   763.2500      0.0000    892.8464      4.4785     83.0702
   763.5000      0.0000    891.1302      4.4347     78.1274
   763.7500      0.0000    880.4386      4.3818     72.3546
   764.0000      0.0000    861.9105      4.3459     66.9744
   764.2500      0.0000    842.4120      4.3474     63.8654
   764.5000      0.0000    828.6464      4.3514     64.2100
   764.7500      0.0000    823.7148      4.2998     67.4111
   765.0000      0.0000    826.7977      4.1905     71.5197
   765.2500      0.0000    833.5403      4.0932     74.7499
   765.5000      0.0000    837.8858      4.0710     76.6139
   765.7500      0.0000    836.4032      4.1055     77.8575
   766.0000      0.0000    831.6459      4.1244     79.6246
   766.2500      0.0000    830.3730      4.0926     82.5400
   766.5000      0.0000    837.9700      4.0511     86.0448
   766.7500      0.0000    854.1536      4.0561     88.4691
   767.0000      0.0000    873.3488      4.1036     88.1349
   767.2500      0.0000    888.5259      4.1364     84.6120
   767.5000      0.0000    894.3798      4.1202     78.9666
   767.7500      0.0000    888.3303      4.0873     73.1591
   768.0000      0.0000    871.3176      4.0930     69.2895
   768.2500      0.0000    848.5563      4.1427     68.6995
   768.5000      0.0000    828.4088      4.1845     71.0349
   768.7500      0.0000    819.4112      4.1752     74.3061
   769.0000      0.0000    826.7068      4.1326     76.2915
   769.2500      0.0000    848.3896      4.1112     75.9190
   769.5000      0.0000    874.2802      4.1337     73.4438
   769.7500      0.0000    891.3978      4.1647     69.8214
   770.0000      0.0000    894.3708      4.1554     66.1420
   770.2500      0.0000    890.1154      4.1063     63.3841
   770.5000      0.0000    889.5462      4.0735     62.1945
   770.7500      0.0000    894.7932      4.1086     62.6101
   771.0000      0.0000    897.3183      4.1976     64.1650
   771.2500      0.0000    888.5783      4.2682     66.4099
   771.5000      0.0000    869.3906      4.2564     69.0947
   771.7500      0.0000    847.9961      4.1652     71.8847
   772.0000      0.0000    831.8237      4.0566     74.2593
   772.2500      0.0000    822.9129      3.9893     75.7019
   772.5000      0.0000    819.4286      3.9707     75.7383
   772.7500      0.0000    818.9945      3.9626     73.9979
   773.0000      0.0000    820.3104      3.9164     70.6424
   773.2500      0.0000    822.8577      3.8009     66.6607
   773.5000      0.0000    826.1453      3.6259     63.4371
   773.7500      0.0000    829.6898      3.4527     61.8969
   774.0000      0.0000    833.5367      3.3613     62.0070
   774.2500      0.0000    838.0319      3.3849     63.1141
   774.5000      0.0000    842.6050      3.4718     64.7373
   774.7500      0.0000    845.2505      3.5198     66.8445
   775.0000      0.0000    843.9075      3.4534     69.3210
   775.2500      0.0000    838.5467      3.2836     71.6038
   775.5000      0.0000    831.7087      3.1013     73.1287
   775.7500      0.0000    826.6613      3.0100     73.8426
   776.0000      0.0000    824.8790      3.0495     74.0230
   776.2500      0.0000    825.3545      3.1738     73.8649
   776.5000      0.0000    825.8862      3.2916     73.4862
   776.7500      0.0000    824.4368      3.3205     73.1086
   777.0000      0.0000    819.5413      3.2219     72.9515
   777.2500      0.0000    810.2426      3.0181     73.0258
   777.5000      0.0000    796.3964      2.7879     73.1730
   777.7500      0.0000    779.4908      2.6272     73.1552
   778.0000      0.0000    762.4976      2.5901     72.5687
   778.2500      0.0000    747.8065      2.6584     70.9851
   778.5000      0.0000    735.8887      2.7576     68.5180
   778.7500      0.0000    727.5247      2.8008     66.0285
   779.0000      0.0000    726.2378      2.7321     64.4782
   779.2500      0.0000    735.8314      2.5566     64.2081
   779.5000      0.0000    755.1047      2.3395     64.7823
   779.7500      0.0000    777.1703      2.1749     65.3065
   780.0000      0.0000    795.5163      2.1372     65.0977
   780.2500      0.0000    810.2864      2.2446     64.4012
