~Version Information
VERS.                      2.0: CWLS Log ASCII Standard - VERSION 2.0
WRAP.                       NO: One line per depth step
~Well Information Block
STRT.FT               550.0000: 
STOP.FT              2359.0000: 
STEP.FT                 0.1000: 
NULL.                -999.2500: 
COMP.          Pioneer Natural Resources: COMPANY
WELL.              Whinny 42-2: WELL
FLD.           Purgatoire River: FIELD
LOC.           1836' FNL & 466' FEL: LOCATION
PROV.                 Colorado: PROVINCE
CNTY.               Las Animas: COUNTRY
SRVC.                Patterson: SERVICE COMPANY
DATE.          Mon Aug 22 07:28:42 2005: LOG DATE
UWI.           05 071 08406 00: UNIQUE WELL ID
~Curve Information Block
DEPT.FT            0 000 00 00: Depth
DCAL.in                       : CDL Caliper
RHOB.g/cc                     : CDL Bulk Density
RHOC.g/cc                     : CDL Density Correction
DPOR.pu                       : CDL Density Porosity
GR.GAPI                       : Gamma Ray
NPOR.pu                       : Neutron Porosity
~Parameter Information Block
~A  Depth       DCAL        RHOB        RHOC        DPOR         GR         NPOR    
# ...
  1510.0000      7.9579      2.4754      0.0653     10.5845    141.3448     26.4085
  1510.1000      7.9579      2.4790      0.0865     10.3609    139.1649     27.6869
  1510.2000      7.9579      2.4794      0.1354     10.3392    134.8291     28.1689
  1510.3000      7.9493      2.4694      0.0866     10.9432    128.9642     28.3561
  1510.4000      7.9493      2.4668      0.0796     11.1027    131.3382     28.8979
  1510.5000      7.9549      2.4729      0.1023     10.7306    140.9131     29.4788
  1510.6000      7.9549      2.4621      0.1089     11.3901    147.0050     29.7233
  1510.7000      7.9549      2.4326      0.0486     13.1761    146.0566     29.7240
  1510.8000      8.0231      2.4097      0.0408     14.5653    144.8508     29.6675
  1510.9000      8.0231      2.3970      0.0577     15.3327    148.4257     29.4058
  1511.0000      8.0519      2.3786      0.0909     16.4468    155.8999     28.7622
  1511.1000      8.0519      2.3465      0.0649     18.3956    165.8402     28.2778
  1511.2000      8.0519      2.3120      0.0424     20.4872    176.1147     28.1771
  1511.3000      8.1210      2.2974      0.0405     21.3689    181.2641     27.7795
  1511.4000      8.1210      2.3092      0.1020     20.6521    179.6401     27.1222
  1511.5000      8.1657      2.3308      0.1173     19.3450    172.8000     26.9119
  1511.6000      8.1657      2.3562      0.1273     17.8040    164.1211     27.3199
  1511.7000      8.1657      2.4050      0.1430     14.8505    161.0182     28.0568
  1511.8000      8.3554      2.4846      0.2386     10.0223    164.4931     28.7920
  1511.9000      8.3554      2.5683      0.3298      4.9504    171.3106     29.1620
  1512.0000      8.5791      2.6289      0.3102      1.2762    178.5158     28.8055
  1512.1000      8.5791      2.6603      0.3879     -0.6272    179.5190     28.4693
  1512.2000      8.5791      2.6602      0.3658     -0.6161    177.2177     29.0529
  1512.3000      8.7625      2.6328      0.2910      1.0400    181.7731     29.8104
  1512.4000      8.7625      2.5904      0.2023      3.6138    189.6197     30.0920
  1512.5000      8.6387      2.5391      0.1443      6.7188    192.0156     30.3924
  1512.6000      8.6387      2.4874      0.0715      9.8563    189.7598     30.8189
  1512.7000      8.6387      2.4539      0.0224     11.8849    184.1933     30.9768
  1512.8000      8.3932      2.4544      0.0301     11.8534    175.4981     30.7050
  1512.9000      8.3932      2.4813      0.0699     10.2263    167.4689     30.4372
  1513.0000      8.1937      2.5145      0.0768      8.2117    162.2956     30.7760
  1513.1000      8.1937      2.5409      0.1383      6.6116    161.5058     31.0160
  1513.2000      8.1937      2.5512      0.1592      5.9907    166.4156     30.0904
  1513.3000      8.1789      2.5455      0.1125      6.3336    170.3122     28.4907
  1513.4000      8.1789      2.5369      0.0544      6.8566    165.7898     27.2445
  1513.5000      8.1552      2.5408     -0.0007      6.6158    157.4980     26.5885
  1513.6000      8.1552      2.5673      0.0304      5.0117    150.6814     26.4805
  1513.7000      8.1552      2.5942      0.1268      3.3812    145.4743     26.7972
  1513.8000      8.1201      2.5894      0.0635      3.6740    140.2124     27.3895
  1513.9000      8.1201      2.5675      0.0271      5.0017    137.7411     27.7915
  1514.0000      8.0553      2.5578      0.0370      5.5878    143.7516     27.1740
  1514.1000      8.0553      2.5592      0.0470      5.5003    152.2859     25.4305
  1514.2000      8.0553      2.5630      0.0564      5.2735    154.7822     23.7186
  1514.3000      8.0407      2.5662      0.0869      5.0818    156.4260     23.2026
  1514.4000      8.0407      2.5615      0.0864      5.3666    162.3139     23.9613
  1514.5000      8.0425      2.5466      0.0863      6.2691    163.2817     25.4126
  1514.6000      8.0425      2.5289      0.0773      7.3398    157.4955     26.8596
  1514.7000      8.0425      2.5144      0.0402      8.2160    158.9098     27.7858
  1514.8000      8.0272      2.5042      0.0357      8.8337    170.7257     28.0992
  1514.9000      8.0272      2.5027      0.0143      8.9298    178.6406     27.6446
  1515.0000      8.0169      2.5157      0.0231      8.1389    176.7601     26.5605
  1515.1000      8.0169      2.5297      0.0825      7.2938    175.9218     25.8855
  1515.2000      8.0169      2.5210      0.0114      7.8187    180.6912     26.3053
  1515.3000      8.0229      2.4937      0.0584      9.4733    185.4868     27.1937
  1515.4000      8.0229      2.4774     -0.0452     10.4609    185.0400     27.9330
  1515.5000      7.9979      2.4850      0.0628      9.9983    176.8243     28.5753
  1515.6000      7.9979      2.4896      0.0800      9.7212    163.7296     28.8337
  1515.7000      7.9979      2.4767      0.0208     10.5059    155.3566     28.3257
  1515.8000      8.0197      2.4624      0.0057     11.3697    163.1821     27.4161
  1515.9000      8.0197      2.4571      0.0308     11.6936    181.9483     27.0719
  1516.0000      8.0768      2.4631     -0.0052     11.3285    192.8229     27.5763
  1516.1000      8.0768      2.4843      0.0550     10.0443    188.0461     28.1304
  1516.2000      8.0768      2.5154      0.1170      8.1551    175.6202     28.2764
  1516.3000      8.1071      2.5419      0.1406      6.5520    167.5654     28.6462
  1516.4000      8.1071      2.5467      0.1691      6.2627    169.5389     29.4545
  1516.5000      8.1217      2.5292      0.1556      7.3198    177.6028     29.8006
  1516.6000      8.1217      2.5158      0.0824      8.1319    180.7329     29.2987
  1516.7000      8.1217      2.5212      0.1232      7.8061    174.6084     28.8609
  1516.8000      8.1083      2.5223      0.1467      7.7390    167.1569     29.1655
  1516.9000      8.1083      2.5050      0.0855      8.7888    161.2032     29.6831
  1517.0000      8.0511      2.4937      0.0321      9.4723    154.4124     29.4988
  1517.1000      8.0511      2.5058      0.0506      8.7368    144.2965     28.5403
  1517.2000      8.0511      2.5224      0.0605      7.7327    131.9675     27.5674
  1517.3000      8.0421      2.5273      0.0395      7.4351    124.2879     27.0922
  1517.4000      8.0421      2.5303      0.0323      7.2527    120.2292     27.2492
  1517.5000      8.0529      2.5450      0.0334      6.3646    115.4385     27.5096
  1517.6000      8.0529      2.5761      0.0210      4.4764    113.2543     27.0152
  1517.7000      8.0529      2.6136      0.0839      2.2073    114.6621     26.1666
  1517.8000      8.0831      2.6368      0.0635      0.8023    114.2538     25.7414
  1517.9000      8.0831      2.6353      0.0782      0.8891    109.2776     25.5070
  1518.0000      8.0206      2.6113      0.0664      2.3467    105.3934     24.8130
  1518.1000      8.0206      2.5810      0.0311      4.1817    107.7569     23.7157
  1518.2000      8.0206      2.5626      0.0466      5.2988    115.6837     23.1263
  1518.3000      7.9591      2.5557      0.0224      5.7159    123.2877     23.7311
  1518.4000      7.9591      2.5557      0.0046      5.7161    125.4068     24.4570
  1518.5000      7.9400      2.5637      0.0154      5.2312    126.6867     24.1603
  1518.6000      7.9400      2.5728      0.0435      4.6802    134.1725     23.9792
  1518.7000      7.9400      2.5753     -0.0024      4.5260    148.6173     24.7563
  1518.8000      7.9461      2.5714      0.0291      4.7643    163.5512     25.6651
  1518.9000      7.9461      2.5556      0.0301      5.7208    170.9551     26.0757
  1519.0000      7.9488      2.5377      0.0093      6.8075    170.3176     26.1023
  1519.1000      7.9488      2.5420      0.0548      6.5477    166.9663     26.1539
  1519.2000      7.9488      2.5686      0.0808      4.9307    165.8188     26.4881
  1519.3000      7.9721      2.5993      0.1027      3.0756    167.0579     26.9970
  1519.4000      7.9721      2.6204      0.0717      1.7910    168.4379     27.3654
  1519.5000      8.0077      2.6222      0.0887      1.6854    166.8618     27.2158
