~Version Information
VERS.                      2.0: CWLS Log ASCII Standard - VERSION 2.0
WRAP.                       NO: One line per depth step
~Well Information Block
STRT.FT               260.0000: 
STOP.FT              1200.5000: 
STEP.FT                 0.2500: 
NULL.                -999.2500: 
COMP.          Evergreen Operating Corporation: COMPANY
WELL.             Justin 32-10: WELL
FLD.           Purgatorie River: FIELD
LOC.           2994' FNL & 1449' FEL: LOCATION
PROV.                 Colorado: PROVINCE
CNTY.               Las Animas: COUNTRY
SRVC.                         : SERVICE COMPANY
DATE.          Sun Aug 29 20:47:20 2004: LOG DATE
UWI.           05 071 08053 00: UNIQUE WELL ID
~Curve Information Block
DEPT.FT            0 000 00 00: Depth
LTEN.lb                       : Surface Line Tension
SN.Ohm-m                      : IEL Short Normal
SP.mV                         : IEL Spontaneous Potential
DIR.Ohm-m                     : IEL Induction Resistivity
GR.GAPI                       : Gamma Ray
~Parameter Information Block
~A  Depth       LTEN         SN          SP         DIR          GR     
# ...
   316.0000    576.5928   2000.0000   2000.0000      8.6114    134.4871
   316.2500    577.7230   2000.0000   2000.0000      8.7582    135.9876
   316.5000    576.3655   2000.0000   2000.0000      8.9439    138.0314
   316.7500    573.9277   2000.0000   2000.0000      9.1669    138.7150
   317.0000    572.2164   2000.0000   2000.0000      9.4157    138.4294
   317.2500    571.7086   2000.0000   2000.0000      9.6709    137.5240
   317.5000    571.7817   2000.0000   2000.0000      9.9170    135.2744
   317.7500    571.8956   2000.0000   2000.0000     10.1527    133.0849
   318.0000    571.8482   2000.0000   2000.0000     10.3920    128.9667
   318.2500    571.3167   2000.0000   2000.0000     10.6543    126.3414
   318.5000    569.9755   2000.0000   2000.0000     10.9501    124.1214
   318.7500    568.1215   2000.0000   2000.0000     11.2705    124.2430
   319.0000    566.6714   2000.0000   2000.0000     11.5840    126.3240
   319.2500    566.3415   2000.0000   2000.0000     11.8490    128.1510
   319.5000    567.0151   2000.0000   2000.0000     12.0378    130.0157
   319.7500    567.9716   2000.0000   2000.0000     12.1570    130.1390
   320.0000    568.5205   2000.0000   2000.0000     12.2446    128.7085
   320.2500    568.3139   2000.0000   2000.0000     12.3455    127.1374
   320.5000    567.3379   2000.0000   2000.0000     12.4832    124.8589
   320.7500    565.9410   2000.0000   2000.0000     12.6513    123.9906
   321.0000    564.9272   2000.0000   2000.0000     12.8257    124.5477
   321.2500    565.3788   2000.0000   2000.0000     12.9873    126.3807
   321.5000    567.9248   2000.0000   2000.0000     13.1376    131.0744
   321.7500    571.8068   2000.0000   2000.0000     13.2968    135.1809
   322.0000    574.9733   2000.0000   2000.0000     13.4885    142.0669
   322.2500    575.6868   2000.0000   2000.0000     13.7210    146.3435
   322.5000    574.0397   2000.0000   2000.0000     13.9729    150.2558
   322.7500    571.6340   2000.0000   2000.0000     14.1897    150.2194
   323.0000    570.0504   2000.0000   2000.0000     14.3048    146.1465
   323.2500    569.9871   2000.0000   2000.0000     14.2823    141.6535
   323.5000    571.5429   2000.0000   2000.0000     14.1490    134.1882
   323.7500    574.4877   2000.0000   2000.0000     13.9837    129.5843
   324.0000    577.9272   2000.0000   2000.0000     13.8758    124.3699
   324.2500    580.2747   2000.0000   2000.0000     13.8874    122.6402
   324.5000    580.2751   2000.0000   2000.0000     14.0353    123.1014
   324.7500    578.1193   2000.0000   2000.0000     14.2900    125.0112
   325.0000    575.2462   2000.0000   2000.0000     14.5859    128.8339
   325.2500    572.9798   2000.0000   2000.0000     14.8426    131.3932
   325.5000    571.5046   2000.0000   2000.0000     14.9929    134.9036
   325.7500    570.1107   2000.0000   2000.0000     15.0069    136.8919
   326.0000    568.2701   2000.0000   2000.0000     14.9048    138.7752
   326.2500    566.4136   2000.0000   2000.0000     14.7540    139.0162
   326.5000    565.7252   2000.0000   2000.0000     14.6458    137.9930
   326.7500    567.1790   2000.0000   2000.0000     14.6568    136.7589
   327.0000    570.6477   2000.0000   2000.0000     14.8130    134.8972
   327.2500    574.7999   2000.0000   2000.0000     15.0801    134.1547
   327.5000    577.9238   2000.0000   2000.0000     15.3887    134.3923
   327.7500    579.0831   2000.0000   2000.0000     15.6826    135.4272
   328.0000    578.7065   2000.0000   2000.0000     15.9538    137.7370
   328.2500    578.0746   2000.0000   2000.0000     16.2316    139.4491
   328.5000    578.1412   2000.0000   2000.0000     16.5398    141.9203
   328.7500    578.7928   2000.0000   2000.0000     16.8660    143.2580
   329.0000    578.9952   2000.0000   2000.0000     17.1711    144.0252
   329.2500    577.5121   2000.0000   2000.0000     17.4303    143.2753
   329.5000    573.9484   2000.0000   2000.0000     17.6654    140.5325
   329.7500    569.5128   2000.0000   2000.0000     17.9281    138.6258
   330.0000    566.4616   2000.0000   2000.0000     18.2453    137.6121
   330.2500    566.3828   2000.0000   2000.0000     18.5703    138.4267
   330.5000    569.1086   2000.0000   2000.0000     18.7813    140.4175
   330.7500    573.2335   2000.0000   2000.0000     18.7382    141.1176
   331.0000    577.2490   2000.0000   2000.0000     18.3672    140.4252
   331.2500    580.1221   2000.0000   2000.0000     17.7067    139.1300
   331.5000    581.4240   2000.0000   2000.0000     16.8781    137.0106
   331.7500    581.4680   2000.0000   2000.0000     16.0191    135.8544
   332.0000    581.2713   2000.0000   2000.0000     15.2371    134.1855
   332.2500    582.0078   2000.0000   2000.0000     14.5973    132.5880
   332.5000    584.2385   2000.0000   2000.0000     14.1293    129.0324
   332.7500    587.5513   2000.0000   2000.0000     13.8352    126.2521
   333.0000    590.8491   2000.0000   2000.0000     13.6947    122.7236
   333.2500    593.1312   2000.0000   2000.0000     13.6732    121.4517
   333.5000    594.2664   2000.0000   2000.0000     13.7319    121.8477
   333.7500    594.8815   2000.0000   2000.0000     13.8341    123.7770
   334.0000    595.2569   2000.0000   2000.0000     13.9369    128.5340
   334.2500    594.6484   2000.0000   2000.0000     13.9767    131.8922
   334.5000    592.1349   2000.0000   2000.0000     13.8741    135.0579
   334.7500    588.0999   2000.0000   2000.0000     13.5738    135.3742
   335.0000    584.3798   2000.0000   2000.0000     13.0902    134.0418
   335.2500    582.3627   2000.0000   2000.0000     12.5105    132.7520
   335.5000    581.1422   2000.0000   2000.0000     11.9482    130.3609
   335.7500    578.5004   2000.0000   2000.0000     11.4926    127.9417
   336.0000    574.0064   2000.0000   2000.0000     11.1889    122.9588
   336.2500    570.2440   2000.0000   2000.0000     11.0413    119.6276
   336.5000    570.2549   2000.0000   2000.0000     11.0261    116.6371
   336.7500    574.2395   2000.0000   2000.0000     11.1030    116.5021
   337.0000    579.4125   2000.0000   2000.0000     11.2246    118.3998
   337.2500    582.7878   2000.0000   2000.0000     11.3443    120.1835
   337.5000    583.5082   2000.0000   2000.0000     11.4269    122.3184
   337.7500    582.7314   2000.0000   2000.0000     11.4604    123.0971
   338.0000    582.0129   2000.0000   2000.0000     11.4581    123.7102
   338.2500    582.1118   2000.0000   2000.0000     11.4453    124.1424
   338.5000    582.9812   2000.0000   2000.0000     11.4373    124.7547
   338.7500    584.2109   2000.0000   2000.0000     11.4305    124.4516
   339.0000    585.1541   2000.0000   2000.0000     11.4146    121.5099
   339.2500    585.1606   2000.0000   2000.0000     11.3938    117.7613
   339.5000    584.1927   2000.0000   2000.0000     11.3975    111.0787
   339.7500    582.9481   2000.0000   2000.0000     11.4715    107.3485
   340.0000    582.2006   2000.0000   2000.0000     11.6607    104.3012
   340.2500    582.3838   2000.0000   2000.0000     11.9942    103.8308
   340.5000    583.8613   2000.0000   2000.0000     12.4739    104.3544
   340.7500    586.8717   2000.0000   2000.0000     13.0685    105.0515
   341.0000    590.7952   2000.0000   2000.0000     13.7201    106.5675
   341.2500    593.9681   2000.0000   2000.0000     14.3731    108.0885
   341.5000    594.7393   2000.0000   2000.0000     15.0065    111.5000
   341.7500    592.7894   2000.0000   2000.0000     15.6344    114.6827
   342.0000    589.4786   2000.0000   2000.0000     16.2669    120.6356
   342.2500    586.9418   2000.0000   2000.0000     16.8672    124.7744
   342.5000    586.5318   2000.0000   2000.0000     17.3521    129.6065
   342.7500    587.8366   2000.0000   2000.0000     17.6471    131.1518
   343.0000    589.2859   2000.0000   2000.0000     17.7598    130.6348
   343.2500    589.8152   2000.0000   2000.0000     17.8053    128.7486
   343.5000    589.7388   2000.0000   2000.0000     17.9561    124.6822
   343.7500    590.0316   2000.0000   2000.0000     18.3683    121.6918
