~Version Information
VERS.                      2.0: CWLS Log ASCII Standard - VERSION 2.0
WRAP.                       NO: One line per depth step
~Well Information Block
STRT.FT               583.0000: 
STOP.FT              1700.0000: 
STEP.FT                 0.1000: 
NULL.                -999.2500: 
COMP.          Pioneer Natural Resources: COMPANY
WELL.          Scott Canyon 11-18 Tr: WELL
FLD.           Purgatoire River: FIELD
LOC.           411' FNL & 580' FWL: LOCATION
PROV.                 Colorado: PROVINCE
CNTY.               Las Animas: COUNTRY
SRVC.                Patterson: SERVICE COMPANY
DATE.          Thu Feb 17 15:41:32 2005: LOG DATE
UWI.           05 071 08286 00: UNIQUE WELL ID
~Curve Information Block
DEPT.FT            0 000 00 00: Depth
DCAL.in                       : CDL Caliper
RHOB.g/cc                     : CDL Bulk Density
RHOC.g/cc                     : CDL Density Correction
DPOR.pu                       : CDL Density Porosity
GR.GAPI                       : Gamma Ray
NPOR.pu                       : Neutron Porosity
~Parameter Information Block
~A  Depth       DCAL        RHOB        RHOC        DPOR         GR         NPOR    
# ...
  1687.0000      7.7461      2.5222      0.0539      7.7476   -999.2500   -999.2500
  1687.1000      7.7461      2.5234      0.0356      7.6708   -999.2500   -999.2500
  1687.2000      7.7461      2.5306      0.0447      7.2342   -999.2500   -999.2500
  1687.3000      7.7657      2.5469      0.0838      6.2476   -999.2500   -999.2500
  1687.4000      7.7657      2.5635      0.0532      5.2441   -999.2500   -999.2500
  1687.5000      7.7669      2.5776      0.0481      4.3897   -999.2500   -999.2500
  1687.6000      7.7669      2.5738      0.1297      4.6172   -999.2500   -999.2500
  1687.7000      7.7669      2.5419      0.0862      6.5522   -999.2500   -999.2500
  1687.8000      7.7558      2.5116      0.0250      8.3907   -999.2500   -999.2500
  1687.9000      7.7558      2.5091      0.0517      8.5424   -999.2500   -999.2500
  1688.0000      7.7565      2.5208      0.0316      7.8324   -999.2500   -999.2500
  1688.1000      7.7565      2.5271      0.0635      7.4482   -999.2500   -999.2500
  1688.2000      7.7565      2.5262      0.0457      7.5047   -999.2500   -999.2500
  1688.3000      7.7686      2.5252      0.0611      7.5639   -999.2500   -999.2500
  1688.4000      7.7686      2.5230      0.0414      7.6948   -999.2500   -999.2500
  1688.5000      7.7617      2.5127      0.0290      8.3231   -999.2500   -999.2500
  1688.6000      7.7617      2.5028     -0.0094      8.9203   -999.2500   -999.2500
  1688.7000      7.7617      2.5080     -0.0201      8.6072   -999.2500   -999.2500
  1688.8000      7.7727      2.5228      0.0192      7.7110   -999.2500   -999.2500
  1688.9000      7.7727      2.5344      0.0380      7.0062   -999.2500   -999.2500
  1689.0000      7.7709      2.5436      0.0153      6.4484   -999.2500   -999.2500
  1689.1000      7.7709      2.5562      0.0594      5.6843   -999.2500   -999.2500
  1689.2000      7.7709      2.5756      0.0622      4.5096   -999.2500   -999.2500
  1689.3000      7.7476      2.5973      0.1120      3.1964   -999.2500   -999.2500
  1689.4000      7.7476      2.5993      0.1195      3.0709   -999.2500   -999.2500
  1689.5000      7.7456      2.5734      0.0674      4.6443   -999.2500   -999.2500
  1689.6000      7.7456      2.5483      0.0513      6.1611   -999.2500   -999.2500
  1689.7000      7.7456      2.5502      0.0518      6.0515   -999.2500   -999.2500
  1689.8000      7.7547      2.5668      0.0943      5.0404   -999.2500   -999.2500
  1689.9000      7.7547      2.5793      0.0668      4.2837   -999.2500   -999.2500
  1690.0000      7.7598      2.5937      0.0526      3.4129   -999.2500   -999.2500
  1690.1000      7.7598      2.6149      0.1235      2.1277   -999.2500   -999.2500
  1690.2000      7.7598      2.6259      0.1035      1.4615   -999.2500   -999.2500
  1690.3000      7.7538      2.6138      0.0925      2.1949   -999.2500   -999.2500
  1690.4000      7.7538      2.5813      0.0828      4.1617   -999.2500   -999.2500
  1690.5000      7.7642      2.5378      0.0625      6.8030   -999.2500   -999.2500
  1690.6000      7.7642      2.4985     -0.0211      9.1840   -999.2500   -999.2500
  1690.7000      7.7642      2.4792     -0.0017     10.3494   -999.2500   -999.2500
  1690.8000      7.7730      2.4763      0.0241     10.5294   -999.2500   -999.2500
  1690.9000      7.7730      2.4815      0.0229     10.2099   -999.2500   -999.2500
  1691.0000      7.7697      2.5051      0.0248      8.7823   -999.2500   -999.2500
  1691.1000      7.7697      2.5459      0.0772      6.3081   -999.2500   -999.2500
  1691.2000      7.7697      2.5722      0.1208      4.7141   -999.2500   -999.2500
  1691.3000      7.7353      2.5630      0.0836      5.2755   -999.2500   -999.2500
  1691.4000      7.7353      2.5378      0.0463      6.8024   -999.2500   -999.2500
  1691.5000      7.7302      2.5307      0.0577      7.2312   -999.2500   -999.2500
  1691.6000      7.7302      2.5565      0.0560      5.6642   -999.2500   -999.2500
  1691.7000      7.7302      2.5957      0.1252      3.2899   -999.2500   -999.2500
  1691.8000      7.7358      2.6140      0.1454      2.1822   -999.2500   -999.2500
  1691.9000      7.7358      2.6042      0.0882      2.7734   -999.2500   -999.2500
  1692.0000      7.7650      2.5824      0.0913      4.0950   -999.2500   -999.2500
  1692.1000      7.7650      2.5596      0.0779      5.4806   -999.2500   -999.2500
  1692.2000      7.7650      2.5446      0.0345      6.3908   -999.2500   -999.2500
  1692.3000      7.7621      2.5428      0.0620      6.4992   -999.2500   -999.2500
  1692.4000      7.7621      2.5503      0.0187      6.0427   -999.2500   -999.2500
  1692.5000      7.7446      2.5566      0.0604      5.6585   -999.2500   -999.2500
  1692.6000      7.7446      2.5472      0.0643      6.2285   -999.2500   -999.2500
  1692.7000      7.7446      2.5303      0.0109      7.2523   -999.2500   -999.2500
  1692.8000      7.7337      2.5334      0.0247      7.0656   -999.2500   -999.2500
  1692.9000      7.7337      2.5610      0.0385      5.3943   -999.2500   -999.2500
  1693.0000      7.7101      2.5880      0.1179      3.7604   -999.2500   -999.2500
  1693.1000      7.7101      2.5923      0.1081      3.4993   -999.2500   -999.2500
  1693.2000      7.7101      2.5823      0.0593      4.1001   -999.2500   -999.2500
  1693.3000      7.7203      2.5813      0.0885      4.1648   -999.2500   -999.2500
  1693.4000      7.7203      2.5928      0.0829      3.4688   -999.2500   -999.2500
  1693.5000      7.7279      2.5976      0.1007      3.1733   -999.2500   -999.2500
  1693.6000      7.7279      2.5826      0.0387      4.0859   -999.2500   -999.2500
  1693.7000      7.7279      2.5616      0.0515      5.3550   -999.2500   -999.2500
  1693.8000      7.7322      2.5525      0.0567      5.9079   -999.2500   -999.2500
  1693.9000      7.7322      2.5542      0.0780      5.8041   -999.2500   -999.2500
  1694.0000      7.7323      2.5635      0.0437      5.2437   -999.2500   -999.2500
  1694.1000      7.7323      2.5767      0.1015      4.4447   -999.2500   -999.2500
  1694.2000      7.7323      2.5845      0.0881      3.9683   -999.2500   -999.2500
  1694.3000      7.7356      2.5853      0.0954      3.9211   -999.2500   -999.2500
  1694.4000      7.7356      2.5850      0.0698      3.9383   -999.2500   -999.2500
  1694.5000      7.7120      2.5891      0.0908      3.6884   -999.2500   -999.2500
  1694.6000      7.7120      2.5970      0.1078      3.2114   -999.2500   -999.2500
  1694.7000      7.7120      2.6033      0.0864      2.8311   -999.2500   -999.2500
  1694.8000      7.7223      2.5983      0.1082      3.1339   -999.2500   -999.2500
  1694.9000      7.7223      2.5737      0.0739      4.6243   -999.2500   -999.2500
  1695.0000      7.7172      2.5375      0.0553      6.8186   -999.2500   -999.2500
  1695.1000      7.7172      2.5123      0.0101      8.3442   -999.2500   -999.2500
  1695.2000      7.7172      2.5124      0.0324      8.3370   -999.2500   -999.2500
  1695.3000      7.7469      2.5291      0.0532      7.3249   -999.2500   -999.2500
  1695.4000      7.7469      2.5509      0.0529      6.0059   -999.2500   -999.2500
  1695.5000      7.7106      2.5670      0.1114      5.0317   -999.2500   -999.2500
  1695.6000      7.7106      2.5633      0.0740      5.2556   -999.2500   -999.2500
  1695.7000      7.7106      2.5509      0.0668      6.0080   -999.2500   -999.2500
  1695.8000      7.6884      2.5503      0.0837      6.0418   -999.2500   -999.2500
  1695.9000      7.6884      2.5555      0.1004      5.7282   -999.2500   -999.2500
  1696.0000      7.6455      2.5550      0.0626      5.7565   -999.2500   -999.2500
  1696.1000      7.6455      2.5520      0.0951      5.9419   -999.2500   -999.2500
  1696.2000      7.6455      2.5486      0.0788      6.1439   -999.2500   -999.2500
  1696.3000      7.6502      2.5385      0.0883      6.7568   -999.2500   -999.2500
  1696.4000      7.6502      2.5174      0.0657      8.0338   -999.2500   -999.2500
  1696.5000      7.6788      2.4955      0.0633      9.3661   -999.2500   -999.2500
