~Version Information
VERS.                      2.0: CWLS Log ASCII Standard - VERSION 2.0
WRAP.                       NO: One line per depth step
~Well Information Block
STRT.FT                15.0000: 
STOP.FT              2556.5000: 
STEP.FT                 0.2500: 
NULL.                -999.2500: 
COMP.          Pioneer Natural Resources: COMPANY
WELL.              Quack 22-24: WELL
FLD.           Purgatoire River: FIELD
LOC.           2492' FNL & 2459' FWL: LOCATION
PROV.                 Colorado: PROVINCE
CNTY.               Las Animas: COUNTRY
SRVC.                Patterson: SERVICE COMPANY
DATE.          Tue Jul 26 07:02:30 2005: LOG DATE
UWI.           05 071 08402 00: UNIQUE WELL ID
~Curve Information Block
DEPT.FT            0 000 00 00: Depth
GR.GAPI                       : Gamma Ray
CCL.                          : Casing Collar Locator
TT3.usec                      : CBL 3' Travel Time
AMP3.mV                       : CBL 3' Amplitude
~Parameter Information Block
~A  Depth        GR         CCL         TT3         AMP3    
# ...
  1857.5000    131.0062      0.0000    383.1339      7.3983
  1857.7500    131.0979      0.0000    375.8982      7.3335
  1858.0000    129.9737      0.0000    367.6892      7.2669
  1858.2500    127.4957      0.0000    360.2710      7.2167
  1858.5000    124.8307      0.0000    355.0052      7.1955
  1858.7500    123.4796      0.0000    352.1514      7.2065
  1859.0000    124.1741      0.0000    351.1231      7.2451
  1859.2500    126.3412      0.0000    351.0948      7.3057
  1859.5000    128.4736      0.0000    351.3792      7.3848
  1859.7500    129.2322      0.0000    351.5611      7.4811
  1860.0000    128.5754      0.0000    351.5230      7.5924
  1860.2500    127.8157      0.0000    351.3998      7.7123
  1860.5000    128.1525      0.0000    351.5382      7.8271
  1860.7500    129.0312      0.0000    352.5587      7.9194
  1861.0000    128.5390      0.0000    355.3581      7.9756
  1861.2500    125.8921      0.0000    360.6865      7.9893
  1861.5000    123.0067      0.0000    368.3434      7.9628
  1861.7500    122.8539      0.0000    376.8239      7.9068
  1862.0000    126.3040      0.0000    384.1245      7.8367
  1862.2500    131.0127      0.0000    389.0699      7.7644
  1862.5000    133.5307      0.0000    391.7957      7.6944
  1862.7500    132.3733      0.0000    393.1227      7.6254
  1863.0000    129.0084      0.0000    393.7909      7.5539
  1863.2500    126.1704      0.0000    394.3691      7.4786
  1863.5000    125.5997      0.0000    395.7714      7.4039
  1863.7500    127.2685      0.0000    400.0469      7.3370
  1864.0000    130.0131      0.0000    410.5981      7.2741
  1864.2500    132.3139      0.0000    430.4026      7.1814
  1864.5000    132.7932      0.0000    457.8260      6.9904
  1864.7500    130.6909      0.0000    483.5536      6.6361
  1865.0000    126.1968      0.0000    494.0692      6.1337
  1865.2500    120.4926      0.0000    481.3268      5.6180
  1865.5000    115.5446      0.0000    449.7339      5.2655
  1865.7500    113.3600      0.0000    412.7802      5.1579
  1866.0000    114.7140      0.0000    383.1313      5.2354
  1866.2500    118.4660      0.6541    366.5153      5.3739
  1866.5000    122.3905      0.5937    363.1552      5.4746
  1866.7500    124.8162      0.0000    372.1345      5.4973
  1867.0000    125.6040      0.0000    393.6482      5.4690
  1867.2500    125.8205      0.0000    427.6101      5.4817
  1867.5000    126.6897      0.0000    470.3589      5.6368
  1867.7500    128.7409      0.0000    514.1172      5.9534
  1868.0000    131.4621      0.0000    551.8057      6.3494
  1868.2500    133.4985      0.0000    581.9935      6.7260
  1868.5000    133.4796      0.0000    607.1964      7.0453
  1868.7500    130.9788      0.0000    628.5414      7.3170
  1869.0000    126.7627      0.0000    644.3822      7.5475
  1869.2500    122.3477      0.0000    652.8824      7.7276
  1869.5000    119.3848      0.0000    653.2134      7.8493
  1869.7500    118.8763      0.0000    644.3592      7.9171
  1870.0000    120.3800      0.0000    625.0658      7.9439
  1870.2500    122.1093      0.0000    596.4556      7.9431
  1870.5000    122.2979      0.0000    564.1423      7.9265
  1870.7500    120.6565      0.0000    536.3536      7.9061
  1871.0000    118.5485      0.0000    519.5010      7.8941
  1871.2500    117.8503      0.0000    515.7835      7.9009
  1871.5000    119.4233      0.0000    523.8203      7.9327
  1871.7500    122.1922      0.0000    539.6716      7.9864
  1872.0000    123.6312      0.0000    557.7538      8.0452
  1872.2500    121.6947      0.0000    573.0851      8.0854
  1872.5000    116.6443      0.0000    583.1872      8.0895
  1872.7500    110.8054      0.0000    587.1236      8.0524
  1873.0000    106.4662      0.0000    584.3760      7.9825
  1873.2500    104.2823      0.0000    577.1154      7.9021
  1873.5000    103.6175      0.0000    572.2164      7.8437
  1873.7500    103.7411      0.0000    577.5449      7.8338
  1874.0000    104.2576      0.0000    595.3836      7.8736
  1874.2500    104.6915      0.0000    620.7092      7.9373
  1874.5000    104.2945      0.0000    645.7178      7.9871
  1874.7500    102.5156      0.0000    664.9673      7.9931
  1875.0000     99.5906      0.0000    676.9137      7.9439
  1875.2500     96.5268      0.0000    682.3973      7.8443
  1875.5000     94.4042      0.0000    682.3523      7.7109
  1875.7500     93.6551      0.0000    676.1521      7.5674
  1876.0000     94.0550      0.0000    661.6563      7.4376
  1876.2500     95.2920      0.0000    637.1916      7.3341
  1876.5000     97.2211      0.0000    603.5593      7.2529
  1876.7500     99.5144      0.0000    563.6426      7.1859
  1877.0000    101.4471      0.0000    520.7673      7.1336
  1877.2500    102.2913      0.0000    478.8708      7.1073
  1877.5000    101.8197      0.0000    443.2169      7.1188
  1877.7500    100.4544      0.0000    418.4728      7.1702
  1878.0000     99.0751      0.0000    406.1876      7.2509
  1878.2500     98.6013      0.0000    405.7603      7.3418
  1878.5000     99.4588      0.0000    417.4422      7.4256
  1878.7500    101.2827      0.0000    442.4921      7.4954
  1879.0000    103.2825      0.0000    479.4690      7.5530
  1879.2500    104.9376      0.0000    521.3830      7.6012
  1879.5000    106.0807      0.0000    558.4385      7.6370
  1879.7500    106.3468      0.0000    584.2493      7.6530
  1880.0000    105.1742      0.0000    599.0627      7.6425
  1880.2500    102.6374      0.0000    607.4797      7.6063
  1880.5000     99.8053      0.0000    614.1956      7.5545
  1880.7500     97.8652      0.0000    621.4291      7.5038
  1881.0000     97.2065      0.0000    628.7072      7.4732
  1881.2500     97.6672      0.0000    634.2099      7.4779
  1881.5000     99.2519      0.0000    636.5692      7.5250
  1881.7500    102.0777      0.0000    635.9328      7.6106
  1882.0000    105.7979      0.0000    633.6053      7.7195
  1882.2500    109.5813      0.0000    630.8151      7.8290
  1882.5000    112.6471      0.0000    627.8264      7.9203
  1882.7500    114.5882      0.0000    624.1454      7.9891
  1883.0000    115.2760      0.0000    619.3229      8.0441
  1883.2500    114.9152      0.0000    613.3735      8.0959
  1883.5000    114.5374      0.0000    606.6710      8.1484
  1883.7500    116.0834      0.0000    599.8646      8.1991
  1884.0000    121.0678      0.0000    593.5678      8.2441
  1884.2500    128.7918      0.0000    587.2809      8.2811
  1884.5000    136.3070      0.0000    578.8618      8.3085
  1884.7500    140.3580      0.0000    566.4034      8.3232
  1885.0000    139.3915      0.0000    550.9265      8.3215
  1885.2500    134.3056      0.0000    536.3010      8.3026
  1885.5000    127.9253      0.0000    526.4050      8.2722
  1885.7500    123.2138      0.0000    523.2586      8.2400
  1886.0000    120.9893      0.0000    527.5106      8.2148
  1886.2500    119.3008      0.0000    538.6509      8.1991
  1886.5000    115.5076      0.0000    553.4855      8.1894
  1886.7500    108.9114      0.0000    565.8835      8.1812
  1887.0000    101.0711      0.0000    570.5129      8.1753
  1887.2500     94.0111      0.0000    567.3721      8.1787
  1887.5000     88.8517      0.0000    561.4186      8.1986
  1887.7500     85.9156      0.0000    557.5817      8.2345
  1888.0000     85.1232      0.0000    556.8855      8.2769
  1888.2500     85.9484      0.0000    557.1398      8.3117
  1888.5000     87.4772      0.0000    556.2256      8.3277
  1888.7500     88.7723      0.0000    554.4543      8.3216
  1889.0000     89.1069      0.0000    554.4862      8.2974
  1889.2500     88.0558      0.0000    559.1724      8.2622
  1889.5000     85.8089      0.0000    568.7082      8.2268
  1889.7500     83.3455      0.0000    579.3450      8.2085
  1890.0000     81.8697      0.0000    585.0933      8.2264
  1890.2500     81.8925      0.0000    581.3406      8.2879
  1890.5000     82.8918      0.0000    567.7471      8.3772
  1890.7500     83.7902      0.0000    548.3208      8.4604
