~Version Information
VERS.                      2.0: CWLS Log ASCII Standard - VERSION 2.0
WRAP.                       NO: One line per depth step
~Well Information Block
STRT.FT               240.0000: 
STOP.FT              1453.0000: 
STEP.FT                 0.2500: 
NULL.                -999.2500: 
COMP.          Petrogulf Corporation: COMPANY
WELL.          Robinson 15-12R: WELL
FLD.           Purgatorie River: FIELD
LOC.           1752' FNL & 561' FWL: LOCATION
PROV.                 Colorado: PROVINCE
CNTY.               Las Animas: COUNTRY
SRVC.                Patterson: SERVICE COMPANY
DATE.          Tue Sep 13 15:11:42 2005: LOG DATE
UWI.                          : UNIQUE WELL ID
~Curve Information Block
DEPT.FT            0 000 00 00: Depth
SP.mV                         : DIL Spontaneous Potential
RILD.Ohm-m                    : DIL Deep Resistivity
RILM.Ohm-m                    : DIL Medium Resistivity
RLL3.Ohm-m                    : DIL Shallow Resistivity
GR.GAPI                       : Gamma Ray
~Parameter Information Block
~A  Depth        SP         RILD        RILM        RLL3         GR     
# ...
  1416.0000    193.9803      6.5535      6.9122      7.8446    136.2090
  1416.2500    191.6755      6.5364      6.8441      7.6012    141.3956
  1416.5000    189.8437      6.5875      6.7944      7.3899    145.6853
  1416.7500    188.1286      6.6402      6.7535      7.5571    130.5766
  1417.0000    186.4862      6.6356      6.7898      7.4228    127.9417
  1417.2500    185.0078      6.7247      6.7453      7.2642    120.0911
  1417.5000    183.6579      6.7739      6.6884      7.2612    154.9785
  1417.7500    182.7641      6.9108      6.6976      7.1269    153.5822
  1418.0000    182.1293      6.9728      6.8583      7.1630    157.6694
  1418.2500    181.6902      7.0008      7.0806      7.3657    145.8218
  1418.5000    181.3838      7.1296      7.2217      7.8838    145.3201
  1418.7500    181.2383      7.2999      7.4750      8.7669    140.0871
  1419.0000    181.2489      7.4841      7.6913      9.4679    124.7969
  1419.2500    181.2286      7.5699      8.0595      9.9733    129.2706
  1419.5000    180.8743      7.8859      8.3013     10.0271    139.8498
  1419.7500    181.4816      8.1634      8.6251      9.9962    153.1638
  1420.0000    182.2177      8.5370      8.9625     10.0518    164.1266
  1420.2500    183.0338      8.9158      9.3532     10.2856    146.1322
  1420.5000    183.6001      9.3964     10.1303     10.7339    138.2867
  1420.7500    185.1108      9.8235     11.1100     11.4623    129.7330
  1421.0000    187.1224     10.0044     12.0188     13.8972    107.7443
  1421.2500    189.1216     10.1804     12.9852     21.9558    105.7152
  1421.5000    192.2310     10.4546     13.7987     36.7776    102.4828
  1421.7500    195.3457     10.4542     14.1238     41.9213    108.5298
  1422.0000    197.9918     10.5042     14.2054     27.1344    117.6489
  1422.2500    200.5328     10.6174     13.7398     18.6988    127.7776
  1422.5000    201.7201     10.6002     13.3193     16.9281    160.7545
  1422.7500    202.2082     10.4896     12.7420     16.4263    162.5441
  1423.0000    202.1850     10.3138     12.8481     15.9060    147.1479
  1423.2500    202.5327     10.4624     12.2738     15.4305    154.9116
  1423.5000    203.1340     10.3013     11.5181     14.5753    166.0924
  1423.7500    203.2970     10.1483     10.8069     13.4049    185.1308
  1424.0000    203.5380      9.8592     10.3680     12.1363    189.2666
  1424.2500    203.6665      9.8003      9.9000     11.2500    169.6553
  1424.5000    203.8277     10.0586      9.5367     10.9232    158.6590
  1424.7500    203.4893     10.0902      9.3625     10.4166    172.5455
  1425.0000    203.0224     10.1640      9.2695      9.4336    173.4412
  1425.2500    202.4244     10.3688      9.4383      9.0842    171.8613
  1425.5000    202.1262     10.7767     10.1611      9.3331    150.9624
  1425.7500    201.7374     11.0416     11.0406     10.5100    161.6621
  1426.0000    201.5224     11.2347     12.1115     14.2172    119.1079
  1426.2500    201.1951     11.3175     13.4968     20.1838    118.3998
  1426.5000    200.4990     11.5537     15.1471     25.5737    106.3530
  1426.7500    199.7129     11.8283     17.2505     37.0124     87.3372
  1427.0000    199.1892     11.5573     18.0217     64.3557     74.8152
  1427.2500    198.7509     11.7414     19.1067     90.4244     71.3860
  1427.5000    198.2654     12.1508     18.9050     86.4503     58.4697
  1427.7500    197.3768     12.4528     18.3155     72.1345     65.5082
  1428.0000    196.0698     12.8671     17.8217     60.4723     87.1744
  1428.2500    195.1454     13.0690     16.0488     48.5632    104.5211
  1428.5000    195.1350     13.5933     14.7940     31.9079    136.9133
  1428.7500    196.1433     13.5537     13.8006     18.3057    146.7660
  1429.0000    196.9831     13.8068     13.2906     11.2551    102.0568
  1429.2500    196.5169     14.0466     13.0673      9.1831     16.4702
  1429.5000    195.3073     14.0464     13.1078      9.9265      0.0157
  1429.7500    193.2855     13.6650     13.5075     11.8977   -999.2500
  1430.0000    191.1492     12.8250     13.9588     14.2190   -999.2500
  1430.2500    188.5375     12.7503     14.4083     16.3311   -999.2500
  1430.5000    186.5690     12.2566     14.4340     17.8778   -999.2500
  1430.7500    185.4029     12.0419     14.7734     18.7962   -999.2500
  1431.0000    184.5619     12.1772     14.2321     19.3490   -999.2500
  1431.2500    184.0063     12.4272     13.6510     18.8931   -999.2500
  1431.5000    183.2858     12.9772     13.7854     17.1829   -999.2500
  1431.7500    181.7107     13.4300     13.9010     15.4760   -999.2500
  1432.0000    179.0787     14.3698     14.1299     14.3831   -999.2500
  1432.2500    177.3404     15.3953     14.8025     13.1666   -999.2500
  1432.5000    175.8856     16.2220     16.1028     13.0135   -999.2500
  1432.7500    174.4656     17.0736     17.4956     15.4889   -999.2500
  1433.0000    173.3577     17.8326     20.0680     22.1653   -999.2500
  1433.2500    171.5973     18.4995     23.2090     33.2099   -999.2500
  1433.5000    170.4361     18.7414     27.0683     46.5592   -999.2500
  1433.7500    170.1396     19.3132     30.7447     63.1126   -999.2500
  1434.0000    170.2024     18.9041     31.5236     81.5501   -999.2500
  1434.2500    170.2618     18.4174     32.4130     90.6374   -999.2500
  1434.5000    169.7218     17.2238     30.7016     81.4488   -999.2500
  1434.7500    169.0958     15.4640     27.8704     58.3420   -999.2500
  1435.0000    168.7963     14.1090     25.2461     43.6775   -999.2500
  1435.2500    168.2251     13.3972     22.1067     37.5727   -999.2500
  1435.5000    168.2015     12.9880     19.7414     31.4326   -999.2500
  1435.7500    168.4607     12.6519     16.6407     21.3904   -999.2500
  1436.0000    169.2316     12.2365     14.2464     13.9875   -999.2500
  1436.2500    170.0506     11.9603     12.2517     10.6121   -999.2500
  1436.5000    170.8469     11.6649     11.4724      9.0565   -999.2500
  1436.7500    170.8724     11.2849     10.7903      8.6265   -999.2500
  1437.0000    170.1044     10.5710     10.5824      8.8191   -999.2500
  1437.2500    170.1258     10.6224     10.6890      9.5700   -999.2500
  1437.5000    170.5394     10.2091     10.9899     10.5141   -999.2500
  1437.7500    171.4682      9.9287     11.1294     12.6418   -999.2500
  1438.0000    172.8096      9.3595     11.1540     14.9441   -999.2500
  1438.2500    173.8537      9.1126     11.0693     17.0372   -999.2500
  1438.5000    174.3774      9.4529     10.6157     16.4640   -999.2500
  1438.7500    173.6591      9.3317     10.3992     13.2781   -999.2500
  1439.0000    173.5261      9.1004     10.0562     11.5531   -999.2500
  1439.2500    173.5208      9.0091      9.9198     11.2046   -999.2500
  1439.5000    173.4272      8.8725      9.8533     11.5624   -999.2500
  1439.7500    173.6138      8.7141      9.5995     12.0985   -999.2500
  1440.0000    173.9600      8.7764      9.3060     12.2831   -999.2500
  1440.2500    173.1980      8.7542      8.9620     11.6998   -999.2500
  1440.5000    172.8414      8.5701      8.7274     10.2086   -999.2500
  1440.7500    173.2701      8.5886      8.5219      8.9809   -999.2500
  1441.0000    172.8549      8.5308      7.9870      8.5005   -999.2500
  1441.2500    152.0797      9.5909      7.8131      8.3219   -999.2500
  1441.5000     18.1253     39.8999      7.8011      8.3158   -999.2500
  1441.7500      0.0448     66.4042      7.9638      7.8886   -999.2500
  1442.0000   -999.2500    167.6693      8.2667      7.8189   -999.2500
  1442.2500   -999.2500    166.1842      8.7909      8.1313   -999.2500
  1442.5000   -999.2500    163.8764      9.4850      9.5808   -999.2500
  1442.7500   -999.2500    161.2258     10.4964     13.8969   -999.2500
  1443.0000   -999.2500    162.9023     11.7017     23.8195   -999.2500
  1443.2500   -999.2500    162.4403     13.2363     34.4612   -999.2500
  1443.5000   -999.2500    159.3374     14.3017     36.9241   -999.2500
  1443.7500   -999.2500    159.9064     14.4458     34.8792   -999.2500
