~Version Information
VERS.                      2.0: CWLS Log ASCII Standard - VERSION 2.0
WRAP.                       NO: One line per depth step
~Well Information Block
STRT.FT                -8.2500: 
STOP.FT              2725.7500: 
STEP.FT                 0.2500: 
NULL.                -999.2500: 
COMP.          Pioneer Natural Resources: COMPANY
WELL.          Rabbit Bush Federal 44-19: WELL
FLD.           Purgatoire River: FIELD
LOC.           826' FSL & 1127' FEL: LOCATION
CNTY.               Las Animas: COUNTY
SRVC.                Patterson: SERVICE COMPANY
DATE.          Thu Sep 14 10:51:19 2006: LOG DATE
UWI.           05 071 08149 00: UNIQUE WELL ID
STAT.                       CO: STATE
~Curve Information Block
DEPT.FT            0 000 00 00: Depth
GR.GAPI                       : Gamma Ray
CCL.                          : Casing Collar Locator
TT3.usec                      : CBL 3' Travel Time
AMP3.mV                       : CBL 3' Amplitude
~Parameter Information Block
~A  Depth        GR         CCL         TT3         AMP3    
# ...
  2169.2500    137.8763      0.0000    682.4249      4.7889
  2169.5000    136.6033      0.0000    680.0936      4.8769
  2169.7500    136.9651      0.0000    676.3380      4.9688
  2170.0000    138.9566      0.0000    671.9594      5.0468
  2170.2500    141.6055      0.0000    668.1290      5.0992
  2170.5000    144.0092      0.0000    666.0404      5.1220
  2170.7500    146.0829      0.0000    666.5988      5.1172
  2171.0000    148.5767      0.0000    670.1387      5.0867
  2171.2500    152.1309      0.0000    676.0003      5.0254
  2171.5000    156.0304      0.0000    682.3250      4.9240
  2171.7500    158.2171      0.0000    686.8003      4.7815
  2172.0000    157.0493      0.0000    688.2310      4.6137
  2172.2500    152.9950      0.0000    687.5132      4.4460
  2172.5000    148.1964      0.0000    686.6902      4.3046
  2172.7500    144.3006      0.0000    686.6367      4.2183
  2173.0000    141.1409      0.0000    685.9614      4.2156
  2173.2500    137.8068      0.0000    682.8969      4.2995
  2173.5000    134.4952      0.0000    678.0751      4.4340
  2173.7500    132.5361      0.0000    674.6202      4.5747
  2174.0000    132.7255      0.0000    675.5510      4.7053
  2174.2500    134.4575      0.0000    681.4382      4.8253
  2174.5000    136.6871      2.0000    689.9826      4.9177
  2174.7500    139.1879      2.0000    697.2982      4.9563
  2175.0000    142.2976      0.0000    700.3540      4.9373
  2175.2500    145.3788      0.0000    699.1367      4.8960
  2175.5000    146.1269      0.0000    696.5493      4.8936
  2175.7500    142.2166      0.0000    695.9918      4.9748
  2176.0000    133.8912      0.0000    698.9547      5.1165
  2176.2500    124.5790      0.0000    704.5204      5.2288
  2176.5000    118.5313      0.0000    710.6462      5.2359
  2176.7500    117.7592      0.0000    715.8629      5.1494
  2177.0000    121.2775      0.0000    719.9954      5.0404
  2177.2500    126.7468      0.0000    723.4451      4.9535
  2177.5000    132.1854      0.0000    725.8737      4.8762
  2177.7500    136.3098      0.0000    725.7658      4.7836
  2178.0000    138.2449      0.0000    721.5623      4.6833
  2178.2500    137.7063      0.0000    713.4406      4.6123
  2178.5000    135.4275      0.0000    703.8971      4.6009
  2178.7500    132.8507      0.0000    696.2925      4.6488
  2179.0000    131.1030      0.0000    692.6196      4.7356
  2179.2500    130.4148      0.0000    692.4468      4.8458
  2179.5000    130.6509      0.0000    693.6059      4.9755
  2179.7500    132.1876      0.0000    693.6478      5.1186
  2180.0000    135.6901      0.0000    691.0600      5.2540
  2180.2500    140.7997      0.0000    685.9312      5.3532
  2180.5000    145.5407      0.0000    680.0145      5.4005
  2180.7500    147.4389      0.0000    675.9288      5.4041
  2181.0000    145.0554      0.0000    675.6575      5.3841
  2181.2500    138.5396      0.0000    679.3228      5.3544
  2181.5000    129.4265      0.0000    685.1721      5.3165
  2181.7500    120.1713      0.0000    690.7969      5.2683
  2182.0000    113.2468      0.0000    694.3780      5.2176
  2182.2500    110.0563      0.0000    694.8242      5.1849
  2182.5000    110.5706      0.0000    690.9232      5.1898
  2182.7500    113.8042      0.0000    681.1214      5.2308
  2183.0000    118.3274      0.0000    665.1628      5.2824
  2183.2500    122.4562      0.0000    645.5304      5.3179
  2183.5000    124.5163      0.0000    624.9124      5.3317
  2183.7500    123.5516      0.0000    601.5664      5.3359
  2184.0000    120.1283      0.0000    570.5703      5.3420
  2184.2500    116.4416      0.0000    531.6295      5.3496
  2184.5000    115.1149      0.0000    492.4498      5.3506
  2184.7500    117.2638      0.0000    462.2813      5.3368
  2185.0000    121.5071      0.0000    444.7477      5.3056
  2185.2500    125.0982      0.0000    438.3850      5.2618
  2185.5000    126.2599      0.0000    442.0149      5.2095
  2185.7500    125.3871      0.0000    457.9126      5.1433
  2186.0000    124.1769      0.0000    489.6095      5.0524
  2186.2500    124.2000      0.0000    536.2386      4.9392
  2186.5000    126.3894      0.0000    589.1537      4.8348
  2186.7500    130.9484      0.0000    635.7181      4.7889
  2187.0000    136.9050      0.0000    667.2753      4.8378
  2187.2500    142.1277      0.0000    683.2065      4.9746
  2187.5000    144.5469      0.0000    688.4117      5.1491
  2187.7500    143.3925      0.0000    688.7017      5.2993
  2188.0000    139.1242      0.0000    688.0792      5.3867
  2188.2500    132.6716      0.0000    688.0678      5.4084
  2188.5000    125.1986      0.0000    688.4009      5.3804
  2188.7500    118.3357      0.0000    688.5660      5.3124
  2189.0000    113.9506      0.0000    688.7911      5.2007
  2189.2500    113.3205      0.0000    689.4514      5.0463
  2189.5000    116.6608      0.0000    690.1772      4.8772
  2189.7500    123.5534      0.0000    690.2822      4.7420
  2190.0000    133.3186      0.0000    689.9993      4.6741
  2190.2500    144.2075      0.0000    690.7614      4.6671
  2190.5000    152.6008      0.0000    694.1176      4.6884
  2190.7500    154.5952      0.0000    700.4988      4.7095
  2191.0000    149.3308      0.0000    708.8108      4.7191
  2191.2500    140.1857      0.0000    716.7499      4.7122
  2191.5000    132.0089      0.0000    721.5502      4.6804
  2191.7500    127.2770      0.0000    721.0559      4.6190
  2192.0000    125.0278      0.0000    714.7039      4.5394
  2192.2500    122.9330      0.0000    703.8817      4.4664
  2192.5000    119.5837      0.0000    691.5587      4.4180
  2192.7500    114.7142      0.0000    681.2055      4.3924
  2193.0000    108.2665      0.0000    674.9998      4.3768
  2193.2500    100.2941      0.0000    671.6913      4.3673
  2193.5000     91.7095      0.0000    666.4044      4.3756
  2193.7500     84.3825      0.0000    654.6501      4.4159
  2194.0000     80.0907      0.0000    637.9026      4.4872
  2194.2500     79.5156      0.0000    623.5798      4.5692
  2194.5000     82.2887      0.0000    617.7422      4.6337
  2194.7500     87.4232      0.0000    619.2283      4.6616
  2195.0000     93.4409      0.0000    622.4897      4.6543
  2195.2500     98.8068      0.0000    624.5742      4.6297
  2195.5000    102.9495      0.0000    627.4733      4.6085
  2195.7500    106.6933      0.0000    634.3663      4.6040
  2196.0000    111.3531      0.0000    645.2737      4.6166
  2196.2500    117.5576      0.0000    656.9445      4.6358
  2196.5000    125.0930      0.0000    666.1185      4.6470
  2196.7500    133.5154      0.0000    671.9506      4.6419
  2197.0000    142.3300      0.0000    675.6664      4.6244
  2197.2500    150.5452      0.0000    678.8784      4.6066
  2197.5000    156.6933      0.0000    682.4865      4.6017
  2197.7500    159.7087      0.0000    686.4609      4.6187
  2198.0000    159.3591      0.0000    690.2050      4.6612
  2198.2500    155.8589      0.0000    693.1525      4.7281
  2198.5000    150.1118      0.0000    695.1372      4.8126
  2198.7500    144.4584      0.0000    696.3032      4.9002
  2199.0000    141.8044      0.0000    696.8392      4.9727
  2199.2500    143.2365      0.0000    696.9045      5.0206
  2199.5000    147.0978      0.0000    696.7034      5.0505
  2199.7500    150.9095      0.0000    696.4950      5.0772
  2200.0000    153.8740      0.0000    696.4603      5.1067
  2200.2500    157.0604      0.0000    696.6018      5.1282
  2200.5000    161.2597      0.0000    696.7971      5.1240
  2200.7500    165.3103      0.0000    696.9390      5.0870
  2201.0000    166.9376      0.0000    696.9838      5.0274
  2201.2500    164.8428      0.0000    696.9087      4.9595
  2201.5000    159.6644      0.0000    696.7054      4.8849
  2201.7500    153.3732      0.0000    696.4271      4.7976
  2202.0000    148.1743      0.0000    696.1937      4.7013
  2202.2500    145.7507      0.0000    696.1313      4.6155
  2202.5000    146.8275      0.0000    696.2925      4.5615
