~Version Information
VERS.                      2.0: CWLS Log ASCII Standard - VERSION 2.0
WRAP.                       NO: One line per depth step
~Well Information Block
STRT.FT               454.0000: 
STOP.FT              1392.0000: 
STEP.FT                 0.2500: 
NULL.                -999.2500: 
COMP.          Pioneer Natural Resources: COMPANY
WELL.          Lorencito 6-3-34-66: WELL
FLD.           Purgatoire River: FIELD
LOC.           2545' FNL & 1914' FWL: LOCATION
STAT.                 Colorado: State
CNTY.               Las Animas: COUNTY
CTRY. USA : Country
SECT. 3 : Section
TOWN. 34S : Township
RANG. 66W : Range
SRVC.                Patterson: SERVICE COMPANY
DATE.          Fri Sep 09 22:07:39 2005: LOG DATE
API.           05 071 08369 00: UNIQUE WELL ID
~Curve Information Block
DEPT.FT            0 000 00 00: Depth
SN.Ohm-m                      : IEL Short Normal
SP.mV                         : IEL Spontaneous Potential
DIR.Ohm-m                     : IEL Induction Resistivity
GR.GAPI                       : Gamma Ray
~Parameter Information Block
~A  Depth        SN          SP         DIR          GR     
# ...
   521.0000   2000.0000   2000.0000     15.5332    117.6494
   521.2500   2000.0000   2000.0000     15.4498    126.1636
   521.5000   2000.0000   2000.0000     15.3953    138.8276
   521.7500   2000.0000   2000.0000     15.3642    146.2203
   522.0000   2000.0000   2000.0000     15.3454    154.4619
   522.2500   2000.0000   2000.0000     15.3240    157.8224
   522.5000   2000.0000   2000.0000     15.2851    159.9289
   522.7500   2000.0000   2000.0000     15.2179    159.5924
   523.0000   2000.0000   2000.0000     15.1212    156.9361
   523.2500   2000.0000   2000.0000     15.0042    154.3857
   523.5000   2000.0000   2000.0000     14.8860    151.1786
   523.7500   2000.0000   2000.0000     14.7917    150.3009
   524.0000   2000.0000   2000.0000     14.7462    150.9076
   524.2500   2000.0000   2000.0000     14.7697    151.8533
   524.5000   2000.0000   2000.0000     14.8726    152.5414
   524.7500   2000.0000   2000.0000     15.0532    151.8365
   525.0000   2000.0000   2000.0000     15.2959    148.1723
   525.2500   2000.0000   2000.0000     15.5715    143.6090
   525.5000   2000.0000   2000.0000     15.8421    133.6828
   525.7500   2000.0000   2000.0000     16.0681    125.7668
   526.0000   2000.0000   2000.0000     16.2211    113.8177
   526.2500   2000.0000   2000.0000     16.2922    106.4773
   526.5000   2000.0000   2000.0000     16.2959     96.3760
   526.7500   2000.0000   2000.0000     16.2661     90.1497
   527.0000   2000.0000   2000.0000     16.2450     82.5199
   527.2500   2000.0000   2000.0000     16.2725     79.6971
   527.5000   2000.0000   2000.0000     16.3757     80.5936
   527.7500   2000.0000   2000.0000     16.5636     85.0256
   528.0000   2000.0000   2000.0000     16.8250     96.8020
   528.2500   2000.0000   2000.0000     17.1285    106.8875
   528.5000   2000.0000   2000.0000     17.4274    122.2107
   528.7500   2000.0000   2000.0000     17.6692    130.6026
   529.0000   2000.0000   2000.0000     17.8085    138.4384
   529.2500   2000.0000   2000.0000     17.8197    140.6880
   529.5000   2000.0000   2000.0000     17.7045    141.9763
   529.7500   2000.0000   2000.0000     17.4884    143.1679
   530.0000   2000.0000   2000.0000     17.2120    147.2112
   530.2500   2000.0000   2000.0000     16.9193    151.1895
   530.5000   2000.0000   2000.0000     16.6488    156.6704
   530.7500   2000.0000   2000.0000     16.4294    158.0997
   531.0000   2000.0000   2000.0000     16.2805    154.8039
   531.2500   2000.0000   2000.0000     16.2126    149.2390
   531.5000   2000.0000   2000.0000     16.2307    138.7225
   531.7500   2000.0000   2000.0000     16.3364    132.4767
   532.0000   2000.0000   2000.0000     16.5274    127.0249
   532.2500   2000.0000   2000.0000     16.7992    126.4882
   532.5000   2000.0000   2000.0000     17.1427    129.2774
   532.7500   2000.0000   2000.0000     17.5426    132.0549
   533.0000   2000.0000   2000.0000     17.9753    134.3315
   533.2500   2000.0000   2000.0000     18.4083    132.9633
   533.5000   2000.0000   2000.0000     18.8003    125.6461
   533.7500   2000.0000   2000.0000     19.1060    118.0308
   534.0000   2000.0000   2000.0000     19.2818    105.4719
   534.2500   2000.0000   2000.0000     19.2916     98.4357
   534.5000   2000.0000   2000.0000     19.1131     92.8578
   534.7500   2000.0000   2000.0000     18.7412     93.2640
   535.0000   2000.0000   2000.0000     18.1864     99.5758
   535.2500   2000.0000   2000.0000     17.4746    106.5779
   535.5000   2000.0000   2000.0000     16.6447    119.3585
   535.7500   2000.0000   2000.0000     15.7435    128.5455
   536.0000   2000.0000   2000.0000     14.8224    142.2964
   536.2500   2000.0000   2000.0000     13.9291    150.8773
   536.5000   2000.0000   2000.0000     13.1028    161.8672
   536.7500   2000.0000   2000.0000     12.3703    167.5701
   537.0000   2000.0000   2000.0000     11.7450    173.6820
   537.2500   2000.0000   2000.0000     11.2292    176.3654
   537.5000   2000.0000   2000.0000     10.8162    178.8989
   537.7500   2000.0000   2000.0000     10.4945    180.0925
   538.0000   2000.0000   2000.0000     10.2510    182.0640
   538.2500   2000.0000   2000.0000     10.0743    183.6556
   538.5000   2000.0000   2000.0000      9.9570    185.4221
   538.7500   2000.0000   2000.0000      9.8971    185.0485
   539.0000   2000.0000   2000.0000      9.8974    180.8584
   539.2500   2000.0000   2000.0000      9.9647    176.0020
   539.5000   2000.0000   2000.0000     10.1079    167.8562
   539.7500   2000.0000   2000.0000     10.3359    163.0941
   540.0000   2000.0000   2000.0000     10.6560    157.4250
   540.2500   2000.0000   2000.0000     11.0720    153.9780
   540.5000   2000.0000   2000.0000     11.5828    147.7671
   540.7500   2000.0000   2000.0000     12.1805    142.2875
   541.0000   2000.0000   2000.0000     12.8495    131.8747
   541.2500   2000.0000   2000.0000     13.5673    124.0583
   541.5000   2000.0000   2000.0000     14.3082    112.9823
   541.7500   2000.0000   2000.0000     15.0509    107.2292
   542.0000   2000.0000   2000.0000     15.7857    102.3654
   542.2500   2000.0000   2000.0000     16.5229    101.8703
   542.5000   2000.0000   2000.0000     17.2900    104.9323
   542.7500   2000.0000   2000.0000     18.1244    109.0208
   543.0000   2000.0000   2000.0000     19.0586    116.7912
   543.2500   2000.0000   2000.0000     20.1026    121.7671
   543.5000   2000.0000   2000.0000     21.2244    126.2749
   543.7500   2000.0000   2000.0000     22.3382    126.2016
   544.0000   2000.0000   2000.0000     23.3065    121.5683
   544.2500   2000.0000   2000.0000     23.9699    116.7247
   544.5000   2000.0000   2000.0000     24.2087    109.7590
   544.7500   2000.0000   2000.0000     23.9965    106.5751
   545.0000   2000.0000   2000.0000     23.4159    104.5406
   545.2500   2000.0000   2000.0000     22.6196    104.5836
   545.5000   2000.0000   2000.0000     21.7709    105.8486
   545.7500   2000.0000   2000.0000     20.9984    107.4739
   546.0000   2000.0000   2000.0000     20.3801    111.9769
   546.2500   2000.0000   2000.0000     19.9482    116.7193
   546.5000   2000.0000   2000.0000     19.7005    125.6035
   546.7500   2000.0000   2000.0000     19.6135    131.6124
   547.0000   2000.0000   2000.0000     19.6526    139.2270
   547.2500   2000.0000   2000.0000     19.7796    142.8657
   547.5000   2000.0000   2000.0000     19.9575    145.1970
   547.7500   2000.0000   2000.0000     20.1546    144.0436
   548.0000   2000.0000   2000.0000     20.3446    138.4089
   548.2500   2000.0000   2000.0000     20.5056    133.2986
   548.5000   2000.0000   2000.0000     20.6193    126.7624
   548.7500   2000.0000   2000.0000     20.6698    124.6309
   549.0000   2000.0000   2000.0000     20.6459    125.5404
   549.2500   2000.0000   2000.0000     20.5425    128.2106
   549.5000   2000.0000   2000.0000     20.3627    132.6960
   549.7500   2000.0000   2000.0000     20.1176    134.2054
   550.0000   2000.0000   2000.0000     19.8256    132.1408
   550.2500   2000.0000   2000.0000     19.5090    127.7155
   550.5000   2000.0000   2000.0000     19.1878    117.6977
   550.7500   2000.0000   2000.0000     18.8778    109.7678
   551.0000   2000.0000   2000.0000     18.5846     97.5673
   551.2500   2000.0000   2000.0000     18.3044     89.9869
   551.5000   2000.0000   2000.0000     18.0257     80.6777
   551.7500   2000.0000   2000.0000     17.7334     76.7275
   552.0000   2000.0000   2000.0000     17.4130     75.9547
   552.2500   2000.0000   2000.0000     17.0558     79.6226
   552.5000   2000.0000   2000.0000     16.6600     91.2394
   552.7500   2000.0000   2000.0000     16.2302    102.0610
   553.0000   2000.0000   2000.0000     15.7758    120.3193
   553.2500   2000.0000   2000.0000     15.3079    132.1714
   553.5000   2000.0000   2000.0000     14.8374    146.6730
   553.7500   2000.0000   2000.0000     14.3742    152.9886
   554.0000   2000.0000   2000.0000     13.9264    157.4424
   554.2500   2000.0000   2000.0000     13.5008    158.3770
