~Version Information
VERS.                      2.0: CWLS Log ASCII Standard - VERSION 2.0
WRAP.                       NO: One line per depth step
~Well Information Block
STRT.FT                -3.5000: 
STOP.FT              1745.0000: 
STEP.FT                 0.2500: 
NULL.                -999.2500: 
COMP.          Pioneer Natural Resources: COMPANY
WELL.           Labrador 34-30: WELL
FLD.           Purgatorie River: FIELD
LOC.           926' FSL & 2080' FEL--: LOCATION
PROV.                       CO: PROVINCE
CNTY.               Las Animas: COUNTRY
SRVC.                         : SERVICE COMPANY
DATE.          Fri Dec 10 09:58:23 2004: LOG DATE
UWI.                071-08202 : UNIQUE WELL ID
~Curve Information Block
DEPT.FT            0 000 00 00: Depth
GR.GAPI                       : Gamma Ray
CCL.                          : Casing Collar Locator
TT3.usec                      : CBL 3' Travel Time
AMP3.mV                       : CBL 3' Amplitude
~Parameter Information Block
~A  Depth        GR         CCL         TT3         AMP3    
# ...
   231.0000     80.6769      0.0000    463.1826     20.0117
   231.2500     84.4057      0.0000    508.5464     19.6001
   231.5000     87.6313      0.0000    562.5105     19.4148
   231.7500     89.8844      0.0000    614.0898     19.4609
   232.0000     90.7739      0.0000    644.9911     19.7364
   232.2500     89.8634      0.0000    640.5255     20.2447
   232.5000     87.1910      0.0000    598.0221     20.9738
   232.7500     83.6080      0.0000    528.1602     21.8561
   233.0000     80.4002      0.0000    450.4449     22.7484
   233.2500     78.7636      0.0000    384.3887     23.4747
   233.5000     79.5123      0.0000    340.5049     23.9191
   233.7500     82.8223      0.0000    317.7880     24.0892
   234.0000     88.1226      0.0000    308.8047     24.0917
   234.2500     94.3453      0.0000    306.2431     24.0531
   234.5000    100.1418      0.0000    305.7695     24.0668
   234.7500    104.0063      0.0000    305.6159     24.1893
   235.0000    104.9048      0.0000    305.3218     24.4424
   235.2500    103.0776      0.0000    304.9091     24.7898
   235.5000     99.8068      0.0000    304.5098     25.1184
   235.7500     96.2990      0.0000    304.2597     25.2739
   236.0000     93.0983      0.0000    304.2348     25.1498
   236.2500     90.4491      0.0000    304.4127     24.7646
   236.5000     88.7995      0.0000    304.6678     24.2626
   236.7500     88.8269      0.0000    304.8665     23.8370
   237.0000     90.9108      0.0000    305.0522     23.6261
   237.2500     94.4042      0.0000    305.9271     23.6415
   237.5000     97.5697      0.0000    309.8792     23.7628
   237.7500     98.6975      0.0000    322.5402     23.8030
   238.0000     97.4095      0.0000    353.0900     23.6129
   238.2500     94.7449      0.0000    410.0037     23.1595
   238.5000     92.0187      0.0000    492.0661     22.5292
   238.7500     89.8664      0.0000    582.7476     21.8663
   239.0000     88.3483      0.0000    656.7692     21.3025
   239.2500     87.4627      0.0000    695.6639     20.9073
   239.5000     87.1697      0.0000    699.4503     20.6641
   239.7500     87.2924      0.0000    686.0380     20.4796
   240.0000     87.8876      0.0000    678.8469     20.2353
   240.2500     89.4978      0.0000    690.4716     19.8597
   240.5000     92.6001      0.0000    715.7203     19.3707
   240.7500     96.9678      0.0000    740.0520     18.8609
   241.0000    101.8238      0.0000    752.3887     18.4444
   241.2500    106.3214      0.0000    749.7357     18.2026
   241.5000    109.5573      0.0000    735.1172     18.1531
   241.7500    110.4292      0.0000    715.2870     18.2503
   242.0000    108.0373      0.0000    697.7639     18.4093
   242.2500    102.4981      0.0000    686.2291     18.5390
   242.5000     95.3614      0.0000    678.5344     18.5776
   242.7500     89.0387      0.0000    668.9203     18.5181
   243.0000     85.3345      0.0000    650.6042     18.4126
   243.2500     84.2689      0.0000    619.0684     18.3467
   243.5000     84.3988      0.0000    577.0903     18.3906
   243.7500     84.3997      0.0000    535.4910     18.5549
   244.0000     84.3912      0.0000    505.9417     18.7848
   244.2500     85.8269      0.0000    493.8799     18.9985
   244.5000     89.9285      0.0000    498.7484     19.1354
   244.7500     96.0883      0.0000    517.8249     19.1765
   245.0000    101.9847      0.0000    547.1653     19.1360
   245.2500    105.3669      0.0000    580.0608     19.0455
   245.5000    105.4566      0.0000    606.7166     18.9387
   245.7500    102.8166      0.0000    616.6320     18.8404
   246.0000     98.6228      0.0000    603.8482     18.7578
   246.2500     94.1919      0.0000    572.3058     18.6774
   246.5000     90.3734      0.0000    534.6663     18.5676
   246.7500     86.8553      0.0000    503.9834     18.3962
   247.0000     82.5730      0.0000    487.1997     18.1576
   247.2500     77.3353      0.0000    486.4589     17.8827
   247.5000     72.6666      0.0000    503.2913     17.6176
   247.7500     70.6166      0.0000    538.1849     17.3919
   248.0000     71.9926      0.0000    585.1392     17.2164
   248.2500     75.8932      0.0000    629.1592     17.1034
   248.5000     80.5614      0.0000    654.2322     17.0716
   248.7500     84.4262      0.0000    657.3559     17.1215
   249.0000     86.4839      0.0000    652.6785     17.2166
   249.2500     86.0892      0.0000    657.7157     17.3022
   249.5000     82.9002      0.0000    675.0108     17.3459
   249.7500     77.4455      0.0000    689.4937     17.3570
   250.0000     71.5960      0.0000    683.6520     17.3782
   250.2500     67.8576      0.0000    654.0615     17.4712
   250.5000     67.7742      0.0000    613.7352     17.7062
   250.7500     70.9479      0.0000    579.1020     18.1365
   251.0000     75.5168      0.0000    554.2756     18.7573
   251.2500     79.4285      0.0000    528.7039     19.4901
   251.5000     81.5027      0.0000    490.4632     20.2266
   251.7500     81.7199      0.0000    439.6853     20.9018
   252.0000     80.7031      0.0000    387.9125     21.5243
   252.2500     79.0743      0.0000    347.1593     22.1445
   252.5000     77.4840      0.0000    321.8427     22.8015
   252.7500     76.8574      0.0000    309.1884     23.4983
   253.0000     77.9651      0.0000    303.9702     24.2134
   253.2500     80.6682      0.0000    302.1037     24.9202
   253.5000     83.8366      0.0000    301.4673     25.5797
   253.7500     86.0265      0.0000    301.2654     26.1090
   254.0000     86.1593      0.0000    301.2468     26.3790
   254.2500     83.8190      0.0000    301.3314     26.2892
   254.5000     79.4943      0.0000    301.5348     25.8650
   254.7500     74.7079      0.0000    302.1716     25.2609
   255.0000     71.5609      0.0000    304.5663     24.6446
   255.2500     71.8196      0.0000    312.2920     24.0817
   255.5000     76.0771      0.0000    331.9344     23.5305
   255.7500     83.1605      0.0000    370.5766     22.9260
   256.0000     90.1445      0.0000    428.7994     22.2522
   256.2500     93.6896      0.0000    495.2844     21.5454
   256.5000     92.3586      0.0000    552.6942     20.8442
   256.7500     87.9018      0.0000    591.4878     20.1443
   257.0000     84.0375      0.0000    615.2709     19.3912
   257.2500     83.6823      0.0000    633.2743     18.5092
   257.5000     87.0196      0.0000    653.9677     17.4597
   257.7500     91.9056      0.0000    684.6954     16.3029
   258.0000     95.9616      0.0000    727.9628     15.1861
   258.2500     98.3105      0.0000    775.9283     14.2254
   258.5000     99.5301      0.0000    814.3796     13.4116
   258.7500    100.1973      0.0000    833.8681     12.6768
   259.0000     99.7720      0.0000    835.5976     12.0197
   259.2500     97.1777      0.0000    828.4228     11.5127
   259.5000     92.5390      0.0000    822.2874     11.2124
   259.7500     87.9085      0.0000    822.5503     11.1192
   260.0000     85.8285      2.0000    827.3792     11.2142
   260.2500     87.2360      2.0000    828.5695     11.5122
   260.5000     90.8907      0.0000    815.8284     12.0763
   260.7500     94.5455      0.0000    784.2850     12.9546
   261.0000     96.5612      0.0000    740.3223     14.0643
   261.2500     96.7955      0.0000    696.6285     15.1880
   261.5000     96.1420      0.0000    658.9034     16.1636
   261.7500     95.1211      0.0000    621.6339     17.0189
   262.0000     93.0650      0.0000    579.3666     17.8442
   262.2500     88.9850      0.0000    536.0598     18.6171
   262.5000     83.0694      0.0000    499.9056     19.2408
   262.7500     76.8812      0.0000    474.1077     19.6886
   263.0000     72.1507      0.0000    455.7232     20.0368
   263.2500     69.7778      0.0000    439.5912     20.3852
   263.5000     69.8517      0.0000    421.3352     20.7770
   263.7500     71.9353      0.0000    400.5496     21.1739
   264.0000     75.1793      0.0000    385.1256     21.4752
   264.2500     78.7984      0.0000    390.7272     21.5749
