~Version Information
VERS.                      2.0: CWLS Log ASCII Standard - VERSION 2.0
WRAP.                       NO: One line per depth step
~Well Information Block
STRT.FT               702.7000: 
STOP.FT              2529.2000: 
STEP.FT                 0.1000: 
NULL.                -999.2500: 
COMP.          Pioneer Natural Resources: COMPANY
WELL.          Aztec Federal 41-15: WELL
FLD.           Purgatorie River: FIELD
LOC.           706' FNL & 1253' FEL: LOCATION
CNTY.               Las Animas: COUNTY
SRVC.          Superior Well Services: SERVICE COMPANY
DATE.          Tue Mar 18 09-36-47 2008: LOG DATE
UWI.           05-071-08342-00: UNIQUE WELL ID
STAT.                       CO: STATE
~Curve Information Block
DEPT.FT            0 000 00 00: Depth
DCAL.in                       : CDL Caliper
DPOR.pu                       : CDL Density Porosity
GR.GAPI                       : Gamma Ray
RHOB.g/cc                     : CDL Bulk Density
RHOC.g/cc                     : CDL Density Correction
~Parameter Information Block
~A  Depth       DCAL        DPOR         GR         RHOB        RHOC    
# ...
  2158.7000      7.6765      4.8711    110.9082      2.5696      0.1235
  2158.8000      7.6634      7.5253    120.3933      2.5258      0.0971
  2158.9000      7.6535      8.4996    128.3414      2.5098      0.0825
  2159.0000      7.6486      7.2683    128.2923      2.5301      0.0862
  2159.1000      7.6491      5.7559    123.4366      2.5550      0.0977
  2159.2000      7.6545      5.0492    121.3546      2.5667      0.1088
  2159.3000      7.6636      4.7469    123.3418      2.5717      0.1117
  2159.4000      7.6745      5.1266    124.8936      2.5654      0.1001
  2159.5000      7.6859      6.0213    122.9961      2.5506      0.0840
  2159.6000      7.6968      6.6888    121.1279      2.5396      0.0738
  2159.7000      7.7068      7.0759    123.8098      2.5332      0.0690
  2159.8000      7.7154      7.0442    127.7896      2.5338      0.0696
  2159.9000      7.7228      6.3460    127.7430      2.5453      0.0744
  2160.0000      7.7287      5.4030    123.6746      2.5608      0.0822
  2160.1000      7.7334      5.4503    121.9006      2.5601      0.0916
  2160.2000      7.7371      7.3897    127.8595      2.5281      0.1040
  2160.3000      7.7405      9.7154    137.1632      2.4897      0.1300
  2160.4000      7.7446     10.6755    142.4447      2.4739      0.1693
  2160.5000      7.7503     11.4966    142.6900      2.4603      0.1900
  2160.6000      7.7586     14.2645    139.6606      2.4146      0.1605
  2160.7000      7.7699     19.0846    132.8068      2.3351      0.0893
  2160.8000      7.7835     23.5339    123.8890      2.2617      0.0217
  2160.9000      7.7975     25.6640    116.8152      2.2265     -0.0119
  2161.0000      7.8098     26.1281    112.3708      2.2189     -0.0241
  2161.1000      7.8181     25.5626    109.5114      2.2282     -0.0298
  2161.2000      7.8212     23.0994    108.7240      2.2689     -0.0227
  2161.3000      7.8195     18.1418    110.2883      2.3507      0.0041
  2161.4000      7.8148     12.2646    114.0104      2.4476      0.0402
  2161.5000      7.8099      8.1197    117.1195      2.5160      0.0682
  2161.6000      7.8069      6.4734    114.6097      2.5432      0.0855
  2161.7000      7.8069      6.5755    108.8942      2.5415      0.1047
  2161.8000      7.8092      7.8123    105.9100      2.5211      0.1261
  2161.9000      7.8125      9.5410    106.0305      2.4926      0.1375
  2162.0000      7.8150     10.5762    107.3260      2.4755      0.1403
  2162.1000      7.8153     10.6357    108.5363      2.4745      0.1392
  2162.2000      7.8128     11.4508    107.2647      2.4611      0.1220
  2162.3000      7.8077     14.1255    103.8203      2.4169      0.0834
  2162.4000      7.8009     17.4866    103.1040      2.3615      0.0433
  2162.5000      7.7934     19.5793    105.0420      2.3269      0.0223
  2162.6000      7.7868     19.3791    105.0041      2.3302      0.0239
  2162.7000      7.7820     17.3304    104.3045      2.3640      0.0412
  2162.8000      7.7799     14.0080    106.3995      2.4189      0.0676
  2162.9000      7.7808     10.1028    110.8183      2.4833      0.0918
  2163.0000      7.7848      7.5596    116.9852      2.5253      0.0987
  2163.1000      7.7917      7.5430    122.8214      2.5255      0.0888
  2163.2000      7.8006      8.4806    125.8827      2.5101      0.0796
  2163.3000      7.8105      8.5295    127.1203      2.5093      0.0847
  2163.4000      7.8198      7.8270    128.8048      2.5209      0.0976
  2163.5000      7.8273      7.5424    132.0327      2.5255      0.1012
  2163.6000      7.8318      7.9220    133.5690      2.5193      0.0919
  2163.7000      7.8333      7.9289    131.4104      2.5192      0.0861
  2163.8000      7.8321      7.0525    130.4902      2.5336      0.0944
  2163.9000      7.8291      5.9733    131.8501      2.5514      0.1085
  2164.0000      7.8252      5.1008    131.9461      2.5658      0.1195
  2164.1000      7.8209      4.5192    132.2795      2.5754      0.1242
  2164.2000      7.8163      4.7390    136.1530      2.5718      0.1173
  2164.3000      7.8112      5.8031    139.5185      2.5542      0.0970
  2164.4000      7.8058      6.9979    135.5524      2.5345      0.0748
  2164.5000      7.7999      7.6511    126.0013      2.5238      0.0646
  2164.6000      7.7938      7.3949    118.4278      2.5280      0.0653
  2164.7000      7.7876      6.5477    116.0817      2.5420      0.0680
  2164.8000      7.7816      5.8909    116.6450      2.5528      0.0689
  2164.9000      7.7763      5.8984    116.5618      2.5527      0.0673
  2165.0000      7.7719      6.5513    114.9789      2.5419      0.0619
  2165.1000      7.7689      7.2680    113.5444      2.5301      0.0547
  2165.2000      7.7672      7.7631    112.1100      2.5219      0.0484
  2165.3000      7.7664      7.9990    109.2433      2.5180      0.0446
  2165.4000      7.7661      7.8271    106.5135      2.5209      0.0432
  2165.5000      7.7659      7.0992    106.7444      2.5329      0.0442
  2165.6000      7.7658      6.0039    108.5189      2.5509      0.0489
  2165.7000      7.7657      5.6309    111.0693      2.5571      0.0507
  2165.8000      7.7659      6.4656    117.3379      2.5433      0.0436
  2165.9000      7.7666      6.7642    124.6397      2.5384      0.0402
  2166.0000      7.7683      5.5556    125.1663      2.5583      0.0533
  2166.1000      7.7713      4.2176    118.6361      2.5804      0.0735
  2166.2000      7.7754      4.0564    110.5623      2.5831      0.0836
  2166.3000      7.7804      5.4454    105.8677      2.5602      0.0727
  2166.4000      7.7855      7.4369    107.1740      2.5273      0.0497
  2166.5000      7.7898      8.0382    111.4157      2.5174      0.0413
  2166.6000      7.7925      7.0935    114.0309      2.5330      0.0555
  2166.7000      7.7934      6.7339    115.2684      2.5389      0.0725
  2166.8000      7.7925      7.2369    116.1232      2.5306      0.0850
  2166.9000      7.7906      7.5726    117.9645      2.5251      0.0953
  2167.0000      7.7886      8.2158    123.1964      2.5144      0.0975
  2167.1000      7.7874      9.2274    128.6849      2.4977      0.0963
  2167.2000      7.7874      9.3931    130.4268      2.4950      0.1046
  2167.3000      7.7884      8.5522    130.3963      2.5089      0.1180
  2167.4000      7.7893      8.1033    130.4589      2.5163      0.1196
  2167.5000      7.7889      9.0295    129.6253      2.5010      0.1061
  2167.6000      7.7865     10.7463    126.5735      2.4727      0.0868
  2167.7000      7.7822     12.1837    120.5222      2.4490      0.0677
  2167.8000      7.7766     13.0221    113.1128      2.4351      0.0508
  2167.9000      7.7709     12.9475    107.2690      2.4364      0.0423
  2168.0000      7.7660     11.5596    105.0307      2.4593      0.0468
  2168.1000      7.7624      9.4827    106.1178      2.4935      0.0571
  2168.2000      7.7602      8.0640    106.6411      2.5169      0.0576
  2168.3000      7.7593      7.5680    104.6851      2.5251      0.0454
  2168.4000      7.7589      7.0225    100.8043      2.5341      0.0355
  2168.5000      7.7585      5.9806     96.5727      2.5513      0.0398
  2168.6000      7.7576      5.1782     95.1060      2.5646      0.0543
  2168.7000      7.7562      4.8410     95.9803      2.5701      0.0715
  2168.8000      7.7547      5.1281     95.8318      2.5654      0.0815
  2168.9000      7.7540      6.0386     93.5261      2.5504      0.0816
  2169.0000      7.7549      6.5408     90.9888      2.5421      0.0846
  2169.1000      7.7577      6.7985     89.3630      2.5378      0.0927
  2169.2000      7.7625      7.5532     88.5182      2.5254      0.0958
  2169.3000      7.7689      8.2774     91.6249      2.5134      0.0931
  2169.4000      7.7769      9.3790    100.6863      2.4952      0.0858
  2169.5000      7.7861     11.7165    109.0189      2.4567      0.0774
  2169.6000      7.7961     14.3438    110.3896      2.4133      0.0737
  2169.7000      7.8064     16.1820    107.4263      2.3830      0.0744
  2169.8000      7.8161     17.2020    107.7974      2.3662      0.0786
