~Version Information
VERS.                      2.0: CWLS Log ASCII Standard - VERSION 2.0
WRAP.                       NO: One line per depth step
~Well Information Block
STRT.FT               752.0000: 
STOP.FT              2474.2000: 
STEP.FT                 0.1000: 
NULL.                -999.2500: 
COMP.          Petrogulf Corporation: COMPANY
WELL.            Montoya 7-14V: WELL
FLD.           Purgatorie River: FIELD
LOC.           535' FSL & 491' FWL: LOCATION
CNTY.               Las Animas: COUNTY
SRVC.                         : SERVICE COMPANY
DATE.          Mon Aug 23 10:41:01 2004: LOG DATE
UWI.           05 071 08019 00: UNIQUE WELL ID
STAT.                 Colorado: STATE
~Curve Information Block
DEPT.FT            0 000 00 00: Depth
DCAL.in                       : CDL Caliper
RHOB.g/cc                     : CDL Bulk Density
RHOC.g/cc                     : CDL Density Correction
DPOR.pu                       : CDL Density Porosity
GR.GAPI                       : Gamma Ray
NPOR.pu                       : Neutron Porosity
~Parameter Information Block
~A  Depth       DCAL        RHOB        RHOC        DPOR         GR         NPOR    
# ...
  1212.8000      8.4594      1.9790      0.1458     40.6658     97.9192     33.0832
  1212.9000      8.4594      2.0676      0.3109     35.2970     91.5543     32.8229
  1213.0000      9.1082      2.1499      0.3531     30.3079     89.3371     32.2694
  1213.1000      9.1082      2.2063      0.3893     26.8895     92.8251     31.4622
  1213.2000      9.1082      2.2301      0.4231     25.4480    100.5708     30.4932
  1213.3000      9.7125      2.2182      0.3962     26.1696    108.9230     29.8852
  1213.4000      9.7125      2.1731      0.3658     28.9034    112.6622     29.8168
  1213.5000     10.0322      2.1054      0.2861     33.0078    108.5968     30.2229
  1213.6000     10.0322      2.0345      0.2801     37.3037    102.8041     31.0105
  1213.7000     10.0322      1.9844      0.2613     40.3405    101.5405     31.6201
  1213.8000     10.2042      1.9710      0.3088     41.1515    105.1930     31.6063
  1213.9000     10.2042      1.9941      0.3306     39.7536    112.4178     31.1100
  1214.0000     10.5531      2.0407      0.3549     36.9288    119.3310     30.5027
  1214.1000     10.5531      2.0921      0.3362     33.8096    123.4219     30.3065
  1214.2000     10.5531      2.1336      0.3649     31.2949    125.7502     30.4595
  1214.3000     11.2208      2.1581      0.3720     29.8137    126.0645     30.4055
  1214.4000     11.2208      2.1668      0.3366     29.2826    122.5824     30.3080
  1214.5000     11.3638      2.1663      0.3257     29.3157    117.1582     30.6856
  1214.6000     11.3638      2.1650      0.2974     29.3928    114.7758     31.1769
  1214.7000     11.3638      2.1833      0.2442     28.2873    115.1380     31.1763
  1214.8000     10.9962      2.2369      0.2849     25.0380    117.4122     30.8088
  1214.9000     10.9962      2.3108      0.3585     20.5569    121.9384     30.8699
  1215.0000      9.5794      2.3754      0.4015     16.6423    122.3332     31.5368
  1215.1000      9.5794      2.4132      0.4357     14.3541    115.3818     31.6055
  1215.2000      9.5794      2.4241      0.4317     13.6898    108.8460     30.6572
  1215.3000      9.4641      2.4287      0.3094     13.4113    104.9428     29.5366
  1215.4000      9.4641      2.4571      0.2428     11.6895    101.1277     28.9675
  1215.5000      9.4604      2.5127      0.2827      8.3242    100.7376     29.1820
  1215.6000      9.4604      2.5679      0.2780      4.9761    104.2263     29.6578
  1215.7000      9.4604      2.5982      0.3736      3.1419    107.2674     29.9097
  1215.8000      9.2961      2.5959      0.3420      3.2781    106.9118     29.9564
  1215.9000      9.2961      2.5718      0.2907      4.7419    105.5738     29.7249
  1216.0000      8.8161      2.5416      0.2249      6.5719    105.1564     29.3513
  1216.1000      8.8161      2.5120      0.1929      8.3641    102.0817     29.0768
  1216.2000      8.8161      2.4874      0.1325      9.8569     97.0513     28.8428
  1216.3000      8.4366      2.4767      0.0855     10.5055     96.8512     28.6434
  1216.4000      8.4366      2.4823      0.1186     10.1634    101.6875     28.4230
  1216.5000      8.4110      2.4974      0.1388      9.2511    102.7880     28.1902
  1216.6000      8.4110      2.5141      0.1632      8.2339     97.4368     28.2446
  1216.7000      8.4110      2.5325      0.1574      7.1236     92.5200     28.4733
  1216.8000      8.4179      2.5538      0.1608      5.8333     92.2023     28.4502
  1216.9000      8.4179      2.5669      0.2020      5.0372     93.4527     28.3287
  1217.0000      8.4270      2.5597      0.2011      5.4714     95.5850     28.4095
  1217.1000      8.4270      2.5386      0.1979      6.7501    100.6318     28.7214
  1217.2000      8.4270      2.5255      0.1546      7.5458    104.8169     28.7568
  1217.3000      8.4267      2.5365      0.1721      6.8816    106.2451     28.1599
  1217.4000      8.4267      2.5618      0.1951      5.3481    107.8717     27.9658
  1217.5000      8.4295      2.5775      0.1825      4.3952    108.9224     28.8765
  1217.6000      8.4295      2.5780      0.1246      4.3622    107.1037     29.7943
  1217.7000      8.4295      2.5771      0.1254      4.4190    105.1291     29.6404
  1217.8000      8.4290      2.5780      0.1761      4.3643    105.2692     28.6417
  1217.9000      8.4290      2.5732      0.1857      4.6567    104.3130     27.6676
  1218.0000      8.4180      2.5686      0.1648      4.9319    101.3312     27.1736
  1218.1000      8.4180      2.5703      0.1661      4.8310     99.4105     27.1493
  1218.2000      8.4180      2.5641      0.1771      5.2042    101.3277     27.7990
  1218.3000      8.4271      2.5413      0.1348      6.5903    106.8493     28.9928
  1218.4000      8.4271      2.5127      0.1246      8.3223    110.8684     30.0172
  1218.5000      8.4258      2.4854      0.1083      9.9761    110.8996     30.3294
  1218.6000      8.4258      2.4535      0.1123     11.9117    110.8278     29.8355
  1218.7000      8.4258      2.4113      0.1004     14.4663    111.8447     29.1519
  1218.8000      8.4315      2.3535      0.0685     17.9706    110.6658     28.9944
  1218.9000      8.4315      2.2725      0.0716     22.8781    109.5916     29.0039
  1219.0000      8.5467      2.1846     -0.0258     28.2065    112.5229     28.7582
  1219.1000      8.5467      2.1213      0.0463     32.0395    115.2591     28.9873
  1219.2000      8.5467      2.0929      0.0267     33.7656    111.3201     30.1171
  1219.3000      8.8126      2.1054      0.0203     33.0055    102.3068     31.3957
  1219.4000      8.8126      2.1622      0.1361     29.5627     96.9481     31.9754
  1219.5000      8.5655      2.2343      0.2996     25.1965     96.6866     31.9091
  1219.6000      8.5655      2.2792      0.3777     22.4745     95.3942     31.7287
  1219.7000      8.5655      2.2739      0.3909     22.7944     93.1838     31.3332
  1219.8000      8.5355      2.2135      0.3709     26.4549     93.7333     30.5405
  1219.9000      8.5355      2.1104      0.2471     32.7042     97.1869     30.1273
  1220.0000      8.5720      1.9999      0.1394     39.3994     99.6998     30.6986
  1220.1000      8.5720      1.9137      0.0666     44.6232     97.2526     31.7950
  1220.2000      8.5720      1.8516      0.0532     48.3896     91.7708     32.9204
  1220.3000      8.4180      1.7986      0.0297     51.5992     88.9967     33.5953
  1220.4000      8.4180      1.7491      0.0105     54.5980     88.5521     33.2894
  1220.5000      8.3160      1.7031      0.0303     57.3891     85.9899     32.3885
  1220.6000      8.3160      1.6652      0.0118     59.6821     81.6435     31.9220
  1220.7000      8.3160      1.6429      0.0424     61.0350     77.8167     32.2905
  1220.8000      8.2833      1.6343      0.0074     61.5562     75.1974     32.8117
  1220.9000      8.2833      1.6295      0.0149     61.8485     74.8999     32.9523
  1221.0000      8.2827      1.6168      0.0308     62.6168     77.3478     32.9857
  1221.1000      8.2827      1.5937      0.0545     64.0188     79.8851     33.1980
  1221.2000      8.2827      1.5671      0.0506     65.6297     79.9585     33.5206
  1221.3000      8.2946      1.5442     -0.0094     67.0211     80.1542     33.6974
  1221.4000      8.2946      1.5253     -0.0409     68.1625     81.6960     33.6820
  1221.5000      8.2819      1.5096     -0.0922     69.1172     81.2298     33.5934
  1221.6000      8.2819      1.5022     -0.0653     69.5654     79.0018     33.6892
  1221.7000      8.2819      1.5112     -0.0362     69.0199     78.3276     34.0606
  1221.8000      8.2378      1.5409      0.0721     67.2153     78.8276     34.2108
  1221.9000      8.2378      1.5853      0.1031     64.5300     78.7202     33.8385
  1222.0000      8.2390      1.6340      0.1252     61.5753     77.9386     33.4680
  1222.1000      8.2390      1.6837      0.1162     58.5665     77.2344     33.3434
  1222.2000      8.2390      1.7363      0.1497     55.3747     78.6741     33.0217
  1222.3000      8.2906      1.7873      0.2127     52.2872     81.3347     32.2757
