~Version Information
VERS.                      2.0: CWLS Log ASCII Standard - VERSION 2.0
WRAP.                       NO: One line per depth step
~Well Information Block
STRT.FT               743.8000: 
STOP.FT              1975.8000: 
STEP.FT                 0.1000: 
NULL.                -999.2500: 
COMP.          Petrogulf Corporation: COMPANY
WELL.            Montoya 6-14V: WELL
FLD.           Purgatorie River: FIELD
LOC.           318' FSL & 882' FWL: LOCATION
CNTY.               Las Animas: COUNTY
SRVC.                         : SERVICE COMPANY
DATE.          Sat Aug 14 09:19:43 2004: LOG DATE
UWI.           05 071 08020 00: UNIQUE WELL ID
STAT.                 Colorado: STATE
~Curve Information Block
DEPT.FT            0 000 00 00: Depth
DCAL.in                       : CDL Caliper
RHOB.g/cc                     : CDL Bulk Density
RHOC.g/cc                     : CDL Density Correction
DPOR.pu                       : CDL Density Porosity
GR.GAPI                       : Gamma Ray
NPOR.pu                       : Neutron Porosity
~Parameter Information Block
~A  Depth       DCAL        RHOB        RHOC        DPOR         GR         NPOR    
# ...
  1003.0000      7.9997      2.5433      0.0501      6.4657    129.0850     23.2275
  1003.1000      7.9997      2.5540      0.0400      5.8179    120.3457     22.9100
  1003.2000      7.9997      2.5453      0.0531      6.3456    113.9389     22.9717
  1003.3000      7.9953      2.5320      0.0482      7.1524    115.1181     23.4328
  1003.4000      7.9953      2.5305      0.0233      7.2422    121.4328     23.8797
  1003.5000      8.0120      2.5391      0.0322      6.7189    127.5753     24.5394
  1003.6000      8.0120      2.5423      0.0673      6.5290    126.8849     25.5754
  1003.7000      8.0120      2.5367      0.0530      6.8675    117.7076     26.3359
  1003.8000      8.0135      2.5354      0.0474      6.9461    108.3552     26.4465
  1003.9000      8.0135      2.5417      0.0666      6.5620    107.7448     26.2299
  1004.0000      8.0142      2.5503      0.0333      6.0430    117.0113     25.9630
  1004.1000      8.0142      2.5621      0.0555      5.3293    128.5232     25.6969
  1004.2000      8.0142      2.5816      0.0183      4.1426    134.3286     25.7482
  1004.3000      8.0125      2.6073      0.0688      2.5873    130.6110     26.1075
  1004.4000      8.0125      2.6184      0.1223      1.9148    123.5707     26.1280
  1004.5000      8.0501      2.5978      0.0778      3.1653    127.0108     25.6652
  1004.6000      8.0501      2.5620      0.0386      5.3324    139.7348     25.0359
  1004.7000      8.0501      2.5381      0.0097      6.7794    147.3143     24.4925
  1004.8000      8.0497      2.5323      0.0062      7.1317    148.0729     24.1095
  1004.9000      8.0497      2.5332      0.0055      7.0766    143.7168     23.8558
  1005.0000      8.0779      2.5333      0.0018      7.0728    129.8845     23.6859
  1005.1000      8.0779      2.5294      0.0105      7.3092    113.9968     23.5650
  1005.2000      8.0779      2.5160      0.0152      8.1191    105.3750     23.6874
  1005.3000      8.0961      2.4963      0.0340      9.3142    102.6526     24.1342
  1005.4000      8.0961      2.4808      0.0022     10.2568    105.1943     24.1485
  1005.5000      8.1209      2.4723      0.0029     10.7712    115.2560     23.5124
  1005.6000      8.1209      2.4623     -0.0017     11.3733    128.2369     23.6436
  1005.7000      8.1209      2.4380      0.0113     12.8482    137.5166     25.3593
  1005.8000      8.0941      2.3934      0.0460     15.5511    141.7016     27.5463
  1005.9000      8.0941      2.3406     -0.0235     18.7512    142.5587     28.9611
  1006.0000      8.0883      2.2960     -0.0318     21.4556    141.6060     29.6252
  1006.1000      8.0883      2.2631     -0.0232     23.4484    136.0133     29.8132
  1006.2000      8.0883      2.2429     -0.0196     24.6750    126.1060     29.3641
  1006.3000      8.1431      2.2470     -0.0230     24.4260    119.4506     28.4838
  1006.4000      8.1431      2.2869      0.0505     22.0090    116.3999     27.6100
  1006.5000      8.1067      2.3535      0.1187     17.9679    110.1733     26.8793
  1006.6000      8.1067      2.4259      0.1420     13.5816    102.9797     26.2235
  1006.7000      8.1067      2.4875      0.1669      9.8468    100.8166     25.0230
  1006.8000      7.9916      2.5264      0.1395      7.4939     99.1635     23.3496
  1006.9000      7.9916      2.5376      0.1064      6.8141     93.6970     22.1770
  1007.0000      7.9724      2.5304      0.0167      7.2483     88.6881     21.6655
  1007.1000      7.9724      2.5203      0.0169      7.8585     84.3067     21.1627
  1007.2000      7.9724      2.5127      0.0028      8.3239     77.4865     20.4503
  1007.3000      7.9665      2.5071      0.0014      8.6609     74.8242     19.8134
  1007.4000      7.9665      2.5048     -0.0286      8.8003     81.3221     19.2422
  1007.5000      7.9737      2.5078      0.0082      8.6191     91.3063     18.7545
  1007.6000      7.9737      2.5162      0.0209      8.1118     96.8934     18.5932
  1007.7000      7.9737      2.5283      0.0543      7.3763     94.2128     18.5454
  1007.8000      7.9866      2.5517      0.0660      5.9587     86.8813     18.0715
  1007.9000      7.9866      2.5936      0.0798      3.4180     81.1095     17.1752
  1008.0000      7.9813      2.6338      0.1632      0.9847     79.8487     16.5528
  1008.1000      7.9813      2.6511      0.0770     -0.0656     81.0595     16.7745
  1008.2000      7.9813      2.6584      0.0870     -0.5079     83.1236     17.4228
  1008.3000      7.9758      2.6685      0.1141     -1.1225     86.8086     17.5725
  1008.4000      7.9758      2.6794      0.0743     -1.7789     88.3171     17.2532
  1008.5000      7.9806      2.6878      0.1308     -2.2937     82.8495     17.0083
  1008.6000      7.9806      2.6851      0.1283     -2.1293     75.4495     16.7657
  1008.7000      7.9806      2.6660      0.1119     -0.9723     74.2010     16.5450
  1008.8000      7.9765      2.6364      0.1001      0.8218     80.5243     17.1275
  1008.9000      7.9765      2.6064      0.0183      2.6395     92.1910     18.5019
  1009.0000      8.0018      2.5886      0.0128      3.7187    104.8350     19.2637
  1009.1000      8.0018      2.5886      0.0207      3.7186    112.4043     18.8066
  1009.2000      8.0018      2.5986      0.0959      3.1157    113.4771     18.0110
  1009.3000      8.0249      2.6063      0.0708      2.6467    110.2253     17.6475
  1009.4000      8.0249      2.6087      0.0534      2.5036    105.8719     17.6316
  1009.5000      8.0119      2.6088      0.0478      2.4946    102.4848     17.6823
  1009.6000      8.0119      2.6126      0.0392      2.2684     99.5798     17.7464
  1009.7000      8.0119      2.6258      0.0344      1.4673    100.0364     17.9599
  1009.8000      8.0465      2.6375      0.0756      0.7578    106.4116     18.3611
  1009.9000      8.0465      2.6317      0.0446      1.1102    112.2845     18.4462
  1010.0000      8.0234      2.6177     -0.0064      1.9553    111.3958     18.1367
  1010.1000      8.0234      2.6157      0.0055      2.0797    106.8614     18.0468
  1010.2000      8.0234      2.6247      0.0502      1.5344    104.3151     18.0055
  1010.3000      8.0337      2.6276      0.0356      1.3603    102.4042     17.5650
  1010.4000      8.0337      2.6170      0.0481      2.0024     98.7171     17.0278
  1010.5000      8.0374      2.6025      0.0085      2.8788     96.2999     16.9306
  1010.6000      8.0374      2.5911      0.0403      3.5668     97.1368     17.1852
  1010.7000      8.0374      2.5732      0.0296      4.6543    100.4503     17.5065
  1010.8000      8.0296      2.5470     -0.0102      6.2437    106.1616     18.4217
  1010.9000      8.0296      2.5286     -0.0169      7.3564    113.8299     20.1183
  1011.0000      8.0484      2.5237     -0.0097      7.6516    121.3875     21.7096
  1011.1000      8.0484      2.5233     -0.0062      7.6782    127.8753     22.3389
  1011.2000      8.0484      2.5261     -0.0018      7.5065    131.3385     21.8637
  1011.3000      8.0510      2.5416     -0.0195      6.5705    128.5816     20.8018
  1011.4000      8.0510      2.5661      0.0640      5.0871    121.8405     20.0933
  1011.5000      8.0499      2.5804      0.0682      4.2189    117.3185     20.3540
  1011.6000      8.0499      2.5735      0.0534      4.6382    114.6894     21.4757
  1011.7000      8.0499      2.5499      0.0337      6.0674    113.7609     23.0633
  1011.8000      8.0490      2.5316      0.0029      7.1732    118.3155     24.2628
  1011.9000      8.0490      2.5415      0.0012      6.5758    120.6312     24.1650
  1012.0000      8.0667      2.5690      0.0195      4.9074    111.9658     23.1132
  1012.1000      8.0667      2.5864      0.0373      3.8561    101.9522     21.9965
  1012.2000      8.0667      2.5901     -0.0152      3.6307    102.3700     21.3595
  1012.3000      8.0815      2.5972      0.0209      3.2016    109.0038     21.3067
  1012.4000      8.0815      2.6139      0.0598      2.1900    112.8532     21.5213
  1012.5000      8.0566      2.6296      0.0841      1.2368    112.4497     21.6205
