~Version Information
 VERS.                                  2.0 : CWLS LAS VERSION
 WRAP.                                   NO : WRAPING MODE
 SWARE .                 MController 2.5.0N : SOFTWARE VERSION
~Well Information
 WELL.                           King 22-13 : WELL
 COMP.    Pioneer Natural Resources USA Inc : COMPANY
 FLD.                      Purgatoire River : FIELD
 LOC.                SE/NW Sec 13 T32S R66W : LOCATION
 DATE.                           3/30-31/05 : DATE(S) LOGGED
 SRVC.       Blanco Geological Services LLC : SERVICE COMPANY
 STAT.                                   CO : STATE
 CNTY.                           Las Animas : COUNTY
 CTRY.                                  USA : COUNTRY
 API.                       05-071-08318-00 : API NUMBER
 STRT.FT                             603.00 : START DEPTH
 STOP.FT                            2185.00 : STOP DEPTH
 STEP.FT                               1.00 : DEPTH INCREMENT
 NULL.                                -9999 : NULL VALUE
~Curve information
 DEPTH.FT                                   :
 ROP.MIN/FT                                 :
 GAS.UNITS                                  :
~ASCII Log data
# ...
      1803.0         0.40       3534.3 
      1804.0         0.50       3648.8 
      1805.0         0.40       3737.5 
      1806.0         0.40       3796.1 
      1807.0         0.42       3802.3 
      1808.0         0.30       3678.9 
      1809.0         0.30       3743.7 
      1810.0         0.30       3684.5 
      1811.0         0.40       3658.7 
      1812.0         0.37       3631.5 
      1813.0         0.40       3607.3 
      1814.0         0.43       3602.1 
      1815.0         0.40       3602.7 
      1816.0         0.35       3550.7 
      1817.0         0.37       3617.1 
      1818.0         0.43       3649.2 
      1819.0         0.30       3678.6 
      1820.0         0.37       3631.2 
      1821.0         0.33       3295.5 
      1822.0         0.37       2524.1 
      1823.0         0.33       2337.3 
      1824.0         0.33       3223.6 
      1825.0         0.45       3930.2 
      1826.0         2.50       7048.6 
      1827.0         0.75       5896.0 
      1828.0         0.83       3590.0 
      1829.0         0.37       3776.4 
      1830.0         0.17       3918.4 
      1831.0         0.20       4146.1 
      1832.0         0.23       4219.4 
      1833.0         0.20       4310.7 
      1834.0         0.27       4326.0 
      1835.0         0.37       4258.0 
      1836.0         0.68       3948.5 
      1837.0         0.60       3957.7 
      1838.0         0.60       3989.1 
      1839.0         0.50       3994.6 
      1840.0         0.50       3940.3 
      1841.0         0.47       3904.0 
      1842.0         0.50       3812.4 
      1843.0         0.55       3694.6 
      1844.0         0.43       3767.9 
      1845.0         0.43       3982.5 
      1846.0         0.33       4077.7 
      1847.0         0.23       4057.8 
      1848.0         0.37       3985.8 
      1849.0         0.50       3632.2 
      1850.0         0.43       2902.9 
      1851.0         0.48       2739.4 
      1852.0         0.37       2837.5 
      1853.0         0.13       2935.7 
      1854.0         0.10       3118.2 
      1855.0         0.13       3118.2 
      1856.0         4.12       7454.9 
      1857.0         0.20       7266.8 
      1858.0         0.40       6799.3 
      1859.0         1.22       6259.8 
      1860.0         0.73       3138.8 
      1861.0         0.43       2693.6 
      1862.0         0.43       3080.6 
      1863.0         0.47       3279.8 
      1864.0         0.37       3354.4 
      1865.0         0.33       3377.3 
      1866.0         0.45       3371.1 
      1867.0         0.47       3456.5 
      1868.0         0.43       3668.5 
      1869.0         0.37       3868.4 
      1870.0         0.27       3880.8 
      1871.0         0.33       3900.1 
      1872.0         0.33       3840.2 
      1873.0         0.40       3727.4 
      1874.0         0.37       3590.0 
      1875.0         0.42       3599.8 
      1876.0         0.37       3729.3 
      1877.0         0.37       3890.3 
      1878.0         0.27       4041.4 
      1879.0         0.37       4142.8 
      1880.0         0.33       3956.0 
      1881.0         0.40       3672.1 
      1882.0         0.37       2622.3 
      1883.0         0.35       2533.3 
      1884.0         0.37       2835.2 
      1885.0         0.27       2913.4 
      1886.0         5.85       6691.7 
      1887.0         0.72       3720.2 
      1888.0         0.60       2490.7 
      1889.0         0.57       1829.6 
      1890.0         0.50       2344.8 
      1891.0         0.47       2820.8 
      1892.0         0.40       3040.7 
      1893.0         0.38       3151.6 
      1894.0         0.43       3263.5 
      1895.0         0.37       3320.4 
      1896.0         0.43       3382.9 
      1897.0         0.33       3455.5 
      1898.0         0.50       3523.2 
      1899.0         0.33       3567.4 
      1900.0         0.30       3603.7 
      1901.0         0.37       3632.5 
      1902.0         0.35       3639.0 
      1903.0         0.37       3642.3 
      1904.0         0.33       3628.6 
      1905.0         0.33       3647.2 
      1906.0         0.37       3681.9 
      1907.0         0.33       3720.8 
      1908.0         0.37       3724.1 
      1909.0         0.30       3573.6 
      1910.0         0.33       3207.2 
      1911.0         0.37       3147.7 
      1912.0         0.38       2192.7 
      1913.0         0.40       2336.7 
      1914.0         0.53       3559.5 
      1915.0         0.53       4900.5 
      1916.0         2.82       6670.1 
      1917.0         0.87       3567.1 
      1918.0         0.80       2487.8 
      1919.0         0.75       2857.1 
      1920.0         0.57       2965.1 
      1921.0         0.60       2961.2 
      1922.0         0.50       3331.5 
      1923.0         0.47       3583.1 
      1924.0         0.33       3739.5 
      1925.0         0.30       3895.5 
      1926.0         0.42       3902.4 
      1927.0         0.37       3822.2 
      1928.0         0.40       3712.0 
      1929.0         0.43       3681.6 
      1930.0         0.37       3676.3 
      1931.0         0.40       3599.8 
      1932.0         0.37       3511.8 
      1933.0         0.40       3502.6 
      1934.0         0.40       3517.3 
      1935.0         0.42       3591.9 
      1936.0         0.40       3622.7 
      1937.0         0.50       3629.5 
      1938.0         0.43       3757.5 
      1939.0         0.63       3894.2 
      1940.0         0.50       3916.5 
      1941.0         0.33       3373.1 
      1942.0         0.38       2839.2 
      1943.0         0.37       2412.6 
      1944.0         0.33       2677.2 
      1945.0         0.43       4035.9 
      1946.0         4.62       7516.1 
      1947.0         0.30       3158.1 
      1948.0         0.37       3114.6 
      1949.0         0.45       2798.3 
      1950.0         0.43       2661.8 
      1951.0         0.33       2600.3 
      1952.0         0.33       2585.6 
      1953.0         0.47       2592.2 
      1954.0         0.50       2732.8 
      1955.0         0.47       2988.0 
      1956.0         0.40       3082.9 
      1957.0         0.48       3236.6 
      1958.0         0.47       3370.8 
      1959.0         0.30       3430.3 
      1960.0         0.40       3488.5 
      1961.0         0.37       3509.5 
      1962.0         0.37       3550.4 
      1963.0         0.40       3559.5 
      1964.0         0.33       3538.9 
      1965.0         0.32       3527.8 
      1966.0         0.40       3524.9 
      1967.0         0.33       3551.7 
      1968.0         0.33       3583.4 
      1969.0         0.33       3637.7 
      1970.0         0.40       3501.0 
      1971.0         0.37       3092.7 
      1972.0         0.30       2759.0 
      1973.0         0.40       2343.5 
      1974.0         0.42       2929.1 
      1975.0         0.47       4417.3 
      1976.0         4.15       6975.0 
      1977.0         0.73       2910.1 
      1978.0         0.70       2840.8 
      1979.0         0.68       2824.1 
      1980.0         0.70       2745.9 
      1981.0         0.43       3438.5 
      1982.0         0.30       3506.2 
      1983.0         0.27       3671.4 
      1984.0         0.27       3687.1 
      1985.0         0.27       3743.7 
      1986.0         0.43       3809.5 
      1987.0         0.33       3832.7 
      1988.0         0.28       3713.6 
      1989.0         0.30       3612.5 
      1990.0         0.33       3568.0 
      1991.0         0.37       3605.0 
      1992.0         0.33       3668.8 
      1993.0         0.27       3736.2 
      1994.0         0.40       3748.3 
      1995.0         0.37       3730.6 
      1996.0         0.43       3661.9 
      1997.0         0.47       3845.8 
      1998.0         0.58       3957.0 
      1999.0         0.50       3886.0 
      2000.0         0.37       3556.9 
      2001.0         0.40       2274.8 
      2002.0         0.37       2104.4 
