~Version Information
VERS.                      2.0: CWLS Log ASCII Standard - VERSION 2.0
WRAP.                       NO: One line per depth step
~Well Information Block
STRT.FT                15.0000: 
STOP.FT              1211.0000: 
STEP.FT                 0.2500: 
NULL.                -999.2500: 
COMP.          Pioneer Natural Resources: COMPANY
WELL.          Santa Fe 43-27 Tr: WELL
FLD.           Purgatoire River: FIELD
LOC.           2018' FSL & 534' FEL: LOCATION
PROV.                 Colorado: PROVINCE
CNTY.               Las Animas: COUNTRY
SRVC.                Patterson: SERVICE COMPANY
DATE.          Mon Mar 14 15:43:40 2005: LOG DATE
UWI.           05 071 08303 00: UNIQUE WELL ID
~Curve Information Block
DEPT.FT            0 000 00 00: Depth
GR.GAPI                       : Gamma Ray
CCL.                          : Casing Collar Locator
TT3.usec                      : CBL 3' Travel Time
AMP3.mV                       : CBL 3' Amplitude
AMP5.mV                       : CBL 5' Amplitude
~Parameter Information Block
~A  Depth        GR         CCL         TT3         AMP3        AMP5    
# ...
    99.0000     55.8344      0.0000   1325.1425     15.0699      2.3433
    99.2500     55.7795      0.0000   1324.8270     15.0451      2.3828
    99.5000     56.7059      0.0000   1321.8490     14.9831      2.4312
    99.7500     57.8668      0.0000   1313.2747     14.9455      2.4719
   100.0000     58.9489      0.0000   1295.4734     14.9975      2.4905
   100.2500     59.9719      0.0000   1268.9688     15.1601      2.4833
   100.5000     60.8423      0.0000   1243.0201     15.3743      2.4579
   100.7500     61.3622      0.0000   1231.9714     15.5066      2.4264
   101.0000     61.5962      0.0000   1243.0201     15.4227      2.3998
   101.2500     61.8126      0.0000   1268.9688     15.0867      2.3811
   101.5000     61.9334      0.0000   1295.4734     14.5953      2.3640
   101.7500     61.4910      0.0000   1313.2747     14.1110      2.3374
   102.0000     60.3580      0.0000   1321.8687     13.7602      2.2971
   102.2500     59.0121      0.0000   1324.9240     13.5764      2.2496
   102.5000     57.8026      0.0000   1325.5887     13.5130      2.2059
   102.7500     56.5533      0.0000   1324.9246     13.4974      2.1718
   103.0000     55.2808      0.0000   1321.8711     13.4801      2.1468
   103.2500     54.7739      0.0000   1313.2821     13.4452      2.1280
   103.5000     55.8896      0.0000   1295.4912     13.3913      2.1129
   103.7500     58.3489      0.0000   1269.0021     13.3133      2.0994
   104.0000     60.6713      0.0000   1243.0686     13.2034      2.0871
   104.2500     61.4888      0.0000   1232.0264     13.0595      2.0778
   104.5000     60.7213      0.0000   1243.0686     12.8908      2.0730
   104.7500     59.2919      0.0000   1269.0021     12.7195      2.0698
   105.0000     58.0376      0.0000   1295.4912     12.5760      2.0634
   105.2500     57.3421      0.0000   1313.2821     12.4878      2.0518
   105.5000     57.4610      0.0000   1321.8711     12.4663      2.0359
   105.7500     58.3304      0.0000   1324.9246     12.4997      2.0158
   106.0000     59.0386      0.0000   1325.5889     12.5588      1.9907
   106.2500     58.3684      0.0000   1324.9243     12.6103      1.9633
   106.5000     56.1900      0.0000   1321.8701     12.6261      1.9404
   106.7500     53.8275      0.0000   1313.2792     12.5917      1.9270
   107.0000     52.8249      0.0000   1295.4843     12.5158      1.9229
   107.2500     53.6323      0.0000   1268.9890     12.4324      1.9251
   107.5000     55.6512      0.0000   1243.0179     12.3792      1.9301
   107.7500     58.3091      0.0000   1231.7675     12.3693      1.9332
   108.0000     61.6897      0.0000   1241.7678     12.3889      1.9300
   108.2500     66.0954      0.0000   1263.5763     12.4189      1.9202
   108.5000     71.3880      0.0000   1277.3777     12.4454      1.9097
   108.7500     76.8835      0.0000   1264.8488     12.4515      1.9043
   109.0000     81.6190      0.0000   1217.4092     12.4174      1.9052
   109.2500     84.7696      0.0000   1141.4103     12.3365      1.9099
   109.5000     86.2189      0.0000   1059.8489     12.2239      1.9164
   109.7500     86.7508      0.0000   1003.3656     12.1074      1.9228
   110.0000     87.3298      0.0000    990.5400     12.0118      1.9264
   110.2500     88.0997      0.0000   1012.0738     11.9440      1.9282
   110.5000     88.3198      0.0000   1035.1449     11.8879      1.9341
   110.7500     87.4122      0.0000   1028.0714     11.8245      1.9495
   111.0000     85.8495      0.0000    984.4809     11.7631      1.9725
   111.2500     84.7509      0.0000    923.7897     11.7532      1.9961
   111.5000     84.6066      0.0000    870.9366     11.8538      2.0169
   111.7500     84.6989      0.0000    839.5154     12.0865      2.0360
   112.0000     84.0355      0.0000    831.6274     12.4202      2.0539
   112.2500     82.6644      0.0000    845.3760     12.8020      2.0673
   112.5000     81.6780      0.0000    877.0262     13.1956      2.0734
   112.7500     81.9521      0.0000    918.7070     13.5790      2.0736
   113.0000     83.2509      0.0000    961.1820     13.9131      2.0715
   113.2500     84.6577      0.0000   1002.0641     14.1380      2.0702
   113.5000     85.3511      0.0000   1046.8645     14.2186      2.0718
   113.7500     84.5445      0.0000   1098.8804     14.1764      2.0783
   114.0000     81.1698      0.0000   1150.6741     14.0636      2.0924
   114.2500     74.5490      0.0000   1186.8722     13.9159      2.1152
   114.5000     65.5599      0.0000   1194.1082     13.7456      2.1430
   114.7500     56.5356      0.0000   1170.3993     13.5695      2.1690
   115.0000     49.6424      0.0000   1128.1831     13.4209      2.1882
   115.2500     45.4585      0.0000   1088.6721     13.3297      2.2006
   115.5000     43.0268      0.0000   1070.4769     13.2952      2.2084
   115.7500     40.9674      0.0000   1076.7765     13.2854      2.2114
   116.0000     38.4924      0.0000   1089.2800     13.2661      2.2069
   116.2500     35.6237      0.0000   1080.0045     13.2320      2.1934
   116.5000     32.7993      0.0000   1035.3956     13.2048      2.1717
   116.7500     30.5242      0.0000    967.7056     13.2053      2.1454
   117.0000     29.2699      0.0000    901.6200     13.2300      2.1198
   117.2500     29.3518      0.0000    854.0023     13.2550      2.0993
   117.5000     30.8156      0.0000    827.1265     13.2555      2.0844
   117.7500     33.5136      0.0000    815.4174     13.2203      2.0721
   118.0000     37.1533      0.0000    813.8393     13.1520      2.0599
   118.2500     41.2123      0.0000    821.6648     13.0595      2.0461
   118.5000     45.0734      0.0000    840.8683     12.9548      2.0295
   118.7500     48.4346      0.0000    870.0464     12.8514      2.0091
   119.0000     51.4568      0.0000    898.7368     12.7545      1.9835
   119.2500     54.3668      0.0000    911.0741     12.6464      1.9522
   119.5000     56.9851      0.0000    899.0945     12.4913      1.9183
   119.7500     58.8215      0.0000    870.6749     12.2627      1.8886
   120.0000     59.7190      0.0000    841.6054     11.9679      1.8651
   120.2500     60.3064      0.0000    822.0679     11.6470      1.8324
   120.5000     61.5695      0.0000    812.7596     11.3497      1.7612
   120.7500     63.9380      0.0000    810.8382     11.0924      1.6312
   121.0000     67.0181      0.0000    817.3747     10.7982      1.4586
   121.2500     70.1871      0.0000    840.9453     10.2753      1.2953
   121.5000     73.0995      0.0000    893.9904      9.3214      1.1952
   121.7500     75.6032      0.0000    981.0732      7.9303      1.1779
   122.0000     77.4772      0.0000   1088.4139      6.4205      1.2264
   122.2500     78.2385      0.0000   1189.0686      5.3063      1.3106
   122.5000     77.2174      0.0000   1261.4060      4.9716      1.4086
   122.7500     74.2242      0.0000   1301.4373      5.4309      1.5107
   123.0000     70.2852      0.0000   1318.5212      6.3920      1.6141
   123.2500     67.3197      3.0000   1324.0291      7.5118      1.7201
   123.5000     66.7914      0.0000   1324.6771      8.5999      1.8333
   123.7500     68.7306      0.0000   1321.8374      9.6730      1.9574
   124.0000     71.9601      0.0000   1312.2867     10.8904      2.0894
   124.2500     75.0139      0.0000   1288.7202     12.4339      2.2217
   124.5000     76.8787      0.0000   1241.3092     14.4418      2.3526
   124.7500     77.2324      0.0000   1161.0483     17.0326      2.4961
   125.0000     76.3100      0.0000   1044.4990     20.2257      2.6759
   125.2500     74.5249      0.0000    899.5166     23.7083      2.9071
   125.5000     72.0990      0.0000    748.4944     26.7822      3.1913
   125.7500     69.1883      0.0000    621.4611     28.7229      3.5306
   126.0000     66.3876      0.0000    540.1393     29.2374      3.9235
   126.2500     64.7470      0.0000    508.7406     28.5719      4.3301
   126.5000     64.9294      0.0000    520.2394     27.2297      4.6619
   126.7500     66.2940      0.0000    565.9967     25.6330      4.8303
