~Version Information
VERS.                      2.0: CWLS Log ASCII Standard - VERSION 2.0
WRAP.                       NO: One line per depth step
~Well Information Block
STRT.FT               741.2000: 
STOP.FT              2461.0000: 
STEP.FT                 0.1000: 
NULL.                -999.2500: 
COMP.          Petrogulf Corporation: COMPANY
WELL.           Montoya 12-44V: WELL
FLD.           Purgatorie River: FIELD
LOC.           698' FSL & 599' FEL: LOCATION
CNTY.               Las Animas: COUNTY
SRVC.                         : SERVICE COMPANY
DATE.          Mon Aug 09 06:09:04 2004: LOG DATE
UWI.           05 071 08094 00: UNIQUE WELL ID
STAT.                 Colorado: STATE
~Curve Information Block
DEPT.FT            0 000 00 00: Depth
DCAL.in                       : CDL Caliper
RHOB.g/cc                     : CDL Bulk Density
RHOC.g/cc                     : CDL Density Correction
DPOR.pu                       : CDL Density Porosity
GR.GAPI                       : Gamma Ray
NPOR.pu                       : Neutron Porosity
~Parameter Information Block
~A  Depth       DCAL        RHOB        RHOC        DPOR         GR         NPOR    
# ...
  1547.6000      7.8779      2.5040      0.1156      8.8505     99.0283     20.5929
  1547.7000      7.8779      2.4830      0.0928     10.1226     90.3492     19.9159
  1547.8000      7.8633      2.4759      0.0618     10.5530     85.8605     19.9664
  1547.9000      7.8633      2.4762      0.1100     10.5316     87.7388     21.1001
  1548.0000      7.8845      2.4681      0.0558     11.0212     90.1072     22.2890
  1548.1000      7.8845      2.4586      0.0503     11.6016     89.1944     22.4364
  1548.2000      7.8845      2.4618      0.1021     11.4044     85.4694     21.9097
  1548.3000      7.9035      2.4734      0.0838     10.7032     80.4521     21.6790
  1548.4000      7.9035      2.4863      0.0732      9.9199     78.0640     22.1118
  1548.5000      7.8960      2.5039      0.0754      8.8562     79.1761     22.6204
  1548.6000      7.8960      2.5238      0.0871      7.6512     81.1340     22.5436
  1548.7000      7.8960      2.5341      0.1087      7.0249     82.2848     21.8394
  1548.8000      7.9104      2.5337      0.0428      7.0509     81.5814     20.6970
  1548.9000      7.9104      2.5337      0.0754      7.0479     80.6870     19.6266
  1549.0000      7.9306      2.5383      0.0570      6.7678     82.9969     19.3218
  1549.1000      7.9306      2.5446      0.0897      6.3887     85.9546     19.6255
  1549.2000      7.9306      2.5470      0.0732      6.2423     84.9616     19.6288
  1549.3000      7.9369      2.5414      0.0510      6.5838     80.2141     18.7035
  1549.4000      7.9369      2.5257      0.0600      7.5334     77.1039     17.3412
  1549.5000      7.9336      2.5033      0.0233      8.8913     79.2722     16.6300
  1549.6000      7.9336      2.4889      0.0077      9.7607     82.6481     17.0167
  1549.7000      7.9336      2.4921      0.0218      9.5699     81.7552     17.6253
  1549.8000      7.9340      2.5024      0.0623      8.9429     78.6550     17.5474
  1549.9000      7.9340      2.5086      0.0349      8.5714     76.7193     17.5396
  1550.0000      7.9291      2.5157      0.0426      8.1372     74.0502     18.1802
  1550.1000      7.9291      2.5290      0.0568      7.3346     72.9160     18.6001
  1550.2000      7.9291      2.5387      0.0762      6.7483     74.2615     18.3708
  1550.3000      7.8961      2.5377      0.0510      6.8070     71.7097     17.8450
  1550.4000      7.8961      2.5374      0.0396      6.8232     66.6516     17.0658
  1550.5000      7.8856      2.5437      0.0824      6.4444     65.8683     16.0799
  1550.6000      7.8856      2.5451      0.0771      6.3583     70.9517     15.2522
  1550.7000      7.8856      2.5395      0.0542      6.6990     77.6394     14.7179
  1550.8000      7.8832      2.5369      0.0405      6.8522     80.5765     14.6266
  1550.9000      7.8832      2.5385      0.0804      6.7579     79.6612     15.3730
  1551.0000      7.8851      2.5387      0.0769      6.7445     79.8265     16.7088
  1551.1000      7.8851      2.5420      0.0743      6.5445     83.4825     17.4983
  1551.2000      7.8851      2.5520      0.0923      5.9365     86.2348     17.5249
  1551.3000      7.8851      2.5617      0.0961      5.3518     85.9763     17.9458
  1551.4000      7.8851      2.5667      0.1030      5.0490     87.5169     18.6480
  1551.5000      7.8856      2.5677      0.1099      4.9905     91.6684     18.7064
  1551.6000      7.8856      2.5628      0.1003      5.2826     93.0312     18.8809
  1551.7000      7.8856      2.5511      0.1324      5.9953     90.2095     19.7294
  1551.8000      7.8895      2.5363      0.0883      6.8939     87.3163     20.0830
  1551.9000      7.8895      2.5264      0.0728      7.4912     87.1803     19.3535
  1552.0000      7.8894      2.5200      0.0952      7.8792     86.2478     18.9428
  1552.1000      7.8894      2.5104      0.0584      8.4633     80.4050     19.8831
  1552.2000      7.8894      2.5042      0.0477      8.8372     73.7998     21.1317
  1552.3000      7.8952      2.5076      0.0501      8.6330     71.8616     21.2731
  1552.4000      7.8952      2.5096      0.0568      8.5084     73.4678     20.8925
  1552.5000      7.9129      2.5070      0.0453      8.6647     75.9177     20.9532
  1552.6000      7.9129      2.5102      0.0573      8.4731     78.9767     21.1847
  1552.7000      7.9129      2.5154      0.0519      8.1593     81.8121     21.2983
  1552.8000      7.9236      2.5126      0.0474      8.3258     81.6187     21.3180
  1552.9000      7.9236      2.5067      0.0535      8.6821     79.1333     21.0586
  1553.0000      7.9326      2.5048      0.0484      8.7970     78.0870     20.5296
  1553.1000      7.9326      2.5024      0.0774      8.9468     77.9353     20.1706
  1553.2000      7.9326      2.4953      0.0542      9.3784     75.7444     20.1234
  1553.3000      7.9324      2.4905      0.0522      9.6643     73.2020     19.8585
  1553.4000      7.9324      2.4931      0.0401      9.5102     75.0658     19.3056
  1553.5000      7.9312      2.4985      0.0653      9.1791     78.9491     19.1800
  1553.6000      7.9312      2.5037      0.0626      8.8645     78.9060     19.7198
  1553.7000      7.9312      2.5082      0.0607      8.5962     76.2266     20.3138
  1553.8000      7.9316      2.5056      0.0810      8.7506     74.1624     20.5743
  1553.9000      7.9316      2.4924      0.0277      9.5544     71.9735     20.8681
  1554.0000      7.9328      2.4776      0.0617     10.4484     68.0088     21.0268
  1554.1000      7.9328      2.4769      0.0148     10.4881     62.6521     20.7029
  1554.2000      7.9328      2.4910      0.0824      9.6384     59.5872     20.5278
  1554.3000      7.9333      2.5005      0.0665      9.0617     62.0048     20.7107
  1554.4000      7.9333      2.4948      0.0664      9.4081     66.2453     20.7665
  1554.5000      7.9332      2.4801      0.0373     10.2960     67.0697     20.5709
  1554.6000      7.9332      2.4667      0.0457     11.1114     67.9204     20.3207
  1554.7000      7.9332      2.4607      0.0889     11.4711     72.5365     20.6782
  1554.8000      7.9278      2.4645      0.0639     11.2428     75.5897     21.5037
  1554.9000      7.9278      2.4783      0.0784     10.4076     73.0452     21.5039
  1555.0000      7.9183      2.4958      0.0709      9.3481     68.3636     20.6387
  1555.1000      7.9183      2.5095      0.0649      8.5153     68.2764     19.8067
  1555.2000      7.9183      2.5188      0.1059      7.9523     73.9343     19.1917
  1555.3000      7.9272      2.5280      0.0832      7.3962     78.7175     18.8880
  1555.4000      7.9272      2.5371      0.0961      6.8423     79.6709     19.0899
  1555.5000      7.9244      2.5354      0.1201      6.9461     78.1445     19.3438
  1555.6000      7.9244      2.5210      0.1144      7.8177     73.6639     18.9450
  1555.7000      7.9244      2.5088      0.1158      8.5586     68.7485     18.3554
  1555.8000      7.8927      2.5100      0.1043      8.4848     67.6980     18.3973
  1555.9000      7.8927      2.5201      0.1024      7.8711     68.6997     18.8253
  1556.0000      7.8861      2.5228      0.1469      7.7090     69.0843     19.3080
  1556.1000      7.8861      2.5159      0.0657      8.1260     70.1381     19.7020
  1556.2000      7.8861      2.5141      0.1246      8.2378     71.3249     19.8103
  1556.3000      7.8850      2.5173      0.0782      8.0438     70.1922     20.0703
  1556.4000      7.8850      2.5138      0.1038      8.2547     69.0187     20.9666
  1556.5000      7.8901      2.4972      0.0885      9.2626     71.2312     21.9757
  1556.6000      7.8901      2.4636      0.1003     11.2940     74.7610     22.6322
  1556.7000      7.8901      2.4050      0.0504     14.8504     77.9455     23.3848
  1556.8000      7.8887      2.3173      0.0475     20.1644     80.1357     24.5262
  1556.9000      7.8887      2.2111      0.0068     26.6029     79.0009     25.9932
  1557.0000      7.8936      2.0999     -0.0192     33.3394     76.9973     27.6431
  1557.1000      7.8936      1.9820     -0.0582     40.4819     78.2968     29.2215
