~Version Information
VERS.                      2.0: CWLS Log ASCII Standard - VERSION 2.0
WRAP.                       NO: One line per depth step
~Well Information Block
STRT.FT                -7.0000: 
STOP.FT               867.2500: 
STEP.FT                 0.2500: 
NULL.                -999.2500: 
COMP.          Pioneer Natural Resources: COMPANY
WELL.          Claim Jumper 41-22: WELL
FLD.           Purgatorie River: FIELD
LOC.           1120' FNL & 977' FEL--: LOCATION
PROV.                       CO: PROVINCE
CNTY.               Las Animas: COUNTRY
SRVC.          Patterson Wireline: SERVICE COMPANY
DATE.          Mon Jun 27 12:47:30 2005: LOG DATE
UWI.           05 071 08405 00: UNIQUE WELL ID
~Curve Information Block
DEPT.FT            0 000 00 00: Depth
CCL.                          : Casing Collar Locator
TT3.usec                      : CBL 3' Travel Time
AMP3.mV                       : CBL 3' Amplitude
GR.GAPI                       : Gamma Ray
~Parameter Information Block
~A  Depth       CCL         TT3         AMP3         GR     
# ...
   428.5000      0.0000    868.0388      6.5117     46.0985
   428.7500      0.0000    868.1024      6.5294     47.0000
   429.0000      0.0000    868.2498      6.5479     47.5881
   429.2500      0.0000    868.4458      6.5690     47.7400
   429.5000      0.0000    868.6187      6.5903     47.3066
   429.7500      0.0000    868.6971      6.6062     46.4081
   430.0000      0.0000    868.6459      6.6141     45.6131
   430.2500      0.0000    868.4811      6.6195     45.4459
   430.5000      0.0000    868.2562      6.6315     45.8082
   430.7500      0.0000    868.0277      6.6521     46.2696
   431.0000      0.0000    867.8325      6.6711     46.9814
   431.2500      0.0000    867.6882      6.6738     48.9509
   431.5000      0.0000    867.5925      6.6520     53.1826
   431.7500      0.0000    867.4929      6.6078     59.5616
   432.0000      0.0000    867.1321      6.5477     66.5923
   432.2500      0.0000    865.6771      6.4789     72.3529
   432.5000      0.0000    861.1395      6.4090     75.8641
   432.7500      0.0000    850.2230      6.3465     77.3797
   433.0000      0.0000    829.8120      6.2965     77.2939
   433.2500      0.0000    800.0961      6.2588     75.4423
   433.5000      0.0000    766.3891      6.2297     71.9685
   433.7500      0.0000    736.5640      6.2073     68.2128
   434.0000      0.0000    715.8715      6.1926     65.9249
   434.2500      0.0000    704.3641      6.1861     65.8150
   434.5000      0.0000    698.7341      6.1821     67.3014
   434.7500      0.0000    695.7048      6.1702     69.3885
   435.0000      0.0000    694.2604      6.1430     71.3746
   435.2500      0.0000    696.4055      6.1024     72.9443
   435.5000      0.0000    706.3806      6.0571     74.0259
   435.7500      0.0000    727.7750      6.0183     74.5596
   436.0000      0.0000    759.6913      5.9944     74.1933
   436.2500      0.0000    795.5402      5.9852     72.3842
   436.5000      0.0000    826.6130      5.9800     69.1797
   436.7500      0.0000    847.5057      5.9656     65.9277
   437.0000      0.0000    858.2385      5.9396     64.8276
   437.2500      0.0000    861.9907      5.9137     67.3036
   437.5000      0.0000    861.9514      5.9037     72.5909
   437.7500      0.0000    860.2164      5.9159     78.0947
   438.0000      0.0000    858.3395      5.9448     81.4294
   438.2500      0.0000    857.6525      5.9805     82.0885
   438.5000      0.0000    858.6637      6.0169     81.3000
   438.7500      0.0000    860.5132      6.0520     80.9382
   439.0000      0.0000    861.2258      6.0853     82.5779
   439.2500      0.0000    858.1299      6.1154     86.4166
   439.5000      0.0000    847.9969      6.1372     90.4136
   439.7500      0.0000    828.2391      6.1439     91.2932
   440.0000      0.0000    799.8618      6.1344     87.2314
   440.2500      0.0000    769.4485      6.1188     79.4835
   440.5000      0.0000    746.4198      6.1131     71.3230
   440.7500      0.0000    736.5635      6.1277     65.7177
   441.0000      0.0000    738.1715      6.1593     63.8896
   441.2500      0.0000    744.9710      6.1947     65.3763
   441.5000      0.0000    752.4170      6.2209     68.8331
   441.7500      0.0000    760.2354      6.2343     72.7168
   442.0000      0.0000    769.6435      6.2422     75.6959
   442.2500      0.0000    780.1078      6.2543     77.0353
   442.5000      0.0000    788.9747      6.2713     76.7994
   442.7500      0.0000    793.4216      6.2810     75.5257
   443.0000      0.0000    793.2184      6.2697     73.7915
   443.2500      0.0000    791.7578      6.2389     72.2679
   443.5000      0.0000    793.2989      6.2032     71.7506
   443.7500      0.0000    798.9106      6.1737     72.5201
   444.0000      0.0000    805.5807      6.1478     73.7923
   444.2500      0.0000    809.2713      6.1166     74.2946
   444.5000      0.0000    808.9893      6.0777     73.4034
   444.7500      0.0000    808.0996      6.0394     71.4600
   445.0000      0.0000    810.4840      6.0133     69.1719
   445.2500      0.0000    814.8066      6.0041     67.1081
   445.5000      0.0000    814.4354      6.0049     65.7586
   445.7500      0.0000    804.1890      6.0027     65.7146
   446.0000      0.0000    785.9149      5.9913     67.4298
   446.2500      0.0000    766.6071      5.9794     70.5998
   446.5000      0.0000    752.3622      5.9871     73.9132
   446.7500      0.0000    745.1198      6.0342     75.8637
   447.0000      0.0000    744.0374      6.1317     76.0106
   447.2500      0.0000    747.9318      6.2814     75.3232
   447.5000      0.0000    755.6543      6.4796     75.2130
   447.7500      0.0000    765.0359      6.7127     76.2574
   448.0000      0.0000    773.2518      6.9335     77.7199
   448.2500      0.0000    779.5496      7.0609     78.1882
   448.5000      0.0000    787.8719      7.0438     76.8808
   448.7500      0.0000    805.8338      6.9356     74.5596
   449.0000      0.0000    839.1332      6.8630     73.0245
   449.2500      0.0000    884.9182      6.9031     73.4555
   449.5000      0.0000    930.3809      7.0239     75.3154
   449.7500      0.0000    959.6982      7.1495     76.9503
   450.0000      0.0000    964.9545      7.2452     77.1532
   450.2500      0.0000    952.1338      7.3314     76.1111
   450.5000     -2.0000    935.9901      7.4401     75.0525
   450.7500      0.0000    927.5811      7.5646     75.1781
   451.0000      0.0000    926.3721      7.6644     76.9250
   451.2500      0.0000    924.0670      7.7394     79.9616
   451.5000      0.0000    914.7130      7.8768     83.4150
   451.7500      0.0000    900.0448      8.1601     86.2125
   452.0000      0.0000    886.0613      8.5291     87.8675
   452.2500      0.0000    876.5253      8.7976     89.1360
   452.5000      0.0000    870.5171      8.8217     91.3397
   452.7500      0.0000    864.4044      8.6110     94.7318
   453.0000      0.0000    854.3447      8.2861     97.8503
   453.2500      0.0000    837.7758      7.9736     98.8281
   453.5000      0.0000    815.1556      7.7417     97.1413
   453.7500      0.0000    791.0538      7.5970     93.7350
   454.0000      0.0000    771.8992      7.5127     89.8884
   454.2500      0.0000    761.2763      7.4561     86.7278
   454.5000      0.0000    757.3981      7.4053     85.4254
   454.7500      0.0000    755.3015      7.3581     86.6171
   455.0000      0.0000    751.0601      7.3298     89.3177
   455.2500      0.0000    744.0113      7.3344     91.0751
   455.5000      0.0000    735.9540      7.3658     89.7607
   455.7500      0.0000    729.1342      7.4008     85.3849
   456.0000      0.0000    724.8856      7.4224     80.1414
   456.2500      0.0000    723.4722      7.4354     76.7025
   456.5000      0.0000    724.9151      7.4568     76.5511
   456.7500      0.0000    729.8755      7.4943     79.5541
   457.0000      0.0000    739.3965      7.5353     84.4023
   457.2500      0.0000    753.5900      7.5591     89.3462
   457.5000      0.0000    770.9360      7.5555     93.0200
   457.7500      0.0000    789.2121      7.5321     94.8085
   458.0000      0.0000    807.0847      7.5052     94.5420
   458.2500      0.0000    824.5240      7.4873     92.2068
   458.5000      0.0000    841.4813      7.4810     88.0841
   458.7500      0.0000    856.3981      7.4807     83.0115
   459.0000      0.0000    866.6141      7.4814     78.2950
   459.2500      0.0000    870.8579      7.4859     74.9473
   459.5000      0.0000    871.3135      7.5013     72.7669
   459.7500      0.0000    872.4847      7.5276     70.6225
   460.0000      0.0000    877.4778      7.5528     68.0011
   460.2500      0.0000    885.4758      7.5618     65.8402
   460.5000      0.0000    892.7178      7.5519     65.4124
   460.7500      0.0000    895.2986      7.5363     66.7082
   461.0000      0.0000    890.9306      7.5313     68.3980
   461.2500      0.0000    879.1633      7.5423     69.2881
   461.5000      0.0000    861.4850      7.5622     69.4819
   461.7500      0.0000    841.6603      7.5806     70.0097
