~Version Information
VERS.                      2.0: CWLS Log ASCII Standard - VERSION 2.0
WRAP.                       NO: One line per depth step
~Well Information Block
STRT.FT               650.0000: 
STOP.FT              2000.5000: 
STEP.FT                 0.1000: 
NULL.                -999.2500: 
COMP.          Pioneer Natural Resources: COMPANY
WELL.           Firehawk 34-26: WELL
FLD.           Purgatoire River: FIELD
LOC.           1196' FSL & 1595' FEL--: LOCATION
STAT.                 Colorado: State
CNTY.               Las Animas: COUNTY
CTRY. USA : Country
SECT. 26 : Section
TOWN. 32S : Township
RANG. 66W : Range
SRVC.                Patterson: SERVICE COMPANY
DATE.          Mon Oct 17 07:23:34 2005: LOG DATE
API.           05 071 08389 00: UNIQUE WELL ID
~Curve Information Block
DEPT.FT            0 000 00 00: Depth
DCAL.in                       : CDL Caliper
RHOB.g/cc                     : CDL Bulk Density
RHOC.g/cc                     : CDL Density Correction
DPOR.pu                       : CDL Density Porosity
NPOR.pu                       : Neutron Porosity
GR.GAPI                       : Gamma Ray
~Parameter Information Block
~A  Depth       DCAL        RHOB        RHOC        DPOR        NPOR         GR     
# ...
   822.8000      8.0222      2.8247      0.0450    -10.5874     69.7587     66.9580
   822.9000      8.0222      2.7660     -0.0238     -7.0279     69.7587     61.2197
   823.0000      8.0214      2.7259     -0.1070     -4.5986     69.7587     61.3198
   823.1000      8.0214      2.6960     -0.1232     -2.7895     69.7587     63.5479
   823.2000      8.0214      2.6645     -0.1404     -0.8764     69.7587     66.9231
   823.3000      8.0207      2.6261     -0.1709      1.4504     69.7587     71.3092
   823.4000      8.0207      2.5861     -0.1266      3.8732     69.7587     75.8156
   823.5000      8.0266      2.5516     -0.0496      5.9621     69.7587     80.0449
   823.6000      8.0266      2.5237      0.0169      7.6538     69.7587     85.2756
   823.7000      8.0266      2.4955      0.0404      9.3631     69.7587     90.9305
   823.8000      8.0433      2.4652      0.0121     11.1973     69.7587     94.0598
   823.9000      8.0433      2.4447      0.0281     12.4394     69.7587     93.3859
   824.0000      8.0639      2.4423      0.0389     12.5849     69.7587     90.2841
   824.1000      8.0639      2.4512      0.0421     12.0511     69.7587     88.9937
   824.2000      8.0639      2.4498      0.0737     12.1341     69.7587     94.8578
   824.3000      8.0773      2.4130      0.0357     14.3637     69.7587    104.9191
   824.4000      8.0773      2.3232      0.0527     19.8076     69.7587    108.7362
   824.5000      8.0885      2.1769     -0.0249     28.6752     69.7587    103.7033
   824.6000      8.0885      1.9992     -0.1278     39.4443     69.7587     97.3918
   824.7000      8.0885      1.8268     -0.1857     49.8934     69.7587     94.8235
   824.8000      8.1202      1.6844     -0.2253     58.5226     69.7587     93.1072
   824.9000      8.1202      1.5951     -0.1944     63.9324     69.7587     89.4295
   825.0000      8.2324      1.5810     -0.1864     64.7905     69.7587     85.1142
   825.1000      8.2324      1.6494     -0.1336     60.6448     69.7587     84.3213
   825.2000      8.2324      1.7902      0.0311     52.1104     69.7587     88.2724
   825.3000      8.4889      1.9762      0.2696     40.8342     69.7587     92.1476
   825.4000      8.4889      2.1616      0.4784     29.5988     69.7587     92.5109
   825.5000      8.7717      2.3029      0.4659     21.0358     69.7587     90.6578
   825.6000      8.7717      2.3883      0.4252     15.8621     69.7587     88.5139
   825.7000      8.7717      2.4333      0.3141     13.1349     69.7587     87.0180
   825.8000      8.8373      2.4608      0.2222     11.4655     69.7587     87.3827
   825.9000      8.8373      2.4803      0.1852     10.2837     69.7587     87.3619
   826.0000      8.6256      2.4918      0.0915      9.5863     69.7587     86.2997
   826.1000      8.6256      2.4988      0.1018      9.1626     69.7587     86.8986
   826.2000      8.6256      2.5004      0.1147      9.0694     69.7587     89.4214
   826.3000      8.3353      2.4948      0.1121      9.4083     69.7587     93.4162
   826.4000      8.3353      2.4927      0.0885      9.5345     69.7587     97.5647
   826.5000      8.1731      2.5093      0.0949      8.5267     69.7587     99.0086
   826.6000      8.1731      2.5395      0.1471      6.6996     69.7587     97.9576
   826.7000      8.1731      2.5665      0.1353      5.0591     69.7587     96.2270
   826.8000      8.1149      2.5902      0.1456      3.6235     69.7587     95.4562
   826.9000      8.1149      2.6120      0.1694      2.3036     69.7587     94.6566
   827.0000      8.0886      2.6204      0.1682      1.7943     69.7587     90.3755
   827.1000      8.0886      2.6104      0.1284      2.3972     69.7587     86.7614
   827.2000      8.0886      2.5919      0.1064      3.5221     69.7587     88.3755
   827.3000      8.0785      2.5797      0.0506      4.2578     69.7587     90.7161
   827.4000      8.0785      2.5765      0.0432      4.4544     69.7587     90.7160
   827.5000      8.0759      2.5704      0.0822      4.8271     69.7587     90.2599
   827.6000      8.0759      2.5585      0.0485      5.5463     69.7587     92.9495
   827.7000      8.0759      2.5536      0.0084      5.8406     69.7587     98.8075
   827.8000      8.0756      2.5641      0.0013      5.2083     69.7587    101.0104
   827.9000      8.0756      2.5779      0.0162      4.3690     69.7587     97.4066
   828.0000      8.0772      2.5753      0.0276      4.5246     69.7587     93.9833
   828.1000      8.0772      2.5547      0.0191      5.7769     69.7587     94.2597
   828.2000      8.0772      2.5364     -0.0369      6.8876     69.7587     95.5436
   828.3000      8.0769      2.5387     -0.0001      6.7471     69.7587     93.4183
   828.4000      8.0769      2.5523      0.0397      5.9212     69.7587     89.9966
   828.5000      8.0766      2.5572      0.0055      5.6236     69.7587     89.8444
   828.6000      8.0766      2.5511     -0.0063      5.9927     69.7587     89.9452
   828.7000      8.0766      2.5438      0.0401      6.4392     69.7587     87.5505
   828.8000      8.0778      2.5427      0.0251      6.5056     69.7587     85.9982
   828.9000      8.0778      2.5549      0.0259      5.7631     69.7587     85.9751
   829.0000      8.0772      2.5796      0.0454      4.2692     69.7587     85.0066
   829.1000      8.0772      2.6015      0.0667      2.9417     69.7587     83.3907
   829.2000      8.0772      2.6050      0.0648      2.7297     69.7587     83.4667
   829.3000      8.0771      2.5858      0.0392      3.8921     69.7587     84.8267
   829.4000      8.0771      2.5591     -0.0318      5.5108     69.7587     85.4694
   829.5000      8.0782      2.5536     -0.0400      5.8439     69.7587     85.4607
   829.6000      8.0782      2.5678      0.0571      4.9811     69.7587     83.6964
   829.7000      8.0782      2.5713      0.0501      4.7712     69.7587     78.9633
   829.8000      8.0778      2.5597      0.0096      5.4709     69.7587     75.7829
   829.9000      8.0778      2.5530     -0.0016      5.8771     69.7587     78.7610
   830.0000      8.0794      2.5565      0.0255      5.6651     69.7587     84.0678
   830.1000      8.0794      2.5589      0.0064      5.5206     69.7587     84.8686
   830.2000      8.0794      2.5544      0.0221      5.7969     69.7587     81.8201
   830.3000      8.0837      2.5465      0.0345      6.2703     69.7587     82.7323
   830.4000      8.0837      2.5423      0.0209      6.5250     69.7587     90.3166
   830.5000      8.0901      2.5469      0.0383      6.2488     69.7587     96.4702
   830.6000      8.0901      2.5630      0.0241      5.2739     69.7587     94.6631
   830.7000      8.0901      2.5940      0.0557      3.3950     69.7587     90.6549
   830.8000      8.0981      2.6318      0.0637      1.1007     69.7587     90.8439
   830.9000      8.0981      2.6591      0.0631     -0.5486     69.7587     92.1125
   831.0000      8.1025      2.6674      0.0734     -1.0517     69.7587     91.6767
   831.1000      8.1025      2.6589      0.0727     -0.5399     69.7587     91.0438
   831.2000      8.1025      2.6450      0.0356      0.3037     69.7587     91.3899
   831.3000      8.0981      2.6319      0.1006      1.0945     69.7587     93.3650
   831.4000      8.0981      2.6142      0.0438      2.1698     69.7587     95.3238
   831.5000      8.0883      2.5979      0.0257      3.1555     69.7587     93.4572
   831.6000      8.0883      2.5974      0.0417      3.1895     69.7587     87.6431
   831.7000      8.0883      2.6124      0.0405      2.2760     69.7587     83.2683
   831.8000      8.0812      2.6263      0.0678      1.4347     69.7587     82.3887
   831.9000      8.0812      2.6239      0.0767      1.5798     69.7587     82.3406
   832.0000      8.0770      2.6089      0.0715      2.4935     69.7587     82.2495
   832.1000      8.0770      2.5968      0.0146      3.2241     69.7587     84.3596
   832.2000      8.0770      2.5973      0.0524      3.1960     69.7587     91.4457
   832.3000      8.0758      2.6034      0.0567      2.8258     69.7587     99.4539
