~Version Information
 VERS.                      2.0: CWLS Log ASCII Standard - VERSION 2.0
 WRAP.                       NO: One line per depth step
 ~Well Information Block
 STRT.FT               462.4000: 
 STOP.FT              2260.5000: 
 STEP.FT                 0.1000: 
 NULL.                -999.2500: 
 COMP.          Petrogulf Corporation: COMPANY
 WELL.             McLeod 9-42V: WELL
 FLD.           Purgatorie River: FIELD
 LOC.           1658' FNL & 415' FEL: LOCATION
 CNTY.               Las Animas: COUNTY
 SRVC.                         : SERVICE COMPANY
 DATE.          Fri Nov 12 10:12:24 2004: LOG DATE
 UWI.           05 071 08071 00: UNIQUE WELL ID
 STAT.                 Colorado: STATE
 PROV.                         :Province
 ~Curve Information Block
 DEPT.FT            0 000 00 00: Depth
 DCAL.in                       : CDL Caliper
 RHOB.g/cc                     : CDL Bulk Density
 RHOC.g/cc                     : CDL Density Correction
 DPOR.pu                       : CDL Density Porosity
 GR.GAPI                       : Gamma Ray
 NPOR.pu                       : Neutron Porosity
 ~Parameter Information Block
 ~A  Depth       DCAL        RHOB        RHOC        DPOR         GR         NPOR    
# ...
  1777.6000      7.9713      2.4927      0.0289      9.5353    146.4998     26.5537
  1777.7000      7.9713      2.4887      0.0572      9.7773    148.7527     26.9255
  1777.8000      7.9848      2.5055      0.0989      8.7557    149.9896     27.1307
  1777.9000      7.9848      2.5331      0.1064      7.0836    148.3391     26.7533
  1778.0000      7.9945      2.5717      0.1017      4.7468    147.0304     26.1685
  1778.1000      7.9945      2.6141      0.2069      2.1772    147.0061     25.9883
  1778.2000      7.9945      2.6347      0.1533      0.9270    147.6944     26.1528
  1778.3000      8.0275      2.6273      0.1449      1.3741    150.4811     26.3441
  1778.4000      8.0275      2.6057      0.1384      2.6864    154.3041     26.4479
  1778.5000      8.0152      2.5815      0.0878      4.1493    156.7816     26.2078
  1778.6000      8.0152      2.5646      0.0865      5.1729    158.1848     25.6479
  1778.7000      8.0152      2.5641      0.0817      5.2074    159.5762     25.3249
  1778.8000      8.0175      2.5786      0.0352      4.3264    161.3470     25.7303
  1778.9000      8.0175      2.5894      0.0539      3.6725    162.7708     26.7332
  1779.0000      8.0010      2.5832      0.0323      4.0468    162.7186     27.7344
  1779.1000      8.0010      2.5775      0.0309      4.3916    161.5069     28.3615
  1779.2000      8.0010      2.5879      0.0328      3.7607    159.9076     28.6281
  1779.3000      8.0222      2.5962      0.0579      3.2636    157.0136     28.5058
  1779.4000      8.0222      2.5824      0.0510      4.0953    152.5602     28.0487
  1779.5000      8.0556      2.5562      0.0264      5.6869    150.3112     27.5649
  1779.6000      8.0556      2.5389     -0.0129      6.7354    152.5272     27.2927
  1779.7000      8.0556      2.5404      0.0181      6.6403    156.4301     27.1021
  1779.8000      8.0797      2.5495      0.0397      6.0906    157.2283     26.8001
  1779.9000      8.0797      2.5481      0.0258      6.1786    153.0875     26.3499
  1780.0000      8.0616      2.5325      0.0064      7.1198    147.8008     25.7326
  1780.1000      8.0616      2.5147      0.0124      8.2001    145.0237     25.1180
  1780.2000      8.0616      2.5085      0.0113      8.5751    145.3495     24.6631
  1780.3000      8.0159      2.5183      0.0151      7.9807    147.1786     24.3546
  1780.4000      8.0159      2.5390      0.0173      6.7285    148.1170     24.3475
  1780.5000      8.0239      2.5672      0.0280      5.0152    147.2473     24.8102
  1780.6000      8.0239      2.5986      0.0394      3.1149    146.3215     25.4276
  1780.7000      8.0239      2.6180      0.0778      1.9393    147.8370     25.5897
  1780.8000      8.0229      2.6132      0.0920      2.2282    151.5497     25.5406
  1780.9000      8.0229      2.5932      0.0742      3.4448    154.8225     25.8549
  1781.0000      8.0307      2.5744      0.0835      4.5828    154.1418     26.3738
  1781.1000      8.0307      2.5565      0.0718      5.6681    149.9572     26.6811
  1781.2000      8.0307      2.5375      0.0159      6.8161    148.9571     26.5737
  1781.3000      7.9711      2.5292      0.0164      7.3239    151.9048     26.1983
  1781.4000      7.9711      2.5350      0.0494      6.9723    150.8412     25.6270
  1781.5000      7.9656      2.5427      0.0215      6.5039    144.5855     24.7535
  1781.6000      7.9656      2.5424      0.0531      6.5186    140.4344     24.0425
  1781.7000      7.9656      2.5245      0.0900      7.6088    141.4251     24.1422
  1781.8000      7.9396      2.4854      0.0150      9.9761    144.9537     24.6474
  1781.9000      7.9396      2.4519      0.0096     12.0045    145.9750     24.5975
  1782.0000      7.9266      2.4557      0.0505     11.7727    142.2630     23.9621
  1782.1000      7.9266      2.4935      0.1142      9.4862    140.6388     23.6140
  1782.2000      7.9266      2.5387      0.0950      6.7459    145.6117     23.7065
  1782.3000      7.9257      2.5749      0.1340      4.5528    151.7010     23.7578
  1782.4000      7.9257      2.5952      0.1719      3.3239    152.6447     24.1492
  1782.5000      7.9321      2.5911      0.1425      3.5703    148.8964     25.1602
  1782.6000      7.9321      2.5649      0.1299      5.1586    144.4334     25.9346
  1782.7000      7.9321      2.5359      0.1360      6.9163    140.8048     26.0119
  1782.8000      7.9562      2.5216      0.1099      7.7802    138.7478     25.8906
  1782.9000      7.9562      2.5221      0.1239      7.7532    139.8771     25.8718
  1783.0000      7.9589      2.5290      0.0810      7.3336    142.3584     25.7736
  1783.1000      7.9589      2.5388      0.0798      6.7371    142.6089     25.5581
  1783.2000      7.9589      2.5502      0.0721      6.0507    141.2464     25.1655
  1783.3000      7.9386      2.5601      0.0756      5.4459    140.5372     24.5486
  1783.4000      7.9386      2.5692      0.0642      4.8981    137.7152     24.0697
  1783.5000      7.9251      2.5787      0.0965      4.3234    130.7700     23.7677
  1783.6000      7.9251      2.5859      0.0980      3.8826    125.5743     23.3639
  1783.7000      7.9251      2.5952      0.0906      3.3183    125.6034     23.0224
  1783.8000      7.9214      2.6092      0.1119      2.4699    127.4997     23.0806
  1783.9000      7.9214      2.6181      0.0861      1.9303    128.4893     23.3532
  1784.0000      7.9219      2.6084      0.1404      2.5221    128.8338     23.4031
  1784.1000      7.9219      2.5756      0.0472      4.5079    129.7270     23.1875
  1784.2000      7.9219      2.5378      0.0176      6.8028    131.5933     22.9524
  1784.3000      7.9356      2.5175     -0.0227      8.0274    132.9867     22.9569
  1784.4000      7.9356      2.5239      0.0216      7.6405    132.9893     23.1241
  1784.5000      7.9390      2.5456      0.0346      6.3284    132.6128     23.1880
  1784.6000      7.9390      2.5575      0.0499      5.6065    131.1938     23.1858
  1784.7000      7.9390      2.5479     -0.0043      6.1909    130.0735     23.2163
  1784.8000      7.9519      2.5289      0.0245      7.3373    130.7899     23.0241
  1784.9000      7.9519      2.5177     -0.0087      8.0202    130.2028     22.5782
  1785.0000      7.9646      2.5205     -0.0233      7.8500    127.8158     22.1304
  1785.1000      7.9646      2.5343      0.0162      7.0099    126.4716     21.8505
  1785.2000      7.9646      2.5553      0.0633      5.7396    128.6780     22.1816
  1785.3000      7.9877      2.5757      0.1059      4.5050    134.8292     23.2190
  1785.4000      7.9877      2.5826      0.0920      4.0865    140.0010     24.3516
  1785.5000      8.0166      2.5724      0.0702      4.7013    139.5111     25.2252
  1785.6000      8.0166      2.5565      0.0875      5.6653    135.8735     25.8242
  1785.7000      8.0166      2.5472      0.0564      6.2293    134.7589     26.0342
  1785.8000      8.0536      2.5414      0.0521      6.5810    138.6004     25.9688
  1785.9000      8.0536      2.5275      0.0228      7.4240    145.2482     26.0566
  1786.0000      8.0427      2.5074     -0.0241      8.6402    150.4948     26.4215
  1786.1000      8.0427      2.4973     -0.0114      9.2522    153.6454     26.6983
  1786.2000      8.0427      2.5023      0.0294      8.9532    155.9583     26.6745
  1786.3000      8.0828      2.5096     -0.0239      8.5073    155.0900     26.3547
  1786.4000      8.0828      2.5152     -0.0098      8.1698    150.6635     25.6098
  1786.5000      7.9940      2.5252      0.0373      7.5634    146.1170     24.5919
  1786.6000      7.9940      2.5447      0.0406      6.3834    143.9836     23.7977
  1786.7000      7.9940      2.5736      0.0732      4.6329    145.5999     23.2271
  1786.8000      7.9198      2.6077      0.1024      2.5631    147.3768     22.4901
  1786.9000      7.9198      2.6457      0.0988      0.2612    143.4870     21.6079
  1787.0000      7.8893      2.6782      0.1639     -1.7074    135.1947     21.1650
  1787.1000      7.8893      2.6825      0.1539     -1.9685    129.8519     21.5692
