~Version Information
 VERS.                      2.0: CWLS Log ASCII Standard - VERSION 2.0
 WRAP.                       NO: One line per depth step
 ~Well Information Block
 STRT.FT               465.6000: 
 STOP.FT              1777.2000: 
 STEP.FT                 0.1000: 
 NULL.                -999.2500: 
 COMP.          Petrogulf Corporation: COMPANY
 WELL.          Alexander 9-43R: WELL
 FLD.           Purgatorie River: FIELD
 LOC.           1652' FSL & 1049' FEL: LOCATION
 CNTY.               Las Animas: COUNTY
 SRVC.                         : SERVICE COMPANY
 DATE.          Fri Sep 03 15:08:45 2004: LOG DATE
 UWI.           05 071 08036 00: UNIQUE WELL ID
 STAT.                 Colorado: STATE
 PROV.                         :Province
 ~Curve Information Block
 DEPT.FT            0 000 00 00: Depth
 DCAL.in                       : CDL Caliper
 RHOB.g/cc                     : CDL Bulk Density
 RHOC.g/cc                     : CDL Density Correction
 DPOR.pu                       : CDL Density Porosity
 GR.GAPI                       : Gamma Ray
 NPOR.pu                       : Neutron Porosity
 ~Parameter Information Block
 ~A  Depth       DCAL        RHOB        RHOC        DPOR         GR         NPOR    
# ...
   744.0000      7.9571      2.6532      0.1318     -0.1943    105.7548     33.0784
   744.1000      7.9571      2.7613      0.1387     -6.7449    105.0741     33.7160
   744.2000      7.9571      2.8426      0.2967    -11.6719    105.7137     33.7198
   744.3000      7.9351      2.8681      0.2896    -13.2204    105.5769     33.3900
   744.4000      7.9351      2.8339      0.2248    -11.1445    105.4479     33.2376
   744.5000      7.9217      2.7708      0.1741     -7.3217    105.8975     33.0065
   744.6000      7.9217      2.7139      0.0519     -3.8697    105.0745     32.4196
   744.7000      7.9217      2.6762     -0.0534     -1.5892    104.4182     31.9626
   744.8000      7.9110      2.6479     -0.0812      0.1263    108.3674     32.0137
   744.9000      7.9110      2.6206     -0.1250      1.7793    115.4559     31.8103
   745.0000      7.9347      2.6087     -0.1009      2.5010    120.0344     30.6665
   745.1000      7.9347      2.6234      0.0040      1.6112    123.0992     29.0292
   745.2000      7.9347      2.6490      0.0829      0.0617    127.5872     27.5130
   745.3000      8.0100      2.6613      0.1141     -0.6824    131.0154     26.5990
   745.4000      8.0100      2.6506      0.0902     -0.0367    133.6626     26.4031
   745.5000      8.0590      2.6118      0.1213      2.3162    136.8021     26.3595
   745.6000      8.0590      2.5407      0.0752      6.6256    137.8539     26.0436
   745.7000      8.0590      2.4612      0.0396     11.4447    139.0453     25.8261
   745.8000      7.9796      2.4089      0.0672     14.6093    144.7103     26.1608
   745.9000      7.9796      2.3939      0.0761     15.5240    150.6522     26.9078
   746.0000      7.9706      2.4054      0.0813     14.8261    150.2624     27.6194
   746.1000      7.9706      2.4290      0.1079     13.3960    144.8864     27.9168
   746.2000      7.9706      2.4592      0.0878     11.5642    140.3411     27.8424
   746.3000      7.9817      2.5008      0.1332      9.0442    138.7933     27.8249
   746.4000      7.9817      2.5439      0.2212      6.4284    139.0281     27.9984
   746.5000      8.0442      2.5646      0.1952      5.1766    140.5450     28.0545
   746.6000      8.0442      2.5649      0.1836      5.1599    142.5586     27.7274
   746.7000      8.0442      2.5687      0.1758      4.9282    143.7638     27.2803
   746.8000      8.0554      2.5780      0.2184      4.3636    141.7775     27.0616
   746.9000      8.0554      2.5745      0.2016      4.5744    138.4236     26.8717
   747.0000      8.0593      2.5514      0.1329      5.9784    140.7699     26.5369
   747.1000      8.0593      2.5147      0.0836      8.2018    149.9984     26.6067
   747.2000      8.0593      2.4748      0.0664     10.6170    158.4461     27.3497
   747.3000      8.0605      2.4478      0.0276     12.2569    157.8479     28.0996
   747.4000      8.0605      2.4483      0.0321     12.2269    149.4939     28.5320
   747.5000      8.0614      2.4696      0.0441     10.9355    141.1344     28.8021
   747.6000      8.0614      2.4909      0.0600      9.6423    139.3040     28.9663
   747.7000      8.0614      2.5043      0.1033      8.8322    148.1087     29.1202
   747.8000      8.1047      2.5163      0.0762      8.1003    158.4439     29.1503
   747.9000      8.1047      2.5365      0.1068      6.8811    155.2467     29.0178
   748.0000      8.1072      2.5681      0.1019      4.9654    143.2425     29.0562
   748.1000      8.1072      2.5955      0.1501      3.3018    137.4574     29.4330
   748.2000      8.1072      2.6010      0.1091      2.9713    140.2049     30.1508
   748.3000      8.0849      2.5913      0.1167      3.5561    142.5296     31.1094
   748.4000      8.0849      2.5804      0.1025      4.2208    138.8986     32.0537
   748.5000      8.0815      2.5837      0.0474      4.0179    133.5627     32.8655
   748.6000      8.0815      2.6092      0.1094      2.4716    131.4015     33.2887
   748.7000      8.0815      2.6408      0.0761      0.5586    129.1904     33.1189
   748.8000      8.0848      2.6641      0.0755     -0.8530    123.0439     32.7079
   748.9000      8.0848      2.6774      0.1105     -1.6616    115.4246     32.4161
   749.0000      8.0811      2.6840      0.0840     -2.0601    110.4714     32.1442
   749.1000      8.0811      2.6834      0.1407     -2.0233    111.6277     31.5844
   749.2000      8.0811      2.6664      0.1055     -0.9935    118.1028     30.7572
   749.3000      8.0743      2.6403      0.0358      0.5895    121.6101     30.1246
   749.4000      8.0743      2.6249      0.0451      1.5191    117.4016     29.8636
   749.5000      8.0744      2.6252     -0.0073      1.5020    111.4779     29.6825
   749.6000      8.0744      2.6357      0.0062      0.8696    107.6803     29.2606
   749.7000      8.0744      2.6507      0.0175     -0.0440    103.6045     28.5650
   749.8000      8.0857      2.6585      0.0765     -0.5164    100.5185     27.8109
   749.9000      8.0857      2.6403      0.0419      0.5894    103.6893     27.2521
   750.0000      8.0925      2.5927      0.0786      3.4753    112.2064     27.1005
   750.1000      8.0925      2.5402     -0.0362      6.6531    117.8193     27.3769
   750.2000      8.0925      2.5110      0.0191      8.4235    116.8904     27.6937
   750.3000      8.0641      2.5054      0.0077      8.7608    115.4064     27.5314
   750.4000      8.0641      2.5115      0.0093      8.3919    117.1674     27.0512
   750.5000      8.0631      2.5215      0.0517      7.7866    119.3643     26.9532
   750.6000      8.0631      2.5323      0.0598      7.1356    120.0931     27.1380
   750.7000      8.0631      2.5482      0.0463      6.1672    118.7962     26.9480
   750.8000      8.0614      2.5733      0.1235      4.6512    114.2296     26.5230
   750.9000      8.0614      2.6016      0.1336      2.9323    108.0171     26.2122
   751.0000      8.0603      2.6248      0.1854      1.5294    106.7705     25.9660
   751.1000      8.0603      2.6390      0.1701      0.6662    112.3773     25.8388
   751.2000      8.0603      2.6499      0.1927      0.0052    116.6811     25.7036
   751.3000      8.0642      2.6667      0.1533     -1.0129    115.1610     25.1961
   751.4000      8.0642      2.6920      0.2011     -2.5456    112.5089     24.6580
   751.5000      8.0676      2.7107      0.2335     -3.6813    111.1944     24.5560
   751.6000      8.0676      2.7063      0.1832     -3.4111    110.9755     24.6050
   751.7000      8.0676      2.6843      0.1529     -2.0776    113.2571     24.4372
   751.8000      8.0716      2.6611      0.1144     -0.6746    117.2704     24.2256
   751.9000      8.0716      2.6438      0.1319      0.3746    121.4786     24.1971
   752.0000      8.0741      2.6324      0.1065      1.0667    126.6108     24.5136
   752.1000      8.0741      2.6344      0.0087      0.9470    130.6976     25.3349
   752.2000      8.0741      2.6458      0.0932      0.2543    129.7048     26.1725
   752.3000      8.0719      2.6377      0.1060      0.7429    124.5584     26.2888
   752.4000      8.0719      2.6074     -0.0059      2.5825    118.4484     25.9944
   752.5000      8.0700      2.5839      0.0488      4.0072    113.7638     26.0134
   752.6000      8.0700      2.5728      0.1054      4.6759    112.6387     26.2505
   752.7000      8.0700      2.5617      0.1009      5.3518    112.9955     26.2870
   752.8000      8.0691      2.5552      0.0274      5.7465    112.8269     26.0174
   752.9000      8.0691      2.5634      0.1067      5.2510    110.2516     25.7167
   753.0000      8.0677      2.5732      0.0667      4.6551    103.3295     25.6879
   753.1000      8.0677      2.5714      0.0989      4.7607     96.2082     25.7286
   753.2000      8.0677      2.5645      0.1101      5.1801     92.8004     25.3873
   753.3000      8.0720      2.5576      0.0810      5.6017     91.0683     24.5190
   753.4000      8.0720      2.5374      0.1207      6.8271     91.1018     23.5976
   753.5000      8.0741      2.4934      0.0963      9.4925     93.8041     22.8822
