~Version Information
VERS.                      2.0: CWLS Log ASCII Standard - VERSION 2.0
WRAP.                       NO: One line per depth step
~Well Information Block
STRT.FT                12.0000: 
STOP.FT              1671.7500: 
STEP.FT                 0.2500: 
NULL.                -999.2500: 
COMP.          Pioneer Natural Resources: COMPANY
WELL.          Scott Canyon 11-18 Tr: WELL
FLD.           Purgatoire River: FIELD
LOC.           411' FNL & 580' FWL: LOCATION
PROV.                 Colorado: PROVINCE
CNTY.               Las Animas: COUNTRY
SRVC.                Patterson: SERVICE COMPANY
DATE.          Tue Feb 22 09:52:18 2005: LOG DATE
UWI.           05 071 08286 00: UNIQUE WELL ID
~Curve Information Block
DEPT.FT            0 000 00 00: Depth
GR.GAPI                       : Gamma Ray
CCL.                          : Casing Collar Locator
TT3.usec                      : CBL 3' Travel Time
AMP3.mV                       : CBL 3' Amplitude
~Parameter Information Block
~A  Depth        GR         CCL         TT3         AMP3    
# ...
   246.5000     96.9985      0.0000   1458.0000     17.9602
   246.7500     98.3525      0.0000   1458.0000     17.9769
   247.0000     96.1704      0.0000   1457.9231     18.0928
   247.2500     91.0519      0.0000   1457.4329     18.3491
   247.5000     86.1254     -2.3694   1455.0256     18.7958
   247.7500     84.4649     -2.6868   1445.7566     19.5013
   248.0000     86.7068      0.0000   1418.3916     20.6029
   248.2500     91.1529      0.0000   1357.1445     22.3223
   248.5000     95.3350      0.0000   1255.5245     24.8371
   248.7500     97.1931      0.0000   1137.0066     27.9963
   249.0000     95.8198      0.0000   1055.0219     31.1914
   249.2500     91.9604      0.0000   1054.4913     33.6955
   249.5000     87.3916      0.0000   1127.3860     35.1717
   249.7500     83.4236      0.0000   1215.6210     35.7854
   250.0000     80.4301      0.0000   1260.3970     35.9074
   250.2500     78.7928      0.0000   1243.4780     35.8265
   250.5000     79.3177      0.0000   1187.1050     35.6659
   250.7500     82.1751      0.0000   1130.4244     35.4243
   251.0000     85.8745      0.0000   1109.4620     35.0568
   251.2500     87.9564      0.0000   1143.0586     34.5611
   251.5000     86.9139      0.0000   1222.0260     34.0176
   251.7500     83.2226      0.0000   1314.1122     33.5475
   252.0000     78.3683      0.0000   1387.5632     33.2394
   252.2500     73.3275      0.0000   1430.5682     33.1010
   252.5000     68.4495      0.0000   1449.5508     33.0686
   252.7500     64.2569      0.0000   1455.9551     33.0521
   253.0000     61.3612      0.0000   1457.6096     32.9887
   253.2500     59.5655      0.0000   1457.9468     32.8747
   253.5000     57.9133      0.0000   1458.0000     32.7669
   253.7500     56.0346      0.0000   1458.0000     32.7651
   254.0000     54.8748      0.0000   1458.0000     32.9687
   254.2500     55.6019      0.0000   1458.0000     33.4089
   254.5000     58.0381      0.0000   1458.0000     34.0062
   254.7500     60.5938      0.0000   1458.0000     34.6076
   255.0000     61.7916      0.0000   1458.0000     35.0746
   255.2500     61.6086      0.0000   1458.0000     35.3509
   255.5000     61.1445      0.0000   1458.0000     35.4755
   255.7500     61.2159      0.0000   1458.0000     35.5503
   256.0000     61.6221      0.0000   1458.0000     35.6740
   256.2500     61.7032      0.0000   1458.0000     35.8679
   256.5000     61.1225      0.0000   1458.0000     36.0458
   256.7500     59.9272      0.0000   1458.0000     36.0621
   257.0000     58.2028      0.0000   1458.0000     35.8033
   257.2500     56.0231      0.0000   1458.0000     35.2532
   257.5000     53.7008      0.0000   1458.0000     34.4907
   257.7500     51.8469      0.0000   1458.0000     33.6391
   258.0000     51.0497      0.0000   1458.0000     32.8172
   258.2500     51.4862      0.0000   1458.0000     32.1249
   258.5000     52.8491      0.0000   1458.0000     31.6413
   258.7500     54.7371      0.0000   1458.0000     31.4021
   259.0000     57.1400      0.0000   1458.0000     31.3732
   259.2500     60.3274      0.0000   1458.0000     31.4668
   259.5000     64.1661      0.0000   1458.0000     31.5903
   259.7500     67.7540      0.0000   1458.0000     31.6735
   260.0000     69.9311      0.0000   1458.0000     31.6630
   260.2500     70.1219      0.0000   1458.0000     31.5178
   260.5000     68.6033      0.0000   1457.9567     31.2288
   260.7500     66.1119      0.0000   1457.6738     30.8398
   261.0000     63.3779      0.0000   1456.2811     30.4386
   261.2500     61.0391      0.0000   1450.8840     30.1099
   261.5000     59.7189      0.0000   1434.8248     29.8918
   261.7500     59.7765      0.0000   1398.5359     29.7716
   262.0000     60.8945      0.0000   1337.6234     29.7113
   262.2500     62.3466      0.0000   1265.5104     29.6648
   262.5000     63.9211      0.0000   1214.6471     29.5808
   262.7500     66.3090      0.0000   1214.6484     29.4182
   263.0000     70.2514      0.0000   1265.5134     29.1778
   263.2500     75.3471      0.0000   1337.6266     28.9124
   263.5000     79.8798      0.0000   1398.5380     28.6935
   263.7500     81.8193      0.0000   1434.8258     28.5679
   264.0000     80.0670      0.0000   1450.8844     28.5411
   264.2500     75.0998      0.0000   1456.2813     28.5868
   264.5000     68.8486      0.0000   1457.6738     28.6596
   264.7500     63.9954      0.0000   1457.9567     28.7026
   265.0000     62.9414      0.0000   1458.0000     28.6575
   265.2500     66.7328      0.0000   1458.0000     28.4903
   265.5000     74.3496      0.0000   1458.0000     28.2198
   265.7500     82.8787      0.0000   1458.0000     27.9172
   266.0000     88.9241      0.0000   1458.0000     27.6635
   266.2500     90.6862      0.0000   1458.0000     27.5022
   266.5000     89.1023      0.0000   1458.0000     27.4265
   266.7500     86.9795      0.0000   1458.0000     27.4042
   267.0000     86.9459      0.0000   1458.0000     27.4109
   267.2500     89.9913      0.0000   1458.0000     27.4454
   267.5000     95.2646      0.0000   1458.0000     27.5261
   267.7500    100.6406      0.0000   1458.0000     27.6781
   268.0000    103.7840      0.0000   1458.0000     27.9206
   268.2500    103.4837      0.0000   1458.0000     28.2638
   268.5000    100.2622      0.0000   1458.0000     28.7099
   268.7500     95.5905      0.0000   1458.0000     29.2413
   269.0000     90.7524      0.0000   1458.0000     29.8016
   269.2500     86.6040      0.0000   1458.0000     30.2988
   269.5000     83.7756      0.0000   1458.0000     30.6442
   269.7500     82.4184      0.0000   1458.0000     30.7997
   270.0000     82.0060      0.0000   1458.0000     30.7954
   270.2500     81.8210      0.0000   1458.0000     30.7070
   270.5000     81.5574      0.0000   1458.0000     30.6160
   270.7500     81.3126      0.0000   1458.0000     30.5752
   271.0000     81.3364      0.0000   1458.0000     30.5917
   271.2500     82.1478      0.0000   1458.0000     30.6351
   271.5000     84.4849      0.0000   1458.0000     30.6723
   271.7500     88.4980      0.0000   1458.0000     30.6988
   272.0000     93.1659      0.0000   1458.0000     30.7345
   272.2500     97.1209      0.0000   1458.0000     30.7906
   272.5000    100.0412      0.0000   1458.0000     30.8499
   272.7500    102.6824      0.0000   1458.0000     30.8757
   273.0000    105.4847      0.0000   1458.0000     30.8402
   273.2500    107.6179      0.0000   1458.0000     30.7531
   273.5000    107.6142      0.0000   1458.0000     30.6616
   273.7500    104.8377      0.0000   1458.0000     30.6114
   274.0000    100.1444      0.0000   1458.0000     30.6039
   274.2500     94.8998      0.0000   1458.0000     30.6016
   274.5000     89.5653      0.0000   1458.0000     30.5690
   274.7500     83.7545      0.0000   1458.0000     30.4983
   275.0000     77.6394      0.0000   1458.0000     30.4008
   275.2500     72.5119      0.0000   1458.0000     30.2868
   275.5000     69.5172      0.0000   1458.0000     30.1620
   275.7500     68.4236      0.0000   1458.0000     30.0385
   276.0000     68.1286      0.0000   1458.0000     29.9428
   276.2500     67.8795      0.0000   1458.0000     29.9029
   276.5000     67.5554      0.0000   1458.0000     29.9269
   276.7500     67.2438      0.0000   1458.0000     29.9989
   277.0000     67.1442      0.0000   1458.0000     30.0994
   277.2500     67.6793      0.0000   1458.0000     30.2237
   277.5000     69.2890      0.0000   1458.0000     30.3768
   277.7500     72.0923      0.0000   1458.0000     30.5564
   278.0000     75.7236      0.0000   1458.0000     30.7452
   278.2500     79.2693      0.0000   1458.0000     30.9170
   278.5000     81.4911      0.0000   1458.0000     31.0441
   278.7500     81.4674      0.0000   1458.0000     31.1077
   279.0000     79.1512      0.0000   1458.0000     31.1159
   279.2500     75.4347      0.0000   1458.0000     31.1137
   279.5000     71.8129      0.0000   1458.0000     31.1566
   279.7500     69.5827      0.0000   1458.0000     31.2588
