~Version Information
VERS.                      2.0: CWLS Log ASCII Standard - VERSION 2.0
WRAP.                       NO: One line per depth step
~Well Information Block
STRT.FT               480.0000: 
STOP.FT              1629.0000: 
STEP.FT                 0.2500: 
NULL.                -999.2500: 
COMP.          Pioneer Natural Resources: COMPANY
WELL.          Dude Canyon 22-32 Tr: WELL
FLD.           Purgatoire River: FIELD
LOC.           1741' FNL & 2331' FWL: LOCATION
PROV.                 Colorado: PROVINCE
CNTY.               Las Animas: COUNTRY
SRVC.                Patterson: SERVICE COMPANY
DATE.          Sat Jul 09 01:36:28 2005: LOG DATE
UWI.           05 071 08421 00: UNIQUE WELL ID
~Curve Information Block
DEPT.FT            0 000 00 00: Depth
SN.Ohm-m                      : IEL Short Normal
SP.mV                         : IEL Spontaneous Potential
DIR.Ohm-m                     : IEL Induction Resistivity
GR.GAPI                       : Gamma Ray
~Parameter Information Block
~A  Depth        SN          SP         DIR          GR     
# ...
  1083.0000     15.6568    -87.7129     13.7117    131.7187
  1083.2500     15.9502    -87.1285     13.7702    131.8174
  1083.5000     16.0475    -86.2977     13.7817    132.6098
  1083.7500     15.9633    -85.1288     13.7484    133.6929
  1084.0000     15.7042    -83.5521     13.6886    135.6082
  1084.2500     15.3122    -81.5263     13.6202    136.5722
  1084.5000     14.8811    -79.0354     13.5423    136.7418
  1084.7500     14.5166    -76.0991     13.4340    135.7253
  1085.0000     14.2839    -72.8049     13.2738    132.7971
  1085.2500     14.1550    -69.3377     13.0637    130.5411
  1085.5000     14.0706    -65.9498     12.8353    127.8100
  1085.7500     14.0456    -62.8576     12.6294    126.6586
  1086.0000     14.1157    -60.1267     12.4697    125.6783
  1086.2500     14.2566    -57.6463     12.3520    125.3146
  1086.5000     14.4072    -55.2119     12.2535    125.1028
  1086.7500     14.5159    -52.6387     12.1546    125.3056
  1087.0000     14.5616    -49.8254     12.0542    126.5169
  1087.2500     14.5500    -46.7641     11.9703    128.0452
  1087.5000     14.4807    -43.5237     11.9277    131.0902
  1087.7500     14.3494    -40.2256     11.9450    133.3004
  1088.0000     14.2127    -37.0172     12.0302    136.6421
  1088.2500     14.1310    -34.0581     12.1845    138.7841
  1088.5000     14.0453    -31.5204     12.4082    141.0661
  1088.7500     13.8396    -29.5720     12.7037    141.2300
  1089.0000     13.5186    -28.3219     13.0740    138.7831
  1089.2500     13.2736    -27.7592     13.5201    135.7004
  1089.5000     13.3492    -27.7469     14.0396    130.1531
  1089.7500     13.9237    -28.0827     14.6260    126.2340
  1090.0000     15.1774    -28.5808     15.2693    119.3929
  1090.2500     17.2782    -29.1234     15.9565    113.4441
  1090.5000     20.1182    -29.6722     16.6732    102.1895
  1090.7500     23.2374    -30.2487     17.4088     94.1172
  1091.0000     26.1912    -30.8949     18.1601     83.8967
  1091.2500     28.8450    -31.6401     18.9327     79.4555
  1091.5000     31.1436    -32.4972     19.7334     76.3492
  1091.7500     32.7573    -33.4843     20.5604     76.0475
  1092.0000     33.2122    -34.6359     21.3953     77.8623
  1092.2500     32.3723    -35.9895     22.2015     80.8975
  1092.5000     30.6791    -37.5644     22.9260     88.4242
  1092.7500     28.8615    -39.3498     23.5025     94.7712
  1093.0000     27.4153    -41.3008     23.8502    104.0959
  1093.2500     26.3959    -43.3378     23.8820    109.0018
  1093.5000     25.6359    -45.3524     23.5319    113.6401
  1093.7500     24.9465    -47.2306     22.7976    115.1787
  1094.0000     24.1446    -48.8872     21.7663    115.9601
  1094.2500     23.1425    -50.2870     20.5958    115.9056
  1094.5000     22.0277    -51.4358     19.4612    115.8726
  1094.7500     20.9754    -52.3549     18.5015    116.5009
  1095.0000     20.1187    -53.0654     17.7903    118.9378
  1095.2500     19.4872    -53.5850     17.3311    121.2213
  1095.5000     19.0143    -53.9227     17.0697    124.2959
  1095.7500     18.5898    -54.0678     16.9179    125.4672
  1096.0000     18.1465    -53.9924     16.7826    125.8826
  1096.2500     17.7189    -53.6727     16.5950    125.8979
  1096.5000     17.3693    -53.1121     16.3277    126.9376
  1096.7500     17.0963    -52.3476     15.9925    128.7736
  1097.0000     16.8932    -51.4338     15.6242    132.9126
  1097.2500     16.7719    -50.4206     15.2620    135.8676
  1097.5000     16.6793    -49.3371     14.9361    139.0472
  1097.7500     16.5307    -48.1886     14.6636    139.6507
  1098.0000     16.2929    -46.9625     14.4481    138.2245
  1098.2500     15.9998    -45.6362     14.2851    136.3816
  1098.5000     15.7390    -44.1893     14.1662    133.5181
  1098.7500     15.5876    -42.6173     14.0835    131.6455
  1099.0000     15.5888    -40.9394     14.0301    128.2396
  1099.2500     15.7258    -39.1941     13.9992    125.4469
  1099.5000     15.8520    -37.4197     13.9842    121.2255
  1099.7500     15.7859    -35.6323     13.9797    118.9678
  1100.0000     15.4899    -33.8176     13.9836    116.9461
  1100.2500     15.0876    -31.9402     13.9981    116.5659
  1100.5000     14.7258    -29.9574     14.0263    117.3400
  1100.7500     14.4578    -27.8304     14.0647    118.6536
  1101.0000     14.2457    -25.5335     14.0925    121.7958
  1101.2500     14.0244    -23.0588     14.0701    124.6313
  1101.5000     13.7537    -20.4083     13.9562    129.1347
  1101.7500     13.4718    -17.5760     13.7377    131.3170
  1102.0000     13.2894    -14.5320     13.4439    132.1440
  1102.2500     13.2546    -11.2145     13.1310    131.2881
  1102.5000     13.3000     -7.5429     12.8517    129.2911
  1102.7500     13.3474     -3.4694     12.6371    127.9848
  1103.0000     13.3544      0.9394     12.4953    125.8408
  1103.2500     13.2838      5.4397     12.4198    124.1856
  1103.5000     13.1588      9.6275     12.3972    122.3321
  1103.7500     13.1008     13.0607     12.4122    122.3519
  1104.0000     13.1412     15.4393     12.4492    124.5195
  1104.2500     13.1113     16.7322     12.4927    126.6778
  1104.5000     12.8863     17.1565     12.5288    129.5580
  1104.7500     12.5563     17.0275     12.5479    130.8444
  1105.0000     12.2827     16.6077     12.5488    131.7121
  1105.2500     12.1348     16.0453     12.5408    131.6145
  1105.5000     12.1097     15.3970     12.5407    130.7562
  1105.7500     12.2267     14.6734     12.5667    130.1005
  1106.0000     12.4868     13.8700     12.6328    129.7112
  1106.2500     12.8090     12.9794     12.7478    130.0501
  1106.5000     13.1087     11.9935     12.9173    131.3461
  1106.7500     13.3394     10.9060     13.1427    132.5477
  1107.0000     13.4928      9.7199     13.4151    134.3666
  1107.2500     13.6477      8.4560     13.7068    135.0316
  1107.5000     13.8949      7.1532     13.9730    133.8451
  1107.7500     14.2005      5.8560     14.1696    131.0690
  1108.0000     14.4494      4.5926     14.2770    124.5834
  1108.2500     14.5907      3.3569     14.3089    120.0341
  1108.5000     14.6644      2.1122     14.2984    115.4133
  1108.7500     14.7400      0.8222     14.2754    114.4978
  1109.0000     14.8545     -0.5075     14.2561    115.5600
  1109.2500     14.9525     -1.8019     14.2440    116.7938
  1109.5000     14.9053     -2.9106     14.2347    118.1705
  1109.7500     14.6172     -3.6341     14.2198    118.8590
  1110.0000     14.1439     -3.7933     14.1892    120.4163
  1110.2500     13.6797     -3.3235     14.1370    122.0179
  1110.5000     13.3510     -2.3256     14.0646    124.7541
  1110.7500     13.1293     -1.0271     13.9782    126.4260
  1111.0000     12.9591      0.3219     13.8824    128.5716
  1111.2500     12.8494      1.5473     13.7772    129.7494
  1111.5000     12.8223      2.5929     13.6601    130.6741
  1111.7500     12.8325      3.4993     13.5315    130.4268
  1112.0000     12.8291      4.3505     13.3977    129.0073
  1112.2500     12.8329      5.2257     13.2687    127.9516
  1112.5000     12.8626      6.1776     13.1512    127.0464
  1112.7500     12.8874      7.2324     13.0437    126.8570
  1113.0000     12.8750      8.4009     12.9374    126.4312
  1113.2500     12.8019      9.6887     12.8253    125.7528
  1113.5000     12.6823     11.0964     12.7116    124.4153
  1113.7500     12.5859     12.6086     12.6129    123.5748
  1114.0000     12.5617     14.1823     12.5521    122.2162
  1114.2500     12.5769     15.7437     12.5486    120.9789
  1114.5000     12.5838     17.1971     12.6120    118.8297
  1114.7500     12.6400     18.4474     12.7404    117.6804
  1115.0000     12.8455     19.4359     12.9213    116.8917
  1115.2500     13.1434     20.1715     13.1362    116.8885
  1115.5000     13.3573     20.7283     13.3680    117.2479
  1115.7500     13.4347     21.2032     13.6098    117.5278
  1116.0000     13.5054     21.6707     13.8677    117.7309
  1116.2500     13.6971     22.1668     14.1574    117.6116
