~Version Information
VERS.                      2.0: CWLS Log ASCII Standard - VERSION 2.0
WRAP.                       NO: One line per depth step
~Well Information Block
STRT.FT                 0.0000: 
STOP.FT              2006.5000: 
STEP.FT                 0.2500: 
NULL.                -999.2500: 
COMP.          Petrogulf Corporation: COMPANY
WELL.           Lavedure 7-44R: WELL
FLD.           Purgatorie River: FIELD
LOC.           946' FSL & 521' FEL: LOCATION
STAT.                 Colorado: State
CNTY.               Las Animas: COUNTY
CTRY. USA : Country
SECT. 7 : Section
TOWN. 33S : Township
RANG. 67W : Range
SRVC.                Patterson: SERVICE COMPANY
DATE.          Thu Nov 10 15:49:38 2005: LOG DATE
API. 05-071-08090       : UNIQUE WELL ID
~Curve Information Block
DEPT.FT            0 000 00 00: Depth
CCL.                          : Casing Collar Locator
TT3.usec                      : CBL 3' Travel Time
AMP3.mV                       : CBL 3' Amplitude
GR.GAPI                       : Gamma Ray
~Parameter Information Block
~A  Depth       CCL         TT3         AMP3         GR     
# ...
  1708.5000      0.0000    694.0793      1.8957     73.1759
  1708.7500      0.0000    680.4972      1.7438     70.9151
  1709.0000      0.0000    665.5125      1.6569     71.9773
  1709.2500      0.0000    658.6428      1.6169     75.7867
  1709.5000      0.0000    662.2838      1.5779     80.8714
  1709.7500      0.0000    667.6135      1.5093     85.5218
  1710.0000      0.0000    664.4775      1.4176     88.6799
  1710.2500      0.0000    654.0819      1.3256     90.2794
  1710.5000      0.0000    644.5662      1.2264     90.8621
  1710.7500      0.0000    639.1969      1.0855     90.8930
  1711.0000      0.0000    637.5355      0.9135     90.2587
  1711.2500      0.0000    639.3166      0.8017     88.4380
  1711.5000      0.0000    642.3326      0.8290     85.2817
  1711.7500      0.0000    643.6909      0.9467     81.5906
  1712.0000      0.0000    643.0307      1.0363     78.7184
  1712.2500      0.0000    641.7327      1.0617     77.5179
  1712.5000      0.0000    640.7845      1.0652     77.6683
  1712.7500      0.0000    640.2806      1.0644     77.9552
  1713.0000      0.0000    639.9723      1.0493     77.1267
  1713.2500      0.0000    639.6902      1.0283     74.7099
  1713.5000      0.0000    639.3885      1.0257     71.3981
  1713.7500      0.0000    639.1092      1.0548     68.6132
  1714.0000      0.0000    638.9959      1.1091     67.2997
  1714.2500      0.0000    639.2438      1.1744     67.0706
  1714.5000      0.0000    640.0438      1.2370     66.6789
  1714.7500      0.0000    641.8491      1.2840     65.3015
  1715.0000      0.0000    646.1294      1.3183     63.3456
  1715.2500      0.0000    655.6301      1.3536     62.0435
  1715.5000      0.0000    671.2081      1.3848     62.2535
  1715.7500      0.0000    686.8548      1.3909     63.7432
  1716.0000      0.0000    693.0266      1.3752     65.7018
  1716.2500      0.0000    686.7078      1.3865     67.8501
  1716.5000      0.0000    671.9786      1.4800     70.9518
  1716.7500      0.0000    654.9260      1.6632     76.2411
  1717.0000      0.0000    646.7037      1.9134     84.2243
  1717.2500      0.0000    661.9374      2.2256     94.0620
  1717.5000      0.0000    703.4581      2.5905    104.3840
  1717.7500      0.0000    753.6441      2.9789    114.5794
  1718.0000      0.0000    783.1406      3.4173    124.7965
  1718.2500      0.0000    772.9267      4.0139    134.7371
  1718.5000      0.0000    736.0859      4.8459    143.1925
  1718.7500      0.0000    706.3832      5.8512    149.1515
  1719.0000      0.0000    699.9063      6.8663    152.8676
  1719.2500      0.0000    702.4224      7.7379    155.3134
  1719.5000      0.0000    695.5912      8.3732    157.0006
  1719.7500      0.0000    680.2899      8.7286    157.8923
  1720.0000      0.0000    668.5351      8.8061    158.1062
  1720.2500      0.0000    666.1143      8.6341    158.1532
  1720.5000      0.0000    669.5723      8.2405    158.6791
  1720.7500      0.0000    671.8855      7.6833    160.1736
  1721.0000      0.0000    669.3215      7.0656    162.4325
  1721.2500      0.0000    664.3364      6.4842    164.0360
  1721.5000      0.0000    660.7432      5.9786    163.0295
  1721.7500      0.0000    659.3192      5.5301    158.7355
  1722.0000      0.0000    659.0390      5.1272    152.5639
  1722.2500      0.0000    659.1133      4.8127    146.6900
  1722.5000      0.0000    659.2571      4.6266    142.4881
  1722.7500      0.0000    659.3704      4.5462    140.5193
  1723.0000      0.0000    659.4158      4.5165    141.1357
  1723.2500      0.0000    659.4572      4.4922    144.2513
  1723.5000      0.0000    659.7411      4.4462    148.7616
  1723.7500      0.0000    661.0663      4.3891    152.9196
  1724.0000      0.0000    664.9466      4.3733    155.5828
  1724.2500      0.0000    671.6116      4.4321    156.7585
  1724.5000      0.0000    676.9597      4.5203    156.6841
  1724.7500      0.0000    675.1777      4.5464    154.9351
  1725.0000      0.0000    666.5341      4.4634    151.1156
  1725.2500      0.0000    657.6597      4.3135    146.1365
  1725.5000      0.0000    652.4477      4.1683    142.0183
  1725.7500      0.0000    648.6928      4.0354    140.2578
  1726.0000      0.0000    644.3276      3.8576    140.7932
  1726.2500      0.0000    640.2736      3.5941    142.5895
  1726.5000      0.0000    637.7259      3.2887    144.7389
  1726.7500      0.0000    637.8302      3.0378    146.8468
  1727.0000      0.0000    640.6240      2.8723    148.8088
  1727.2500      0.0000    642.4244      2.7175    150.4472
  1727.5000      0.0000    639.6702      2.4862    151.1357
  1727.7500      0.0000    633.8240      2.1731    149.7810
  1728.0000      0.0000    627.8250      1.8495    145.5573
  1728.2500      0.0000    621.3621      1.5923    138.8219
  1728.5000      0.0000    615.6655      1.4382    131.0258
  1728.7500      0.0000    618.7356      1.3791    123.5719
  1729.0000      0.0000    637.1036      1.3760    116.8613
  1729.2500      0.0000    664.2200      1.3974    110.5141
  1729.5000      0.0000    684.6104      1.4232    104.2357
  1729.7500      0.0000    688.3278      1.4063     98.2250
  1730.0000      0.0000    676.0016      1.3049     92.9895
  1730.2500      0.0000    655.0908      1.1512     89.0409
  1730.5000      0.0000    635.7743      1.0259     86.5604
  1730.7500      0.0000    625.2418      0.9619     85.2320
  1731.0000      0.0000    623.0995      0.9219     84.6419
  1731.2500      0.0000    623.3358      0.8839     84.7605
  1731.5000      0.0000    621.4741      0.8892     85.6300
  1731.7500      0.0000    619.0606      0.9623     86.6849
  1732.0000      0.0000    620.4830      1.0526     86.8997
  1732.2500      0.0000    627.6821      1.0940     85.7487
  1732.5000      0.0000    638.4192      1.0808     83.6869
  1732.7500      0.0000    648.8856      1.0722     81.4906
  1733.0000      0.0000    657.2797      1.1284     79.4200
  1733.2500      0.0000    662.6556      1.2599     77.3573
  1733.5000      0.0000    663.2872      1.4515     75.4050
  1733.7500      0.0000    659.6240      1.6749     73.7969
  1734.0000      0.0000    654.3571      1.8559     72.4403
  1734.2500      0.0000    649.7899      1.9116     71.1420
  1734.5000      0.0000    647.9415      1.8470     70.2375
  1734.7500      0.0000    649.1378      1.7527     70.5178
  1735.0000      0.0000    652.3299      1.7013     72.3343
  1735.2500      0.0000    658.4794      1.7064     74.9427
  1735.5000      0.0000    669.1951      1.7597     76.9806
  1735.7500      0.0000    681.7614      1.8368     77.6632
  1736.0000      0.0000    689.7548      1.8997     77.3149
  1736.2500      0.0000    689.7159      1.9269     76.7574
  1736.5000      0.0000    684.2706      1.9090     76.5387
  1736.7500      0.0000    678.3939      1.8390     76.7711
  1737.0000      0.0000    674.8422      1.7391     77.1807
  1737.2500      0.0000    673.6208      1.6619     77.2445
  1737.5000      0.0000    674.0876      1.6593     76.8436
  1737.7500      0.0000    676.6541      1.7481     76.7439
  1738.0000      0.0000    683.2298      1.8859     77.8084
  1738.2500      0.0000    695.0525      2.0195     79.8498
  1738.5000      0.0000    709.0616      2.1546     81.9062
  1738.7500      0.0000    720.2988      2.3222     83.4934
  1739.0000      0.0000    728.2150      2.4998     84.9665
  1739.2500      0.0000    732.3167      2.6227     86.6501
  1739.5000      0.0000    725.3895      2.6587     88.0730
  1739.7500      0.0000    704.1557      2.6381     88.2640
  1740.0000      0.0000    678.9642      2.6232     86.6556
  1740.2500      0.0000    661.9747      2.6579     83.4911
  1740.5000      0.0000    655.4009      2.7253     79.4317
  1740.7500      0.0000    655.4279      2.7747     75.1051
  1741.0000      0.0000    658.1036      2.7920     71.0787
  1741.2500      0.0000    659.8008      2.7861     67.9578
  1741.5000      0.0000    658.3802      2.7324     66.2117
  1741.7500      0.0000    654.9912      2.6235     65.8734
