~Version Information
VERS.                      2.0: CWLS Log ASCII Standard - VERSION 2.0
WRAP.                       NO: One line per depth step
~Well Information Block
STRT.FT               480.1000: 
STOP.FT              2029.0000: 
STEP.FT                 0.1000: 
NULL.                -999.2500: 
COMP.          Petrogulf Corporation: COMPANY
WELL.            Montoya 7-12R: WELL
FLD.           Purgatorie River: FIELD
LOC.           1769' FNL & 658' FWL: LOCATION
CNTY.               Las Animas: COUNTY
SRVC.                         : SERVICE COMPANY
DATE.          Mon Nov 22 07:21:54 2004: LOG DATE
UWI.           05 071 08240 00: UNIQUE WELL ID
STAT.                 Colorado: STATE
~Curve Information Block
DEPT.FT            0 000 00 00: Depth
DCAL.in                       : CDL Caliper
RHOB.g/cc                     : CDL Bulk Density
RHOC.g/cc                     : CDL Density Correction
DPOR.pu                       : CDL Density Porosity
GR.GAPI                       : Gamma Ray
NPOR.pu                       : Neutron Porosity
~Parameter Information Block
~A  Depth       DCAL        RHOB        RHOC        DPOR         GR         NPOR    
# ...
  1305.7000      8.0278      2.5918      0.0562      3.5253     54.2225     24.0555
  1305.8000      8.0008      2.5789     -0.0197      4.3111     59.1918     24.1782
  1305.9000      8.0008      2.5669      0.0168      5.0368     61.3021     24.4751
  1306.0000      7.9732      2.5683      0.0098      4.9538     60.9875     24.7078
  1306.1000      7.9732      2.5862      0.0569      3.8656     60.6797     25.1274
  1306.2000      7.9732      2.6156      0.0611      2.0858     58.9238     25.2127
  1306.3000      7.9786      2.6506      0.0605     -0.0363     55.4385     24.4484
  1306.4000      7.9786      2.6777      0.0913     -1.6809     53.4160     23.6136
  1306.5000      7.9584      2.6824      0.0804     -1.9650     54.2190     23.1099
  1306.6000      7.9584      2.6620      0.1319     -0.7254     55.4970     22.6930
  1306.7000      7.9584      2.6230      0.0532      1.6339     53.4311     22.4739
  1306.8000      7.9392      2.5991     -0.0783      3.0829     47.5578     22.8494
  1306.9000      7.9392      2.6180      0.0529      1.9416     42.3104     23.8568
  1307.0000      7.9531      2.6456      0.0621      0.2640     42.0283     24.9257
  1307.1000      7.9531      2.6389      0.0068      0.6748     45.9430     25.5069
  1307.2000      7.9531      2.6000      0.0148      3.0330     49.6801     25.4669
  1307.3000      7.9781      2.5453     -0.0277      6.3436     50.4553     25.2394
  1307.4000      7.9781      2.4881     -0.0495      9.8107     50.8218     25.1793
  1307.5000      7.9715      2.4391     -0.0217     12.7836     54.5686     25.3473
  1307.6000      7.9715      2.3957      0.0179     15.4118     59.8567     25.9500
  1307.7000      7.9715      2.3436     -0.0106     18.5725     63.1123     26.7289
  1307.8000      7.9999      2.2710     -0.0719     22.9702     64.6651     27.6224
  1307.9000      7.9999      2.1903     -0.0796     27.8591     65.2530     28.9747
  1308.0000      7.9841      2.1345     -0.1226     31.2432     66.6848     30.4517
  1308.1000      7.9841      2.1200     -0.0455     32.1232     71.6080     31.2645
  1308.2000      7.9841      2.1305     -0.0424     31.4861     79.1140     31.7284
  1308.3000      8.0227      2.1422      0.0440     30.7746     86.5428     32.3131
  1308.4000      8.0227      2.1492      0.0363     30.3527     92.2693     32.8882
  1308.5000      8.2637      2.1637      0.0264     29.4707     96.5066     33.3721
  1308.6000      8.2637      2.1940      0.0583     27.6381    100.2192     33.7331
  1308.7000      8.2637      2.2330      0.0946     25.2756    103.5256     34.3425
  1308.8000      8.3459      2.2719      0.1475     22.9147    103.5905     35.1277
  1308.9000      8.3459      2.3086      0.1671     20.6921     98.1389     35.5302
  1309.0000      8.5383      2.3494      0.2167     18.2167     91.2984     35.5806
  1309.1000      8.5383      2.3971      0.3255     15.3280     89.1938     35.3584
  1309.2000      8.5383      2.4414      0.3248     12.6425     92.7284     34.7562
  1309.3000      8.7484      2.4752      0.3454     10.5961     99.4205     33.8441
  1309.4000      8.7484      2.4917      0.3422      9.5969    107.1034     32.7804
  1309.5000      9.1746      2.4842      0.3104     10.0458    111.1338     31.6479
  1309.6000      9.1746      2.4757      0.2029     10.5645    109.4553     30.7284
  1309.7000      9.1746      2.5029      0.1971      8.9135    106.2428     30.6805
  1309.8000      9.1667      2.5596      0.2394      5.4776    104.2414     31.3628
  1309.9000      9.1667      2.6056      0.2326      2.6880    103.3124     31.8895
  1310.0000      8.7661      2.6222      0.2114      1.6860    103.4638     31.9912
  1310.1000      8.7661      2.6239      0.1961      1.5833    104.6972     31.7043
  1310.2000      8.7661      2.6251      0.2101      1.5079    107.1881     31.1898
  1310.3000      8.1867      2.6213      0.1171      1.7389    110.7131     31.0224
  1310.4000      8.1867      2.6082      0.1298      2.5350    113.3716     31.0148
  1310.5000      8.0841      2.5923      0.0800      3.4970    114.0103     30.6064
  1310.6000      8.0841      2.5759      0.1403      4.4929    112.6372     30.4171
  1310.7000      8.0841      2.5487      0.0329      6.1402    110.9339     30.7699
  1310.8000      8.0675      2.5167      0.0100      8.0770    114.2948     30.8837
  1310.9000      8.0675      2.5014      0.0341      9.0036    122.9020     30.6808
  1311.0000      8.0843      2.5059      0.0334      8.7356    128.6098     31.0359
  1311.1000      8.0843      2.5137      0.0476      8.2631    126.8338     32.2068
  1311.2000      8.0843      2.5165      0.0607      8.0882    119.7957     33.3554
  1311.3000      8.0689      2.5197      0.0779      7.8989    111.1708     33.3456
  1311.4000      8.0689      2.5187      0.1152      7.9603    105.2136     32.1386
  1311.5000      8.0640      2.5097      0.0286      8.5034    102.7149     30.9811
  1311.6000      8.0640      2.5083      0.0959      8.5900     99.0291     30.7988
  1311.7000      8.0640      2.5226      0.0843      7.7198     93.9213     31.3809
  1311.8000      8.0776      2.5380      0.1851      6.7877     94.7863     32.1461
  1311.9000      8.0776      2.5433      0.1210      6.4652    101.3761     32.7150
  1312.0000      8.1896      2.5486      0.0993      6.1456    105.4398     32.5628
  1312.1000      8.1896      2.5570      0.1936      5.6367    105.1191     31.7204
  1312.2000      8.1896      2.5614      0.1125      5.3699    104.6501     31.1285
  1312.3000      8.2142      2.5657      0.1481      5.1108    106.8958     31.1271
  1312.4000      8.2142      2.5653      0.1875      5.1340    110.3505     31.2108
  1312.5000      8.1404      2.5480      0.1329      6.1812    110.5636     31.4156
  1312.6000      8.1404      2.5261      0.0673      7.5064    107.2610     31.6834
  1312.7000      8.1404      2.5199      0.0505      7.8843    104.0348     31.5519
  1312.8000      8.1104      2.5229      0.1086      7.7028    102.3457     30.9100
  1312.9000      8.1104      2.5252      0.0523      7.5617    103.6636     30.2024
  1313.0000      8.1092      2.5464      0.0403      6.2771    108.1454     30.0349
  1313.1000      8.1092      2.5912      0.1321      3.5629    111.2999     30.2384
  1313.2000      8.1092      2.6211      0.1333      1.7524    110.6462     30.3513
  1313.3000      8.1351      2.6125      0.0734      2.2697    109.1790     30.7532
  1313.4000      8.1351      2.5797      0.0777      4.2632    107.3481     31.4880
  1313.5000      8.1500      2.5438      0.0836      6.4361    104.3479     31.9026
  1313.6000      8.1500      2.5225      0.0733      7.7264    101.7725     31.8990
  1313.7000      8.1500      2.5207      0.0916      7.8365     99.8333     31.4577
  1313.8000      8.1746      2.5210      0.1345      7.8174     98.2547     30.6205
  1313.9000      8.1746      2.5031      0.1004      8.9051     98.0922     29.7769
  1314.0000      8.1742      2.4756      0.0386     10.5706     98.6299     29.5420
  1314.1000      8.1742      2.4732      0.0842     10.7138     96.6287     30.0447
  1314.2000      8.1742      2.5135      0.1919      8.2738     93.8019     30.8954
  1314.3000      8.1875      2.5756      0.2930      4.5062     95.4910     31.7859
  1314.4000      8.1875      2.6261      0.2861      1.4467     99.3695     32.1824
  1314.5000      8.2220      2.6439      0.2919      0.3708    101.6562     31.9579
  1314.6000      8.2220      2.6304      0.2503      1.1871    102.2429     31.7691
  1314.7000      8.2220      2.6054      0.2691      2.7052     99.8147     31.9640
  1314.8000      8.1801      2.5860      0.1937      3.8760     96.3574     32.3862
  1314.9000      8.1801      2.5788      0.1563      4.3157     96.5724     32.9168
  1315.0000      8.1476      2.5805      0.1584      4.2101    100.7702     33.0946
  1315.1000      8.1476      2.5897      0.1450      3.6527    103.9455     32.6186
  1315.2000      8.1476      2.6121      0.1354      2.2983    103.2930     32.2381
