~Version Information
VERS.                      2.0: CWLS Log ASCII Standard - VERSION 2.0
WRAP.                       NO: One line per depth step
~Well Information Block
STRT.FT               -19.5000: 
STOP.FT              2456.0000: 
STEP.FT                 0.2500: 
NULL.                -999.2500: 
COMP.          Petrogulf Corporation: COMPANY
WELL.           Montoya 12-44V: WELL
FLD.           Purgatorie River: FIELD
LOC.           698' FSL & 599' FEL: LOCATION
CNTY.               Las Animas: COUNTY
SRVC.                         : SERVICE COMPANY
DATE.          Mon Sep 13 13:44:10 2004: LOG DATE
UWI.           05-071-08094-00: UNIQUE WELL ID
STAT.                 Colorado: STATE
~Curve Information Block
DEPT.FT            0 000 00 00: Depth
TT3.usec                      : CBL 3' Travel Time
AMP3.mV                       : CBL 3' Amplitude
GR.GAPI                       : Gamma Ray
CCL.                          : Casing Collar Locator
~Parameter Information Block
~A  Depth       TT3         AMP3         GR         CCL     
# ...
  1287.0000    417.4668      5.4198    127.0155      0.0000
  1287.2500    420.9112      5.4374    134.3181      0.0000
  1287.5000    423.7692      5.4759    139.4832      0.0000
  1287.7500    426.0588      5.5282    144.0034      0.0000
  1288.0000    427.8081      5.5863    148.2645      0.0000
  1288.2500    428.8421      5.6461    151.9386      0.0000
  1288.5000    428.2607      5.7200    154.5451      0.0000
  1288.7500    424.0998      5.8320    155.6756      0.0000
  1289.0000    415.0285      5.9875    155.5171      0.0000
  1289.2500    403.3538      6.1624    155.2285      0.0000
  1289.5000    393.8584      6.3271    156.1405      0.0000
  1289.7500    388.7386      6.4689    158.5116      0.0000
  1290.0000    386.4829      6.5916    161.3223      0.0000
  1290.2500    385.1337      6.7127    163.0387      0.0000
  1290.5000    384.0599      6.8661    162.4190      0.0000
  1290.7500    383.1103      7.0963    159.1811      0.0000
  1291.0000    381.2456      7.4395    154.3786      0.0000
  1291.2500    376.1013      7.9130    149.8621      0.0000
  1291.5000    365.9796      8.5186    147.0482      0.0000
  1291.7500    353.1031      9.2251    146.3011      0.0000
  1292.0000    342.4796      9.9373    147.3616      0.0000
  1292.2500    336.6870     10.5568    149.8365      0.0000
  1292.5000    334.4553     11.1567    153.0404      0.0000
  1292.7500    333.6374     12.0166    155.8775      0.0000
  1293.0000    333.1700     13.3399    157.5463      0.0000
  1293.2500    332.8960     14.9732    158.3494      0.0000
  1293.5000    332.8568     16.5268    159.3550      0.0000
  1293.7500    332.9290     17.7448    161.2428      0.0000
  1294.0000    332.7276     18.6967    163.6412      0.0000
  1294.2500    331.2909     19.6588    165.3868      0.0000
  1294.5000    326.8758     20.9128    165.2227      0.0000
  1294.7500    318.3380     22.6713    162.4797      0.0000
  1295.0000    307.5567     25.0563    157.4829      0.0000
  1295.2500    298.5703     28.0261    151.4217      0.0000
  1295.5000    293.4954     31.2485    145.6086      0.0000
  1295.7500    291.4839     34.0308    140.6791      0.0000
  1296.0000    291.2906     35.4774    136.4879      0.0000
  1296.2500    293.1148     34.8725    132.8249      0.0000
  1296.5000    298.4134     32.1717    130.1157      0.0000
  1296.7500    307.8702     28.2314    129.2763      0.0000
  1297.0000    318.9949     24.2733    130.9108      0.0000
  1297.2500    327.5870     20.9821    134.8460      0.0000
  1297.5000    332.3611     18.2919    140.4073      0.0000
  1297.7500    337.2141     15.8596    146.7689      0.0000
  1298.0000    352.8520     13.4542    152.9375      0.0000
  1298.2500    398.3344     11.0890    157.8014      0.0000
  1298.5000    487.1755      8.9415    160.5366      0.0000
  1298.7500    600.5990      7.1723    160.9982      0.0000
  1299.0000    694.1063      5.8599    159.6671      0.0000
  1299.2500    738.5988      4.9694    157.2774      0.0000
  1299.5000    731.9412      4.3529    154.6940      0.0000
  1299.7500    686.4551      3.8672    152.9229      0.0000
  1300.0000    637.3101      3.4584    152.5281      0.0000
  1300.2500    630.5518      3.1193    152.9346      0.0000
  1300.5000    670.6402      2.8359    152.9408      0.0000
  1300.7500    713.2402      2.5935    152.0792      0.0000
  1301.0000    719.0988      2.3950    151.0441      0.0000
  1301.2500    691.9548      2.2460    151.0608      0.0000
  1301.5000    670.0610      2.1355    153.2042      0.0000
  1301.7500    680.9480      2.0447    157.7657      0.0000
  1302.0000    711.7303      1.9614    163.6927      0.0000
  1302.2500    737.3364      1.8901    168.8734      0.0000
  1302.5000    752.0930      1.8493    171.3410      0.0000
  1302.7500    760.4412      1.8519    170.1800      0.0000
  1303.0000    760.1306      1.8940    165.5203      0.0000
  1303.2500    748.3606      1.9677    158.1895      0.0000
  1303.5000    732.2051      2.0751    149.2586      0.0000
  1303.7500    715.0009      2.2242    139.3170      0.0000
  1304.0000    679.2945      2.4095    128.2920      0.0000
  1304.2500    608.8003      2.6053    116.4476      0.0000
  1304.5000    528.2606      2.7675    105.3069      0.0000
  1304.7500    493.2578      2.8331     96.9927      0.0000
  1305.0000    532.6987      2.7536     92.8060      0.0000
  1305.2500    619.7186      2.5552     92.8608      0.0000
  1305.5000    705.2736      2.3305     96.6952      0.0000
  1305.7500    763.3362      2.1459    103.6956      0.0000
  1306.0000    793.1599      1.9913    113.0303      0.0000
  1306.2500    802.1248      1.8408    123.6581      0.0000
  1306.5000    801.4787      1.7070    134.6518      0.0000
  1306.7500    802.5191      1.6100    145.2618      0.0000
  1307.0000    808.0044      1.5508    154.3562      0.0000
  1307.2500    812.3426      1.5323    160.0133      0.0000
  1307.5000    809.1495      1.5714    160.3741      0.0000
  1307.7500    796.0087      1.6778    155.2480      0.0000
  1308.0000    777.2553      1.8397    146.6397      0.0000
  1308.2500    761.9323      2.0396    137.3330      0.0000
  1308.5000    755.2415      2.2812    128.9236      0.0000
  1308.7500    755.6204      2.6003    121.4140      0.0000
  1309.0000    758.5386      3.0232    114.6338      0.0000
  1309.2500    755.6558      3.4983    109.4421      0.0000
  1309.5000    733.0863      3.9172    107.1243      0.0000
  1309.7500    685.9704      4.2118    107.8747      0.0000
  1310.0000    633.8163      4.3893    110.1537      0.0000
  1310.2500    597.2177      4.4854    111.5516      0.0000
  1310.5000    570.6573      4.5256    110.4574      0.0000
  1310.7500    542.4915      4.5417    107.2212      0.0000
  1311.0000    513.7048      4.5831    103.7105      0.0000
  1311.2500    488.0736      4.6743    101.4725      0.0000
  1311.5000    468.7972      4.7970    100.4326      0.0000
  1311.7500    459.4726      4.9227     99.5622      0.0000
  1312.0000    463.0369      5.0308     98.3427      0.0000
  1312.2500    486.0916      5.1145     97.0365      0.0000
  1312.5000    535.3129      5.1878     95.8705      0.0000
  1312.7500    600.0168      5.2611     94.6271      0.0000
  1313.0000    647.9022      5.3151     93.1505      0.0000
  1313.2500    653.3339      5.3108     91.9169      0.0000
  1313.5000    622.9017      5.2203     91.8888      0.0000
  1313.7500    577.9448      5.0671     93.7819      0.0000
  1314.0000    531.1357      4.9425     97.4784      0.0000
  1314.2500    493.3494      4.9440    102.0627      0.0000
  1314.5000    474.9663      5.0811    106.3596      0.0000
  1314.7500    480.9450      5.2753    109.5440      0.0000
  1315.0000    518.3690      5.4535    111.4012      0.0000
  1315.2500    585.9924      5.6162    112.0647      0.0000
  1315.5000    646.1288      5.8048    111.6689      0.0000
  1315.7500    647.0900      6.0233    110.3536      0.0000
  1316.0000    592.6052      6.2225    108.3252      0.0000
  1316.2500    545.8361      6.3746    105.7092      0.0000
  1316.5000    557.5793      6.5295    102.5778      0.0000
  1316.7500    619.9161      6.7696     99.3500      0.0000
  1317.0000    678.0798      7.1210     96.9768      0.0000
  1317.2500    682.6256      7.5137     96.5187      0.0000
  1317.5000    639.2850      7.8181     98.5500      0.0000
  1317.7500    591.9720      7.9405    102.8122      0.0000
  1318.0000    567.2580      7.8714    108.2589      0.0000
  1318.2500    558.4014      7.6232    113.5530      0.0000
  1318.5000    545.7999      7.2423    117.5762      0.0000
  1318.7500    522.5154      6.9395    119.4081      0.0000
  1319.0000    510.4820      6.8767    118.2641      0.0000
  1319.2500    537.6077      6.7806    114.0234      0.0000
  1319.5000    596.8907      6.3372    107.7450      0.0000
  1319.7500    662.2761      5.7761    101.2615      0.0000
  1320.0000    722.7837      5.4585     96.0597      0.0000
  1320.2500    767.6139      5.3309     92.5831     -5.0000
