~Version Information
VERS.                      2.0: CWLS Log ASCII Standard - VERSION 2.0
WRAP.                       NO: One line per depth step
~Well Information Block
STRT.FT               580.0000: 
STOP.FT              1756.7500: 
STEP.FT                 0.2500: 
NULL.                -999.2500: 
COMP.          Pioneer Natural Resources: COMPANY
WELL.          Lookout Point 31-23 Tr: WELL
FLD.           Purgatoire River: FIELD
LOC.           541' FNL & 1786' FEL: LOCATION
PROV.                 Colorado: PROVINCE
CNTY.               Las Animas: COUNTRY
SRVC.                Patterson: SERVICE COMPANY
DATE.          Sun Jan 23 04:14:25 2005: LOG DATE
UWI.           05 071 08260 00: UNIQUE WELL ID
~Curve Information Block
DEPT.FT            0 000 00 00: Depth
DIR.Ohm-m                     : IEL Induction Resistivity
GR.GAPI                       : Gamma Ray
SN.Ohm-m                      : IEL Short Normal
SP.mV                         : IEL Spontaneous Potential
~Parameter Information Block
~A  Depth       DIR          GR          SN          SP     
# ...
   747.5000     39.7285    111.9329     64.1053    -86.7332
   747.7500     40.0740    106.8911     65.3382    -86.8115
   748.0000     40.4885     98.2581     67.1436    -86.9674
   748.2500     41.0326     92.6329     69.4264    -87.1808
   748.5000     41.7553     85.3573     71.9506    -87.4161
   748.7500     42.6410     81.7226     74.3926    -87.6220
   749.0000     43.5601     78.8656     76.4429    -87.7416
   749.2500     44.2805     79.1087     77.9132    -87.7276
   749.5000     44.5763     82.7904     78.7581    -87.5568
   749.7500     44.3709     86.8441     79.0034    -87.2369
   750.0000     43.7825     93.5048     78.6786    -86.8046
   750.2500     43.0254     97.3989     77.8318    -86.3144
   750.5000     42.2729    101.5924     76.5691    -85.8246
   750.7500     41.5996    103.1866     75.0216    -85.3821
   751.0000     41.0118    104.2261     73.2708    -85.0123
   751.2500     40.4996    104.6328     71.3364    -84.7159
   751.5000     40.0545    105.9123     69.2365    -84.4738
   751.7500     39.6513    107.5052     67.0350    -84.2591
   752.0000     39.2358    110.7149     64.8317    -84.0508
   752.2500     38.7493    112.8797     62.7259    -83.8433
   752.5000     38.1797    115.1747     60.7918    -83.6498
   752.7500     37.5903    115.8803     59.0693    -83.4973
   753.0000     37.0871    116.4413     57.5558    -83.4190
   753.2500     36.7473    117.1172     56.1991    -83.4454
   753.5000     36.5576    118.7288     54.9152    -83.6004
   753.7500     36.4035    119.6066     53.6482    -83.9022
   754.0000     36.1220    119.5904     52.4205    -84.3696
   754.2500     35.5943    118.6765     51.3056    -85.0295
   754.5000     34.8185    116.8145     50.3377    -85.9198
   754.7500     33.9092    115.8095     49.4639    -87.0897
   755.0000     33.0369    115.2906     48.5933    -88.5937
   755.2500     32.3684    115.8844     47.6700    -90.4888
   755.5000     32.0366    118.6529     46.6903    -92.8343
   755.7500     32.1255    121.6881     45.6734    -95.6983
   756.0000     32.6424    126.5021     44.6370    -99.1687
   756.2500     33.4757    128.4010     43.5829   -103.3598
   756.5000     34.3638    127.6240     42.4782   -108.4114
   756.7500     34.9156    125.0000     41.2513   -114.4760
   757.0000     34.7133    119.9615     39.8248   -121.7017
   757.2500     33.4606    116.9849     38.1647   -130.2204
   757.5000     31.0862    113.7810     36.2958   -140.1491
   757.7500     27.7619    112.2347     34.2734   -151.6059
   758.0000     23.8669    109.9643     32.1486   -164.7265
   758.2500     19.9027    108.1763     29.9606   -179.6649
   758.5000     16.3304    105.4050     27.7495   -196.5623
   758.7500     13.4250    104.0691     25.5651   -215.4784
   759.0000     11.2548    103.3485     23.4548   -236.2963
   759.2500      9.7728    103.2397     21.4447   -258.6285
   759.5000      8.9299    102.1062     19.5416   -281.7639
   759.7500      8.7822    100.2917     17.7601   -304.6979
   760.0000      9.6815     96.6027     16.1435   -326.2594
   760.2500     13.0896     94.0476     14.7470   -345.3064
   760.5000     30.1667     90.2001     13.5897   -360.9265
   760.7500 100000.0000     87.1611     12.6209   -372.5744
   761.0000 100000.0000     80.8317     11.7376   -380.1155
   761.2500 100000.0000     75.1533     10.8455   -383.8010
   761.5000 100000.0000     65.1711      9.9124   -384.2184
   761.7500 100000.0000     58.5051      8.9713   -382.2481
   762.0000 100000.0000     50.1342      8.0827   -379.0143
   762.2500 100000.0000     46.2077      7.2907   -375.7954
   762.5000     18.2011     42.9072      6.6013   -373.8752
   762.7500      6.9930     42.0259      5.9850   -374.3506
   763.0000      4.3980     41.5473      5.3992   -377.9377
   763.2500      3.2956     41.2447      4.8147   -384.8236
   763.5000      2.6742     40.6168      4.2315   -394.6023
   763.7500      2.2506     40.4633      3.6802   -406.3210
   764.0000      1.9415     41.9172      3.2081   -418.6488
   764.2500      1.7408     44.8110      2.8536   -430.1443
   764.5000      1.6740     52.6827      2.6224   -439.5585
   764.7500      1.8024     59.9537      2.4801   -446.0866
   765.0000      2.3124     72.2318      2.3671   -449.4983
   765.2500      4.0600     80.0748      2.2278   -450.1378
   765.5000     22.9927     89.5050      2.0355   -448.8272
   765.7500 100000.0000     93.6445      1.8001   -446.7257
   766.0000 100000.0000     96.4430      1.5547   -445.1646
   766.2500 100000.0000     96.4054      1.3323   -445.4612
   766.5000     11.2707     95.1193      1.1472   -448.7144
   766.7500      1.1974     94.7625      0.9932   -455.6131
   767.0000      0.3789     96.7310      0.8557   -466.3120
   767.2500      0.1264     99.9662      0.7237   -480.4196
   767.5000      0.0432    107.0938      0.5952   -497.1075
   767.7500      0.0193    112.8497      0.4765   -515.2937
   768.0000      0.0129    122.2243      0.3781   -533.8250
   768.2500      0.0132    128.5418      0.3074   -551.6272
   768.5000      0.0207    137.3253      0.2629   -567.7682
   768.7500      0.0483    142.0701      0.2355   -581.5117
   769.0000      0.1442    145.7391      0.2146   -592.3769
   769.2500      0.4381    144.6352      0.1948   -600.2372
   769.5000      1.5637    136.3771      0.1778   -605.4042
   769.7500 100000.0000    126.8091      0.1682   -608.6041
   770.0000 100000.0000    108.7182      0.1683   -610.7698
   770.2500 100000.0000     96.0044      0.1760   -612.6753
   770.5000 100000.0000     78.7152      0.1865   -614.5750
   770.7500 100000.0000     69.3302      0.1955   -616.0714
   771.0000 100000.0000     58.6712      0.2005   -616.3310
   771.2500 100000.0000     53.2816      0.2007   -614.5593
   771.5000 100000.0000     46.5591      0.1970   -610.4796
   771.7500 100000.0000     42.6823      0.1927   -604.5491
   772.0000 100000.0000     38.0312      0.1936   -597.8333
   772.2500 100000.0000     35.8499      0.2052   -591.6459
   772.5000 100000.0000     33.6203      0.2294   -587.1813
   772.7500 100000.0000     32.5036      0.2638   -585.2797
   773.0000 100000.0000     31.2327      0.2990   -586.3748
   773.2500 100000.0000     30.8236      0.3150   -590.5176
   773.5000 100000.0000     31.0804      0.2887   -597.3616
   773.7500    124.3842     31.6906      0.2156   -606.0567
   774.0000 100000.0000     32.7747      0.1190   -615.1343
   774.2500 100000.0000     33.5208      0.0314   -622.5400
   774.5000 100000.0000     35.0605     -0.0305   -625.9216
   774.7500 100000.0000     36.6671     -0.0722   -623.1647
   775.0000 100000.0000     40.1892     -0.1058   -612.9156
   775.2500 100000.0000     43.2466     -0.1296   -594.8939
   775.5000 100000.0000     48.4389     -0.1082   -569.8688
   775.7500     42.4998     51.7128      0.0621   -539.3928
   776.0000      5.0696     55.0747      0.6385   -505.4445
   776.2500      2.6278     55.7892      2.1694   -470.0889
   776.5000      1.7566     54.5888      5.5939   -435.1834
   776.7500      1.3118     52.7021     12.1134   -402.1487
   777.0000      1.0696     49.1907     22.7154   -371.8414
   777.2500      0.9701     46.8425     37.5213   -344.5677
   777.5000      1.0083     43.7537     55.4407   -320.2158
   777.7500      1.2373     42.1407     74.5075   -298.4457
   778.0000      1.8745     40.7164     92.7057   -278.8631
   778.2500      4.0269     40.6015    108.6648   -261.1298
   778.5000     46.1278     41.4410    121.8207   -245.0078
   778.7500 100000.0000     42.0791    132.1724   -230.3433
   779.0000 100000.0000     41.9335    139.9951   -217.0233
   779.2500 100000.0000     40.8114    145.6855   -204.9122
   779.5000 100000.0000     38.2163    149.6881   -193.8208
   779.7500 100000.0000     36.6352    152.4144   -183.5176
   780.0000 100000.0000     35.5550    154.1626   -173.7796
   780.2500 100000.0000     35.8055    155.0966   -164.4580
   780.5000     47.9914     36.9311    155.3053   -155.5165
   780.7500     29.3349     37.6365    154.8762   -147.0275
