~Version Information
VERS.                      2.0: CWLS Log ASCII Standard - VERSION 2.0
WRAP.                       NO: One line per depth step
~Well Information Block
STRT.FT                 5.0000: 
STOP.FT              1874.2500: 
STEP.FT                 0.2500: 
NULL.                -999.2500: 
COMP.          Pioneer Natural Resources: COMPANY
WELL.           Stampede 42-18: WELL
FLD.           Purgatoire River: FIELD
LOC.           2479' FNL & 160' FEL--: LOCATION
CNTY.               Las Animas: COUNTY
SRVC.          Superior Well Services: SERVICE COMPANY
DATE.          Mon Jun 25 12:19:16 2007: LOG DATE
UWI.                          : UNIQUE WELL ID
STAT.                 Colorado: STATE
~Curve Information Block
DEPT.FT            0 000 00 00: Depth
GR.GAPI                       : Gamma Ray
CCL.                          : Casing Collar Locator
TT3.usec                      : CBL 3' Travel Time
AMP3.mV                       : CBL 3' Amplitude
AMP5.mV                       : CBL 5' Amplitude
~Parameter Information Block
~A  Depth        GR         CCL         TT3         AMP3        AMP5    
# ...
   733.0000    112.1606      0.0000    710.8308      5.2341      2.7457
   733.2500    111.0245      0.0000    701.6245      5.2139      2.7475
   733.5000    112.3056      0.0000    685.6558      5.1805      2.7509
   733.7500    116.1597      0.0000    667.8778      5.1438      2.7530
   734.0000    121.4553      0.0000    653.3148      5.1133      2.7532
   734.2500    125.8553      0.0000    644.3141      5.0881      2.7522
   734.5000    127.1152      0.0000    640.5679      5.0634      2.7515
   734.7500    124.5785      0.0000    640.7362      5.0425      2.7531
   735.0000    119.6920      0.0000    643.2208      5.0355      2.7576
   735.2500    115.0411      0.0000    645.6622      5.0492      2.7622
   735.5000    112.4922      0.0000    645.2242      5.0789      2.7626
   735.7500    112.0021      0.0000    640.9603      5.1114      2.7571
   736.0000    112.2342      0.0000    635.8561      5.1326      2.7476
   736.2500    112.1580      0.0000    635.0526      5.1371      2.7381
   736.5000    111.8186      0.0000    641.1348      5.1301      2.7336
   736.7500    111.7311      0.0000    651.6546      5.1208      2.7360
   737.0000    112.0901      0.0000    661.5081      5.1161      2.7409
   737.2500    112.9789      0.0000    666.9927      5.1203      2.7411
   737.5000    115.0687      0.0000    666.9709      5.1356      2.7327
   737.7500    119.3684      0.0000    661.1077      5.1569      2.7173
   738.0000    126.1050      0.0000    648.8651      5.1715      2.6979
   738.2500    134.3034      0.0000    630.7651      5.1687      2.6768
   738.5000    142.5053      0.0000    609.7734      5.1495      2.6575
   738.7500    149.4275      0.0000    591.0363      5.1253      2.6470
   739.0000    154.0530      0.0000    580.6081      5.1099      2.6512
   739.2500    155.7540      0.0000    583.8122      5.1095      2.6688
   739.5000    154.5969      0.0000    602.4272      5.1209      2.6925
   739.7500    151.2150      0.0000    631.8328      5.1355      2.7155
   740.0000    146.2399      0.0000    662.1861      5.1479      2.7333
   740.2500    139.9474      0.0000    683.9839      5.1621      2.7411
   740.5000    132.4207      0.0000    692.5876      5.1884      2.7338
   740.7500    124.0165      0.0000    688.3693      5.2336      2.7117
   741.0000    115.7356      0.0000    674.9003      5.2913      2.6831
   741.2500    109.1150      0.0000    657.7244      5.3427      2.6591
   741.5000    105.5186      0.0000    642.6797      5.3689      2.6460
   741.7500    105.2993      0.0000    633.2963      5.3612      2.6417
   742.0000    107.5102      0.0000    629.6060      5.3240      2.6396
   742.2500    110.5167      0.0000    629.7059      5.2691      2.6371
   742.5000    113.0011      0.0000    631.9314      5.2092      2.6378
   742.7500    114.4620      0.0000    635.2689      5.1524      2.6453
   743.0000    114.9260      0.0000    638.4888      5.1025      2.6575
   743.2500    114.6481      0.0000    640.0313      5.0627      2.6698
   743.5000    114.3819      0.0000    639.1099      5.0383      2.6806
   743.7500    115.5170      0.0000    636.3503      5.0318      2.6916
   744.0000    119.1903      0.0000    632.8615      5.0381      2.7029
   744.2500    125.1357      0.0000    629.0109      5.0477      2.7108
   744.5000    131.8906      0.0000    624.8325      5.0537      2.7112
   744.7500    138.3285      0.0000    621.6888      5.0561      2.7045
   745.0000    144.6197      0.0000    622.3747      5.0569      2.6954
   745.2500    151.6220      0.0000    628.1071      5.0548      2.6864
   745.5000    159.6024      0.0000    635.8869      5.0459      2.6748
   745.7500    167.3608      0.0000    641.1239      5.0313      2.6579
   746.0000    172.4298      0.0000    643.2076      5.0203      2.6391
   746.2500    172.7626      0.0000    646.1589      5.0221      2.6255
   746.5000    168.6224      0.0000    653.2335      5.0369      2.6194
   746.7500    162.2887      0.0000    663.1551      5.0570      2.6167
   747.0000    155.5918      0.0000    672.2515      5.0772      2.6120
   747.2500    148.3360      0.0000    678.2568      5.0990      2.6040
   747.5000    139.4509      0.0000    681.2474      5.1253      2.5949
   747.7500    129.1459      0.0000    682.3585      5.1544      2.5886
   748.0000    119.5522      0.0000    682.6591      5.1807      2.5884
   748.2500    113.4868      0.0000    682.7841      5.2004      2.5956
   748.5000    112.6804      0.0000    682.9289      5.2165      2.6099
   748.7500    116.7577      0.0000    682.9968      5.2363      2.6279
   749.0000    123.3686      0.0000    682.8477      5.2635      2.6434
   749.2500    129.3232      0.0000    682.4565      5.2933      2.6510
   749.5000    132.2886      0.0000    681.8966      5.3153      2.6497
   749.7500    132.1236      0.0000    681.2415      5.3204      2.6431
   750.0000    130.7632      0.0000    680.5302      5.3085      2.6366
   750.2500    130.5325      0.0000    679.7467      5.2892      2.6323
   750.5000    132.2952      0.0000    678.7380      5.2754      2.6266
   750.7500    135.0556      0.0000    677.0140      5.2772      2.6133
   751.0000    137.0738      0.0000    673.6199      5.2985      2.5897
   751.2500    137.1370      0.0000    667.3098      5.3357      2.5595
   751.5000    134.9164      0.0000    657.1926      5.3775      2.5322
   751.7500    130.6834      0.0000    643.7487      5.4067      2.5200
   752.0000    125.3277      0.0000    629.6099      5.4063      2.5322
   752.2500    120.7441      0.0000    619.0142      5.3683      2.5677
   752.5000    119.3573      0.0000    615.4473      5.3027      2.6146
   752.7500    122.1417      0.0000    619.1893      5.2335      2.6593
   753.0000    126.9896      0.0000    627.5471      5.1739      2.6953
   753.2500    129.8741      0.0000    637.9197      5.1052      2.7223
   753.5000    128.1646      0.0000    650.3738      4.9975      2.7424
   753.7500    122.6295      0.0000    666.5643      4.8565      2.7584
   754.0000    116.2304      0.0000    686.1952      4.7299      2.7729
   754.2500    111.5287      0.0000    705.2447      4.6579      2.7889
   754.5000    109.4206      0.0000    718.1176      4.6330      2.8085
   754.7500    109.6444     -1.2665    721.6128      4.6178      2.8297
   755.0000    111.5599     -1.4618    716.8629      4.5872      2.8440
   755.2500    114.4083      0.0000    707.3545      4.5488      2.8422
   755.5000    117.6817      0.0000    695.6227      4.5325      2.8212
   755.7500    121.4950      0.0000    682.7593      4.5615      2.7854
   756.0000    125.9731      0.0000    670.2502      4.6240      2.7438
   756.2500    130.2578      0.0000    660.0342      4.6804      2.7073
   756.5000    132.8232      0.0000    652.6468      4.7109      2.6865
   756.7500    132.8721      0.0000    646.9554      4.7424      2.6843
   757.0000    131.0841      0.0000    641.7532      4.8107      2.6899
   757.2500    129.0983      0.0000    636.5976      4.9120      2.6856
   757.5000    128.5530      0.0000    631.8876      5.0078      2.6631
   757.7500    130.3412      0.0000    629.0082      5.0668      2.6316
   758.0000    134.1142      0.0000    629.4448      5.0851      2.6069
   758.2500    138.2401      0.0000    633.0464      5.0785      2.5978
   758.5000    140.6799      0.0000    637.9142      5.0656      2.6028
   758.7500    140.5853      0.0000    642.3387      5.0590      2.6141
   759.0000    139.2879      0.0000    646.3901      5.0654      2.6229
   759.2500    139.2205      0.0000    651.4248      5.0915      2.6241
   759.5000    141.4225      0.0000    658.3672      5.1479      2.6173
   759.7500    144.3271      0.0000    666.7931      5.2459      2.6063
   760.0000    145.4500      0.0000    675.6808      5.3877      2.5959
   760.2500    144.0118      0.0000    684.6462      5.5583      2.5879
   760.5000    141.4704      0.0000    693.9075      5.7288      2.5787
   760.7500    139.8125      0.0000    703.1738      5.8726      2.5633
