~Version Information
VERS.                      2.0: CWLS Log ASCII Standard - VERSION 2.0
WRAP.                       NO: One line per depth step
~Well Information Block
STRT.FT               720.0000: 
STOP.FT              2730.2000: 
STEP.FT                 0.1000: 
NULL.                -999.2500: 
COMP.          Evergreen Operating Corporation: COMPANY
WELL.            Rangely 22-28: WELL
FLD.           Purgatoire River: FIELD
LOC.           1741' FNL & 2335' FWL: LOCATION
PROV.                 Colorado: PROVINCE
CNTY.               Las Animas: COUNTRY
SRVC.                Patterson: SERVICE COMPANY
DATE.          Thu Sep 16 15:10:36 2004: LOG DATE
UWI.           05 071 08044 00: UNIQUE WELL ID
~Curve Information Block
DEPT.FT            0 000 00 00: Depth
DCAL.in                       : CDL Caliper
DPOR.pu                       : CDL Density Porosity
NPOR.pu                       : Neutron Porosity
RHOB.g/cc                     : CDL Bulk Density
RHOC.g/cc                     : CDL Density Correction
GR.GAPI                       : Gamma Ray
~Parameter Information Block
~A  Depth       DCAL        DPOR        NPOR        RHOB        RHOC         GR     
# ...
  1392.0000      8.0936     49.6086     10.8411      1.8315      0.0927     97.5299
  1392.1000      8.0936     43.4743     10.6552      1.9327      0.1462    102.2020
  1392.2000      8.0936     37.5508     10.5604      2.0304      0.1687    103.6356
  1392.3000      8.1031     31.3332     10.7383      2.1330      0.2039     98.6480
  1392.4000      8.1031     25.2426     11.2722      2.2335      0.2708     91.2066
  1392.5000      8.1051     20.6067     12.1337      2.3100      0.2898     85.2414
  1392.6000      8.1051     17.4984     13.2707      2.3613      0.1822     84.3528
  1392.7000      8.1051     14.9463     14.4640      2.4034      0.1513     88.8494
  1392.8000      8.0860     12.5796     15.4823      2.4424      0.0946     94.8562
  1392.9000      8.0860     10.5743     16.3730      2.4755      0.1249     98.7878
  1393.0000      8.0703      9.3205     17.2906      2.4962      0.0902     98.7995
  1393.1000      8.0703      8.6890     18.0543      2.5066      0.0791     95.8824
  1393.2000      8.0703      8.2554     18.5092      2.5138      0.0727     95.9195
  1393.3000      8.0670      8.3717     19.0638      2.5119      0.0728    102.8649
  1393.4000      8.0670      9.4743     19.8312      2.4937      0.0588    112.9183
  1393.5000      8.0662     10.8172     20.5052      2.4715      0.0181    120.6872
  1393.6000      8.0662     11.3150     21.0331      2.4633      0.0264    123.0538
  1393.7000      8.0662     11.2829     21.3916      2.4638      0.0760    119.6278
  1393.8000      8.0637     11.4191     21.6229      2.4616      0.0123    116.2546
  1393.9000      8.0637     11.3767     21.9041      2.4623      0.0272    118.2051
  1394.0000      8.0600     10.8110     22.1558      2.4716      0.0222    121.8718
  1394.1000      8.0600      9.8373     22.2839      2.4877      0.0566    120.7411
  1394.2000      8.0600      8.6256     22.3573      2.5077      0.0368    115.8903
  1394.3000      8.0591      7.6961     22.5437      2.5230      0.0614    115.6309
  1394.4000      8.0591      7.6919     22.9375      2.5231      0.0662    123.1858
  1394.5000      8.0590      8.3884     23.1950      2.5116      0.0411    131.2263
  1394.6000      8.0590      9.1428     22.9735      2.4991      0.0512    131.1539
  1394.7000      8.0590     10.0161     22.5110      2.4847      0.0584    125.2202
  1394.8000      8.0568     11.2291     22.4415      2.4647      0.0205    121.6451
  1394.9000      8.0568     12.2227     22.8385      2.4483     -0.0207    120.7303
  1395.0000      8.0577     12.1092     23.0395      2.4502     -0.0215    120.6073
  1395.1000      8.0577     10.8796     22.8516      2.4705      0.0401    124.7891
  1395.2000      8.0577      9.5795     22.7040      2.4919      0.0800    131.0568
  1395.3000      8.0664      8.8635     22.5831      2.5038      0.0397    131.5008
  1395.4000      8.0664      8.4224     22.3538      2.5110      0.0365    126.0035
  1395.5000      8.0722      8.1979     22.2862      2.5147      0.0600    122.0976
  1395.6000      8.0722      8.5189     22.5356      2.5094      0.0390    122.9646
  1395.7000      8.0722      9.3562     22.9256      2.4956      0.0308    124.5128
  1395.8000      8.0673     10.3604     23.1106      2.4791      0.0074    123.8716
  1395.9000      8.0673     11.2354     22.8662      2.4646      0.0522    120.5052
  1396.0000      8.0648     11.8651     22.4914      2.4542     -0.0055    114.0171
  1396.1000      8.0648     11.9770     22.5113      2.4524      0.0042    108.8233
  1396.2000      8.0648     11.5828     23.0204      2.4589      0.0321    109.1248
  1396.3000      8.0675     11.2461     23.5142      2.4644      0.0501    112.4161
  1396.4000      8.0675     11.1951     23.4592      2.4653      0.0229    115.3308
  1396.5000      8.0678     11.1097     22.8537      2.4667      0.0191    116.7417
  1396.6000      8.0678     11.0892     22.0524      2.4670      0.0212    117.9772
  1396.7000      8.0678     11.4007     21.3738      2.4619      0.0306    118.3792
  1396.8000      8.0668     11.8238     20.9772      2.4549      0.0307    115.7561
  1396.9000      8.0668     12.2042     20.9539      2.4486      0.0412    113.4688
  1397.0000      8.0669     12.1570     21.2588      2.4494      0.0050    116.1329
  1397.1000      8.0669     10.9458     21.6495      2.4694      0.0089    119.9100
  1397.2000      8.0669      9.0832     22.0556      2.5001      0.0955    118.6714
  1397.3000      8.0656      7.8915     22.5986      2.5198      0.0739    116.2213
  1397.4000      8.0656      7.3358     23.2535      2.5290      0.0571    116.4758
  1397.5000      8.0630      6.6056     23.9394      2.5410      0.0758    114.8456
  1397.6000      8.0630      5.8177     24.4810      2.5540      0.0590    110.7479
  1397.7000      8.0630      5.7108     24.6135      2.5558      0.1054    110.0904
  1397.8000      8.0595      5.9832     24.3611      2.5513      0.0295    112.3100
  1397.9000      8.0595      5.7626     23.9031      2.5549      0.0958    112.5213
  1398.0000      8.0543      5.6528     23.4374      2.5567      0.0714    112.4377
  1398.1000      8.0543      6.3135     23.1327      2.5458      0.0477    115.2882
  1398.2000      8.0543      7.0263     22.8492      2.5341      0.0206    118.7453
  1398.3000      8.0504      7.3678     22.6277      2.5284      0.0680    119.1892
  1398.4000      8.0504      7.9563     22.7366      2.5187      0.0585    117.3209
  1398.5000      8.0486      8.7513     23.0958      2.5056     -0.0077    115.1057
  1398.6000      8.0486      9.3905     23.4187      2.4951      0.0605    113.1539
  1398.7000      8.0486     10.0464     23.6915      2.4842      0.0249    111.9464
  1398.8000      8.0486      9.7117     24.0288      2.4898     -0.0127    112.3797
  1398.9000      8.0486      7.0129     24.2839      2.5343     -0.0081    116.1536
  1399.0000      8.0540      2.6529     24.2432      2.6062      0.0495    120.9413
  1399.1000      8.0540     -0.8624     24.0328      2.6642      0.1095    119.6025
  1399.2000      8.0540     -2.1730     24.0072      2.6859      0.0482    111.7212
  1399.3000      8.0626     -2.5937     24.2713      2.6928      0.0364    105.0925
  1399.4000      8.0626     -3.3789     24.7384      2.7058      0.0722    103.9518
  1399.5000      8.0675     -4.5657     25.4573      2.7253      0.0742    107.0451
  1399.6000      8.0675     -6.1738     26.3607      2.7519      0.0377    109.9690
  1399.7000      8.0675     -7.5056     27.1795      2.7738      0.0630    109.0575
  1399.8000      8.0710     -7.2611     27.7771      2.7698      0.0058    107.2811
  1399.9000      8.0710     -5.2968     28.1712      2.7374     -0.0227    108.7117
  1400.0000      8.0771     -2.4997     28.3548      2.6912      0.0070    111.8219
  1400.1000      8.0771      0.3316     28.3268      2.6445     -0.0362    113.6920
  1400.2000      8.0771      2.5578     28.0736      2.6078     -0.0538    113.3317
  1400.3000      8.0804      3.5761     27.5925      2.5910     -0.0946    111.4116
  1400.4000      8.0804      3.5912     27.1376      2.5907     -0.0204    109.0947
  1400.5000      8.0816      3.7805     26.8339      2.5876     -0.0049    107.4302
  1400.6000      8.0816      4.7715     26.3954      2.5713      0.0078    109.5209
  1400.7000      8.0816      6.4897     25.6579      2.5429      0.0056    115.5163
  1400.8000      8.0848      8.2468     25.1189      2.5139     -0.0221    119.8624
  1400.9000      8.0848      8.6709     25.3339      2.5069     -0.0332    120.5167
  1401.0000      8.0886      7.5067     26.0422      2.5261     -0.0114    121.8968
  1401.1000      8.0886      6.3408     26.5957      2.5454      0.0503    124.7980
  1401.2000      8.0886      6.4844     26.6990      2.5430      0.0292    126.3027
  1401.3000      8.0874      7.4301     26.3811      2.5274     -0.0159    125.2307
  1401.4000      8.0874      8.0264     25.8530      2.5176     -0.0273    123.1478
  1401.5000      8.0844      8.3605     25.5001      2.5121      0.0323    124.2036
