~Version Information
VERS.                      2.0: CWLS Log ASCII Standard - VERSION 2.0
WRAP.                       NO: One line per depth step
~Well Information Block
STRT.FT                15.0000: 
STOP.FT              1891.7500: 
STEP.FT                 0.2500: 
NULL.                -999.2500: 
COMP.          Pioneer Natural Resources: COMPANY
WELL.          Oink Oink 14-36 Tr: WELL
FLD.           Purgatoire River: FIELD
LOC.           236' FSL & 164' FWL: LOCATION
PROV.                 Colorado: PROVINCE
CNTY.               Las Animas: COUNTRY
SRVC.                Patterson: SERVICE COMPANY
DATE.          Wed Jun 22 11:40:13 2005: LOG DATE
UWI.           05 071 08393 00: UNIQUE WELL ID
~Curve Information Block
DEPT.FT            0 000 00 00: Depth
GR.GAPI                       : Gamma Ray
CCL.                          : Casing Collar Locator
TT3.usec                      : CBL 3' Travel Time
AMP3.mV                       : CBL 3' Amplitude
~Parameter Information Block
~A  Depth        GR         CCL         TT3         AMP3    
# ...
  1120.5000     84.1613      0.0000    679.3167      5.6540
  1120.7500     76.5944      0.0000    678.3021      5.6878
  1121.0000     72.3846      0.0000    678.6161      5.7250
  1121.2500     70.6375      0.0000    680.7415      5.7541
  1121.5000     70.0851      0.0000    684.4311      5.7756
  1121.7500     70.3134      0.0000    686.7298      5.7992
  1122.0000     71.6633      0.0000    683.8766      5.8366
  1122.2500     74.4143      0.0000    676.0622      5.8967
  1122.5000     78.3555      0.0000    668.0685      5.9800
  1122.7500     83.0243      0.0000    663.7265      6.0745
  1123.0000     88.1298      0.0000    661.1276      6.1591
  1123.2500     93.6756      0.0000    654.7259      6.2149
  1123.5000     99.6393      0.0000    641.4663      6.2347
  1123.7500    105.6717      0.0000    623.7526      6.2242
  1124.0000    111.3885      0.0000    606.7839      6.1948
  1124.2500    116.9007      0.0000    593.3242      6.1606
  1124.5000    122.5569      0.0000    581.0606      6.1383
  1124.7500    128.0191      0.0000    565.5257      6.1452
  1125.0000    132.1206      0.0000    545.6008      6.1927
  1125.2500    134.0020      0.0000    525.5737      6.2784
  1125.5000    134.0796      0.0000    511.5860      6.3825
  1125.7500    133.6884      0.0000    506.3543      6.4739
  1126.0000    133.8943      0.0000    507.7523      6.5264
  1126.2500    134.5195      0.0000    512.7167      6.5318
  1126.5000    134.1984      0.0000    522.0030      6.5028
  1126.7500    131.7178      0.0000    540.1525      6.4630
  1127.0000    127.4612      0.0000    569.9792      6.4394
  1127.2500    123.2136      0.0000    607.3702      6.4571
  1127.5000    120.4483      0.0000    642.7630      6.5298
  1127.7500    119.1113      0.0000    667.9703      6.6485
  1128.0000    118.1040      0.0000    680.9019      6.7806
  1128.2500    116.5659      0.0000    684.3986      6.8867
  1128.5000    114.5806      0.0000    682.8218      6.9439
  1128.7500    113.0315      0.0000    680.2565      6.9563
  1129.0000    113.0757      0.0000    679.4929      6.9447
  1129.2500    115.5263      0.0000    680.4778      6.9234
  1129.5000    120.2889      0.0000    680.4582      6.8875
  1129.7500    126.2499      0.0000    677.1489      6.8228
  1130.0000    131.8584      0.0000    671.4893      6.7264
  1130.2500    135.8876      0.0000    666.4687      6.6132
  1130.5000    137.6209      0.0000    663.7411      6.5034
  1130.7500    136.6941      0.0000    662.4930      6.4071
  1131.0000    133.1917      0.0000    661.4128      6.3236
  1131.2500    127.6814      0.0000    660.3212      6.2517
  1131.5000    120.8494      0.0000    659.4064      6.1959
  1131.7500    113.4567      0.0000    658.3252      6.1626
  1132.0000    106.8101      0.0000    657.0890      6.1570
  1132.2500    102.4704      0.0000    656.8350      6.1829
  1132.5000    100.8099      0.0000    658.4564      6.2388
  1132.7500    100.3013      0.0000    660.7799      6.3103
  1133.0000     99.0040      0.0000    661.0748      6.3705
  1133.2500     96.6876      0.0000    657.4902      6.3930
  1133.5000     95.0286      0.0000    650.5450      6.3660
  1133.7500     95.7833      0.0000    642.0630      6.2954
  1134.0000     99.2481      0.0000    633.3021      6.1943
  1134.2500    104.5502      0.0000    624.8402      6.0680
  1134.5000    110.8040      0.0000    618.1353      5.9121
  1134.7500    117.4906      0.0000    616.0553      5.7234
  1135.0000    123.9856      0.0000    620.9896      5.5064
  1135.2500    129.2766      0.0000    632.6381      5.2679
  1135.5000    132.2793      0.0000    648.1033      5.0155
  1135.7500    132.2412      0.0000    663.9855      4.7653
  1136.0000    128.8450      0.0000    678.1530      4.5438
  1136.2500    122.3792      0.0000    689.7760      4.3712
  1136.5000    114.1946      0.0000    698.3323      4.2460
  1136.7500    106.6625      0.0000    703.0544      4.1536
  1137.0000    101.8162      0.0000    703.2962      4.0848
  1137.2500     99.6675      0.0000    699.2284      4.0415
  1137.5000     98.2799      0.0000    692.2611      4.0260
  1137.7500     95.7244      0.0000    685.0345      4.0358
  1138.0000     91.7116      0.0000    680.6957      4.0690
  1138.2500     87.3814      0.0000    680.9597      4.1274
  1138.5000     83.9958      0.0000    683.9886      4.2070
  1138.7500     81.9617      0.0000    684.8886      4.2903
  1139.0000     80.7705      0.0000    679.6944      4.3528
  1139.2500     79.6778      0.0000    669.1205      4.3814
  1139.5000     78.5179      0.0000    657.8750      4.3846
  1139.7500     77.8568      0.0000    650.3638      4.3890
  1140.0000     78.3702      0.0000    647.7301      4.4267
  1140.2500     80.2874      0.0000    648.7770      4.5189
  1140.5000     83.4819      0.0000    651.9717      4.6643
  1140.7500     87.7685      0.0000    655.2433      4.8387
  1141.0000     92.9494      0.0000    655.3475      5.0108
  1141.2500     98.8009      0.0000    649.6970      5.1632
  1141.5000    105.0682      0.0000    638.3475      5.2966
  1141.7500    111.3006      0.0000    622.9188      5.4145
  1142.0000    116.8929      0.0000    604.6154      5.5104
  1142.2500    121.6849      0.0000    584.7703      5.5740
  1142.5000    126.2901      0.0000    566.4032      5.6055
  1142.7500    131.2186      0.0000    553.4148      5.6184
  1143.0000    135.6770      0.0000    547.7604      5.6269
  1143.2500    137.8609      0.0000    547.9034      5.6327
  1143.5000    136.6375      0.0000    550.5274      5.6233
  1143.7500    132.7295      0.0000    553.8801      5.5807
  1144.0000    128.3348      0.0000    559.3206      5.4926
  1144.2500    125.7233      0.0000    569.1423      5.3600
  1144.5000    125.7243      0.0000    582.8837      5.1942
  1144.7500    126.9588      0.0000    597.0676      5.0083
  1145.0000    126.5608      0.0000    609.4497      4.8180
  1145.2500    122.0602      0.0000    621.8782      4.6525
  1145.5000    112.9493      0.0000    637.4086      4.5601
  1145.7500    100.8731      0.0000    655.9583      4.5964
  1146.0000     88.7393      0.0000    674.2691      4.8022
  1146.2500     79.4865      0.0000    689.0551      5.1878
  1146.5000     74.9624      0.0000    698.8486      5.7346
  1146.7500     75.3767      0.0000    703.7876      6.4132
  1147.0000     79.5504      0.0000    705.2157      7.2182
  1147.2500     85.4861      0.0000    704.9233      8.2008
  1147.5000     90.8602      0.0000    702.9126      9.4680
  1147.7500     93.7712      0.0000    695.9711     11.1242
  1148.0000     93.7192      0.0000    680.5716     13.1844
  1148.2500     91.8797      0.0000    657.1666     15.5232
  1148.5000     90.2732      0.0000    628.9564     17.8877
  1148.7500     90.6850      0.0000    596.8893     19.9451
  1149.0000     94.0096      0.0000    561.7634     21.3453
  1149.2500    100.0317      0.0000    533.0002     21.8187
  1149.5000    107.7345      0.0000    527.4924     21.2947
  1149.7500    115.9445      0.0000    552.9681     19.9580
  1150.0000    123.5079      0.0000    596.2314     18.1845
  1150.2500    128.9474      0.0000    634.2071     16.3884
  1150.5000    130.6332      0.0000    655.7898     14.8747
  1150.7500    127.8319      0.0000    668.3285     13.7626
  1151.0000    121.5880      0.0000    683.5877     12.9955
  1151.2500    114.3676      0.0000    703.4468     12.4235
  1151.5000    108.7196      0.0000    720.8173     11.9072
  1151.7500    105.9872      0.0000    728.8057     11.3641
  1152.0000    105.9357      0.0000    725.2811     10.7443
  1152.2500    107.4506      0.0000    711.7856     10.0018
  1152.5000    109.5654      0.0000    692.1535      9.1229
  1152.7500    111.7728      0.0000    671.6294      8.1800
  1153.0000    113.5653      0.0000    654.8157      7.3218
  1153.2500    114.1860      0.0000    643.3025      6.6731
  1153.5000    113.0403      0.0000    635.3867      6.2431
  1153.7500    110.1016      0.0000    628.0134      5.9514
