~Version Information
VERS.                      2.0: CWLS Log ASCII Standard - VERSION 2.0
WRAP.                       NO: One line per depth step
~Well Information Block
STRT.FT                -7.2500: 
STOP.FT               765.5000: 
STEP.FT                 0.2500: 
NULL.                -999.2500: 
COMP.          Pioneer Natural Resources: COMPANY
WELL.          Barrelman 41-27: WELL
FLD.           Purgatorie River: FIELD
LOC.           371' FNL & 493' FEL--: LOCATION
PROV.                       CO: PROVINCE
CNTY.               Las Animas: COUNTRY
SRVC.          Patterson Wireline: SERVICE COMPANY
DATE.          Wed May 25 09:32:20 2005: LOG DATE
UWI.           05 071 08334 00: UNIQUE WELL ID
~Curve Information Block
DEPT.FT            0 000 00 00: Depth
CCL.                          : Casing Collar Locator
TT3.usec                      : CBL 3' Travel Time
AMP3.mV                       : CBL 3' Amplitude
GR.GAPI                       : Gamma Ray
~Parameter Information Block
~A  Depth       CCL         TT3         AMP3         GR     
# ...
    93.2500      0.0000    779.2534      9.1556     56.7617
    93.5000      0.0000    779.2338      8.9761     54.8389
    93.7500      0.0000    779.2002      8.8001     53.3323
    94.0000      0.0000    778.9789      8.6514     52.1881
    94.2500      0.0000    778.2500      8.5301     51.6774
    94.5000      0.0000    776.6639      8.4286     52.5249
    94.7500      0.0000    774.2695      8.3513     55.3707
    95.0000      0.0000    771.9260      8.3092     60.1173
    95.2500      0.0000    770.9539      8.2927     65.8058
    95.5000      0.0000    772.0068      8.2642     71.0905
    95.7500      0.0000    774.4238      8.1861     74.9680
    96.0000      0.0000    776.9080      8.0544     77.1931
    96.2500      0.0000    778.6163      7.9027     78.0889
    96.5000      0.0000    779.4589      7.7834     78.1435
    96.7500      0.0000    779.7121      7.7411     77.9385
    97.0000      0.0000    779.6691      7.7887     78.2704
    97.2500      0.0000    779.5479      7.9001     79.9356
    97.5000      0.0000    779.4838      8.0278     83.1588
    97.7500      0.0000    779.5164      8.1329     87.2779
    98.0000      0.0000    779.6196      8.2003     91.0779
    98.2500      0.0000    779.7573      8.2356     93.4118
    98.5000      0.0000    779.9095      8.2551     93.7027
    98.7500      0.0000    780.0542      8.2815     92.3047
    99.0000      0.0000    780.1578      8.3400     90.4717
    99.2500      0.0000    780.1939      8.4438     89.4791
    99.5000      0.0000    780.1581      8.5794     89.4961
    99.7500      0.0000    780.0604      8.7118     89.5710
   100.0000      0.0000    779.9052      8.8072     88.8180
   100.2500      0.0000    779.6907      8.8542     87.3082
   100.5000      0.0000    779.4366      8.8647     85.7298
   100.7500      0.0000    779.2040      8.8572     84.5267
   101.0000      0.0000    779.0637      8.8375     83.4817
   101.2500      0.0000    779.0350      8.7979     81.9943
   101.5000      0.0000    779.0604      8.7375     79.7545
   101.7500      0.0000    779.0565      8.6786     77.2678
   102.0000      0.0000    778.9940      8.6526     75.6479
   102.2500      0.0000    778.9224      8.6672     75.6305
   102.5000      0.0000    778.9192      8.6965     76.6819
   102.7500      0.0000    779.0221      8.7087     77.2387
   103.0000      0.0000    779.2055      8.6977     76.0583
   103.2500      0.0000    779.4099      8.6841     73.4506
   103.5000      0.0000    779.5969      8.6901     71.2693
   103.7500      0.0000    779.7816      8.7208     71.5562
   104.0000      0.0000    780.0059      8.7653     74.8834
   104.2500      0.0000    780.2828      8.8076     79.9564
   104.5000      0.0000    780.5851      8.8330     84.8852
   104.7500      0.0000    780.8827      8.8294     88.6197
   105.0000      0.0000    781.1620      8.7907     91.0966
   105.2500      0.0000    781.4054      8.7230     92.4164
   105.5000      0.0000    781.5804      8.6474     92.1096
   105.7500      0.0000    781.6711      8.5895     89.0985
   106.0000      0.0000    781.7123      8.5595     82.4666
   106.2500      0.0000    781.7806      8.5431     72.5630
   106.5000      0.0000    781.9672      8.5173     61.4050
   106.7500      0.0000    782.3840      8.4743     51.7702
   107.0000      0.0000    783.2151      8.4253     45.5640
   107.2500      0.0000    784.7945      8.3829     42.8566
   107.5000      0.0000    787.5920      8.3481     42.4442
   107.7500      0.0000    791.8408      8.3120     43.2415
   108.0000      0.0000    796.8953      8.2652     45.0162
   108.2500      0.0000    801.2506      8.2049     47.9074
   108.5000      0.0000    803.8553      8.1373     51.4790
   108.7500      0.0000    805.3987      8.0721     54.4816
   109.0000      0.0000    807.6264      8.0188     55.7366
   109.2500      0.0000    811.3151      7.9860     55.1779
   109.5000      0.0000    815.5001      7.9781     53.7261
   109.7500      0.0000    818.6289      7.9902     52.2150
   110.0000      0.0000    819.7299      8.0097     50.8608
   110.2500      0.0000    818.4352      8.0258     49.6365
   110.5000      0.0000    814.7653      8.0367     48.5105
   110.7500      0.0000    809.5911      8.0494     47.2168
   111.0000      0.0000    804.9171      8.0729     45.3351
   111.2500      0.0000    802.7264      8.1105     42.8859
   111.5000      0.0000    803.1959      8.1561     40.6350
   111.7500      0.0000    804.6794      8.1988     39.6080
   112.0000      0.0000    805.6750      8.2295     40.2674
   112.2500      0.0000    806.0188      8.2431     42.0632
   112.5000      0.0000    805.9127      8.2389     43.7281
   112.7500      0.0000    804.8787      8.2240     44.2103
   113.0000      0.0000    802.2689      8.2120     43.4595
   113.2500      0.0000    798.1780      8.2142     42.2470
   113.5000      0.0000    793.4964      8.2314     41.3003
   113.7500      0.0000    789.3410      8.2546     40.7964
   114.0000      0.0000    786.4369      8.2722     40.6267
   114.2500      0.0000    784.8223      8.2761     40.8182
   114.5000      0.0000    784.0515      8.2665     41.5150
   114.7500      0.0000    783.6643      8.2544     42.6481
   115.0000      0.0000    783.4465      8.2571     43.8003
   115.2500      0.0000    783.3736      8.2870     44.4686
   115.5000      0.0000    783.4688      8.3442     44.4645
   115.7500      0.0000    783.7460      8.4197     44.1313
   116.0000      0.0000    784.2582      8.5047     44.1202
   116.2500      0.0000    785.2034      8.5949     44.6758
   116.5000      0.0000    787.0614      8.6869     45.1440
   116.7500      0.0000    790.4909      8.7729     44.5766
   117.0000      0.0000    795.6565      8.8425     42.9523
   117.2500      0.0000    801.4131      8.8889     41.4473
   117.5000      0.0000    805.5711      8.9115     41.2636
   117.7500      0.0000    806.5392      8.9139     42.3717
   118.0000      0.0000    804.6459      8.9002     43.6687
   118.2500      0.0000    801.5531      8.8733     44.3243
   118.5000      0.0000    798.5427      8.8351     44.6574
   118.7500      0.0000    795.7021      8.7910     45.5189
   119.0000      0.0000    792.7001      8.7508     47.1736
   119.2500      0.0000    789.8663      8.7194     49.1440
   119.5000      0.0000    788.2502      8.6884     50.8579
   119.7500      0.0000    788.8732      8.6401     52.0192
   120.0000      0.0000    791.9893      8.5645     52.5048
   120.2500      0.0000    796.6402      8.4681     52.3049
   120.5000      0.0000    800.9923      8.3678     51.5893
   120.7500      0.0000    803.7636      8.2800     50.6855
   121.0000      0.0000    805.4128      8.2142     49.9938
   121.2500      0.0000    807.2192      8.1719     49.8488
   121.5000      0.0000    809.1603      8.1493     50.3106
   121.7500      0.0000    809.6100      8.1417     51.1207
   122.0000      0.0000    807.3729      8.1456     52.0200
   122.2500      0.0000    803.1653      8.1591     53.0336
   122.5000      0.0000    798.6205      8.1818     54.2486
   122.7500      0.0000    794.5431      8.2146     55.3602
   123.0000      0.0000    790.7935      8.2566     55.6626
   123.2500      0.0000    787.3638      8.3022     54.5317
   123.5000      0.0000    784.7846      8.3399     51.8533
   123.7500      0.0000    783.6451      8.3567     48.0460
   124.0000      0.0000    784.1532      8.3463     43.8025
   124.2500      0.0000    785.9315      8.3186     39.8236
   124.5000      0.0000    787.8989      8.3004     36.6549
   124.7500      0.0000    788.6779      8.3196     34.6247
   125.0000      0.0000    787.6404      8.3863     33.8644
   125.2500      0.0000    785.4770      8.4853     34.3239
   125.5000      0.0000    783.4844      8.5867     35.6746
   125.7500      0.0000    782.4531      8.6635     37.2242
   126.0000      0.0000    782.3795      8.7067     38.1777
   126.2500      0.0000    782.9648      8.7266     38.1531
   126.5000      0.0000    784.1405      8.7392     37.4150
