~Version Information
VERS.                      2.0: CWLS Log ASCII Standard - VERSION 2.0
WRAP.                       NO: One line per depth step
~Well Information Block
STRT.FT               580.0000: 
STOP.FT              1756.0000: 
STEP.FT                 0.1000: 
NULL.                -999.2500: 
COMP.          Pioneer Natural Resources: COMPANY
WELL.          Lookout Point 31-23 Tr: WELL
FLD.           Purgatoire River: FIELD
LOC.           541' FNL & 1768' FEL: LOCATION
PROV.                 Colorado: PROVINCE
CNTY.               Las Animas: COUNTRY
SRVC.                Patterson: SERVICE COMPANY
DATE.          Mon Jan 24 07:20:20 2005: LOG DATE
UWI.           05 071 08260 00: UNIQUE WELL ID
~Curve Information Block
DEPT.FT            0 000 00 00: Depth
DCAL.in                       : CDL Caliper
DPOR.pu                       : CDL Density Porosity
GR.GAPI                       : Gamma Ray
NPOR.pu                       : Neutron Porosity
RHOB.g/cc                     : CDL Bulk Density
RHOC.g/cc                     : CDL Density Correction
~Parameter Information Block
~A  Depth       DCAL        DPOR         GR         NPOR        RHOB        RHOC    
   580.0000      8.0680      9.5787     51.6871     38.9020      2.4920     -0.1950
   580.1000      8.0680      9.6397     53.8554     38.9596      2.4909     -0.1821
   580.2000      8.0680      9.5963     57.9924     39.1310      2.4917     -0.1122
   580.3000      8.0694     10.5978     61.4443     39.7465      2.4751     -0.1677
   580.4000      8.0694     11.4924     63.7590     40.7565      2.4604     -0.1765
   580.5000      8.0691     11.2501     65.6092     41.4340      2.4644     -0.2061
   580.6000      8.0691     10.1228     66.9405     41.4919      2.4830     -0.2221
   580.7000      8.0691      8.8894     65.8264     41.3156      2.5033     -0.1895
   580.8000      8.0644      8.7176     63.9934     41.1882      2.5062     -0.1623
   580.9000      8.0644      9.6799     65.1336     41.4115      2.4903     -0.2179
   581.0000      8.0615     10.4442     68.6617     42.1859      2.4777     -0.1992
   581.1000      8.0615     10.7240     72.1495     42.9007      2.4731     -0.1738
   581.2000      8.0615     10.9381     75.2599     43.0464      2.4695     -0.2085
   581.3000      8.0714     10.5768     77.8114     42.9993      2.4755     -0.2379
   581.4000      8.0714      9.6719     77.6429     43.0800      2.4904     -0.1544
   581.5000      8.0807      9.1036     75.5377     43.1249      2.4998     -0.1748
   581.6000      8.0807      9.3441     75.5264     43.1807      2.4958     -0.1631
   581.7000      8.0807     10.3400     79.2191     43.4965      2.4794     -0.1675
   581.8000      8.0772     11.4937     83.3465     44.0379      2.4604     -0.1727
   581.9000      8.0772     12.0624     85.1909     44.3163      2.4510     -0.2051
   582.0000      8.0710     12.0818     84.9841     44.0984      2.4506     -0.1493
   582.1000      8.0710     12.4810     82.1498     43.8670      2.4441     -0.1727
   582.2000      8.0710     13.4163     77.5768     44.0837      2.4286     -0.2064
   582.3000      8.0693     14.0887     74.7007     44.5473      2.4175     -0.2087
   582.4000      8.0693     14.1463     76.1728     44.7473      2.4166     -0.2490
   582.5000      8.0696     14.3361     80.2924     44.5101      2.4135     -0.1703
   582.6000      8.0696     15.4959     83.0198     44.1775      2.3943     -0.1667
   582.7000      8.0696     16.5864     82.9470     44.1099      2.3763     -0.2158
   582.8000      8.0695     16.1584     82.1420     44.2777      2.3834     -0.2333
   582.9000      8.0695     15.0813     82.0955     44.4542      2.4012     -0.1946
   583.0000      8.0697     15.0445     82.2228     44.5585      2.4018     -0.1853
   583.1000      8.0697     15.9224     82.3076     44.7492      2.3873     -0.2425
   583.2000      8.0697     17.0157     82.2731     45.0958      2.3692     -0.1566
   583.3000      8.0718     18.0714     82.4154     45.3848      2.3518     -0.2609
   583.4000      8.0718     18.5722     82.3319     45.4412      2.3436     -0.1997
   583.5000      8.0733     18.6042     81.8802     45.2932      2.3430     -0.2043
   583.6000      8.0733     18.3751     83.5593     45.0701      2.3468     -0.2255
   583.7000      8.0733     18.0255     87.3448     44.9181      2.3526     -0.2177
   583.8000      8.0733     18.3104     91.0695     45.0965      2.3479     -0.2006
   583.9000      8.0733     19.3884     92.2974     45.6977      2.3301     -0.2388
   584.0000      8.0733     20.3618     89.0301     46.1626      2.3140     -0.2215
   584.1000      8.0733     20.5831     85.1360     45.9723      2.3104     -0.2364
   584.2000      8.0733     20.5870     85.5206     45.4418      2.3103     -0.1962
   584.3000      8.0737     21.3219     89.5652     45.1179      2.2982     -0.2553
   584.4000      8.0737     21.9859     92.9926     45.2765      2.2872     -0.2731
   584.5000      8.0744     21.0722     93.8981     45.8673      2.3023     -0.2923
   584.6000      8.0744     19.5257     94.3350     46.6805      2.3278     -0.1992
   584.7000      8.0744     19.7756     92.8141     47.4309      2.3237     -0.2605
   584.8000      8.0752     22.1369     85.4742     47.8653      2.2847     -0.3266
   584.9000      8.0752     25.5412     75.1551     48.0617      2.2286     -0.2998
   585.0000      8.0764     29.8067     66.6809     48.1943      2.1582     -0.3511
   585.1000      8.0764     35.4577     60.4623     48.0469      2.0649     -0.3555
   585.2000      8.0764     42.5086     56.8030     47.4642      1.9486     -0.4264
   585.3000      8.0780     49.8204     54.3717     46.9325      1.8280     -0.4638
   585.4000      8.0780     55.8691     50.2103     47.0557      1.7282     -0.4981
   585.5000      8.0765     59.8784     45.5881     47.6901      1.6620     -0.5419
   585.6000      8.0765     62.7417     42.7645     48.0870      1.6148     -0.4111
   585.7000      8.0765     66.0143     40.3622     47.8997      1.5608     -0.4773
   585.8000      8.0731     69.1204     37.9547     47.3616      1.5095     -0.6099
   585.9000      8.0731     70.5440     36.2267     46.8598      1.4860     -0.5590
   586.0000      8.0717     70.8276     34.2115     46.5648      1.4813     -0.5423
   586.1000      8.0717     71.1831     32.5283     46.4431      1.4755     -0.5802
   586.2000      8.0717     71.6131     32.8809     46.5072      1.4684     -0.5745
   586.3000      8.0723     71.5489     33.7201     46.6948      1.4694     -0.6187
   586.4000      8.0723     70.6457     33.8722     46.6449      1.4843     -0.5995
   586.5000      8.0731     69.3042     35.1914     46.3568      1.5065     -0.5651
   586.6000      8.0731     68.2574     37.6682     46.4908      1.5238     -0.5530
   586.7000      8.0731     67.7284     39.4819     46.9965      1.5325     -0.5639
   586.8000      8.0732     67.6849     41.4693     47.1624      1.5332     -0.5074
   586.9000      8.0732     68.0015     44.4196     46.8945      1.5280     -0.5488
   587.0000      8.0724     68.1073     44.8698     46.5473      1.5262     -0.5899
   587.1000      8.0724     67.4131     41.0109     46.2404      1.5377     -0.5865
   587.2000      8.0724     66.3782     36.0232     45.8435      1.5548     -0.5207
   587.3000      8.0719     66.0972     32.8015     45.5016      1.5594     -0.5490
   587.4000      8.0719     66.7695     32.9808     45.4131      1.5483     -0.5288
   587.5000      8.0726     67.9735     36.9738     45.4088      1.5284     -0.5585
   587.6000      8.0726     69.0675     40.8997     45.1436      1.5104     -0.5774
   587.7000      8.0726     68.8689     42.0011     44.7168      1.5137     -0.5948
   587.8000      8.0731     66.1730     43.3339     44.4594      1.5581     -0.5878
   587.9000      8.0731     60.9726     45.8279     44.4160      1.6440     -0.5013
   588.0000      8.0725     54.4246     47.4364     44.5779      1.7520     -0.4703
   588.1000      8.0725     47.4189     49.9045     44.9496      1.8676     -0.4508
   588.2000      8.0725     40.3210     54.8168     45.3517      1.9847     -0.4151
   588.3000      8.0722     33.5297     59.7843     45.6068      2.0968     -0.3394
   588.4000      8.0722     27.8510     63.0296     45.7430      2.1905     -0.2928
   588.5000      8.0732     23.8999     64.7308     45.8386      2.2557     -0.3067
   588.6000      8.0732     21.4193     64.6646     45.9447      2.2966     -0.3171
   588.7000      8.0732     20.0868     64.7973     46.0096      2.3186     -0.3432
   588.8000      8.0740     19.8704     67.9063     45.8569      2.3221     -0.3126
   588.9000      8.0740     20.2751     71.6977     45.4828      2.3155     -0.3547
   589.0000      8.0744     20.3705     73.9045     45.1894      2.3139     -0.3079
   589.1000      8.0744     19.7899     74.6544     45.2504      2.3235     -0.3317
   589.2000      8.0744     19.1133     74.7735     45.6766      2.3346     -0.2937
   589.3000      8.0745     18.9898     76.6408     46.0278      2.3367     -0.2664
   589.4000      8.0745     18.6827     81.6813     45.9621      2.3417     -0.3159
   589.5000      8.0739     17.0447     87.9354     45.9694      2.3688     -0.2635
