~Version Information
VERS.                      2.0: CWLS Log ASCII Standard - VERSION 2.0
WRAP.                       NO: One line per depth step
~Well Information Block
STRT.FT               300.0000: 
STOP.FT               871.2000: 
STEP.FT                 0.1000: 
NULL.                -999.2500: 
COMP.          Pioneer Natural Resources: COMPANY
WELL.            Hustler 12-17: WELL
FLD.           Purgatoire River: FIELD
LOC.           2150' FNL & 450' FWL: LOCATION
PROV.                 Colorado: PROVINCE
CNTY.               Las Animas: COUNTRY
SRVC.                Patterson: SERVICE COMPANY
DATE.          Mon Dec 20 11:14:19 2004: LOG DATE
UWI.           05 071 08236 00: UNIQUE WELL ID
~Curve Information Block
DEPT.FT            0 000 00 00: Depth
DCAL.in                       : CDL Caliper
RHOB.g/cc                     : CDL Bulk Density
RHOC.g/cc                     : CDL Density Correction
DPOR.pu                       : CDL Density Porosity
NPOR.pu                       : Neutron Porosity
GR.GAPI                       : Gamma Ray
~Parameter Information Block
~A  Depth       DCAL        RHOB        RHOC        DPOR        NPOR         GR     
# ...
   693.6000      7.9267      2.3209      0.0293     19.9482     18.4509     91.1804
   693.7000      7.9267      2.3223      0.0382     19.8585     18.9504     97.2284
   693.8000      7.9273      2.3328      0.0372     19.2221     19.3630    107.1668
   693.9000      7.9273      2.3515      0.0358     18.0929     19.7404    113.2852
   694.0000      7.9282      2.3806      0.0384     16.3252     20.1052    111.8835
   694.1000      7.9282      2.4149      0.0984     14.2471     20.5509    109.4727
   694.2000      7.9282      2.4293      0.1095     13.3779     21.0122    111.9255
   694.3000      7.9272      2.4080      0.0567     14.6645     21.0533    117.6891
   694.4000      7.9272      2.3687      0.0350     17.0474     20.6072    122.9119
   694.5000      7.9262      2.3404      0.0118     18.7629     20.2352    123.2031
   694.6000      7.9262      2.3346      0.0491     19.1172     20.0171    117.5693
   694.7000      7.9262      2.3444      0.0586     18.5221     19.3841    110.9924
   694.8000      7.9263      2.3584      0.0873     17.6735     18.3956    108.7459
   694.9000      7.9263      2.3632      0.0993     17.3839     17.8085    108.2515
   695.0000      7.9263      2.3541      0.0791     17.9313     17.9780    103.8810
   695.1000      7.9263      2.3461      0.0534     18.4158     18.4127     99.2198
   695.2000      7.9263      2.3574      0.0509     17.7341     18.3375    101.2260
   695.3000      7.9248      2.3851      0.0655     16.0553     17.6869    107.4951
   695.4000      7.9248      2.4153      0.0865     14.2244     17.1867    112.9308
   695.5000      7.9201      2.4435      0.0962     12.5161     17.3523    117.1807
   695.6000      7.9201      2.4712      0.0973     10.8355     17.9515    119.1829
   695.7000      7.9201      2.4940      0.1228      9.4564     18.4172    115.9092
   695.8000      7.9171      2.5054      0.1026      8.7620     18.4579    108.9831
   695.9000      7.9171      2.5140      0.0761      8.2407     18.2000    105.2795
   696.0000      7.9210      2.5263      0.1070      7.4966     17.9960    107.2700
   696.1000      7.9210      2.5322      0.0944      7.1364     18.2136    111.1080
   696.2000      7.9210      2.5322      0.0515      7.1402     18.7698    110.8667
   696.3000      7.9245      2.5370      0.0533      6.8511     19.1411    107.0395
   696.4000      7.9245      2.5461      0.0556      6.2960     19.3454    106.4592
   696.5000      7.9251      2.5538      0.0647      5.8288     19.8216    108.5056
   696.6000      7.9251      2.5537      0.0782      5.8348     20.3081    108.3411
   696.7000      7.9251      2.5388      0.0426      6.7367     20.2757    104.9214
   696.8000      7.9260      2.5112      0.0473      8.4150     19.8208     99.5890
   696.9000      7.9260      2.4830      0.0156     10.1203     19.4031     96.8708
   697.0000      7.9278      2.4687      0.0327     10.9875     19.5234     98.9973
   697.1000      7.9278      2.4721      0.0369     10.7799     20.2275    101.9908
   697.2000      7.9278      2.4856      0.0359      9.9626     21.0388    103.8660
   697.3000      7.9283      2.4947      0.0649      9.4105     21.6343    103.9092
   697.4000      7.9283      2.4922      0.0301      9.5631     21.8207    102.6091
   697.5000      7.9258      2.4875      0.0184      9.8506     21.6077    102.5299
   697.6000      7.9258      2.4884      0.0105      9.7935     21.2776    102.6495
   697.7000      7.9258      2.4912      0.0415      9.6238     20.8942    102.1367
   697.8000      7.9226      2.4896      0.0630      9.7194     20.3302    104.1548
   697.9000      7.9226      2.4803      0.0298     10.2855     19.6765    109.3254
   698.0000      7.9219      2.4666      0.0205     11.1180     19.2169    111.9885
   698.1000      7.9219      2.4597      0.0158     11.5351     18.9216    108.0055
   698.2000      7.9219      2.4640      0.0264     11.2733     18.4219    100.8504
   698.3000      7.9229      2.4652      0.0654     11.1995     17.7394     95.9259
   698.4000      7.9229      2.4518      0.0323     12.0102     17.2827     94.2379
   698.5000      7.9241      2.4328      0.0228     13.1643     17.3051     91.9368
   698.6000      7.9241      2.4174     -0.0028     14.0984     17.6360     85.0565
   698.7000      7.9241      2.4054      0.0144     14.8260     17.7482     79.4646
   698.8000      7.9248      2.3983     -0.0000     15.2571     17.4953     84.3359
   698.9000      7.9248      2.4006      0.0010     15.1173     17.1708     93.9940
   699.0000      7.9244      2.4084      0.0506     14.6413     16.8289     96.3083
   699.1000      7.9244      2.4103      0.0607     14.5282     16.4849     94.2029
   699.2000      7.9244      2.4044      0.0134     14.8858     16.5236     95.9148
   699.3000      7.9220      2.4106     -0.0067     14.5080     17.0339     99.3616
   699.4000      7.9220      2.4465      0.0219     12.3361     17.3997    100.9190
   699.5000      7.9191      2.4910      0.0921      9.6390     17.4365    101.2919
   699.6000      7.9191      2.5116      0.0817      8.3906     17.5606    101.7355
   699.7000      7.9191      2.5137      0.0635      8.2600     17.6854    104.3339
   699.8000      7.9180      2.5202      0.0780      7.8675     17.6733    107.5740
   699.9000      7.9180      2.5347      0.0635      6.9898     17.9586    107.1224
   700.0000      7.9194      2.5449      0.0782      6.3705     18.6068    105.4363
   700.1000      7.9194      2.5356      0.0604      6.9360     19.0850    105.1674
   700.2000      7.9194      2.5084      0.0340      8.5793     19.1683    104.4071
   700.3000      7.9242      2.4837      0.0056     10.0791     19.1505    106.2614
   700.4000      7.9242      2.4764      0.0123     10.5197     19.2684    114.6551
   700.5000      7.9267      2.4826      0.0171     10.1441     19.5023    121.6382
   700.6000      7.9267      2.4843      0.0323     10.0419     19.6326    120.7991
   700.7000      7.9267      2.4710      0.0245     10.8457     19.6115    115.4651
   700.8000      7.9259      2.4544     -0.0192     11.8561     19.6572    106.5216
   700.9000      7.9259      2.4486      0.0054     12.2089     19.7931     97.4493
   701.0000      7.9244      2.4497      0.0345     12.1369     19.7679     93.9860
   701.1000      7.9244      2.4471      0.0461     12.2980     19.4453     94.9654
   701.2000      7.9244      2.4425      0.0149     12.5756     19.1951     96.7275
   701.3000      7.9235      2.4494      0.0282     12.1600     19.2500     97.9895
   701.4000      7.9235      2.4680      0.0503     11.0313     19.3033     98.6087
   701.5000      7.9244      2.4802      0.0428     10.2921     19.0846     99.6936
   701.6000      7.9244      2.4755      0.0483     10.5786     18.6978    102.2534
   701.7000      7.9244      2.4635      0.0293     11.3013     18.3972    105.3954
   701.8000      7.9260      2.4536      0.0411     11.9056     18.4596    106.0301
   701.9000      7.9260      2.4389      0.0428     12.7956     18.7984    103.6742
   702.0000      7.9267      2.4129      0.0433     14.3695     18.8588    101.7815
   702.1000      7.9267      2.3910     -0.0467     15.6958     18.5284    102.4365
   702.2000      7.9267      2.3919      0.0147     15.6407     18.1627    104.1086
   702.3000      7.9257      2.4032      0.0298     14.9601     18.0001    105.0929
   702.4000      7.9257      2.4086     -0.0012     14.6308     18.0782    104.4882
   702.5000      7.9243      2.4158      0.0120     14.1947     18.1876     99.8013
   702.6000      7.9243      2.4304      0.0237     13.3070     18.0600     91.4508
   702.7000      7.9243      2.4425      0.0563     12.5747     17.6638     86.1895
   702.8000      7.9231      2.4445      0.0295     12.4558     17.3015     90.0491
   702.9000      7.9231      2.4454      0.0256     12.3989     17.1990    100.6613
   703.0000      7.9225      2.4604      0.0206     11.4914     17.3307    111.1197
   703.1000      7.9225      2.4886      0.0582      9.7847     17.6581    115.3024
