~Version Information
VERS.                      2.0: CWLS Log ASCII Standard - VERSION 2.0
WRAP.                       NO: One line per depth step
~Well Information Block
STRT.FT               491.0000: 
STOP.FT              1056.0000: 
STEP.FT                 0.2500: 
NULL.                -999.2500: 
COMP.          Evergreen Operating Corporation: COMPANY
WELL.              Sunset 24-3: WELL
FLD.           Purgatorie River: FIELD
LOC.           467' FSL & 2262' FWL: LOCATION
PROV.                 Colorado: PROVINCE
CNTY.               Las Animas: COUNTRY
SRVC.                         : SERVICE COMPANY
DATE.          Wed Sep 22 11:23:45 2004: LOG DATE
UWI.           05 071 08158 00: UNIQUE WELL ID
~Curve Information Block
DEPT.FT            0 000 00 00: Depth
SN.Ohm-m                      : IEL Short Normal
SP.mV                         : IEL Spontaneous Potential
DIR.Ohm-m                     : IEL Induction Resistivity
GR.GAPI                       : Gamma Ray
~Parameter Information Block
~A  Depth        SN          SP         DIR          GR     
# ...
   591.5000     12.6522    -76.8780     10.9818    117.9444
   591.7500     12.8011    -74.6752     10.8982    118.1024
   592.0000     13.0939    -72.2048     10.9014    118.5205
   592.2500     13.4716    -69.6026     10.9903    118.5282
   592.5000     13.8772    -66.9957     11.1356    117.8139
   592.7500     14.2694    -64.4801     11.2990    117.0163
   593.0000     14.6287    -62.1100     11.4571    116.4097
   593.2500     14.9547    -59.8983     11.6080    117.0810
   593.5000     15.2584    -57.8354     11.7552    119.8524
   593.7500     15.5553    -55.9079     11.8896    122.2579
   594.0000     15.8644    -54.1240     11.9934    125.3717
   594.2500     16.2066    -52.5228     12.0625    126.6639
   594.5000     16.5973    -51.1748     12.1240    127.1545
   594.7500     17.0346    -50.1604     12.2317    126.4186
   595.0000     17.4993    -49.5452     12.4461    123.6905
   595.2500     17.9728    -49.3540     12.8197    121.0583
   595.5000     18.4584    -49.5546     13.3888    116.9545
   595.7500     18.9860    -50.0574     14.1675    114.9219
   596.0000     19.5951    -50.7338     15.1366    114.0354
   596.2500     20.3124    -51.4448     16.2308    114.9866
   596.5000     21.1403    -52.0738     17.3386    117.4924
   596.7500     22.0625    -52.5486     18.3359    118.5263
   597.0000     23.0523    -52.8558     19.1455    117.0498
   597.2500     24.0730    -53.0333     19.7732    113.8318
   597.5000     25.0731    -53.1501     20.2785    107.3089
   597.7500     25.9872    -53.2798     20.7089    103.2426
   598.0000     26.7499    -53.4776     21.0625     99.0284
   598.2500     27.3108    -53.7644     21.3053     97.4869
   598.5000     27.6422    -54.1190     21.4128     96.4384
   598.7500     27.7360    -54.4877     21.3863     96.3403
   599.0000     27.5970    -54.8018     21.2328     97.2036
   599.2500     27.2381    -54.9973     20.9402     98.7086
   599.5000     26.6772    -55.0433     20.4835    102.6717
   599.7500     25.9355    -54.9573     19.8621    106.1584
   600.0000     25.0409    -54.8137     19.1286    110.8450
   600.2500     24.0352    -54.7325     18.3788    112.1781
   600.5000     22.9752    -54.8529     17.7032    110.3385
   600.7500     21.9237    -55.2960     17.1396    107.5114
   601.0000     20.9316    -56.1258     16.6576    104.7286
   601.2500     20.0234    -57.3223     16.1839    105.8665
   601.5000     19.1936    -58.7758     15.6508    112.3214
   601.7500     18.4177    -60.3041     15.0338    117.9166
   602.0000     17.6711    -61.6954     14.3529    124.1683
   602.2500     16.9452    -62.7588     13.6478    125.6624
   602.5000     16.2541    -63.3718     12.9564    124.5509
   602.7500     15.6267    -63.5101     12.3086    122.8136
   603.0000     15.0884    -63.2481     11.7282    120.6092
   603.2500     14.6459    -62.7300     11.2329    120.0699
   603.5000     14.2835    -62.1257     10.8307    121.2796
   603.7500     13.9722    -61.5836     10.5158    123.5696
   604.0000     13.6848    -61.1964     10.2697    128.8075
   604.2500     13.4049    -60.9893     10.0679    132.8913
   604.5000     13.1295    -60.9315      9.8876    138.8651
   604.7500     12.8643    -60.9586      9.7146    142.2931
   605.0000     12.6191    -61.0040      9.5441    145.5895
   605.2500     12.4033    -61.0200      9.3789    145.8690
   605.5000     12.2225    -60.9888      9.2247    143.3231
   605.7500     12.0765    -60.9176      9.0869    140.5842
   606.0000     11.9590    -60.8312      8.9684    137.0591
   606.2500     11.8599    -60.7545      8.8715    135.9816
   606.5000     11.7665    -60.7025      8.7996    137.2353
   606.7500     11.6674    -60.6791      8.7581    140.3268
   607.0000     11.5573    -60.6747      8.7517    147.5811
   607.2500     11.4455    -60.6807      8.7813    152.6210
   607.5000     11.3593    -60.6967      8.8410    157.6464
   607.7500     11.3365    -60.7335      8.9186    158.6909
   608.0000     11.4078    -60.8129      8.9990    157.2436
   608.2500     11.5794    -60.9584      9.0683    154.4077
   608.5000     11.8300    -61.1885      9.1183    146.9691
   608.7500     12.1219    -61.5088      9.1483    139.9872
   609.0000     12.4177    -61.9104      9.1651    128.0547
   609.2500     12.6923    -62.3724      9.1814    120.5814
   609.5000     12.9364    -62.8631      9.2137    112.3191
   609.7500     13.1548    -63.3423      9.2784    109.4336
   610.0000     13.3628    -63.7627      9.3888    108.8036
   610.2500     13.5835    -64.0720      9.5529    110.0198
   610.5000     13.8453    -64.2202      9.7759    112.2179
   610.7500     14.1800    -64.1673     10.0670    112.9895
   611.0000     14.6231    -63.8952     10.4456    113.0742
   611.2500     15.2167    -63.4130     10.9388    113.0776
   611.5000     16.0132    -62.7583     11.5707    113.6462
   611.7500     17.0776    -61.9892     12.3497    114.1133
   612.0000     18.4841    -61.1743     13.2667    114.0354
   612.2500     20.3031    -60.3799     14.3082    113.0183
   612.5000     22.5796    -59.6610     15.4773    109.3463
   612.7500     25.3093    -59.0544     16.8065    105.1514
   613.0000     28.4218    -58.5822     18.3567     96.3290
   613.2500     31.7838    -58.2488     20.2113     89.3566
   613.5000     35.2211    -58.0474     22.4754     79.0096
   613.7500     38.5516    -57.9620     25.2776     73.2322
   614.0000     41.6139    -57.9705     28.7544     67.1946
   614.2500     44.2860    -58.0453     32.9911     64.7756
   614.5000     46.4907    -58.1539     37.8910     62.4569
   614.7500     48.1927    -58.2604     42.9845     60.9965
   615.0000     49.3873    -58.3267     47.3222     57.8878
   615.2500     50.0856    -58.3208     49.7449     54.9746
   615.5000     50.2973    -58.2203     49.5672     49.7000
   615.7500     50.0205    -58.0224     47.0499     46.0818
   616.0000     49.2432    -57.7468     43.1194     41.3503
   616.2500     47.9565    -57.4330     38.7410     38.8529
   616.5000     46.1696    -57.1301     34.5629     35.8318
   616.7500     43.9209    -56.8836     30.8926     34.1629
   617.0000     41.2805    -56.7210     27.8024     32.7959
   617.2500     38.3502    -56.6445     25.2327     33.5730
   617.5000     35.2554    -56.6318     23.0668     39.2055
   617.7500     32.1296    -56.6449     21.1843     46.7647
   618.0000     29.0918    -56.6428     19.4956     63.8675
   618.2500     26.2278    -56.5930     17.9544     78.1222
   618.5000     23.5844    -56.4779     16.5490    100.6429
   618.7500     21.1806    -56.2951     15.2844    114.1792
   619.0000     19.0294    -56.0532     14.1699    128.6229
   619.2500     17.1543    -55.7660     13.2133    132.9202
   619.5000     15.5902    -55.4474     12.4196    131.5742
   619.7500     14.3665    -55.1090     11.7884    127.5399
   620.0000     13.4863    -54.7606     11.3115    122.2399
   620.2500     12.9167    -54.4095     10.9710    121.8658
   620.5000     12.5957    -54.0631     10.7412    127.2023
   620.7500     12.4518    -53.7288     10.5916    133.2271
   621.0000     12.4208    -53.4142     10.4926    141.6034
   621.2500     12.4558    -53.1265     10.4212    144.5255
   621.5000     12.5272    -52.8737     10.3649    143.5746
   621.7500     12.6196    -52.6628     10.3218    140.2795
   622.0000     12.7269    -52.5014     10.2975    134.6243
   622.2500     12.8475    -52.3959     10.3012    132.1666
   622.5000     12.9781    -52.3517     10.3419    131.6228
   622.7500     13.1110    -52.3714     10.4251    132.9714
   623.0000     13.2333    -52.4537     10.5481    136.2530
   623.2500     13.3325    -52.5926     10.7001    138.6420
   623.5000     13.4015    -52.7764     10.8652    142.0446
   623.7500     13.4420    -52.9892     11.0289    144.3097
   624.0000     13.4631    -53.2120     11.1822    147.9590
   624.2500     13.4763    -53.4249     11.3215    150.1594
   624.5000     13.4922    -53.6102     11.4480    151.5047
   624.7500     13.5195    -53.7542     11.5675    150.4281
