~Version Information
VERS.                      2.0: CWLS Log ASCII Standard - VERSION 2.0
WRAP.                       NO: One line per depth step
~Well Information Block
STRT.FT                -7.0000: 
STOP.FT              1656.2500: 
STEP.FT                 0.2500: 
NULL.                -999.2500: 
COMP.          Pioneer Natural Resources: COMPANY
WELL.               Elmo 14-21: WELL
FLD.           Purgatorie River: FIELD
LOC.           623' FSL & 450' FWL--: LOCATION
PROV.                       CO: PROVINCE
CNTY.               Las Animas: COUNTRY
SRVC.          Patterson Wireline: SERVICE COMPANY
DATE.          Mon Jun 27 15:45:41 2005: LOG DATE
UWI.           05 071 08360 00: UNIQUE WELL ID
~Curve Information Block
DEPT.FT            0 000 00 00: Depth
CCL.                          : Casing Collar Locator
TT3.usec                      : CBL 3' Travel Time
AMP3.mV                       : CBL 3' Amplitude
GR.GAPI                       : Gamma Ray
~Parameter Information Block
~A  Depth       CCL         TT3         AMP3         GR     
# ...
   328.0000      0.0000    270.5114     55.3438    117.5554
   328.2500      0.0000    272.0179     55.5334    120.8773
   328.5000      0.0000    274.1817     56.0761    126.0581
   328.7500      0.0000    275.9980     57.5546    131.7626
   329.0000      0.0000    276.0201     60.6017    136.7471
   329.2500      0.0000    273.6397     65.2104    140.4608
   329.5000      0.0000    269.7923     70.5729    143.1914
   329.7500      0.0000    266.1292     75.6273    145.3247
   330.0000      0.0000    263.6820     79.6311    146.8469
   330.2500      0.0000    262.4688     82.3352    147.7041
   330.5000      0.0000    262.0116     83.8983    148.2717
   330.7500      0.0000    261.8814     84.6811    149.4613
   331.0000      0.0000    261.8600     85.0078    152.4130
   331.2500      0.0000    261.8707     85.0578    157.5095
   331.5000      0.0000    261.8882     84.9275    163.3396
   331.7500      0.0000    261.8956     84.7243    167.2599
   332.0000      0.0000    261.8859     84.5543    167.5944
   332.2500      0.0000    261.8625     84.4725    165.1069
   332.5000      0.0000    261.8275     84.4722    162.1829
   332.7500      0.0000    261.7755     84.5156    160.9598
   333.0000      0.0000    261.7057     84.5552    162.2426
   333.2500      0.0000    261.6344     84.5545    165.3660
   333.5000      0.0000    261.5846     84.5172    168.2971
   333.7500      0.0000    261.5638     84.4814    168.3832
   334.0000      0.0000    261.5586     84.4697    164.2997
   334.2500      0.0000    261.5484     84.4618    157.4690
   334.5000      0.0000    261.5191     84.4173    151.0429
   334.7500      0.0000    261.4657     84.3099    147.6950
   335.0000      0.0000    261.3949     84.1401    148.6289
   335.2500      0.0000    261.3263     83.9349    153.6445
   335.5000      0.0000    261.2804     83.7436    161.1787
   335.7500      0.0000    261.2624     83.6210    168.9127
   336.0000      0.0000    261.2597     83.5959    175.1906
   336.2500      0.0000    261.2599     83.6461    179.6489
   336.5000      0.0000    261.2653     83.7112    182.3584
   336.7500      0.0000    261.2820     83.7433    182.9352
   337.0000      0.0000    261.3022     83.7487    180.6730
   337.2500      0.0000    261.3094     83.7742    175.4070
   337.5000      0.0000    261.3011     83.8498    168.2331
   337.7500      0.0000    261.2925     83.9582    161.0849
   338.0000      0.0000    261.2946     84.0631    155.2595
   338.2500      0.0000    261.3010     84.1539    150.5789
   338.5000      0.0000    261.3011     84.2434    146.2720
   338.7500      0.0000    261.2961     84.3225    142.3385
   339.0000      0.0000    261.2942     84.3390    139.6103
   339.2500      0.0000    261.2982     84.2374    138.5719
   339.5000      0.0000    261.3057     84.0193    138.7237
   339.7500      0.0000    261.3154     83.7597    139.3047
   340.0000      0.0000    261.3249     83.5644    140.1376
   340.2500      0.0000    261.3255     83.4989    141.4460
   340.5000      0.0000    261.3128     83.5398    143.3947
   340.7500      0.0000    261.2956     83.5908    146.2069
   341.0000      0.0000    261.2877     83.5609    150.1644
   341.2500      0.0000    261.2945     83.4401    155.0507
   341.5000      0.0000    261.3121     83.2982    160.1378
   341.7500      0.0000    261.3334     83.2144    165.1714
   342.0000      0.0000    261.3503     83.2164    170.7286
   342.2500      0.0000    261.3575     83.2816    176.8366
   342.5000      0.0000    261.3585     83.3756    181.8858
   342.7500      0.0000    261.3598     83.4800    183.8605
   343.0000      0.0000    261.3626     83.5882    182.1002
   343.2500      0.0000    261.3647     83.6918    176.8890
   343.5000      0.0000    261.3666     83.7887    167.8077
   343.7500      0.0000    261.3663     83.8954    153.6608
   344.0000      0.0000    261.3558     84.0232    134.4051
   344.2500      0.0000    261.3310     84.1413    112.7089
   344.5000      0.0000    261.2995     84.1903     93.0275
   344.7500      0.0000    261.2717     84.1432     78.8792
   345.0000      0.0000    261.2500     84.0374     71.0585
   345.2500      0.0000    261.2320     83.9358     68.2848
   345.5000      0.0000    261.2172     83.8656     69.0033
   345.7500      0.0000    261.2045     83.8002     72.2799
   346.0000      0.0000    261.1903     83.6969     77.3875
   346.2500      0.0000    261.1763     83.5550     83.0871
   346.5000      0.0000    261.1717     83.4363     87.6464
   346.7500      0.0000    261.1812     83.4166     89.7636
   347.0000      0.0000    261.1943     83.5102     89.6373
   347.2500      0.0000    261.1974     83.6507     88.9924
   347.5000      0.0000    261.1938     83.7507     89.9300
   347.7500      0.0000    261.2000     83.7760     93.8466
   348.0000      0.0000    261.2194     83.7604    101.2155
   348.2500      0.0000    261.2320     83.7462    111.4157
   348.5000      0.0000    261.2202     83.7244    122.1907
   348.7500      0.0000    261.1972     83.6536    130.0597
   349.0000      0.0000    261.1979     83.5411    132.3982
   349.2500      0.0000    261.2398     83.4707    129.3022
   349.5000      0.0000    261.2996     83.5214    123.1073
   349.7500      0.0000    261.3337     83.6722    116.3491
   350.0000      0.0000    261.3189     83.8143    110.5705
   350.2500      0.0000    261.2715     83.8548    106.6319
   350.5000      0.0000    261.2301     83.7848    105.3749
   350.7500      0.0000    261.2226     83.6543    107.5987
   351.0000      0.0000    261.2466     83.5065    113.2626
   351.2500      0.0000    261.2769     83.3458    120.8513
   351.5000      0.0000    261.2912     83.1619    128.0809
   351.7500      0.0000    261.2896     82.9765    133.6195
   352.0000      0.0000    261.2899     82.8587    138.1216
   352.2500      0.0000    261.3024     82.8811    143.5913
   352.5000      0.0000    261.3139     83.0491    151.7656
   352.7500      0.0000    261.3002     83.2703    162.8001
   353.0000      0.0000    261.2565     83.4130    175.1571
   353.2500      0.0000    261.2090     83.4187    186.5955
   353.5000      0.0000    261.1903     83.3618    195.3149
   353.7500      0.0000    261.2057     83.3788    200.4684
   354.0000      0.0000    261.2285     83.5287    202.2097
   354.2500      0.0000    261.2289     83.7248    201.7291
   354.5000      0.0000    261.2054     83.8067    200.9504
   354.7500      0.0000    261.1870     83.6862    201.3083
   355.0000      0.0000    261.2050     83.4313    202.4318
   355.2500      0.0000    261.2622     83.2115    202.3844
   355.5000      0.0000    261.3285     83.1514    199.4523
   355.7500      0.0000    261.3648     83.2326    193.7163
   356.0000      0.0000    261.3549     83.3372    187.0121
   356.2500      0.0000    261.3150     83.3778    181.3972
   356.5000      0.0000    261.2796     83.3737    177.7012
   356.7500      0.0000    261.2760     83.4098    175.5892
   357.0000      0.0000    261.3057     83.5410    174.7892
   357.2500      0.0000    261.3424     83.7421    175.6960
   357.5000      0.0000    261.3511     83.9321    178.5815
   357.7500      0.0000    261.3139     84.0314    182.5782
   358.0000      0.0000    261.2437     83.9947    185.9911
   358.2500      0.0000    261.1746     83.8117    187.5617
   358.5000      0.0000    261.1381     83.5179    187.0374
   358.7500      0.0000    261.1453     83.2138    184.6645
   359.0000      0.0000    261.1844     83.0319    180.6753
   359.2500      0.0000    261.2296     83.0493    175.2386
   359.5000      0.0000    261.2529     83.2364    168.5014
   359.7500      0.0000    261.2333     83.4871    160.8741
   360.0000      0.0000    261.1658     83.6776    153.5814
   360.2500      0.0000    261.0669     83.7151    148.4416
   360.5000      0.0000    260.9720     83.5814    146.5483
   360.7500      0.0000    260.9206     83.3497    147.2674
   361.0000      0.0000    260.9340     83.1462    148.8255
   361.2500      0.0000    261.0013     83.0775    149.7693
