~Version Information
VERS.                      2.0: CWLS Log ASCII Standard - VERSION 2.0
WRAP.                       NO: One line per depth step
~Well Information Block
STRT.FT               375.0000: 
STOP.FT              2637.0000: 
STEP.FT                 0.1000: 
NULL.                -999.2500: 
COMP.          Pioneer Natural Resources: COMPANY
WELL.            Cortina 23-25: WELL
FLD.           Purgatoire River: FIELD
LOC.           2344' FWL & 2526' FSL----: LOCATION
PROV.                 Colorado: PROVINCE
CNTY.               Las Animas: COUNTRY
SRVC.                Patterson: SERVICE COMPANY
DATE.          Thu Mar 24 07:44:45 2005: LOG DATE
UWI.           05 071 08340 00: UNIQUE WELL ID
~Curve Information Block
DEPT.FT            0 000 00 00: Depth
DCAL.in                       : CDL Caliper
DPOR.pu                       : CDL Density Porosity
NPOR.pu                       : Neutron Porosity
RHOB.g/cc                     : CDL Bulk Density
RHOC.g/cc                     : CDL Density Correction
GR.GAPI                       : Gamma Ray
~Parameter Information Block
~A  Depth       DCAL        DPOR        NPOR        RHOB        RHOC         GR     
# ...
  1277.4000      7.9651      4.1155     17.4314      2.5821      0.0877     83.8513
  1277.5000      7.9659      4.9492     19.5949      2.5683      0.0496     88.6006
  1277.6000      7.9659      5.0950     21.4507      2.5659      0.0751     94.2556
  1277.7000      7.9659      4.9756     23.0847      2.5679      0.0423    100.7392
  1277.8000      7.9654      4.5973     24.3634      2.5741      0.0266    105.7374
  1277.9000      7.9654      4.3552     25.0938      2.5781      0.0841    107.6882
  1278.0000      7.9648      4.9503     25.3983      2.5683      0.0490    108.3594
  1278.1000      7.9648      6.1221     25.5456      2.5490      0.0221    109.2102
  1278.2000      7.9648      7.0884     25.7363      2.5330     -0.0021    108.8647
  1278.3000      7.9648      7.0520     26.0601      2.5336     -0.0090    106.0630
  1278.4000      7.9648      6.0756     26.3662      2.5498      0.0514    102.3312
  1278.5000      7.9649      5.4354     26.4242      2.5603      0.0353    101.4011
  1278.6000      7.9649      5.8835     26.3073      2.5529      0.0502    105.4083
  1278.7000      7.9649      6.6885     26.3347      2.5396      0.0218    112.3665
  1278.8000      7.9652      6.7579     26.6992      2.5385      0.0399    117.6046
  1278.9000      7.9652      6.4116     27.2780      2.5442      0.0552    120.8527
  1279.0000      7.9651      6.4764     27.5008      2.5431      0.0209    127.1706
  1279.1000      7.9651      6.3101     26.9663      2.5459      0.0044    135.0866
  1279.2000      7.9651      5.3830     26.1856      2.5612      0.0609    137.4686
  1279.3000      7.9648      4.7628     25.7417      2.5714      0.0635    132.3464
  1279.4000      7.9648      4.8559     25.5670      2.5699      0.0627    124.1687
  1279.5000      7.9653      4.7203     25.4932      2.5721      0.0276    118.4633
  1279.6000      7.9653      4.0732     25.4407      2.5828      0.0459    116.7864
  1279.7000      7.9653      3.7206     25.1815      2.5886      0.0609    118.3262
  1279.8000      7.9656      4.0099     24.6753      2.5838      0.0471    121.2524
  1279.9000      7.9656      4.3539     24.3758      2.5782      0.0004    122.3607
  1280.0000      7.9664      4.6161     24.4640      2.5738      0.0964    120.3320
  1280.1000      7.9664      5.0909     24.6457      2.5660      0.0321    117.9255
  1280.2000      7.9664      5.1960     24.7487      2.5643      0.0354    117.5118
  1280.3000      7.9679      4.8887     24.9783      2.5693      0.0688    117.3953
  1280.4000      7.9679      4.8264     25.4985      2.5704      0.0178    115.3305
  1280.5000      7.9676      4.9049     25.9802      2.5691     -0.0034    112.7220
  1280.6000      7.9676      4.9063     26.0770      2.5690      0.0376    112.2368
  1280.7000      7.9676      4.6679     25.9511      2.5730      0.0040    112.9654
  1280.8000      7.9655      3.7653     25.9467      2.5879      0.0122    111.3372
  1280.9000      7.9655      2.5320     26.0932      2.6082      0.0441    105.0780
  1281.0000      7.9645      2.0967     25.9963      2.6154      0.0631     96.3300
  1281.1000      7.9645      2.9607     25.5116      2.6011      0.0906     90.4913
  1281.2000      7.9645      4.1244     25.0064      2.5819      0.0191     91.5154
  1281.3000      7.9656      4.0972     24.4804      2.5824      0.0340     97.7266
  1281.4000      7.9656      2.8727     23.7312      2.6026      0.0327    103.1385
  1281.5000      7.9671      1.5836     23.1409      2.6239      0.0539    103.9851
  1281.6000      7.9671      1.0178     23.1412      2.6332      0.0758    100.9434
  1281.7000      7.9671      1.3988     23.7169      2.6269      0.0758     97.1685
  1281.8000      7.9674      2.3678     24.4817      2.6109      0.0286     96.3388
  1281.9000      7.9674      3.1620     25.0244      2.5978      0.0566     97.2823
  1282.0000      7.9672      3.4238     25.1980      2.5935      0.0391     95.6666
  1282.1000      7.9672      3.2377     25.0420      2.5966      0.0056     91.5890
  1282.2000      7.9672      2.8748     24.7130      2.6026     -0.0025     87.7810
  1282.3000      7.9678      2.9306     24.4970      2.6016      0.0696     85.4337
  1282.4000      7.9678      3.2565     24.5189      2.5963      0.0037     85.0421
  1282.5000      7.9680      2.2610     24.5237      2.6127      0.0163     86.6255
  1282.6000      7.9680     -0.1793     24.1199      2.6530      0.0742     89.7187
  1282.7000      7.9680     -2.2136     23.4537      2.6865      0.0807     92.7907
  1282.8000      7.9668     -3.1338     23.1505      2.7017      0.0707     91.9201
  1282.9000      7.9668     -3.6234     23.5195      2.7098      0.0937     87.4185
  1283.0000      7.9645     -4.1891     24.2185      2.7191      0.0642     84.8662
  1283.1000      7.9645     -4.5898     24.7215      2.7257      0.1060     85.6289
  1283.2000      7.9645     -4.5572     24.8650      2.7252      0.0390     87.4152
  1283.3000      7.9625     -4.3869     24.8691      2.7224      0.1312     90.4743
  1283.4000      7.9625     -4.0361     25.0418      2.7166      0.0954     93.3900
  1283.5000      7.9608     -3.3616     25.3232      2.7055      0.0777     92.3339
  1283.6000      7.9608     -2.7366     25.2768      2.6952      0.0684     88.4937
  1283.7000      7.9608     -2.3448     24.8596      2.6887      0.0340     85.1201
  1283.8000      7.9612     -1.7883     24.5024      2.6795      0.0433     83.7733
  1283.9000      7.9612     -1.2417     24.5344      2.6705      0.0184     84.8035
  1284.0000      7.9629     -1.3497     24.8122      2.6723      0.0618     86.4754
  1284.1000      7.9629     -1.3504     24.7798      2.6723      0.1039     86.4276
  1284.2000      7.9629     -0.2620     24.3449      2.6543      0.0315     84.9516
  1284.3000      7.9653      1.1391     24.2049      2.6312      0.0441     85.6609
  1284.4000      7.9653      1.8734     24.6886      2.6191      0.0753     89.9360
  1284.5000      7.9680      1.9902     25.4230      2.6172      0.0615     93.2045
  1284.6000      7.9680      1.7784     25.9649      2.6207      0.0297     91.1195
  1284.7000      7.9680      1.2852     26.2559      2.6288      0.0447     87.7610
  1284.8000      7.9693      0.2182     26.5456      2.6464      0.0127     87.8225
  1284.9000      7.9693     -1.6130     26.7485      2.6766      0.0713     88.8304
  1285.0000      7.9693     -3.7553     26.5964      2.7120      0.0647     88.6976
  1285.1000      7.9693     -5.4537     26.3032      2.7400      0.0939     88.8740
  1285.2000      7.9693     -5.8694     26.2541      2.7468      0.0944     89.6749
  1285.3000      7.9688     -4.7314     26.4862      2.7281      0.0613     90.2172
  1285.4000      7.9688     -2.6259     26.7842      2.6933      0.0481     90.1800
  1285.5000      7.9681     -0.0927     27.1358      2.6515      0.0057     89.3327
  1285.6000      7.9681      2.2974     27.5946      2.6121     -0.0289     89.8187
  1285.7000      7.9681      3.9445     27.8355      2.5849     -0.0067     92.4863
  1285.8000      7.9665      4.9242     27.5389      2.5688     -0.0425     96.7088
  1285.9000      7.9665      5.5202     26.9014      2.5589     -0.0244    101.6966
  1286.0000      7.9646      5.3448     26.3594      2.5618     -0.0347    102.0098
  1286.1000      7.9646      4.1387     25.9749      2.5817      0.0471     95.9047
  1286.2000      7.9646      2.6341     25.5617      2.6065      0.0384     91.7368
  1286.3000      7.9646      1.6027     25.1274      2.6236      0.0799     94.2939
  1286.4000      7.9646      1.6189     24.8802      2.6233      0.0827     99.2151
  1286.5000      7.9653      2.9692     24.9465      2.6010      0.0814    102.2465
  1286.6000      7.9653      4.8902     25.2497      2.5693      0.0775    103.5310
  1286.7000      7.9653      5.9045     25.5304      2.5526      0.0338    104.1433
  1286.8000      7.9657      5.4350     25.5211      2.5603      0.0617    104.9355
  1286.9000      7.9657      4.2574     25.2604      2.5798      0.0575    105.1167
