~Version Information
VERS.                      2.0: CWLS Log ASCII Standard - VERSION 2.0
WRAP.                       NO: One line per depth step
~Well Information Block
STRT.FT               480.1000: 
STOP.FT              2029.0000: 
STEP.FT                 0.1000: 
NULL.                -999.2500: 
COMP.          Petrogulf Corporation: COMPANY
WELL.            Montoya 7-12R: WELL
FLD.           Purgatorie River: FIELD
LOC.           1769' FNL & 658' FWL: LOCATION
CNTY.               Las Animas: COUNTY
SRVC.                         : SERVICE COMPANY
DATE.          Mon Nov 22 07:21:54 2004: LOG DATE
UWI.           05 071 08240 00: UNIQUE WELL ID
STAT.                 Colorado: STATE
~Curve Information Block
DEPT.FT            0 000 00 00: Depth
DCAL.in                       : CDL Caliper
RHOB.g/cc                     : CDL Bulk Density
RHOC.g/cc                     : CDL Density Correction
DPOR.pu                       : CDL Density Porosity
GR.GAPI                       : Gamma Ray
NPOR.pu                       : Neutron Porosity
~Parameter Information Block
~A  Depth       DCAL        RHOB        RHOC        DPOR         GR         NPOR    
# ...
  1814.5000      7.9014      2.4686      0.0734     10.9946     29.3901     13.9413
  1814.6000      7.9014      2.4592      0.0694     11.5607     27.9352     13.6634
  1814.7000      7.9014      2.4470      0.0058     12.3044     27.9416     14.3338
  1814.8000      7.8727      2.4411      0.0532     12.6604     29.5300     15.1312
  1814.9000      7.8727      2.4370      0.0623     12.9070     31.3154     15.1105
  1815.0000      7.8971      2.4214      0.0892     13.8555     30.6447     14.6261
  1815.1000      7.8971      2.4027     -0.0310     14.9877     26.6952     14.1977
  1815.2000      7.8971      2.4081      0.0145     14.6614     22.4681     14.5933
  1815.3000      7.8835      2.4388      0.0311     12.7971     21.4849     16.3377
  1815.4000      7.8835      2.4674      0.0685     11.0657     24.0368     18.0783
  1815.5000      7.9289      2.4745      0.0227     10.6345     26.2644     18.1204
  1815.6000      7.9289      2.4711      0.0536     10.8421     25.6681     16.9129
  1815.7000      7.9289      2.4804      0.0232     10.2776     24.5682     15.6752
  1815.8000      7.9140      2.5040      0.0795      8.8459     24.7459     15.0436
  1815.9000      7.9140      2.5236      0.0612      7.6604     25.8352     15.1256
  1816.0000      7.9553      2.5304      0.0661      7.2493     27.8354     15.2976
  1816.1000      7.9553      2.5234      0.0717      7.6754     30.0346     15.2685
  1816.2000      7.9553      2.5057      0.0273      8.7444     31.1355     15.5442
  1816.3000      7.9697      2.4894      0.0228      9.7349     30.9673     15.9776
  1816.4000      7.9697      2.4743      0.0518     10.6500     30.7706     15.6416
  1816.5000      7.9724      2.4491     -0.0027     12.1783     32.1628     14.2451
  1816.6000      7.9724      2.4179      0.0209     14.0665     34.6997     12.8651
  1816.7000      7.9724      2.3974     -0.0737     15.3085     37.0807     12.4536
  1816.8000      7.9649      2.3983     -0.0250     15.2548     38.9405     12.8819
  1816.9000      7.9649      2.4198     -0.0340     13.9529     38.6990     13.3314
  1817.0000      7.9253      2.4527      0.0247     11.9575     36.4656     12.9701
  1817.1000      7.9253      2.4825      0.0350     10.1523     34.9666     12.3565
  1817.2000      7.9253      2.5013      0.0749      9.0148     35.3544     12.8375
  1817.3000      7.9486      2.5052      0.0855      8.7738     37.2270     14.3541
  1817.4000      7.9486      2.4946      0.0723      9.4158     39.9092     15.3526
  1817.5000      7.9451      2.4848      0.0237     10.0096     43.3468     15.0943
  1817.6000      7.9451      2.4899      0.0176      9.7014     47.9121     15.0316
  1817.7000      7.9451      2.5101      0.0386      8.4804     50.6403     16.1125
  1817.8000      7.9221      2.5404      0.0664      6.6449     49.4097     17.3918
  1817.9000      7.9221      2.5676      0.1034      4.9959     47.0392     18.0843
  1818.0000      7.9027      2.5791      0.0697      4.2958     46.4705     18.2665
  1818.1000      7.9027      2.5752      0.0811      4.5307     47.7793     18.1241
  1818.2000      7.9027      2.5519      0.0943      5.9428     49.8009     18.2772
  1818.3000      7.8925      2.5088      0.0169      8.5571     52.3178     18.8907
  1818.4000      7.8925      2.4725     -0.0181     10.7582     54.7543     19.2160
  1818.5000      7.8956      2.4636      0.0032     11.2985     56.7107     19.2072
  1818.6000      7.8956      2.4655      0.0031     11.1829     59.0433     19.0662
  1818.7000      7.8956      2.4568      0.0307     11.7092     61.2345     18.5418
  1818.8000      7.8997      2.4487     -0.0742     12.1978     62.2523     17.7989
  1818.9000      7.8997      2.4601      0.0335     11.5080     60.8841     17.2996
  1819.0000      7.9268      2.4731      0.0523     10.7213     56.8322     17.2553
  1819.1000      7.9268      2.4677      0.0023     11.0492     52.0279     17.3787
  1819.2000      7.9268      2.4586      0.0660     11.5985     48.4142     17.1649
  1819.3000      7.9108      2.4667      0.0032     11.1062     44.6188     16.3959
  1819.4000      7.9108      2.4899      0.0595      9.7054     40.7924     15.1302
  1819.5000      7.8839      2.5070      0.1069      8.6649     40.3238     14.1560
  1819.6000      7.8839      2.5054      0.1092      8.7646     40.5360     14.0745
  1819.7000      7.8839      2.4872      0.0816      9.8668     37.3868     14.1830
  1819.8000      7.8692      2.4675      0.0411     11.0627     33.3300     13.7548
  1819.9000      7.8692      2.4684      0.0051     11.0052     31.4750     13.2661
  1820.0000      7.8880      2.4967      0.0525      9.2901     33.9206     13.4319
  1820.1000      7.8880      2.5278      0.0814      7.4086     39.1289     14.1356
  1820.2000      7.8880      2.5294      0.0938      7.3078     41.2831     14.8120
  1820.3000      7.8843      2.5004      0.0842      9.0688     38.4376     15.4129
  1820.4000      7.8843      2.4708      0.0070     10.8606     34.2130     15.8429
  1820.5000      7.8633      2.4609      0.0654     11.4623     32.3183     15.7236
  1820.6000      7.8633      2.4571      0.0610     11.6911     32.5489     15.1218
  1820.7000      7.8633      2.4556     -0.0017     11.7832     32.2037     14.2851
  1820.8000      7.8837      2.4759     -0.0108     10.5544     30.6494     13.4897
  1820.9000      7.8837      2.5160      0.0844      8.1230     29.9874     13.1091
  1821.0000      7.8985      2.5497      0.0475      6.0786     31.0535     13.2435
  1821.1000      7.8985      2.5638      0.0818      5.2257     31.3788     13.6803
  1821.2000      7.8985      2.5573      0.1065      5.6189     29.2920     13.8638
  1821.3000      7.9391      2.5298      0.0994      7.2823     26.9191     13.5363
  1821.4000      7.9391      2.4845      0.0788     10.0308     27.1126     13.2541
  1821.5000      7.9355      2.4367      0.0002     12.9300     30.1810     13.1449
  1821.6000      7.9355      2.4180     -0.0673     14.0613     34.7951     12.7976
  1821.7000      7.9355      2.4397      0.0254     12.7456     39.5675     12.2502
  1821.8000      7.9317      2.4691      0.0513     10.9626     41.8665     11.8889
  1821.9000      7.9317      2.4788      0.0537     10.3765     40.3221     11.8574
  1822.0000      7.8886      2.4804      0.0162     10.2793     37.5184     11.7665
  1822.1000      7.8886      2.4888      0.0648      9.7693     34.9960     11.2792
  1822.2000      7.8886      2.5018      0.0505      8.9798     33.9950     10.6986
  1822.3000      7.8762      2.5180      0.0667      7.9993     35.0462     10.3228
  1822.4000      7.8762      2.5333      0.0058      7.0745     35.8288     10.2543
  1822.5000      7.8607      2.5424      0.0281      6.5242     35.4389     10.5142
  1822.6000      7.8607      2.5473      0.0277      6.2227     34.9962     11.3251
  1822.7000      7.8607      2.5457      0.0773      6.3236     34.8886     12.9258
  1822.8000      7.8717      2.5336      0.0716      7.0523     34.9890     14.3778
  1822.9000      7.8717      2.5300     -0.0060      7.2754     35.2304     14.5177
  1823.0000      7.8647      2.5460      0.0956      6.3046     36.3964     14.1445
  1823.1000      7.8647      2.5573      0.0983      5.6156     38.1865     14.8562
  1823.2000      7.8647      2.5517      0.0720      5.9567     38.9837     16.5546
  1823.3000      7.8587      2.5374      0.0619      6.8241     39.0616     17.6495
  1823.4000      7.8587      2.5234      0.0212      7.6710     39.1343     17.4305
  1823.5000      7.8401      2.5253      0.0071      7.5551     39.0355     17.0693
  1823.6000      7.8401      2.5462      0.0380      6.2932     39.3196     17.5301
  1823.7000      7.8401      2.5676      0.0656      4.9964     38.9361     18.2104
  1823.8000      7.8580      2.5758      0.0889      4.4955     37.4061     18.6412
  1823.9000      7.8580      2.5742      0.0706      4.5956     37.2968     19.2960
  1824.0000      7.8593      2.5710      0.0486      4.7892     39.7304     20.0375
