~Version Information
 VERS.                                  2.0 : CWLS LAS VERSION
 WRAP.                                   NO : WRAPING MODE
 SWARE .                 MController 2.5.0J : SOFTWARE VERSION
~Well Information
 WELL.                        McLeod 09-42R : WELL
 COMP.                Petrogulf Corporation : COMPANY
 FLD.                      Purgatoire River : FIELD
 LOC.                SE/NE Sec 09 T33S R67W : LOCATION
 DATE.                          08/13-14/05 : DATE(S) LOGGED
 SRVC.       BLANCO Geological Services LLC : SERVICE COMPANY
 STAT.                                   CO : STATE
 CNTY.                           Las Animas : COUNTY
 CTRY.                                  USA : COUNTRY
 API.                       05 071 08092 00 : API NUMBER
 STRT.FT                               6.00 : START DEPTH
 STOP.FT                            1775.00 : STOP DEPTH
 STEP.FT                               1.00 : DEPTH INCREMENT
 NULL.                                -9999 : NULL VALUE
~Curve information
 DEPTH.FT                                   :
 ROP.MIN/FT                                 :
 GAS.UNITS                                  :
~ASCII Log data
# ...
       406.0         0.40          9.2 
       407.0         0.40          9.7 
       408.0         0.43          9.3 
       409.0         0.57          9.6 
       410.0         0.43          9.5 
       411.0         0.30          9.3 
       412.0         0.52          9.8 
       413.0         0.37          9.6 
       414.0         0.27          9.6 
       415.0         0.27          9.6 
       416.0         1.47          9.8 
       417.0         0.33          9.8 
       418.0         0.28          9.9 
       419.0         0.37          9.9 
       420.0         0.13         10.1 
       421.0         0.13          9.8 
       422.0         0.13         10.5 
       423.0         0.17          9.9 
       424.0         0.13          9.7 
       425.0         0.17         10.0 
       426.0         0.23         10.2 
       427.0         0.20          9.6 
       428.0         0.37         10.2 
       429.0         0.30         10.0 
       430.0         0.30          9.8 
       431.0         0.37         10.1 
       432.0         0.25          9.7 
       433.0         0.33         10.0 
       434.0         0.27          9.3 
       435.0         0.30          9.7 
       436.0         0.30         10.0 
       437.0         0.23          9.6 
       438.0         0.27         10.3 
       439.0         0.23         10.4 
       440.0         0.20         10.2 
       441.0         0.23         10.0 
       442.0         0.35         10.0 
       443.0         0.23         10.1 
       444.0         0.33          9.8 
       445.0         0.30          9.9 
       446.0         1.53         10.4 
       447.0         0.30         10.4 
       448.0         0.27         10.5 
       449.0         0.32         10.5 
       450.0         0.37         10.4 
       451.0         0.37         10.3 
       452.0         0.33         10.1 
       453.0         0.33         10.6 
       454.0         0.33         10.3 
       455.0         0.27         11.2 
       456.0         0.27         16.4 
       457.0         0.33         25.7 
       458.0         0.23         30.9 
       459.0         0.32         35.5 
       460.0         0.37         37.2 
       461.0         0.30         35.1 
       462.0         0.33         32.3 
       463.0         0.30         30.3 
       464.0         0.37         31.1 
       465.0         0.37         32.5 
       466.0         0.37         32.1 
       467.0         0.33         29.3 
       468.0         0.27         27.6 
       469.0         0.32         26.0 
       470.0         0.30         24.8 
       471.0         0.30         23.9 
       472.0         0.30         21.9 
       473.0         0.30         24.8 
       474.0         0.30         26.0 
       475.0         0.37         23.3 
       476.0         2.28         40.7 
       477.0         0.40         31.9 
       478.0         0.33         32.2 
       479.0         0.37         32.5 
       480.0         0.30         33.3 
       481.0         0.33         35.1 
       482.0         0.30         36.4 
       483.0         0.32         38.1 
       484.0         0.27         38.7 
       485.0         0.23         38.5 
       486.0         0.23         37.8 
       487.0         0.23         37.5 
       488.0         0.33         37.1 
       489.0         0.30         35.1 
       490.0         0.30         34.4 
       491.0         0.47         34.0 
       492.0         0.37         32.9 
       493.0         0.45         33.0 
       494.0         0.47         33.3 
       495.0         0.40         33.8 
       496.0         0.30         35.0 
       497.0         0.37         35.4 
       498.0         0.33         35.1 
       499.0         0.30         33.7 
       500.0         0.33         31.7 
       501.0         0.33         28.8 
       502.0         0.33         29.2 
       503.0         0.38         27.7 
       504.0         0.30         19.5 
       505.0         0.13         14.8 
       506.0         1.13         38.4 
       507.0         0.20         42.6 
       508.0         0.13         42.8 
       509.0         0.17         42.6 
       510.0         0.17         41.2 
       511.0         0.13         38.8 
       512.0         0.17         37.6 
       513.0         0.27         34.4 
       514.0         0.22         31.6 
       515.0         0.17         29.3 
       516.0         0.17         29.8 
       517.0         0.27         29.4 
       518.0         0.30         29.2 
       519.0         0.27         29.2 
       520.0         0.27         29.2 
       521.0         0.33         29.6 
       522.0         0.27         29.8 
       523.0         0.23         31.1 
       524.0         0.20         32.6 
       525.0         0.17         34.7 
       526.0         0.10         36.1 
       527.0         0.13         38.4 
       528.0         0.17         40.0 
       529.0         0.18         40.6 
       530.0         0.20         40.8 
       531.0         0.37         41.1 
       532.0         0.40         41.7 
       533.0         0.40         42.8 
       534.0         0.53         43.5 
       535.0         0.53         43.1 
       536.0         2.28         52.4 
       537.0         0.33         52.6 
       538.0         0.47         47.9 
       539.0         0.57         46.1 
       540.0         6.07         39.1 
       541.0         0.33         30.7 
       542.0         0.27         30.0 
       543.0         0.42         29.7 
       544.0         0.43         30.1 
       545.0         0.43         30.6 
       546.0         0.43         30.7 
       547.0         0.43         31.3 
       548.0         0.43         31.8 
       549.0         0.40         31.6 
       550.0         0.33         31.4 
       551.0         0.38         30.3 
       552.0         0.43         29.8 
       553.0         0.40         28.8 
       554.0         0.53         29.0 
       555.0         0.50         31.0 
       556.0         0.33         33.9 
       557.0         0.23         34.3 
       558.0         0.25         34.0 
       559.0         0.20         33.2 
       560.0         0.30         31.7 
       561.0         0.27         28.5 
       562.0         0.17         27.4 
       563.0         0.23         27.4 
       564.0         0.30         25.6 
       565.0         0.33         19.6 
       566.0         1.48         43.1 
       567.0         0.43         43.2 
       568.0         0.47         41.6 
       569.0         0.40         38.2 
       570.0         0.43         33.4 
       571.0         0.43         36.8 
       572.0         0.42         36.7 
       573.0         0.30         34.7 
       574.0         0.27         32.5 
       575.0         0.33         30.4 
       576.0         0.30         34.5 
       577.0         0.30         35.1 
       578.0       690.97         33.5 
       579.0        27.98          5.0 
       580.0         0.30          4.6 
       581.0         0.27          4.1 
       582.0         0.27          4.6 
       583.0         0.32          4.5 
       584.0         0.33          4.4 
       585.0         0.33          4.3 
       586.0         0.27          4.3 
       587.0         0.27          4.3 
       588.0         0.33          4.5 
       589.0         0.33          4.8 
       590.0         0.30          4.7 
       591.0         0.30          4.3 
       592.0         0.23          4.3 
       593.0         0.32          4.4 
       594.0         0.23          4.5 
       595.0         0.33          4.5 
       596.0         1.27          4.5 
       597.0         0.33          4.2 
       598.0         0.13          4.0 
       599.0         0.13          4.5 
       600.0         0.23          4.7 
       601.0         0.20          4.2 
       602.0         0.23          4.6 
       603.0         0.22          4.4 
       604.0         0.23          4.3 
       605.0         0.20          4.1 
