~Version Information
VERS.                      2.0: CWLS Log ASCII Standard - VERSION 2.0
WRAP.                       NO: One line per depth step
~Well Information Block
STRT.FT               480.0000: 
STOP.FT              1629.0000: 
STEP.FT                 0.2500: 
NULL.                -999.2500: 
COMP.          Pioneer Natural Resources: COMPANY
WELL.          Dude Canyon 22-32 Tr: WELL
FLD.           Purgatoire River: FIELD
LOC.           1741' FNL & 2331' FWL: LOCATION
PROV.                 Colorado: PROVINCE
CNTY.               Las Animas: COUNTRY
SRVC.                Patterson: SERVICE COMPANY
DATE.          Sat Jul 09 01:36:28 2005: LOG DATE
UWI.           05 071 08421 00: UNIQUE WELL ID
~Curve Information Block
DEPT.FT            0 000 00 00: Depth
SN.Ohm-m                      : IEL Short Normal
SP.mV                         : IEL Spontaneous Potential
DIR.Ohm-m                     : IEL Induction Resistivity
GR.GAPI                       : Gamma Ray
~Parameter Information Block
~A  Depth        SN          SP         DIR          GR     
# ...
  1451.5000     23.3842     19.7351     21.2079    142.0429
  1451.7500     22.8480     18.9970     21.1304    138.5948
  1452.0000     22.3360     18.2256     21.0337    134.5248
  1452.2500     21.9434     17.4539     20.8965    132.6163
  1452.5000     21.7580     16.7128     20.7199    130.4630
  1452.7500     21.8426     16.0165     20.5229    129.2472
  1453.0000     22.1575     15.3575     20.3320    127.5689
  1453.2500     22.5809     14.7171     20.1720    126.5586
  1453.5000     23.0001     14.0843     20.0622    125.5922
  1453.7500     23.3410     13.4653     20.0167    125.8606
  1454.0000     23.5627     12.8774     20.0470    128.5311
  1454.2500     23.6610     12.3327     20.1645    131.5953
  1454.5000     23.6402     11.8280     20.3826    136.0235
  1454.7500     23.4841     11.3474     20.7126    137.4241
  1455.0000     23.1955     10.8773     21.1525    136.1611
  1455.2500     22.8836     10.4206     21.6742    133.4223
  1455.5000     22.7788     10.0032     22.2304    127.2314
  1455.7500     23.1382      9.6607     22.7845    121.5501
  1456.0000     24.1591      9.4164     23.3426    109.8229
  1456.2500     25.9845      9.2681     23.9540     99.8219
  1456.5000     28.7465      9.2016     24.6767     82.7629
  1456.7500     32.6489      9.2166     25.5394     71.0350
  1457.0000     38.0271      9.3407     26.5308     54.4396
  1457.2500     45.0756      9.6179     27.6156     44.8287
  1457.5000     53.2756     10.0826     28.7499     33.9269
  1457.7500     61.1845     10.7378     29.8735     29.6547
  1458.0000     66.9261     11.5483     30.8942     28.3736
  1458.2500     68.9947     12.4508     31.6993     30.9625
  1458.5000     66.9351     13.3728     32.2105     39.3746
  1458.7500     61.5702     14.2524     32.4303     47.1784
  1459.0000     54.5903     15.0525     32.4254     60.0295
  1459.2500     47.7758     15.7615     32.2701     67.9030
  1459.5000     42.2997     16.3776     32.0208     76.7048
  1459.7500     38.4531     16.8863     31.7444     80.1945
  1460.0000     35.8900     17.2502     31.5469     82.5556
  1460.2500     34.1372     17.4267     31.5467     82.8933
  1460.5000     33.0116     17.3997     31.8050     82.2736
  1460.7500     32.6913     17.2002     32.2742     81.1695
  1461.0000     33.4707     16.8994     32.8122     78.2138
  1461.2500     35.4483     16.5832     33.2747     75.1205
  1461.5000     38.3964     16.3202     33.6282     68.2831
  1461.7500     41.9995     16.1399     33.9906     62.1113
  1462.0000     46.2552     16.0275     34.5674     51.0455
  1462.2500     51.5133     15.9402     35.5613     43.3702
  1462.5000     58.1063     15.8347     37.1261     33.0505
  1462.7500     66.1264     15.6913     39.3666     27.4659
  1463.0000     75.5399     15.5217     42.3251     21.0490
  1463.2500     86.1165     15.3562     45.9142     17.8976
  1463.5000     97.1151     15.2230     49.8041     14.6311
  1463.7500    107.3633     15.1332     53.3555     13.3661
  1464.0000    115.5712     15.0825     55.7440     12.7247
  1464.2500    120.4893     15.0656     56.3111     13.0188
  1464.5000    121.3190     15.0897     54.9237     14.3945
  1464.7500    118.1725     15.1777     52.0188     16.0196
  1465.0000    111.9193     15.3711     48.2902     20.0472
  1465.2500    103.6740     15.7326     44.3383     24.2200
  1465.5000     94.3527     16.3287     40.5393     33.3754
  1465.7500     84.3952     17.1779     37.1000     41.6586
  1466.0000     73.8990     18.1912     34.1394     57.3205
  1466.2500     63.1572     19.1730     31.7140     69.4532
  1466.5000     52.9924     19.9105     29.8047     88.3990
  1466.7500     44.3884     20.2872     28.3161    100.0109
  1467.0000     37.8248     20.3238     27.1046    113.0981
  1467.2500     33.1350     20.1350     26.0269    117.6269
  1467.5000     29.8983     19.8634     24.9832    117.2856
  1467.7500     27.7311     19.6393     23.9375    112.8529
  1468.0000     26.2699     19.5641     22.9072    102.2212
  1468.2500     25.2100     19.6958     21.9382     94.1712
  1468.5000     24.4784     20.0319     21.0808     83.6147
  1468.7500     24.1822     20.5070     20.3769     79.1678
  1469.0000     24.3706     21.0296     19.8579     77.9861
  1469.2500     24.9059     21.5476     19.5451     80.6666
  1469.5000     25.4379     22.0766     19.4459     87.9365
  1469.7500     25.5702     22.6485     19.5450     93.6986
  1470.0000     25.1986     23.2371     19.7989    102.7710
  1470.2500     24.6163     23.7587     20.1415    109.2225
  1470.5000     24.2961     24.1475     20.5071    119.6217
  1470.7500     24.5707     24.4113     20.8560    126.5553
  1471.0000     25.3856     24.6109     21.1852    135.5800
  1471.2500     26.3647     24.8057     21.5147    140.1326
  1471.5000     27.1267     25.0290     21.8646    144.6537
  1471.7500     27.5365     25.2910     22.2439    146.2591
  1472.0000     27.7365     25.5777     22.6559    146.4569
  1472.2500     27.9750     25.8461     23.1095    144.8212
  1472.5000     28.4286     26.0429     23.6225    139.3908
  1472.7500     29.1253     26.1406     24.2125    134.2169
  1473.0000     29.9406     26.1558     24.8854    126.1846
  1473.2500     30.7051     26.1274     25.6293    121.9326
  1473.5000     31.3634     26.0823     26.4216    117.8438
  1473.7500     32.0231     26.0208     27.2450    116.0319
  1474.0000     32.8504     25.9259     28.0978    113.5055
  1474.2500     33.8865     25.7801     28.9872    111.8640
  1474.5000     34.9935     25.5777     29.9067    110.1814
  1474.7500     35.9954     25.3313     30.8213    110.0203
  1475.0000     36.7953     25.0679     31.6802    111.4281
  1475.2500     37.4093     24.8180     32.4478    113.2608
  1475.5000     37.9534     24.6077     33.1237    116.7219
  1475.7500     38.5640     24.4540     33.7290    119.0630
  1476.0000     39.3176     24.3618     34.2879    121.7524
  1476.2500     40.1931     24.3218     34.8275    122.6351
  1476.5000     41.1068     24.3126     35.3888    122.8362
  1476.7500     41.9896     24.3078     36.0251    122.7783
  1477.0000     42.8035     24.2834     36.7796    123.0212
  1477.2500     43.5754     24.2226     37.6714    123.3858
  1477.5000     44.4353     24.1199     38.7051    124.4014
  1477.7500     45.5133     23.9824     39.8864    125.7228
  1478.0000     46.8140     23.8282     41.2149    128.3576
  1478.2500     48.2039     23.6806     42.6442    129.4560
  1478.5000     49.5260     23.5604     44.0555    128.1063
  1478.7500     50.7491     23.4785     45.2879    125.0178
  1479.0000     51.9537     23.4331     46.2189    118.4788
  1479.2500     53.2102     23.4095     46.8237    113.8028
  1479.5000     54.5232     23.3813     47.1595    107.1009
  1479.7500     55.8192     23.3103     47.3031    102.8808
  1480.0000     56.9521     23.1505     47.3000     97.0665
  1480.2500     57.7445     22.8560     47.1550     93.9220
  1480.5000     58.0483     22.3918     46.8648     91.2501
  1480.7500     57.8268     21.7427     46.4654     91.1265
  1481.0000     57.1602     20.9236     46.0542     92.8987
  1481.2500     56.1327     19.9835     45.7538     94.5221
  1481.5000     54.7876     18.9968     45.6422     95.9996
  1481.7500     53.1989     18.0385     45.7005     95.8773
  1482.0000     51.4879     17.1582     45.8118     94.3783
  1482.2500     49.7902     16.3668     45.8263     93.0268
  1482.5000     48.2668     15.6434     45.6507     91.1169
  1482.7500     47.0554     14.9522     45.2983     90.0711
  1483.0000     46.1750     14.2583     44.8454     89.0528
  1483.2500     45.5544     13.5366     44.3397     88.9313
  1483.5000     45.0957     12.7780     43.7588     89.6912
  1483.7500     44.7001     11.9936     43.0536     90.4437
  1484.0000     44.3429     11.2141     42.2164     90.3572
  1484.2500     44.1182     10.4803     41.3046     88.4656
  1484.5000     44.1595      9.8311     40.4219     82.3125
  1484.7500     44.5253      9.2969     39.6910     76.7482
