~Version Information
 VERS.                                  2.0 : CWLS LAS VERSION
 WRAP.                                   NO : WRAPING MODE
 SWARE .                 MController 2.5.0J : SOFTWARE VERSION
~Well Information
 WELL.                  Great Plains 22-21V : WELL
 COMP.                Petrogulf Corporation : COMPANY
 FLD.                      Purgatoire River : FIELD
 LOC.                NE/NW Sec 22 T33S R67W : LOCATION
 DATE.                          08/29-30/05 : DATE(S) LOGGED
 SRVC.       Blanco Geological Services LLC : SERVICE COMPANY
 STAT.                                   CO : STATE
 CNTY.                           Las Animas : COUNTY
 CTRY.                                  USA : COUNTRY
 API.                       05-071-08346-00 : API NUMBER
 STRT.FT                              -2.00 : START DEPTH
 STOP.FT                            2090.00 : STOP DEPTH
 STEP.FT                               1.00 : DEPTH INCREMENT
 NULL.                                -9999 : NULL VALUE
~Curve information
 DEPTH.FT                                   :
 ROP.MIN/FT                                 :
 GAS.UNITS                                  :
~ASCII Log data
# ...
       598.0         0.63         67.5 
       599.0         0.87         70.7 
       600.0         0.90         70.6 
       601.0         0.85         70.1 
       602.0         0.93         70.2 
       603.0         0.77         68.6 
       604.0         0.70         68.2 
       605.0         0.62         69.8 
       606.0         0.63         71.9 
       607.0         0.93         70.6 
       608.0         0.80         68.4 
       609.0         0.65         68.4 
       610.0         0.53         43.4 
       611.0         0.57         28.9 
       612.0         0.73         26.0 
       613.0         0.78         24.9 
       614.0         0.37         27.0 
       615.0         0.60         27.3 
       616.0         0.63         24.2 
       617.0         0.37         22.8 
       618.0         0.27         23.0 
       619.0         0.20         23.2 
       620.0         0.25         23.3 
       621.0         0.27         23.0 
       622.0         0.27         23.0 
       623.0         0.30         21.6 
       624.0         0.30         23.1 
       625.0         0.33         24.8 
       626.0         5.00        132.7 
       627.0         0.60         24.3 
       628.0         0.43         24.2 
       629.0         0.53         24.0 
       630.0         0.53         23.9 
       631.0         0.53         24.4 
       632.0         0.52         24.1 
       633.0         0.50         23.8 
       634.0         0.37         23.9 
       635.0         0.37         23.9 
       636.0         0.27         24.1 
       637.0         0.27         23.9 
       638.0         0.30         24.0 
       639.0         0.37         24.0 
       640.0         0.33         24.2 
       641.0         0.28         24.9 
       642.0         0.33         25.4 
       643.0         0.30         25.5 
       644.0         0.33         25.6 
       645.0         0.27         26.2 
       646.0         0.20         26.3 
       647.0         0.23         26.0 
       648.0         0.30         25.7 
       649.0         0.27         25.7 
       650.0         0.17         24.7 
       651.0         0.23         24.8 
       652.0         0.33         24.1 
       653.0         0.35         24.5 
       654.0         0.37         26.0 
       655.0         0.30         26.7 
       656.0         3.62        142.9 
       657.0         0.27         25.6 
       658.0         0.43         25.5 
       659.0         0.30         25.3 
       660.0         0.20         25.4 
       661.0         0.23         25.2 
       662.0         0.30         25.4 
       663.0         0.37         25.9 
       664.0         0.32         26.0 
       665.0         0.30         26.0 
       666.0         0.37         25.6 
       667.0         0.43         25.2 
       668.0         0.37         25.4 
       669.0         0.37         25.2 
       670.0         0.33         25.1 
       671.0         0.33         25.0 
       672.0         0.40         24.8 
       673.0         0.38         27.3 
       674.0         0.27         28.0 
       675.0         0.30         27.9 
       676.0         0.33         27.5 
       677.0         0.20         26.7 
       678.0         0.17         26.5 
       679.0         0.33         26.4 
       680.0         0.40         26.2 
       681.0         0.40         25.7 
       682.0         0.37         25.2 
       683.0         0.32         27.6 
       684.0         0.27         30.8 
       685.0         0.33         37.7 
       686.0         2.72        205.7 
       687.0         0.33         25.6 
       688.0         0.50         25.6 
       689.0         0.37         25.8 
       690.0         0.43         25.4 
       691.0         0.43         25.6 
       692.0         0.37         25.4 
       693.0         0.30         26.0 
       694.0         0.37         27.7 
       695.0         0.35         28.8 
       696.0         0.40         28.2 
       697.0         0.27         27.7 
       698.0      1537.45         33.8 
       699.0        35.83         21.7 
       700.0         0.17          7.9 
       701.0         0.20          7.4 
       702.0         0.23          7.9 
       703.0         0.13          7.3 
       704.0         0.17          7.3 
       705.0         0.17          7.8 
       706.0         0.17          7.6 
       707.0         0.23          7.7 
       708.0         0.20          7.4 
       709.0         0.20          6.9 
       710.0         0.22          7.2 
       711.0         0.17          6.9 
       712.0         0.20          6.8 
       713.0         0.17          7.2 
       714.0         0.20          7.2 
       715.0         0.30          7.0 
       716.0         1.43          7.2 
       717.0         0.20          6.7 
       718.0         0.17          6.4 
       719.0         0.25          6.9 
       720.0         0.17          6.9 
       721.0         0.20          6.9 
       722.0         0.17          7.0 
       723.0         0.20          6.8 
       724.0         0.23          7.1 
       725.0         0.17          6.8 
       726.0         0.13          6.4 
       727.0         0.17          6.5 
       728.0         0.17          6.4 
       729.0         0.13          7.0 
       730.0         0.17          6.9 
       731.0         0.13          6.1 
       732.0         0.17          6.1 
       733.0         0.13          6.2 
       734.0         0.17          6.0 
       735.0         0.13          6.5 
       736.0         0.17          6.5 
       737.0         0.13          6.3 
       738.0         0.13          6.3 
       739.0         0.13          6.3 
       740.0         0.18          5.7 
       741.0         0.13          6.2 
       742.0         0.17          6.0 
       743.0         0.17          5.6 
       744.0         0.17          5.5 
       745.0         0.17          5.6 
       746.0         0.20          5.9 
       747.0         0.17          5.4 
       748.0         1.03          5.7 
       749.0         0.23          5.5 
       750.0         0.17          5.4 
       751.0         0.10          5.1 
       752.0         0.10          5.1 
       753.0         0.17          5.0 
       754.0         0.18          4.7 
       755.0         0.20          5.0 
       756.0         0.27          8.1 
       757.0         0.17          9.8 
       758.0         0.17         10.7 
       759.0         0.20         10.9 
       760.0         0.17         11.2 
       761.0         0.17         11.0 
       762.0         0.20         11.5 
       763.0         0.13         11.2 
       764.0         0.13         11.5 
       765.0         0.07         11.3 
       766.0         0.10         11.8 
       767.0         0.10         11.7 
       768.0         0.17         11.1 
       769.0         0.13         11.1 
       770.0         0.17         11.4 
       771.0         0.17         11.5 
       772.0         0.20         12.0 
       773.0         0.27         11.6 
       774.0         0.22         22.7 
       775.0         0.20        109.4 
       776.0         0.20        175.0 
       777.0         0.23        180.4 
       778.0         1.70        154.0 
       779.0         0.40         14.2 
       780.0         0.37         12.8 
       781.0         0.32         12.7 
       782.0         0.20         12.3 
       783.0         0.27         12.5 
       784.0         0.17         12.7 
       785.0         0.20         12.4 
       786.0         0.17         12.6 
       787.0         0.23         12.3 
       788.0         0.27         12.7 
       789.0         0.20         12.5 
       790.0         0.17         12.5 
       791.0         0.20         12.4 
       792.0         0.27         12.3 
       793.0         0.23         12.5 
       794.0         0.20         12.5 
       795.0         0.22         12.8 
       796.0         0.20         13.0 
       797.0         0.20         13.3 
