~Version Information
VERS.                      2.0: CWLS Log ASCII Standard - VERSION 2.0
WRAP.                       NO: One line per depth step
~Well Information Block
STRT.FT               400.0000: 
STOP.FT              2201.0000: 
STEP.FT                 0.2500: 
NULL.                -999.2500: 
COMP.          Evergreen Operating Corporation: COMPANY
WELL.            Triumph 13-10: WELL
FLD.           Purgatorie River: FIELD
LOC.           1551' FSL & 522' FWL: LOCATION
PROV.                 Colorado: PROVINCE
CNTY.               Las Animas: COUNTRY
SRVC.                Patterson: SERVICE COMPANY
DATE.          Fri Jul 23 20:28:37 2004: LOG DATE
UWI.           05 071 08108 00: UNIQUE WELL ID
~Curve Information Block
DEPT.FT            0 000 00 00: Depth
SN.Ohm-m                      : IEL Short Normal
SP.mV                         : IEL Spontaneous Potential
DIR.Ohm-m                     : IEL Induction Resistivity
GR.GAPI                       : Gamma Ray
~Parameter Information Block
~A  Depth        SN          SP         DIR          GR     
# ...
  1572.5000     14.0394     67.6615      9.6736    126.6053
  1572.7500     13.6990     67.7029      9.3632    122.4339
  1573.0000     13.3541     67.8026      9.0629    117.3746
  1573.2500     12.9992     67.9251      8.7843    116.0019
  1573.5000     12.5992     68.0359      8.5294    118.3722
  1573.7500     12.1190     68.1228      8.2930    122.8868
  1574.0000     11.5726     68.1972      8.0677    132.3425
  1574.2500     11.0181     68.2698      7.8477    139.0426
  1574.5000     10.5326     68.3251      7.6325    147.9981
  1574.7500     10.1860     68.3277      7.4265    152.8714
  1575.0000      9.9871     68.2527      7.2376    158.6024
  1575.2500      9.8621     68.1052      7.0741    161.5878
  1575.5000      9.7260     67.9120      6.9425    165.0069
  1575.7500      9.5452     67.7024      6.8455    166.3529
  1576.0000      9.3254     67.4984      6.7834    166.2255
  1576.2500      9.1005     67.3127      6.7548    164.5377
  1576.5000      8.9293     67.1486      6.7580    160.2384
  1576.7500      8.8568     67.0013      6.7901    156.9024
  1577.0000      8.8856     66.8644      6.8461    152.3038
  1577.2500      8.9944     66.7375      6.9185    149.8903
  1577.5000      9.1617     66.6294      6.9970    147.3070
  1577.7500      9.3724     66.5553      7.0722    145.8607
  1578.0000      9.5978     66.5277      7.1382    142.5593
  1578.2500      9.7907     66.5486      7.1948    138.5915
  1578.5000      9.9169     66.6054      7.2462    129.5567
  1578.7500      9.9807     66.6752      7.2968    122.5305
  1579.0000     10.0316     66.7353      7.3471    113.7233
  1579.2500     10.1376     66.7758      7.3939    110.6858
  1579.5000     10.3125     66.8030      7.4313    111.5229
  1579.7500     10.4755     66.8322      7.4545    115.2888
  1580.0000     10.5093     66.8758      7.4602    124.0873
  1580.2500     10.3563     66.9365      7.4458    130.9119
  1580.5000     10.0515     67.0091      7.4085    140.6175
  1580.7500      9.6912     67.0850      7.3477    145.7507
  1581.0000      9.3760     67.1528      7.2671    150.8266
  1581.2500      9.1573     67.1968      7.1758    152.8821
  1581.5000      9.0281     67.1998      7.0854    155.2614
  1581.7500      8.9545     67.1521      7.0059    156.8791
  1582.0000      8.9091     67.0624      6.9435    159.3018
  1582.2500      8.8835     66.9573      6.8999    160.4430
  1582.5000      8.8754     66.8631      6.8739    160.7090
  1582.7500      8.8716     66.7834      6.8625    160.0812
  1583.0000      8.8590     66.6992      6.8630    159.1725
  1583.2500      8.8425     66.5962      6.8733    159.1728
  1583.5000      8.8404     66.4855      6.8928    159.8717
  1583.7500      8.8796     66.3906      6.9212    160.1542
  1584.0000      8.9828     66.3209      6.9580    159.1971
  1584.2500      9.1400     66.2681      7.0023    157.3969
  1584.5000      9.3128     66.2214      7.0538    153.6862
  1584.7500      9.4625     66.1767      7.1136    151.4652
  1585.0000      9.5529     66.1339      7.1830    149.5594
  1585.2500      9.5574     66.0930      7.2620    148.9888
  1585.5000      9.4877     66.0551      7.3466    148.1241
  1585.7500      9.3799     66.0250      7.4287    147.4644
  1586.0000      9.2545     66.0111      7.4978    147.3638
  1586.2500      9.1331     66.0165      7.5442    148.4570
  1586.5000      9.0509     66.0272      7.5622    151.7644
  1586.7500      9.0181     66.0104      7.5516    154.4837
  1587.0000      9.0188     65.9328      7.5171    157.7945
  1587.2500      9.0463     65.7834      7.4671    158.5195
  1587.5000      9.0936     65.5834      7.4113    156.4747
  1587.7500      9.1227     65.3854      7.3598    153.4592
  1588.0000      9.0875     65.2647      7.3221    148.6304
  1588.2500      8.9859     65.2906      7.3060    146.5348
  1588.5000      8.8714     65.4816      7.3176    146.3824
  1588.7500      8.8195     65.7817      7.3611    148.3609
  1589.0000      8.8790     66.0947      7.4388    153.3232
  1589.2500      9.0528     66.3464      7.5490    156.5477
  1589.5000      9.3112     66.5155      7.6832    158.6321
  1589.7500      9.6066     66.6155      7.8250    157.5037
  1590.0000      9.8864     66.6650      7.9539    152.9868
  1590.2500     10.1049     66.6819      8.0523    149.3004
  1590.5000     10.2178     66.6948      8.1141    144.5114
  1590.7500     10.1797     66.7421      8.1466    142.3278
  1591.0000      9.9781     66.8482      8.1661    140.6235
  1591.2500      9.6562     66.9993      8.1903    140.0736
  1591.5000      9.3078     67.1515      8.2313    138.7889
  1591.7500      9.1034     67.2692      8.2922    137.0633
  1592.0000      9.2637     67.3547      8.3670    133.6017
  1592.2500      9.8570     67.4447      8.4428    131.7930
  1592.5000     10.6819     67.5789      8.5035    131.8461
  1592.7500     11.4445     67.7626      8.5355    134.0242
  1593.0000     11.9454     67.9463      8.5318    138.8953
  1593.2500     12.1138     68.0450      8.4948    141.8181
  1593.5000     11.9682     67.9986      8.4342    144.6123
  1593.7500     11.5582     67.8279      8.3640    145.8081
  1594.0000     10.9445     67.6317      8.2977    147.8098
  1594.2500     10.2435     67.5182      8.2444    149.4491
  1594.5000      9.6373     67.5317      8.2069    151.3872
  1594.7500      9.2743     67.6399      8.1826    151.6650
  1595.0000      9.2083     67.7775      8.1653    150.6635
  1595.2500      9.4236     67.8942      8.1484    149.8805
  1595.5000      9.8252     67.9681      8.1263    149.9220
  1595.7500     10.2395     67.9979      8.0965    150.9053
  1596.0000     10.4949     67.9926      8.0606    153.0875
  1596.2500     10.5146     67.9701      8.0241    154.5758
  1596.5000     10.3406     67.9620      7.9942    156.5538
  1596.7500     10.0679     68.0159      7.9757    157.5470
  1597.0000      9.7529     68.1813      7.9684    158.0960
  1597.2500      9.4000     68.4752      7.9693    157.8026
  1597.5000      9.0247     68.8535      7.9770    157.2105
  1597.7500      8.7031     69.2230      7.9942    157.3717
  1598.0000      8.5390     69.4979      8.0247    158.7459
  1598.2500      8.6042     69.6605      8.0691    159.9395
  1598.5000      8.9233     69.7736      8.1223    160.8179
  1598.7500      9.4687     69.9325      8.1764    160.1627
  1599.0000     10.1280     70.1996      8.2257    156.8762
  1599.2500     10.7181     70.5704      8.2725    153.2034
  1599.5000     11.1099     70.9900      8.3272    145.9619
  1599.7500     11.3326     71.3889      8.4040    140.6264
  1600.0000     11.5214     71.7061      8.5144    133.6518
  1600.2500     11.7883     71.8936      8.6648    130.7266
  1600.5000     12.1530     71.9251      8.8584    129.6587
  1600.7500     12.5667     71.8146      9.0994    130.7829
  1601.0000     12.9609     71.6201      9.3948    133.5850
  1601.2500     13.2936     71.4121      9.7519    135.1107
  1601.5000     13.5834     71.2293     10.1724    135.7563
  1601.7500     13.8881     71.0652     10.6490    135.0936
  1602.0000     14.2477     70.8958     11.1652    133.0761
  1602.2500     14.6663     70.7120     11.7025    131.3396
  1602.5000     15.1675     70.5273     12.2484    128.4234
  1602.7500     15.8183     70.3608     12.8034    126.5046
  1603.0000     16.6423     70.2227     13.3797    124.1201
  1603.2500     17.5544     70.1156     13.9952    122.8454
  1603.5000     18.4370     70.0443     14.6662    120.8296
  1603.7500     19.2367     70.0171     15.4008    119.2683
  1604.0000     19.9577     70.0368     16.1956    117.4396
  1604.2500     20.6226     70.0922     17.0338    117.2710
  1604.5000     21.2356     70.1588     17.8848    118.6150
  1604.7500     21.7674     70.2083     18.7055    119.6555
  1605.0000     22.1929     70.2235     19.4503    119.3279
  1605.2500     22.5454     70.2074     20.0869    116.9634
  1605.5000     22.9459     70.1813     20.6094    109.8460
  1605.7500     23.5381     70.1716     21.0384    103.2802
