~Version Information
VERS.                      2.0: CWLS Log ASCII Standard - VERSION 2.0
WRAP.                       NO: One line per depth step
~Well Information Block
STRT.FT               -12.5000: 
STOP.FT              1613.0000: 
STEP.FT                 0.2500: 
NULL.                -999.2500: 
COMP.          Pioneer Natural Resources: COMPANY
WELL.          Peregrine 12-20: WELL
FLD.           Purgatorie River: FIELD
LOC.           1722' FNL & 999' FWL--: LOCATION
PROV.                       CO: PROVINCE
CNTY.               Las Animas: COUNTRY
SRVC.          Patterson Wireline: SERVICE COMPANY
DATE.          Fri Jul 22 12:50:00 2005: LOG DATE
UWI.           05 071 08428 00: UNIQUE WELL ID
~Curve Information Block
DEPT.FT            0 000 00 00: Depth
CCL.                          : Casing Collar Locator
TT3.usec                      : CBL 3' Travel Time
AMP3.mV                       : CBL 3' Amplitude
GR.GAPI                       : Gamma Ray
~Parameter Information Block
~A  Depth       CCL         TT3         AMP3         GR     
# ...
   724.5000      0.0000    789.5895      5.3244    101.0576
   724.7500      0.0000    784.2968      5.2830     98.3828
   725.0000      0.0000    779.0150      5.2264     95.9248
   725.2500      0.0000    775.3352      5.1784     95.8373
   725.5000      0.0000    772.4440      5.1539     98.9319
   725.7500      0.0000    768.1935      5.1390    104.1219
   726.0000      0.0000    761.5888      5.1113    109.7899
   726.2500      0.0000    753.8616      5.0681    115.6577
   726.5000      0.0000    746.8146      5.0244    122.9209
   726.7500      0.0000    740.6224      4.9921    132.2858
   727.0000      0.0000    733.7322      4.9650    142.3259
   727.2500      0.0000    724.5376      4.9246    150.3095
   727.5000      0.0000    712.9674      4.8646    154.3644
   727.7500      0.0000    701.0862      4.8049    154.3549
   728.0000      0.0000    692.6646      4.7754    150.9884
   728.2500      0.0000    691.8262      4.7920    144.9412
   728.5000      0.0000    701.0350      4.8488    137.1899
   728.7500      0.0000    718.8715      4.9189    129.6042
   729.0000      0.0000    739.4112      4.9650    124.2460
   729.2500      0.0000    755.2997      4.9607    121.7942
   729.5000      0.0000    762.5092      4.9084    121.0255
   729.7500      0.0000    761.7247      4.8359    120.0339
   730.0000      0.0000    755.5620      4.7740    117.8166
   730.2500      0.0000    746.0544      4.7370    114.7260
   730.5000      0.0000    734.9343      4.7243    111.7525
   730.7500      0.0000    725.0540      4.7322    109.6777
   731.0000      0.0000    720.6598      4.7548    108.9314
   731.2500      0.0000    725.2974      4.7818    109.7931
   731.5000      0.0000    737.9953      4.8031    112.2277
   731.7500      0.0000    752.0242      4.8121    115.6090
   732.0000      0.0000    759.9465      4.8067    118.7965
   732.2500      0.0000    760.3255      4.7935    120.2669
   732.5000      0.0000    757.4795      4.7883    118.5136
   732.7500      0.0000    755.1163      4.8119    113.4659
   733.0000      0.0000    753.0751      4.8768    107.5839
   733.2500      0.0000    749.9380      4.9639    104.3196
   733.5000      0.0000    745.6262      5.0224    105.0354
   733.7500      0.0000    741.0414      5.0139    108.1761
   734.0000      0.0000    737.2241      4.9451    111.6008
   734.2500      0.0000    735.2108      4.8406    114.7053
   734.5000      0.0000    735.6124      4.7063    117.7815
   734.7500      0.0000    738.1571      4.5427    120.2399
   735.0000      0.0000    741.4570      4.3745    120.4579
   735.2500      0.0000    742.8085      4.2450    117.1921
   735.5000      0.0000    739.6746      4.1907    110.3685
   735.7500      0.0000    733.2300      4.2277    100.5051
   736.0000      0.0000    729.2357      4.3490     88.3722
   736.2500      0.0000    733.0815      4.5187     75.6762
   736.5000      2.0000    743.6461      4.6820     65.1533
   736.7500      0.0000    753.5377      4.7987     58.9759
   737.0000      0.0000    756.5329      4.8719     57.0585
   737.2500      0.0000    754.2947      4.9356     57.2909
   737.5000      0.0000    754.4706      5.0218     57.3340
   737.7500      0.0000    762.6234      5.1463     56.0032
   738.0000      0.0000    777.5082      5.3133     53.3293
   738.2500      0.0000    793.7977      5.5104     50.0545
   738.5000      0.0000    807.0336      5.6946     47.3006
   738.7500      0.0000    815.4229      5.8046     46.1194
   739.0000      0.0000    818.8815      5.8099     46.7721
   739.2500      0.0000    818.0727      5.7423     48.5049
   739.5000      0.0000    814.3327      5.6669     50.1421
   739.7500      0.0000    809.3466      5.6297     50.8117
   740.0000      0.0000    803.9922      5.6366     50.4010
   740.2500      0.0000    797.9409      5.6619     49.7391
   740.5000      0.0000    790.9576      5.6650     50.0691
   740.7500      0.0000    784.0564      5.6136     51.8662
   741.0000      0.0000    778.4007      5.4997     54.4534
   741.2500      0.0000    773.4896      5.3275     57.2026
   741.5000      0.0000    767.8528      5.1002     60.8125
   741.7500      0.0000    761.6556      4.8352     66.7885
   742.0000      0.0000    757.1662      4.5654     75.3691
   742.2500      0.0000    756.3398      4.2945     84.1242
   742.5000      0.0000    758.8390      3.9749     89.0831
   742.7500      0.0000    762.2899      3.5684     87.7056
   743.0000      0.0000    763.7879      3.1131     81.0062
   743.2500      0.0000    762.1791      2.6965     72.8976
   743.5000      0.0000    760.0854      2.3717     67.2542
   743.7500      0.0000    762.6135      2.1263     65.1540
   744.0000      0.0000    772.4572      1.9295     64.6922
   744.2500      0.0000    786.6683      1.7796     63.3342
   744.5000      0.0000    799.4661      1.6982     60.2097
   744.7500      0.0000    807.8295      1.7008     56.3649
   745.0000      0.0000    813.0621      1.7885     53.7998
   745.2500      0.0000    817.4518      1.9525     54.6576
   745.5000      0.0000    821.2623      2.1779     60.4217
   745.7500      0.0000    822.9150      2.4595     70.9803
   746.0000      0.0000    820.4594      2.8212     84.5475
   746.2500      0.0000    813.0795      3.2961     98.8992
   746.5000      0.0000    802.7358      3.8852    112.6400
   746.7500      0.0000    793.9559      4.5608    125.0976
   747.0000      0.0000    790.0453      5.3055    135.2056
   747.2500      0.0000    789.3553      6.1140    141.2250
   747.5000      0.0000    787.0513      6.9388    142.1375
   747.7500      0.0000    781.4259      7.6599    139.0073
   748.0000      0.0000    776.7576      8.1374    134.4702
   748.2500      0.0000    778.2198      8.3021    131.2193
   748.5000      0.0000    785.3593      8.1940    131.0953
   748.7500      0.0000    792.1638      7.9209    134.7577
   749.0000      0.0000    791.7007      7.5878    141.4376
   749.2500      0.0000    779.1950      7.2522    149.1382
   749.5000      0.0000    753.4695      6.9279    155.6238
   749.7500      0.0000    719.4383      6.6203    159.4912
   750.0000      0.0000    689.1255      6.3464    160.4079
   750.2500      0.0000    676.2823      6.1218    158.5724
   750.5000      0.0000    686.4641      5.9401    154.3436
   750.7500      0.0000    711.9153      5.7784    148.4811
   751.0000      0.0000    737.2479      5.6201    142.0954
   751.2500      0.0000    750.7771      5.4668    135.8519
   751.5000      0.0000    750.9570      5.3279    129.4886
   751.7500      0.0000    743.7729      5.2089    122.2738
   752.0000      0.0000    736.1161      5.1077    113.6313
   752.2500      0.0000    731.8221      5.0189    103.4746
   752.5000      0.0000    731.8160      4.9387     92.4051
   752.7500      0.0000    735.5415      4.8681     81.6745
   753.0000      0.0000    741.3852      4.8098     72.6750
   753.2500      0.0000    746.6122      4.7580     66.3067
   753.5000      0.0000    748.3570      4.6994     62.7418
   753.7500      0.0000    745.6100      4.6312     61.6169
   754.0000      0.0000    740.3036      4.5650     62.2982
   754.2500      0.0000    736.1726      4.5121     64.0037
   754.5000      0.0000    736.2497      4.4757     65.8795
   754.7500      0.0000    741.0231      4.4584     67.2237
   755.0000      0.0000    748.3923      4.4623     67.8513
   755.2500      0.0000    755.0413      4.4812     68.1522
   755.5000      0.0000    757.8282      4.5002     68.6256
   755.7500      0.0000    754.4012      4.5050     69.4524
   756.0000      0.0000    743.8113      4.4927     70.5412
   756.2500      0.0000    727.9500      4.4745     71.6861
   756.5000      0.0000    711.9935      4.4619     72.6541
   756.7500      0.0000    701.3372      4.4553     73.4861
   757.0000      0.0000    697.0861      4.4497     74.6870
   757.2500      0.0000    695.8360      4.4432     76.7195
   757.5000      0.0000    694.7371      4.4362     79.2834
   757.7500      0.0000    695.3986      4.4293     81.2486
