~Version Information
VERS.                      2.0: CWLS Log ASCII Standard - VERSION 2.0
WRAP.                       NO: One line per depth step
~Well Information Block
STRT.FT                -8.7500: 
STOP.FT              1126.7500: 
STEP.FT                 0.2500: 
NULL.                -999.2500: 
COMP.          Evergreen Operating Corp.: COMPANY
WELL.             Bernice 21-3: WELL
FLD.           Purgatorie River: FIELD
LOC.           201' FNL & 2575' FWL--: LOCATION
PROV.                       CO: PROVINCE
CNTY.               Las Animas: COUNTRY
SRVC.          Patterson Wireline: SERVICE COMPANY
DATE.          Mon Feb 02 12:04:59 2004: LOG DATE
UWI.              05 071 07912: UNIQUE WELL ID
~Curve Information Block
DEPT.FT            0 000 00 00: Depth
CCL.                          : Casing Collar Locator
TT3.usec                      : CBL 3' Travel Time
AMP3.mV                       : CBL 3' Amplitude
GR.GAPI                       : Gamma Ray
~Parameter Information Block
~A  Depth       CCL         TT3         AMP3         GR     
# ...
   426.7500      0.0000    832.4059      6.0273    101.6951
   427.0000      0.0000    826.3749      5.9635    105.0562
   427.2500      0.0000    821.7249      5.9656    107.3203
   427.5000      0.0000    817.7489      6.0281    108.8420
   427.7500      0.0000    814.9502      6.1137    109.9229
   428.0000      0.0000    815.0156      6.1677    110.7823
   428.2500      0.0000    819.8099      6.1477    111.3430
   428.5000      0.0000    830.2532      6.0563    110.9973
   428.7500      0.0000    845.5717      5.9343    109.0472
   429.0000      0.0000    862.9483      5.8178    105.5582
   429.2500      0.0000    878.4521      5.7153    101.4629
   429.5000      0.0000    888.9571      5.6304     97.6824
   429.7500      0.0000    892.6102      5.5756     94.4241
   430.0000      0.0000    888.0178      5.5483     91.4581
   430.2500      0.0000    875.3305      5.5198     88.8085
   430.5000      0.0000    858.2095      5.4673     86.8406
   430.7500      0.0000    842.3792      5.3980     85.6650
   431.0000      0.0000    831.6032      5.3311     84.7342
   431.2500      0.0000    825.8593      5.2836     83.2651
   431.5000      0.0000    822.7189      5.2811     81.0047
   431.7500      0.0000    819.1145      5.3498     78.4258
   432.0000      0.0000    812.0426      5.4777     76.1561
   432.2500      0.0000    799.5328      5.6060     74.3535
   432.5000      0.0000    782.9481      5.6713     72.6829
   432.7500      0.0000    768.6470      5.6340     70.7176
   433.0000      0.0000    765.3371      5.4713     68.1427
   433.2500      0.0000    777.2695      5.1876     64.7555
   433.5000      0.0000    799.7377      4.8550     60.7015
   433.7500      0.0000    822.5184      4.5957     56.8378
   434.0000      0.0000    837.8234      4.4902     54.6314
   434.2500      0.0000    844.2595      4.5211     55.4298
   434.5000      0.0000    844.3764      4.6181     59.6870
   434.7500      0.0000    840.9470      4.7320     66.7794
   435.0000      0.0000    835.8403      4.8673     75.3134
   435.2500      0.0000    830.1600      5.0696     83.3751
   435.5000      0.0000    824.1403      5.3804     88.6727
   435.7500      0.0000    817.7997      5.7762     89.2213
   436.0000      0.0000    812.3041      6.1582     84.6379
   436.2500      0.0000    809.6976      6.4272     76.7713
   436.5000      0.0000    810.7644      6.5652     68.5716
   436.7500      0.0000    813.9413      6.6274     62.1290
   437.0000      0.0000    816.7037      6.6722     57.7812
   437.2500      0.0000    817.3206      6.7254     54.7932
   437.5000      0.0000    815.1876      6.7923     52.4931
   437.7500      0.0000    810.5279      6.8644     50.8384
   438.0000      0.0000    804.5004      6.9121     50.2124
   438.2500      0.0000    798.9362      6.9030     50.8275
   438.5000      0.0000    794.7753      6.8395     52.4067
   438.7500      0.0000    790.8221      6.7632     54.4948
   439.0000      0.0000    785.1990      6.7135     56.9565
   439.2500      0.0000    778.3140      6.6920     60.0329
   439.5000      0.0000    773.2690      6.6713     63.9759
   439.7500      0.0000    772.7643      6.6275     68.7933
   440.0000      0.0000    776.4751      6.5644     74.2361
   440.2500      0.0000    782.0984      6.5095     79.7211
   440.5000      0.0000    788.1709      6.4861     84.1792
   440.7500      0.0000    794.8158      6.4892     86.3271
   441.0000      0.0000    802.0927      6.4907     85.4676
   441.2500      0.0000    808.9048      6.4663     82.1038
   441.5000      0.0000    813.9128      6.4137     77.5677
   441.7500      0.0000    816.8292      6.3504     73.0306
   442.0000      0.0000    818.5161      6.2934     69.1268
   442.2500      0.0000    820.3207      6.2400     66.4851
   442.5000      0.0000    823.5388      6.1737     66.0838
   442.7500      0.0000    828.9971      6.0912     68.6857
   443.0000      0.0000    836.4645      6.0109     73.8346
   443.2500      0.0000    844.3455      5.9535     79.4603
   443.5000      0.0000    850.2760      5.9277     82.8394
   443.7500      0.0000    852.3439      5.9357     82.4069
   444.0000      0.0000    850.0718      5.9757     78.6530
   444.2500      0.0000    844.7827      6.0343     73.2635
   444.5000      0.0000    839.2098      6.0834     67.8489
   444.7500      0.0000    836.0063      6.0890     63.6273
   445.0000      0.0000    835.7729      6.0309     61.5016
   445.2500      0.0000    836.6047      5.9284     61.6754
   445.5000      0.0000    836.2421      5.8434     63.3219
   445.7500      0.0000    834.9848      5.8386     65.0934
   446.0000      0.0000    836.5341      5.9285     65.9979
   446.2500      0.0000    846.0160      6.0743     65.7767
   446.5000      0.0000    866.6212      6.2210     64.8106
   446.7500      0.0000    896.9414      6.3277     63.9639
   447.0000      0.0000    930.7016      6.3769     64.2764
   447.2500      0.0000    959.3478      6.3739     66.3932
   447.5000      0.0000    975.7381      6.3428     70.0653
   447.7500      0.0000    976.5881      6.3124     74.1067
   448.0000      0.0000    962.6747      6.3052     76.8724
   448.2500      0.0000    937.6172      6.3328     77.1174
   448.5000      0.0000    906.7819      6.3951     74.7528
   448.7500      0.0000    876.3906      6.4827     70.8583
   449.0000      0.0000    851.7547      6.5891     66.9216
   449.2500      0.0000    835.2864      6.7141     63.9439
   449.5000      0.0000    826.2097      6.8530     62.0314
   449.7500      0.0000    822.0025      6.9904     60.6488
   450.0000      0.0000    819.9655      7.1103     59.1950
   450.2500      0.0000    817.9050      7.2040     57.3751
   450.5000      0.0000    814.3607      7.2627     55.2073
   450.7500      0.0000    809.1107      7.2761     52.9853
   451.0000      0.0000    803.3754      7.2469     51.3595
   451.2500      0.0000    798.5394      7.2010     51.2348
   451.5000      0.0000    794.2373      7.1690     53.3149
   451.7500      0.0000    788.9458      7.1545     57.7119
   452.0000      0.0000    783.1511      7.1315     64.1353
   452.2500      0.0000    780.2005      7.0825     72.3170
   452.5000      0.0000    782.6523      7.0308     81.7485
   452.7500      0.0000    788.9050      7.0186     90.8388
   453.0000      0.0000    794.8235      7.0566     97.0518
   453.2500      0.0000    797.9482      7.1087     98.6088
   453.5000      0.0000    798.6495      7.1301     95.9061
   453.7500      0.0000    797.5153      7.1088     90.8358
   454.0000      0.0000    793.4273      7.0682     85.0354
   454.2500      0.0000    785.2100      7.0370     79.2401
   454.5000      0.0000    774.5873      7.0244     73.9175
   454.7500      0.0000    766.4340      7.0196     69.8653
   455.0000      0.0000    765.7195      7.0062     68.0536
   455.2500      0.0000    774.0188      6.9795     69.0178
   455.5000      0.0000    788.2027      6.9533     72.4565
   455.7500      0.0000    801.9725      6.9447     77.4358
   456.0000      0.0000    809.1084      6.9518     82.9890
   456.2500      0.0000    806.7036      6.9518     88.4253
   456.5000      0.0000    797.0340      6.9285     93.0904
   456.7500      0.0000    786.4542      6.8936     96.1351
   457.0000      0.0000    780.7445      6.8724     96.8959
   457.2500      0.0000    780.3887      6.8677     95.4165
   457.5000      0.0000    780.9412      6.8549     92.3097
   457.7500      0.0000    778.6721      6.8218     88.2649
   458.0000      0.0000    775.5663      6.7969     84.1021
   458.2500      0.0000    778.0676      6.8173     81.0546
   458.5000      0.0000    790.5798      6.8762     80.2002
   458.7500      0.0000    810.7150      6.9318     81.3688
   459.0000      0.0000    831.3333      6.9686     82.9684
   459.2500      0.0000    846.4777      7.0196     83.0707
   459.5000      0.0000    854.5612      7.1155     80.7195
   459.7500      0.0000    856.7701      7.2330     76.4483
   460.0000      0.0000    853.8513      7.3090     71.7251
