~Version Information
VERS.                      2.0: CWLS Log ASCII Standard - VERSION 2.0
WRAP.                       NO: One line per depth step
~Well Information Block
STRT.FT               962.7000: 
STOP.FT              2435.5000: 
STEP.FT                 0.1000: 
NULL.                -999.2500: 
COMP.          Petrogulf Corporation: COMPANY
WELL.              Hand 8-44 V: WELL
FLD.           Purgatorie River: FIELD
LOC.           1076' FEL & 820' FSL: LOCATION
CNTY.               Las Animas: COUNTY
SRVC.                         : SERVICE COMPANY
DATE.          Fri Nov 21 14:12:41 2003: LOG DATE
UWI.                          : UNIQUE WELL ID
STAT.                 Colorado: STATE
~Curve Information Block
DEPT.FT            0 000 00 00: Depth
DCAL.in                       : CDL Caliper
RHOB.g/cc                     : CDL Bulk Density
RHOC.g/cc                     : CDL Density Correction
DPOR.pu                       : CDL Density Porosity
GR.GAPI                       : Gamma Ray
NPOR.pu                       : Neutron Porosity
~Parameter Information Block
~A  Depth       DCAL        RHOB        RHOC        DPOR         GR         NPOR    
# ...
  2037.9000      8.7883      2.0106      0.0661     38.7529    117.0132     27.7499
  2038.0000      8.2586      1.9811     -0.0106     40.5415    122.1549     26.7892
  2038.1000      8.2586      1.9924     -0.0283     39.8547    119.2883     25.2078
  2038.2000      8.2586      2.0480      0.0427     36.4846    111.5860     24.1437
  2038.3000      8.1902      2.1278      0.1372     31.6492    105.0800     24.0470
  2038.4000      8.1902      2.2131      0.1597     26.4803    100.7603     24.3503
  2038.5000      8.1920      2.2956      0.2177     21.4795     96.1718     24.6477
  2038.6000      8.1920      2.3689      0.2309     17.0347     90.2638     24.6550
  2038.7000      8.1920      2.4284      0.2124     13.4292     85.3289     24.1777
  2038.8000      8.1895      2.4623      0.2973     11.3779     83.4134     23.7224
  2038.9000      8.1895      2.4440      0.1762     12.4879     82.8720     23.8895
  2039.0000      8.1889      2.3720      0.0990     16.8504     82.6792     24.4362
  2039.1000      8.1889      2.2947     -0.0912     21.5305     84.0672     24.7412
  2039.2000      8.1889      2.2677     -0.0913     23.1702     86.5035     24.5089
  2039.3000      8.1560      2.2928      0.0437     21.6481     87.5030     23.8125
  2039.4000      8.1560      2.3335      0.0878     19.1798     85.7865     23.2441
  2039.5000      8.1514      2.3682      0.0515     17.0774     82.0769     23.3674
  2039.6000      8.1514      2.3945      0.1413     15.4833     79.6695     23.7704
  2039.7000      8.1514      2.4180      0.0921     14.0625     80.5832     23.8582
  2039.8000      8.1887      2.4460      0.1307     12.3631     83.9117     23.5633
  2039.9000      8.1887      2.4731      0.0617     10.7227     88.1305     23.2015
  2040.0000      8.2004      2.4954      0.0286      9.3714     91.2939     23.1492
  2040.1000      8.2004      2.5084      0.1390      8.5790     92.2936     23.3734
  2040.2000      8.2004      2.5012      0.0977      9.0181     91.4130     23.6062
  2040.3000      8.2041      2.4861      0.0676      9.9327     91.5883     23.7923
  2040.4000      8.2041      2.4832      0.0463     10.1093     97.7724     23.6484
  2040.5000      8.2283      2.4921      0.0177      9.5716    110.0230     22.9261
  2040.6000      8.2283      2.5066      0.0399      8.6932    121.7774     22.1446
  2040.7000      8.2283      2.5197      0.0478      7.8953    125.0794     22.0028
  2040.8000      8.1771      2.5257      0.0479      7.5334    121.4165     22.4396
  2040.9000      8.1771      2.5284      0.0484      7.3703    118.4874     22.8430
  2041.0000      8.2133      2.5448      0.0074      6.3766    116.9537     23.0531
  2041.1000      8.2133      2.5812      0.0775      4.1677    114.4710     23.1855
  2041.2000      8.2133      2.6092      0.0973      2.4725    114.8796     23.1068
  2041.3000      8.1822      2.6104      0.1276      2.4013    120.5862     22.8972
  2041.4000      8.1822      2.6078      0.0299      2.5602    124.5350     22.7671
  2041.5000      8.1045      2.6118      0.1479      2.3128    122.1943     22.7525
  2041.6000      8.1045      2.6022      0.1045      2.8953    119.8821     23.0213
  2041.7000      8.1045      2.5685      0.1565      4.9372    123.3595     23.4437
  2041.8000      8.0896      2.5255      0.0310      7.5449    129.4298     23.5388
  2041.9000      8.0896      2.5129      0.0235      8.3106    131.9043     23.5765
  2042.0000      8.0852      2.5455      0.0684      6.3340    125.9415     24.0640
  2042.1000      8.0852      2.5812      0.1327      4.1687    115.5388     24.5287
  2042.2000      8.0852      2.5895      0.0565      3.6660    111.4678     24.4900
  2042.3000      8.1040      2.5845      0.0979      3.9684    115.2326     24.3479
  2042.4000      8.1040      2.5666      0.1178      5.0541    117.8417     24.6250
  2042.5000      8.1726      2.5296      0.0532      7.2943    115.8584     25.2806
  2042.6000      8.1726      2.4895      0.0965      9.7287    114.7637     25.9618
  2042.7000      8.1726      2.4433      0.0338     12.5253    117.3720     26.5841
  2042.8000      8.1774      2.3642      0.0754     17.3239    121.1890     26.9760
  2042.9000      8.1774      2.2510      0.0013     24.1829    123.3969     26.9056
  2043.0000      8.1552      2.1463     -0.0150     30.5253    124.6616     26.5005
  2043.1000      8.1552      2.0906     -0.0471     33.9008    124.0901     25.9917
  2043.2000      8.1552      2.0757      0.0637     34.8086    121.7394     25.5843
  2043.3000      8.1741      2.0698      0.0503     35.1610    121.5009     25.3589
  2043.4000      8.1741      2.0740      0.0392     34.9066    123.4607     25.0679
  2043.5000      8.1299      2.1077      0.1348     32.8658    121.7158     24.7100
  2043.6000      8.1299      2.1631      0.2392     29.5115    115.0525     24.7069
  2043.7000      8.1299      2.2178      0.2726     26.1963    110.0539     24.8456
  2043.8000      8.0998      2.2738      0.2946     22.7999    110.5038     24.5282
  2043.9000      8.0998      2.3464      0.2682     18.3991    114.0819     23.7403
  2044.0000      8.0894      2.4255      0.2066     13.6069    115.4523     22.7757
  2044.1000      8.0894      2.4781      0.1299     10.4171    113.1774     22.0032
  2044.2000      8.0894      2.4997      0.0662      9.1064    111.2570     21.8744
  2044.3000      8.0864      2.5207      0.0747      7.8340    110.8565     22.2703
  2044.4000      8.0864      2.5518      0.1039      5.9505    110.7655     22.7014
  2044.5000      8.1818      2.5732      0.0958      4.6541    109.9049     23.0761
  2044.6000      8.1818      2.5786      0.0605      4.3260    106.1100     23.4396
  2044.7000      8.1818      2.5746      0.0579      4.5690    101.2416     23.7308
  2044.8000      8.1955      2.5659      0.0924      5.0997     99.9650     23.9411
  2044.9000      8.1955      2.5730     -0.0184      4.6667    101.7241     24.1373
  2045.0000      8.1991      2.6073      0.0660      2.5860    104.3747     24.3125
  2045.1000      8.1991      2.6330      0.1565      1.0326    109.9492     24.3993
  2045.2000      8.1991      2.6129      0.1170      2.2461    117.3839     24.4717
  2045.3000      8.2006      2.5575      0.0528      5.6042    119.5958     24.8015
  2045.4000      8.2006      2.5054      0.0210      8.7634    115.6473     25.3169
  2045.5000      8.2027      2.4840      0.0194     10.0623    116.9647     25.6224
  2045.6000      8.2027      2.4900      0.0194      9.6951    130.1723     25.4843
  2045.7000      8.2027      2.5030      0.0146      8.9090    143.2233     24.9983
  2045.8000      8.2061      2.5098      0.0514      8.4942    144.7876     24.9075
  2045.9000      8.2061      2.4998      0.0869      9.1028    142.2894     25.5287
  2046.0000      8.2159      2.4750     -0.0191     10.6060    143.6486     25.9941
  2046.1000      8.2159      2.4666      0.0344     11.1169    143.1794     25.6856
  2046.2000      8.2159      2.4921      0.0558      9.5716    139.7802     24.9043
  2046.3000      8.2092      2.5338      0.1141      7.0418    143.4286     24.0564
  2046.4000      8.2092      2.5613      0.1536      5.3743    154.6348     23.3906
  2046.5000      8.1935      2.5654      0.0355      5.1265    160.4224     23.0535
  2046.6000      8.1935      2.5677      0.0659      4.9904    158.2591     22.8344
  2046.7000      8.1935      2.5835      0.0824      4.0291    154.6780     22.9171
  2046.8000      8.1894      2.6076      0.1134      2.5669    150.3198     23.6685
  2046.9000      8.1894      2.6283      0.1353      1.3133    146.5448     24.6877
  2047.0000      8.1894      2.6379      0.1660      0.7348    145.6553     25.2324
  2047.1000      8.1894      2.6380      0.1715      0.7277    147.2757     25.0465
  2047.2000      8.1894      2.6381      0.1356      0.7238    152.2451     24.4441
  2047.3000      8.2099      2.6502      0.0987     -0.0118    155.2899     23.9061
  2047.4000      8.2099      2.6735      0.1403     -1.4239    150.2536     23.5932
