~Version Information
VERS.                      2.0: CWLS Log ASCII Standard - VERSION 2.0
WRAP.                       NO: One line per depth step
~Well Information Block
STRT.FT               546.0000: 
STOP.FT              1771.5000: 
STEP.FT                 0.2500: 
NULL.                -999.2500: 
COMP.          Petrogulf Corporation: COMPANY
WELL.             McLeod 9-42R: WELL
FLD.           Purgatorie River: FIELD
LOC.           1748' FNL & 372' FEL: LOCATION
PROV.                 Colorado: PROVINCE
CNTY.               Las Animas: COUNTRY
SRVC.                Patterson: SERVICE COMPANY
DATE.          Tue Aug 16 11:11:38 2005: LOG DATE
UWI.           071 08092  : UNIQUE WELL ID
~Curve Information Block
DEPT.FT            0 000 00 00: Depth
SP.mV                         : DIL Spontaneous Potential
RILD.Ohm-m                    : DIL Deep Resistivity
RILM.Ohm-m                    : DIL Medium Resistivity
RLL3.Ohm-m                    : DIL Shallow Resistivity
GR.GAPI                       : Gamma Ray
~Parameter Information Block
~A  Depth        SP         RILD        RILM        RLL3         GR     
# ...
  1722.0000     57.1615     20.6916     15.4781     19.3258    100.4418
  1722.2500     59.9239     19.7847     15.5860     20.2612    101.0667
  1722.5000     58.1994     20.2518     15.0452     20.2026     99.8219
  1722.7500     58.2434     20.0241     15.2102     18.8058    101.9312
  1723.0000     57.9431     20.4918     14.4991     17.1954     91.6107
  1723.2500     58.4701     21.0785     14.4823     16.6617     88.6466
  1723.5000     58.3919     20.9725     15.3378     17.7289     87.5066
  1723.7500     56.7332     20.2638     14.9563     19.2612     86.6629
  1724.0000     56.1931     18.9683     14.8928     19.9474     85.6487
  1724.2500     53.2852     20.0908     15.1826     20.2634     85.6682
  1724.5000     55.1783     19.9288     15.0004     20.5989     75.3819
  1724.7500     54.1946     19.8560     15.6504     21.0093     76.1949
  1725.0000     55.6270     20.2460     15.4874     21.4011     73.1075
  1725.2500     54.0728     19.7527     15.6973     22.4921     74.1350
  1725.5000     54.3015     20.7246     14.9850     23.4180     80.4054
  1725.7500     53.6338     21.8417     14.8930     23.2217     87.4928
  1726.0000     52.5755     21.8346     14.7043     22.0349     95.9722
  1726.2500     53.8896     20.7270     14.6087     20.4890    104.1354
  1726.5000     51.3572     21.0981     14.1595     18.9887    121.4417
  1726.7500     53.8411     23.2741     14.7177     17.5914    149.5898
  1727.0000     52.8040     21.2976     14.8432     17.2290    174.8530
  1727.2500     52.3676     21.5509     14.9255     17.4403    200.4273
  1727.5000     52.0879     22.4378     15.7857     18.3669    210.8518
  1727.7500     51.3435     21.8777     16.0411     19.2902    194.6474
  1728.0000     53.6608     21.0649     16.2140     20.7118    156.9299
  1728.2500     52.4382     18.2945     16.0054     22.1929    141.6421
  1728.5000     52.5192     19.6178     16.6414     25.5396    102.5683
  1728.7500     49.6796     18.7760     16.8429     27.4587     91.2990
  1729.0000     50.5908     18.7133     16.2915     27.7616     82.0138
  1729.2500     48.9908     18.5855     16.3182     26.1117     78.1811
  1729.5000     49.4450     21.0027     16.0837     24.2478     75.5196
  1729.7500     48.4120     20.6305     16.6847     23.8753     74.6986
  1730.0000     47.2968     22.6506     16.6635     23.9012     70.8162
  1730.2500     47.8907     22.0343     16.5822     22.9354     71.1956
  1730.5000     45.1942     25.1261     16.2974     22.2253     62.2899
  1730.7500     46.1636     26.5561     17.8408     22.2905     57.5076
  1731.0000     43.7304     24.1536     18.5275     22.5203     56.5964
  1731.2500     45.8839     21.9981     19.2830     23.5481     53.8843
  1731.5000     44.5816     23.8104     20.3236     27.3562     51.9026
  1731.7500     44.3544     22.8545     20.4995     34.1239     48.5122
  1732.0000     43.8740     21.7575     20.9106     41.1542     42.6559
  1732.2500     42.8675     21.0911     20.7866     39.9979     47.4605
  1732.5000     44.4548     21.4572     19.8407     34.7914     53.5046
  1732.7500     42.1852     21.0399     19.5183     29.6585     50.0384
  1733.0000     43.8810     19.7644     19.8521     23.9485     50.3884
  1733.2500     42.3860     15.6126     16.9216     21.7506     51.9061
  1733.5000     44.5623     15.9278     16.7569     19.9914     55.8565
  1733.7500     44.4912     15.0762     15.8147     20.7103     58.6491
  1734.0000     45.9926     14.4591     14.8401     24.8248     19.1894
  1734.2500     47.6427     13.7335     12.3256     27.2481      1.0820
  1734.5000     49.0312     13.7656     11.4610     24.3826      0.0000
  1734.7500     52.9022     12.8429     10.3343     15.8824   -999.2500
  1735.0000     53.1216     12.1203     10.3207     11.0230   -999.2500
  1735.2500     56.5363     12.1538      9.2849      8.5357   -999.2500
  1735.5000     55.3712     11.7379      9.1541      8.1008   -999.2500
  1735.7500     57.9243     11.1567      9.1404      7.8354   -999.2500
  1736.0000     58.7003     10.7359      9.0937      8.0215   -999.2500
  1736.2500     60.6508     10.2252      9.1789      9.1679   -999.2500
  1736.5000     61.9429      9.8940      9.1040     10.5792   -999.2500
  1736.7500     61.0389      9.6246      9.3689     12.5147   -999.2500
  1737.0000     64.3609      9.3339      9.8143     12.8927   -999.2500
  1737.2500     63.6231      9.8573      9.6142     12.7513   -999.2500
  1737.5000     66.0537      9.7019      9.9974     13.5075   -999.2500
  1737.7500     63.8246      9.9658      9.7882     14.5345   -999.2500
  1738.0000     64.7464     10.3896     10.1131     16.2028   -999.2500
  1738.2500     63.0333     10.9436     10.3207     17.2181   -999.2500
  1738.5000     63.0136     11.5226     10.4100     17.8223   -999.2500
  1738.7500     63.5243     10.7998     10.6405     16.6960   -999.2500
  1739.0000     62.2357     11.3941     11.1046     12.9980   -999.2500
  1739.2500     64.6705     11.6760     11.5489     11.9780   -999.2500
  1739.5000     62.7002     12.4718     11.6363     13.7688   -999.2500
  1739.7500     64.9481     12.4526     12.3540     17.7258   -999.2500
  1740.0000     63.2667     12.7055     12.4767     18.0522   -999.2500
  1740.2500     64.7510     12.4339     13.0696     16.0076   -999.2500
  1740.5000     64.3891     12.1831     12.8120     15.2670   -999.2500
  1740.7500     64.7209     12.9299     12.9321     15.5713   -999.2500
  1741.0000     65.8960     12.4803     13.3991     15.9337   -999.2500
  1741.2500     64.3845     12.4629     13.4952     16.8437   -999.2500
  1741.5000     65.4990     13.0012     13.7206     18.0115   -999.2500
  1741.7500     66.6417     12.1305     13.7121     17.9720   -999.2500
  1742.0000     68.2829     12.3867     13.2542     17.2025   -999.2500
  1742.2500     67.1438     12.6028     13.2782     16.8190   -999.2500
  1742.5000     68.3029     11.8183     13.9494     15.9277   -999.2500
  1742.7500     66.5667     12.1680     13.5307     15.5060   -999.2500
  1743.0000     66.2961     13.1498     13.2871     15.7064   -999.2500
  1743.2500     65.2555     13.3077     12.5888     15.6197   -999.2500
  1743.5000     63.9947     12.9506     12.7998     15.2962   -999.2500
  1743.7500     64.6845     12.7454     12.5111     14.8547   -999.2500
  1744.0000     62.1802     12.1256     12.4136     14.6840   -999.2500
  1744.2500     62.6912     12.0779     13.0981     14.7590   -999.2500
  1744.5000     59.8156     11.6983     12.7115     14.9718   -999.2500
  1744.7500     60.0577     12.3652     13.0851     16.1618   -999.2500
  1745.0000     58.8695     12.9683     13.3518     16.4259   -999.2500
  1745.2500     58.6602     12.5528     13.1129     16.2536   -999.2500
  1745.5000     57.0567     12.5608     13.6620     16.1591   -999.2500
  1745.7500     55.9318     12.2756     12.9602     16.5851   -999.2500
  1746.0000     55.6510     12.6838     12.7250     16.6596   -999.2500
  1746.2500     53.2223     12.6900     13.1869     16.0947   -999.2500
  1746.5000     54.5849     12.6185     13.1922     15.6571   -999.2500
  1746.7500     53.2176     12.0347     12.8300     16.1907   -999.2500
  1747.0000     53.0137     12.1702     13.3542     17.1188   -999.2500
  1747.2500     50.4095     11.5386     13.8670     17.1775   -999.2500
  1747.5000     51.2038     11.7708     14.5284     16.7519   -999.2500
  1747.7500     51.4336     11.6879     14.8947     16.8772   -999.2500
  1748.0000     48.6109     12.2588     14.8948     18.0076   -999.2500
  1748.2500     48.6955     12.7395     16.1248     18.8079   -999.2500
  1748.5000     45.0826     15.7305     15.9761     19.0351   -999.2500
  1748.7500     44.7434     17.2630     15.6616     19.4781   -999.2500
  1749.0000     43.0316     17.8788     15.9721     20.3305   -999.2500
  1749.2500     42.1635     17.9732     17.6233     24.1794   -999.2500
  1749.5000     41.3668     19.5962     19.1068     25.9218   -999.2500
  1749.7500     38.8705     20.2584     18.6303     27.9274   -999.2500
