~Version Information
VERS.                      2.0: CWLS Log ASCII Standard - VERSION 2.0
WRAP.                       NO: One line per depth step
~Well Information Block
STRT.FT                -6.7500: 
STOP.FT              1766.5000: 
STEP.FT                 0.2500: 
NULL.                -999.2500: 
COMP.          Pioneer Natural Resources: COMPANY
WELL.            Hill 33-22 Tr: WELL
FLD.           Purgatorie River: FIELD
LOC.           1573' FSL & 1585' FEL: LOCATION
PROV.                 Colorado: PROVINCE
CNTY.               Las Animas: COUNTRY
SRVC.          Patterson Wireline: SERVICE COMPANY
DATE.          Tue Apr 19 09:26:19 2005: LOG DATE
UWI.           05-071-08316-00: UNIQUE WELL ID
~Curve Information Block
DEPT.FT            0 000 00 00: Depth
CCL.                          : Casing Collar Locator
TT3.usec                      : CBL 3' Travel Time
AMP3.mV                       : CBL 3' Amplitude
GR.GAPI                       : Gamma Ray
~Parameter Information Block
~A  Depth       CCL         TT3         AMP3         GR     
# ...
   696.7500      0.0000    796.7458      8.9241     86.5314
   697.0000      0.0000    796.9105      9.0531     85.9245
   697.2500      0.0000    797.1215      9.2162     85.4471
   697.5000      0.0000    797.3344      9.3431     85.0126
   697.7500      0.0000    797.4859      9.3919     84.6548
   698.0000      0.0000    797.5364      9.3623     84.3637
   698.2500      0.0000    797.5038      9.2758     83.9314
   698.5000      0.0000    797.4308      9.1555     82.8321
   698.7500      0.0000    797.3805      9.0209     80.4879
   699.0000      0.0000    797.4970      8.8930     77.0434
   699.2500      0.0000    798.4909      8.7955     73.7218
   699.5000      0.0000    802.4771      8.7403     71.9798
   699.7500      0.0000    813.5899      8.7082     72.2727
   700.0000      0.0000    835.9435      8.6573     73.8786
   700.2500      0.0000    867.7233      8.5593     75.8613
   700.5000      0.0000    897.8820      8.4069     77.9403
   700.7500      0.0000    916.2378      8.1625     80.3429
   701.0000      0.0000    930.9539      7.7313     82.9820
   701.2500      0.0000    966.4396      7.0549     85.0164
   701.5000      0.0000   1033.9910      6.2416     85.3283
   701.7500      0.0000   1110.9808      5.5363     83.2902
   702.0000      0.0000   1160.0835      5.1197     79.0633
   702.2500      0.0000   1165.9987      4.9755     73.5189
   702.5000     -5.0000   1145.1626      4.9727     67.9707
   702.7500      5.0000   1123.0243      5.0085     63.6157
   703.0000      0.0000   1110.8433      5.0485     60.9174
   703.2500      0.0000   1103.1992      5.0968     59.4741
   703.5000      0.0000   1088.1482      5.1961     58.5130
   703.7500      0.0000   1056.0763      5.4463     57.6283
   704.0000      0.0000   1004.6957      5.9797     57.1655
   704.2500      0.0000    941.7524      6.8714     57.8172
   704.5000      0.0000    881.9217      8.0334     59.8164
   704.7500      0.0000    837.6201      9.2047     62.7448
   705.0000      0.0000    812.0430     10.0962     66.1706
   705.2500      0.0000    800.5433     10.5715     70.1826
   705.5000      0.0000    796.5623     10.6919     75.1906
   705.7500      0.0000    795.5636     10.6170     81.2907
   706.0000      0.0000    795.4584     10.4907     87.7387
   706.2500      0.0000    795.5593     10.3952     92.9161
   706.5000      0.0000    795.7049     10.3583     95.0506
   706.7500      0.0000    795.8570     10.3716     93.3198
   707.0000      0.0000    796.0169     10.4060     88.3806
   707.2500      0.0000    796.2077     10.4259     81.8789
   707.5000      0.0000    796.4553     10.4041     75.5579
   707.7500      0.0000    796.7547     10.3319     70.8228
   708.0000      0.0000    797.0575     10.2188     68.7973
   708.2500      0.0000    797.2964     10.0880     70.1004
   708.5000      0.0000    797.4285      9.9729     74.2179
   708.7500      0.0000    797.4620      9.9120     79.4650
   709.0000      0.0000    797.4442      9.9340     83.9768
   709.2500      0.0000    797.4248     10.0404     86.7260
   709.5000      0.0000    797.4283     10.2005     87.6626
   709.7500      0.0000    797.4506     10.3674     87.3000
   710.0000      0.0000    797.4700     10.5044     86.2752
   710.2500      0.0000    797.4618     10.6016     84.8679
   710.5000      0.0000    797.4177     10.6671     82.7547
   710.7500      0.0000    797.3571     10.7084     79.6278
   711.0000      0.0000    797.3161     10.7273     76.2233
   711.2500      0.0000    797.3240     10.7299     74.2257
   711.5000      0.0000    797.3914     10.7324     74.8571
   711.7500      0.0000    797.5176     10.7525     77.8100
   712.0000      0.0000    797.6976     10.7956     81.4818
   712.2500      0.0000    797.9057     10.8504     83.7794
   712.5000      0.0000    798.0764     10.8974     83.0515
   712.7500      0.0000    798.1288     10.9204     79.2300
   713.0000      0.0000    798.0294     10.9089     74.2556
   713.2500      0.0000    797.8179     10.8569     70.8007
   713.5000      0.0000    797.5726     10.7684     70.2357
   713.7500      0.0000    797.3788     10.6624     71.9024
   714.0000      0.0000    797.3868     10.5675     74.2613
   714.2500      0.0000    797.9771     10.5106     76.3449
   714.5000      0.0000    799.9719     10.5095     77.8642
   714.7500      0.0000    804.6106     10.5692     78.5096
   715.0000      0.0000    812.8352     10.6796     78.0398
   715.2500      0.0000    824.1855     10.8151     77.0036
   715.5000      0.0000    836.8351     10.9442     76.6172
   715.7500      0.0000    849.4917     11.0481     77.7638
   716.0000      0.0000    862.7502     11.1329     80.3057
   716.2500      0.0000    877.7331     11.2209     83.0799
   716.5000      0.0000    893.6577     11.3265     84.3589
   716.7500      0.0000    906.8074     11.4407     82.8219
   717.0000      0.0000    911.1301     11.5371     78.6400
   717.2500      0.0000    901.2591     11.5906     73.5478
   717.5000      0.0000    877.7578     11.5941     69.6338
   717.7500      0.0000    848.8337     11.5637     68.2369
   718.0000      0.0000    824.6451     11.5258     69.8859
   718.2500      0.0000    810.3826     11.4968     74.3470
   718.5000      0.0000    805.5995     11.4738     80.1729
   718.7500      0.0000    808.1332     11.4434     84.8893
   719.0000      0.0000    816.5316     11.3892     86.4370
   719.2500      0.0000    829.1489     11.2932     84.5390
   719.5000      0.0000    842.6548     11.1387     80.5588
   719.7500      0.0000    852.8479     10.9258     76.1895
   720.0000      0.0000    857.4286     10.6807     72.4742
   720.2500      0.0000    857.7535     10.4443     69.9618
   720.5000      0.0000    857.2818     10.2488     69.2436
   720.7500      0.0000    858.0446     10.1052     70.7968
   721.0000      0.0000    858.8448     10.0051     74.2519
   721.2500      0.0000    857.0352      9.9238     78.1080
   721.5000      0.0000    851.6338      9.8248     80.5129
   721.7500      0.0000    844.5241      9.6751     80.5820
   722.0000      0.0000    839.7468      9.4660     79.0015
   722.2500      0.0000    842.7487      9.2167     77.2037
   722.5000      0.0000    860.1286      8.9568     75.9655
   722.7500      0.0000    898.1222      8.7030     74.8835
   723.0000      0.0000    958.4630      8.4527     73.0714
   723.2500      0.0000   1033.9324      8.1991     70.1184
   723.5000      0.0000   1110.0125      7.9537     66.4258
   723.7500      0.0000   1172.8584      7.7497     62.8947
   724.0000      0.0000   1213.9895      7.6136     60.3680
   724.2500      0.0000   1228.2994      7.5367     59.2482
   724.5000      0.0000   1214.9713      7.4809     59.5534
   724.7500      0.0000   1182.7435      7.4116     61.3101
   725.0000      0.0000   1147.4332      7.3212     64.7306
   725.2500      0.0000   1119.9517      7.2287     69.7968
   725.5000      0.0000   1097.9457      7.1642     75.6644
   725.7500      0.0000   1070.6666      7.1462     80.8361
   726.0000      0.0000   1032.2499      7.1653     84.2853
   726.2500      0.0000    988.3218      7.1947     86.1786
   726.5000      0.0000    949.3560      7.2195     87.0927
   726.7500      0.0000    921.8822      7.2459     86.8891
   727.0000      0.0000    907.6637      7.2734     85.0421
   727.2500      0.0000    906.0366      7.2710     81.8987
   727.5000      0.0000    913.7231      7.1961     78.9321
   727.7500      0.0000    924.9225      7.0415     77.6716
   728.0000      0.0000    934.5142      6.8597     78.6932
   728.2500      0.0000    940.8504      6.7413     81.4112
   728.5000      0.0000    945.3594      6.7629     84.3181
   728.7500      0.0000    950.2637      6.9427     85.6868
   729.0000      0.0000    956.2285      7.2361     84.6808
   729.2500      0.0000    961.1247      7.5714     81.8228
   729.5000      0.0000    960.9402      7.8910     78.2341
   729.7500      0.0000    953.0002      8.1652     74.7022
   730.0000      0.0000    938.9176      8.3815     71.5993
