~Version Information
VERS.                      2.0: CWLS Log ASCII Standard - VERSION 2.0
WRAP.                       NO: One line per depth step
~Well Information Block
STRT.FT               -12.5000: 
STOP.FT              2742.5000: 
STEP.FT                 0.2500: 
NULL.                -999.2500: 
COMP.          Pioneer Natural Resources: COMPANY
WELL.            Rangely 22-28: WELL
FLD.           Purgatorie River: FIELD
LOC.           720' FSL & 1036' FEL--: LOCATION
PROV.                       CO: PROVINCE
CNTY.               Las Animas: COUNTRY
SRVC.                         : SERVICE COMPANY
DATE.          Wed Nov 10 08:59:10 2004: LOG DATE
UWI.                          : UNIQUE WELL ID
~Curve Information Block
DEPT.FT            0 000 00 00: Depth
GR.GAPI                       : Gamma Ray
CCL.                          : Casing Collar Locator
TT3.usec                      : CBL 3' Travel Time
AMP3.mV                       : CBL 3' Amplitude
~Parameter Information Block
~A  Depth        GR         CCL         TT3         AMP3    
# ...
  1796.5000    138.0082      0.0000    754.9221     20.3691
  1796.7500    143.6172      0.0000    752.2349     20.4418
  1797.0000    146.5516      0.0000    747.2844     20.5757
  1797.2500    147.0214      0.0000    740.1912     20.7395
  1797.5000    146.7574      0.0000    732.1911     20.9064
  1797.7500    147.5995      0.0000    725.0377     21.0703
  1798.0000    149.8133      0.0000    719.8665     21.2383
  1798.2500    152.0164      0.0000    716.6984     21.4190
  1798.5000    153.0061      0.0000    714.9679     21.6143
  1798.7500    153.2957      0.0000    714.2899     21.8104
  1799.0000    154.2217      0.0000    714.7684     21.9754
  1799.2500    156.0124      0.0000    716.8237     22.0721
  1799.5000    157.7267      0.0000    720.7695     22.0765
  1799.7500    158.5869      0.0000    726.4052     21.9920
  1800.0000    158.3455      0.0000    732.9576     21.8546
  1800.2500    156.9410      0.0000    739.3724     21.7178
  1800.5000    154.9601      0.0000    744.4914     21.6148
  1800.7500    153.9862      0.0000    747.1414     21.5327
  1801.0000    155.3990      0.0000    746.7557     21.4373
  1801.2500    158.8212      0.0000    744.4229     21.3005
  1801.5000    162.3819      0.0000    743.0443     21.0640
  1801.7500    164.4925      0.0000    745.5205     20.5651
  1802.0000    164.9648      0.0000    751.7622     19.5869
  1802.2500    164.5393      0.0000    756.1246     18.1432
  1802.5000    163.8085      0.0000    748.0475     16.7580
  1802.7500    162.7413      0.0000    718.6242     16.2348
  1803.0000    160.9168      0.0000    670.3726     16.9153
  1803.2500    157.8839      0.0000    619.6212     18.2555
  1803.5000    153.4608      0.0000    585.2637     19.3217
  1803.7500    148.3098      0.0000    574.3033     19.6215
  1804.0000    144.2960      0.0000    579.9418     19.3239
  1804.2500    143.3998      0.0000    593.0125     18.8174
  1804.5000    145.6995      0.0000    611.4997     18.3015
  1804.7500    148.7775      0.0000    636.9148     17.8259
  1805.0000    149.4508      0.0000    665.7779     17.4765
  1805.2500    146.0078      0.0000    689.8431     17.3457
  1805.5000    139.1884      0.0000    703.0764     17.4189
  1805.7500    131.6517      0.0000    704.3410     17.6147
  1806.0000    126.2487      2.0000    694.1202     17.9097
  1806.2500    123.8932      1.7358    671.5833     18.4011
  1806.5000    122.7055      0.0000    635.9603     19.2780
  1806.7500    119.6029      0.0000    590.3468     20.6803
  1807.0000    113.1455      0.0000    543.0769     22.4888
  1807.2500    104.7291      0.0000    502.8583     24.3048
  1807.5000     96.9732      0.0000    470.8071     25.7617
  1807.7500     91.5214      0.0000    439.6415     26.8108
  1808.0000     88.7035      0.0000    403.4037     27.6288
  1808.2500     88.5788      0.0000    365.5933     28.3615
  1808.5000     91.4714      0.0000    334.9790     29.0545
  1808.7500     97.3913      0.0000    316.2595     29.7344
  1809.0000    105.2304      0.0000    307.5268     30.4377
  1809.2500    112.7913      0.0000    304.3069     31.1576
  1809.5000    117.9632      0.0000    303.2953     31.8055
  1809.7500    120.2041      0.0000    302.9914     32.2568
  1810.0000    120.9611      0.0000    302.9329     32.4429
  1810.2500    122.3756      0.0000    303.0039     32.4081
  1810.5000    125.2012      0.0000    303.1375     32.2752
  1810.7500    127.9580      0.0000    303.2803     32.1630
  1811.0000    128.3895      0.0000    303.3894     32.1285
  1811.2500    125.7479      0.0000    303.4497     32.1647
  1811.5000    121.5355      0.0000    303.4702     32.2310
  1811.7500    118.2416      0.0000    303.4677     32.2766
  1812.0000    117.5295      0.0000    303.4579     32.2456
  1812.2500    119.3534      0.0000    303.4557     32.0866
  1812.5000    122.4650      0.0000    303.4652     31.7882
  1812.7500    125.5089      0.0000    303.4714     31.4010
  1813.0000    127.4447      0.0000    303.4612     31.0053
  1813.2500    127.3819      0.0000    303.4522     30.6576
  1813.5000    125.0107      0.0000    303.4823     30.3888
  1813.7500    121.4548      0.0000    303.5678     30.2412
  1814.0000    119.0217      0.0000    303.6824     30.2714
  1814.2500    119.4225      0.0000    303.7816     30.5025
  1814.5000    122.1111      0.0000    303.8357     30.8964
  1814.7500    124.6399      0.0000    303.8374     31.3864
  1815.0000    124.7873      0.0000    303.7881     31.9310
  1815.2500    122.1694      0.0000    303.6866     32.5337
  1815.5000    117.9385      0.0000    303.5271     33.2336
  1815.7500    113.6715      0.0000    303.3111     34.0817
  1816.0000    110.7755      0.0000    303.0682     35.0911
  1816.2500    110.3035      0.0000    302.8588     36.1900
  1816.5000    112.7072      0.0000    302.7392     37.2342
  1816.7500    117.6855      0.0000    302.7131     38.0829
  1817.0000    124.1885      0.0000    302.7202     38.6676
  1817.2500    130.5207      0.0000    302.6463     39.0074
  1817.5000    134.8747      0.0000    302.2787     39.1838
  1817.7500    136.3171      0.0000    301.1706     39.3005
  1818.0000    135.2674      0.0000    298.5811     39.4503
  1818.2500    132.6785      0.0000    293.8034     39.6959
  1818.5000    128.8766      0.0000    286.8839     40.0626
  1818.7500    123.6644      0.0000    279.0449     40.5317
  1819.0000    117.3213      0.0000    272.1021     41.0408
  1819.2500    110.7434      0.0000    267.2875     41.5039
  1819.5000    104.6062      0.0000    264.6639     41.8483
  1819.7500     99.2013      0.0000    263.5410     42.0447
  1820.0000     95.1400      0.0000    263.2221     42.1047
  1820.2500     93.3284      0.0000    263.4412     42.0424
  1820.5000     93.8951      0.0000    264.4661     41.8353
  1820.7500     95.7569      0.0000    266.9856     41.4236
  1821.0000     97.5142      0.0000    271.6685     40.7494
  1821.2500     98.4253      0.0000    278.4320     39.7943
  1821.5000     98.5956      0.0000    286.0897     38.5817
  1821.7500     98.7466      0.0000    293.0354     37.1480
  1822.0000     99.7251      0.0000    298.8312     35.5273
  1822.2500    101.7347      0.0000    305.8712     33.7756
  1822.5000    104.0997      0.0000    320.6925     32.0004
  1822.7500    106.0027      0.0000    353.6828     30.3417
  1823.0000    107.0692      0.0000    414.2927     28.9086
  1823.2500    107.0845      0.0000    501.8944     27.7342
  1823.5000    105.8545      0.0000    600.6802     26.7876
  1823.7500    103.8249      0.0000    687.2234     26.0152
  1824.0000    102.2936      0.0000    745.3641     25.3763
  1824.2500    102.5552      0.0000    773.0407     24.8716
  1824.5000    104.9059      0.0000    776.3151     24.5463
  1824.7500    108.4542      0.0000    760.0305     24.4504
  1825.0000    111.7475      0.0000    723.9396     24.5956
  1825.2500    113.8046      0.0000    665.2266     24.9681
  1825.5000    114.9135      0.0000    585.1623     25.5710
  1825.7500    116.3451      0.0000    495.0275     26.4060
  1826.0000    119.0955      0.0000    413.5424     27.4054
  1826.2500    123.0198      0.0000    355.4705     28.4219
  1826.5000    127.3368      0.0000    323.1536     29.3134
  1826.7500    131.7874      0.0000    309.1498     30.0301
  1827.0000    136.9639     -2.0000    304.3951     30.6243
  1827.2500    143.2424      2.0000    303.0747     31.1958
  1827.5000    149.5932      0.0000    302.7010     31.8383
  1827.7500    154.1108      0.0000    302.5065     32.6097
  1828.0000    155.7773      0.0000    302.3290     33.5132
  1828.2500    155.1393      0.0000    302.1355     34.4909
  1828.5000    153.3774      0.0000    301.9497     35.4520
  1828.7500    151.3450      0.0000    301.8045     36.3176
  1829.0000    149.3639      0.0000    301.7203     37.0400
  1829.2500    147.4149      0.0000    301.6941     37.5958
  1829.5000    145.5790      0.0000    301.7065     37.9817
  1829.7500    144.4214      0.0000    301.7381     38.2187
