~Version Information
VERS.                      2.0: CWLS Log ASCII Standard - VERSION 2.0
WRAP.                       NO: One line per depth step
~Well Information Block
STRT.FT               221.2000: 
STOP.FT              2260.4000: 
STEP.FT                 0.1000: 
NULL.                -999.2500: 
COMP.          Petrogulf Corporation: COMPANY
WELL.          Anderson 18-43V: WELL
FLD.           Purgatorie River: FIELD
LOC.           1782' FSL & 887' FEL--: LOCATION
CNTY.               Las Animas: COUNTY
SRVC.                         : SERVICE COMPANY
DATE.          Mon Sep 13 14:11:09 2004: LOG DATE
UWI.                          : UNIQUE WELL ID
STAT.                       CO: STATE
~Curve Information Block
DEPT.FT            0 000 00 00: Depth
TT3.usec                      : CBL 3' Travel Time
AMP3.mV                       : CBL 3' Amplitude
GR.GAPI                       : Gamma Ray
CCL.                          : Casing Collar Locator
~Parameter Information Block
~A  Depth       TT3         AMP3         GR         CCL     
# ...
  1976.6000    721.8015      2.1699     81.4379      0.0000
  1976.7000    721.8015      2.1699     81.4379      0.0000
  1976.8000    738.9988      2.0739     81.5157      0.0000
  1976.9000    738.9988      2.0739     81.5157      0.0000
  1977.0000    749.2047      2.0034     82.7411      0.0000
  1977.1000    749.2047      2.0034     82.7411      0.0000
  1977.2000    749.2047      2.0034     82.7411      0.0000
  1977.3000    748.3868      1.9540     84.6639      0.0000
  1977.4000    748.3868      1.9540     84.6639      0.0000
  1977.5000    738.5931      1.9141     85.7575      0.0000
  1977.6000    738.5931      1.9141     85.7575      0.0000
  1977.7000    738.5931      1.9141     85.7575     -2.0000
  1977.8000    726.7198      1.8888     84.0462     -2.0000
  1977.9000    726.7198      1.8888     84.0462      2.0000
  1978.0000    717.6970      1.8891     78.4188      0.0000
  1978.1000    717.6970      1.8891     78.4188     -2.0000
  1978.2000    717.6970      1.8891     78.4188      0.0000
  1978.3000    710.5910      1.9062     69.3148      0.0000
  1978.4000    710.5910      1.9062     69.3148      0.0000
  1978.5000    701.7115      1.9120     58.4293      0.0000
  1978.6000    701.7115      1.9120     58.4293      0.0000
  1978.7000    701.7115      1.9120     58.4293      0.0000
  1978.8000    689.6390      1.8874     48.0461      0.0000
  1978.9000    689.6390      1.8874     48.0461      0.0000
  1979.0000    676.4504      1.8402     40.0979      0.0000
  1979.1000    676.4504      1.8402     40.0979      0.0000
  1979.2000    676.4504      1.8402     40.0979      0.0000
  1979.3000    665.5773      1.7942     35.2484      0.0000
  1979.4000    665.5773      1.7942     35.2484      0.0000
  1979.5000    659.4230      1.7684     32.8498      0.0000
  1979.6000    659.4230      1.7684     32.8498      0.0000
  1979.7000    659.4230      1.7684     32.8498      0.0000
  1979.8000    657.7894      1.7723     31.6777      0.0000
  1979.9000    657.7894      1.7723     31.6777      0.0000
  1980.0000    657.5980      1.8107     30.5639      0.0000
  1980.1000    657.5980      1.8107     30.5639      0.0000
  1980.2000    657.5980      1.8107     30.5639      0.0000
  1980.3000    655.0789      1.8820     28.9126      0.0000
  1980.4000    655.0789      1.8820     28.9126      0.0000
  1980.5000    649.2492      1.9689     27.2698      0.0000
  1980.6000    649.2492      1.9689     27.2698      0.0000
  1980.7000    649.2492      1.9689     27.2698      0.0000
  1980.8000    642.9070      2.0397     27.1393      0.0000
  1980.9000    642.9070      2.0397     27.1393      0.0000
  1981.0000    639.8792      2.0659     29.6900      0.0000
  1981.1000    639.8792      2.0659     29.6900      0.0000
  1981.2000    639.8792      2.0659     29.6900      0.0000
  1981.3000    641.6945      2.0430     34.7051      0.0000
  1981.4000    641.6945      2.0430     34.7051      0.0000
  1981.5000    646.8345      1.9936     40.9636      0.0000
  1981.6000    646.8345      1.9936     40.9636      0.0000
  1981.7000    646.8345      1.9936     40.9636      0.0000
  1981.8000    652.5285      1.9524     47.3144      0.0000
  1981.9000    652.5285      1.9524     47.3144      0.0000
  1982.0000    657.1104      1.9436     53.1144      0.0000
  1982.1000    657.1104      1.9436     53.1144      0.0000
  1982.2000    657.1104      1.9436     53.1144      0.0000
  1982.3000    660.7198      1.9693     57.9939      0.0000
  1982.4000    660.7198      1.9693     57.9939      0.0000
  1982.5000    663.7266      2.0124     61.8326      0.0000
  1982.6000    663.7266      2.0124     61.8326      0.0000
  1982.7000    663.7266      2.0124     61.8326      0.0000
  1982.8000    665.2209      2.0483     65.0405      0.0000
  1982.9000    665.2209      2.0483     65.0405      0.0000
  1983.0000    663.9085      2.0557     68.4500      0.0000
  1983.1000    663.9085      2.0557     68.4500      0.0000
  1983.2000    663.9085      2.0557     68.4500      0.0000
  1983.3000    660.0106      2.0227     72.7084      0.0000
  1983.4000    660.0106      2.0227     72.7084      0.0000
  1983.5000    655.3511      1.9503     77.9277      0.0000
  1983.6000    655.3511      1.9503     77.9277      0.0000
  1983.7000    655.3511      1.9503     77.9277      0.0000
  1983.8000    651.7113      1.8535     83.7775      0.0000
  1983.9000    651.7113      1.8535     83.7775      0.0000
  1984.0000    649.6674      1.7589     89.4268      0.0000
  1984.1000    649.6674      1.7589     89.4268      0.0000
  1984.2000    649.6674      1.7589     89.4268      0.0000
  1984.3000    648.8162      1.6952     93.5781      0.0000
  1984.4000    648.8162      1.6952     93.5781      0.0000
  1984.5000    648.5132      1.6819     95.2726      0.0000
  1984.6000    648.5132      1.6819     95.2726      0.0000
  1984.7000    648.5132      1.6819     95.2726      0.0000
  1984.8000    648.2711      1.7216     94.7997      0.0000
  1984.9000    648.2711      1.7216     94.7997      0.0000
  1985.0000    647.8186      1.8003     93.4999      0.0000
  1985.1000    647.8186      1.8003     93.4999      0.0000
  1985.2000    647.8186      1.8003     93.4999      0.0000
  1985.3000    647.0636      1.8937     92.7619      0.0000
  1985.4000    647.0636      1.8937     92.7619      0.0000
  1985.5000    646.0532      1.9794     93.2737      0.0000
  1985.6000    646.0532      1.9794     93.2737      0.0000
  1985.7000    646.0532      1.9794     93.2737      0.0000
  1985.8000    644.9025      2.0421     94.8189      0.0000
  1985.9000    644.9025      2.0421     94.8189      0.0000
  1986.0000    643.6946      2.0697     96.4364      0.0000
  1986.1000    643.6946      2.0697     96.4364      0.0000
  1986.2000    643.6946      2.0697     96.4364      0.0000
  1986.3000    642.2955      2.0513     97.1125      0.0000
  1986.4000    642.2955      2.0513     97.1125      0.0000
  1986.5000    640.1462      1.9876     96.7130      0.0000
  1986.6000    640.1462      1.9876     96.7130      0.0000
  1986.7000    640.1462      1.9876     96.7130      0.0000
  1986.8000    636.4116      1.8986     96.3015      0.0000
  1986.9000    636.4116      1.8986     96.3015      0.0000
  1987.0000    630.7372      1.8148     97.4946      0.0000
  1987.1000    630.7372      1.8148     97.4946      0.0000
  1987.2000    630.7372      1.8148     97.4946      0.0000
  1987.3000    624.0140      1.7603    101.1938      0.0000
  1987.4000    624.0140      1.7603    101.1938      0.0000
  1987.5000    618.1628      1.7478    106.3886      0.0000
  1987.6000    618.1628      1.7478    106.3886      0.0000
  1987.7000    618.1628      1.7478    106.3886      0.0000
  1987.8000    614.9007      1.7849    110.1231      0.0000
  1987.9000    614.9007      1.7849    110.1231      0.0000
  1988.0000    614.4664      1.8742    109.2937      0.0000
  1988.1000    614.4664      1.8742    109.2937      0.0000
  1988.2000    614.4664      1.8742    109.2937      0.0000
  1988.3000    615.2291      2.0019    103.0567      0.0000
  1988.4000    615.2291      2.0019    103.0567      0.0000
  1988.5000    614.6089      2.1341     93.5671      0.0000
  1988.6000    614.6089      2.1341     93.5671      0.0000
  1988.7000    614.6089      2.1341     93.5671      0.0000
  1988.8000    610.8322      2.2362     84.5499      0.0000
  1988.9000    610.8322      2.2362     84.5499      0.0000
  1989.0000    604.1530      2.3033     79.2082      0.0000
  1989.1000    604.1530      2.3033     79.2082      0.0000
  1989.2000    604.1530      2.3033     79.2082      0.0000
  1989.3000    596.6829      2.3779     78.6996      0.0000
  1989.4000    596.6829      2.3779     78.6996      0.0000
  1989.5000    591.2860      2.5359     81.5543      0.0000
  1989.6000    591.2860      2.5359     81.5543      0.0000
  1989.7000    591.2860      2.5359     81.5543      0.0000
  1989.8000    589.6025      2.8420     84.6613      0.0000
  1989.9000    589.6025      2.8420     84.6613      0.0000
