~Version Information
VERS.                      2.0: CWLS Log ASCII Standard - VERSION 2.0
WRAP.                       NO: One line per depth step
~Well Information Block
STRT.FT                -3.5000: 
STOP.FT              1745.0000: 
STEP.FT                 0.2500: 
NULL.                -999.2500: 
COMP.          Pioneer Natural Resources: COMPANY
WELL.           Labrador 34-30: WELL
FLD.           Purgatorie River: FIELD
LOC.           926' FSL & 2080' FEL--: LOCATION
PROV.                       CO: PROVINCE
CNTY.               Las Animas: COUNTRY
SRVC.                         : SERVICE COMPANY
DATE.          Fri Dec 10 09:58:23 2004: LOG DATE
UWI.                071-08202 : UNIQUE WELL ID
~Curve Information Block
DEPT.FT            0 000 00 00: Depth
GR.GAPI                       : Gamma Ray
CCL.                          : Casing Collar Locator
TT3.usec                      : CBL 3' Travel Time
AMP3.mV                       : CBL 3' Amplitude
~Parameter Information Block
~A  Depth        GR         CCL         TT3         AMP3    
# ...
  1705.0000     91.9851      0.0000    818.5359      5.8922
  1705.2500     84.4222      0.0000    831.5718      5.8940
  1705.5000     75.9799      0.0000    838.5192      5.9334
  1705.7500     69.9011      0.0000    835.6476      5.9627
  1706.0000     68.0372      0.0000    824.5670      5.9829
  1706.2500     69.6311      0.0000    810.7979      6.0611
  1706.5000     72.1288      0.0000    799.2487      6.2492
  1706.7500     73.0550      0.0000    791.3627      6.5198
  1707.0000     71.5030      0.0000    786.1453      6.8052
  1707.2500     68.4090      0.0000    782.7584      7.0684
  1707.5000     65.6211      0.0000    781.4362      7.3136
  1707.7500     64.6099      0.0000    782.3389      7.5516
  1708.0000     65.8875      0.0000    784.4233      7.7794
  1708.2500     69.3314      0.0000    785.7791      7.9857
  1708.5000     74.5994      0.0000    784.6861      8.1603
  1708.7500     81.0994      0.0000    780.3056      8.2940
  1709.0000     87.7598      0.0000    773.0313      8.3774
  1709.2500     93.0704      0.0000    764.6475      8.4032
  1709.5000     95.6427      0.0000    757.7780      8.3693
  1709.7500     95.0145      0.0000    754.5901      8.2800
  1710.0000     92.0165      0.0000    755.5659      8.1497
  1710.2500     88.4345      0.0000    759.0552      8.0076
  1710.5000     86.2478      0.0000    761.9913      7.8904
  1710.7500     86.6766      0.0000    761.8055      7.8158
  1711.0000     89.3985      0.0000    758.3009      7.7655
  1711.2500     92.7201      0.0000    753.6107      7.7037
  1711.5000     94.8021      0.0000    750.3160      7.6179
  1711.7500     94.8341      0.0000    749.7632      7.5340
  1712.0000     93.2724      0.0000    751.7643      7.4857
  1712.2500     91.3547      0.0000    755.2189      7.4772
  1712.5000     90.5204      0.0000    759.1030      7.4795
  1712.7500     91.9747      0.0000    763.3153      7.4645
  1713.0000     96.1595      0.0000    768.4384      7.4363
  1713.2500    102.1573      0.0000    774.3992      7.4270
  1713.5000    107.8594      0.0000    779.7229      7.4614
  1713.7500    111.2064      0.0000    782.2850      7.5314
  1714.0000    111.3835      0.0000    780.6844      7.6013
  1714.2500    108.8867      0.0000    775.4034      7.6386
  1714.5000    104.7256      0.0000    769.2759      7.6381
  1714.7500     99.7514      0.0000    766.0744      7.6170
  1715.0000     94.8004      0.0000    767.4653      7.5919
  1715.2500     91.1830      0.0000    771.6552      7.5692
  1715.5000     90.1914      0.0000    775.6611      7.5568
  1715.7500     91.8085      0.0000    778.0181      7.5627
  1716.0000     94.5736      0.0000    778.6418      7.5772
  1716.2500     96.9833      0.0000    777.5076      7.5696
  1716.5000     98.4265      0.0000    774.9362      7.5134
  1716.7500     98.7697      0.0000    772.3358      7.4111
  1717.0000     98.0034      0.0000    770.9368      7.2913
  1717.2500     96.5736      0.0000    769.5925      7.1896
  1717.5000     95.3417      0.0000    765.2766      7.1333
  1717.7500     94.8785      0.0000    756.8339      7.1303
  1718.0000     95.1156      0.0000    747.6746      7.1603
  1718.2500     95.8003      0.0000    743.1702      7.1794
  1718.5000     96.9697      0.0000    745.0968      7.1472
  1718.7500     98.6776      0.0000    750.2005      7.0581
  1719.0000    100.4486      0.0000    754.8478      6.9463
  1719.2500    101.4150      0.0000    759.0778      6.8624
  1719.5000    101.0320      0.0000    764.5899      6.8416
  1719.7500     99.4253      0.0000    770.2585      6.8883
  1720.0000     97.0325      0.0000    772.0306      6.9807
  1720.2500     94.1051      0.0000    767.3367      7.0837
  1720.5000     90.7533      0.0000    757.8956      7.1593
  1720.7500     87.5801      0.0000    747.8445      7.1831
  1721.0000     85.9886      0.0000    740.5281      7.1639
  1721.2500     87.3042      0.0000    737.2610      7.1420
  1721.5000     91.3877      0.0000    737.6179      7.1545
  1721.7500     96.4237      0.0000    740.0376      7.2045
  1722.0000    100.2954      0.0000    742.7390      7.2682
  1722.2500    102.1550      0.0000    744.6628      7.3223
  1722.5000    102.6785      0.0000    745.6957      7.3579
  1722.7500    102.9364      0.0000    746.1987      7.3698
  1723.0000    103.1927      0.0000    746.4951      7.3482
  1723.2500    102.7462      0.0000    746.6987      7.2909
  1723.5000    100.6901      0.0000    746.8171      7.2193
  1723.7500     96.8580      0.0000    746.8433      7.1694
  1724.0000     92.3995      0.0000    746.7393      7.1586
  1724.2500     89.4161      0.0000    746.4338      7.1682
  1724.5000     89.5125      0.0000    745.9284      7.1613
  1724.7500     92.4957      0.0000    745.3545      7.1129
  1725.0000     96.7320      0.0000    744.8733      7.0231
  1725.2500    100.8060      0.0000    744.5468      6.9089
  1725.5000    104.3884      0.0000    744.3781      6.7957
  1725.7500    107.3444      0.0000    744.4846      6.7112
  1726.0000    108.5705      0.0000    745.2478      6.6752
  1726.2500    106.4127      0.0000    747.2643      6.6842
  1726.5000    100.3668      0.0000    751.0139      6.7063
  1726.7500     92.1367      0.0000    756.4250      6.7026
  1727.0000     84.8730      0.0000    762.7678      6.6582
  1727.2500     81.2069      0.0000    768.9655      6.5931
  1727.5000     81.5993      0.0000    773.8214      6.5431
  1727.7500     84.2394      0.0000    776.0257      6.5318
  1728.0000     86.5057      0.0000    774.5265      6.5572
  1728.2500     86.6822      0.0000    769.3792      6.5989
  1728.5000     84.6371      0.0000    762.1483      6.6319
  1728.7500     81.5800      0.0000    755.1390      6.6403
  1729.0000     79.5695      0.0000    750.0609      6.6239
  1729.2500     80.6772      0.0000    747.3445      6.5986
  1729.5000     85.5363      0.0000    746.4587      6.5868
  1729.7500     92.3365      0.0000    746.5677      6.6039
  1730.0000     97.7167      0.0000    746.9553      6.6480
  1730.2500     99.1337      0.0000    747.1655      6.7037
  1730.5000     96.4286      0.0000    747.0103      6.7523
  1730.7500     91.2935      0.0000    746.5029      6.7808
  1731.0000     85.7963      0.0000    745.7181      6.7845
  1731.2500     81.5638      0.0000    744.5944      6.7662
  1731.5000     79.7154      0.0000    742.2237      6.7294
  1731.7500     80.9013      0.0000    735.1482      6.6491
  1732.0000     85.0073      0.0000    714.7288      6.4257
  1732.2500     90.8173      0.0000    666.4544      5.8725
  1732.5000     96.5040      0.0000    576.5466      4.8098
  1732.7500    100.9621      0.0000    445.7777      3.2447
  1733.0000    104.3897      0.0000    297.5589      1.4662
  1733.2500    107.3043      0.0000    166.7158     -0.1015
  1733.5000    109.4017      0.0000     76.7678     -1.1764
  1733.7500    109.8872      0.0000     28.6148     -1.7502
  1734.0000    108.7519      0.0000      8.5399     -1.9889
  1734.2500    107.2537      0.0000      2.0223     -2.0662
  1734.5000    107.0330      0.0000      0.3743     -2.0857
  1734.7500    108.9112      0.0000   -999.2500   -999.2500
  1735.0000    112.5089      0.0000   -999.2500   -999.2500
  1735.2500    116.7482      0.0000   -999.2500   -999.2500
  1735.5000    120.4004      0.0000   -999.2500   -999.2500
  1735.7500    122.1138      0.0000   -999.2500   -999.2500
  1736.0000    120.4359      0.0000   -999.2500   -999.2500
  1736.2500    114.6352      0.0000   -999.2500   -999.2500
  1736.5000    105.8068      0.0000   -999.2500   -999.2500
  1736.7500     96.7057      0.0000   -999.2500   -999.2500
  1737.0000     90.0142      0.0000   -999.2500   -999.2500
  1737.2500     86.8693      0.0000   -999.2500   -999.2500
  1737.5000     86.9815      0.0000   -999.2500   -999.2500
  1737.7500     89.5112      0.0000   -999.2500   -999.2500
  1738.0000     93.4887      0.0000   -999.2500   -999.2500
  1738.2500     97.8063      0.0000   -999.2500   -999.2500
