~Version Information
VERS.                      2.0: CWLS Log ASCII Standard - VERSION 2.0
WRAP.                       NO: One line per depth step
~Well Information Block
STRT.FT               507.5000: 
STOP.FT              2145.0000: 
STEP.FT                 0.2500: 
NULL.                -999.2500: 
COMP.          Petrogulf Corporation: COMPANY
WELL.            Montoya 1-44R: WELL
FLD.           Purgatorie River: FIELD
LOC.           658' FSL & 1052' FWL: LOCATION
CNTY.               Las Animas: COUNTY
SRVC.                         : SERVICE COMPANY
DATE.          Tue Nov 16 02:59:24 2004: LOG DATE
UWI.           05 071 08239 00: UNIQUE WELL ID
STAT.                 Colorado: STATE
~Curve Information Block
DEPT.FT            0 000 00 00: Depth
SP.mV                         : DIL Spontaneous Potential
RILD.Ohm-m                    : DIL Deep Resistivity
RILM.Ohm-m                    : DIL Medium Resistivity
RLL3.Ohm-m                    : DIL Shallow Resistivity
GR.GAPI                       : Gamma Ray
~Parameter Information Block
~A  Depth        SP         RILD        RILM        RLL3         GR     
# ...
  2103.5000     -8.0238     24.5643     32.2277     32.5906     46.1866
  2103.7500     -8.4527     24.9464     32.3809     32.9909     47.1908
  2104.0000     -8.7026     25.3263     32.4336     33.5922     49.4721
  2104.2500     -8.7126     25.6875     32.4064     34.3731     51.1315
  2104.5000     -8.4373     26.0175     32.3322     35.2812     52.6502
  2104.7500     -7.8510     26.3092     32.2489     36.2461     52.4287
  2105.0000     -6.9452     26.5617     32.1944     37.1892     50.1143
  2105.2500     -5.7264     26.7770     32.2000     38.0320     47.7778
  2105.5000     -4.2179     26.9569     32.2871     38.7030     44.6239
  2105.7500     -2.4676     27.0994     32.4656     39.1511     43.6589
  2106.0000     -0.5527     27.1962     32.7318     39.3618     44.8671
  2106.2500      1.4052     27.2333     33.0673     39.3732     47.4903
  2106.5000      3.2436     27.1933     33.4364     39.2828     53.4640
  2106.7500      4.7606     27.0602     33.7851     39.2396     58.1530
  2107.0000      5.7464     26.8229     34.0422     39.4164     64.9803
  2107.2500      6.0237     26.4798     34.1273     39.9631     68.6058
  2107.5000      5.5063     26.0395     33.9645     40.9465     71.3558
  2107.7500      4.2297     25.5180     33.5007     42.2972     70.9076
  2108.0000      2.3633     24.9358     32.7239     43.7853     66.9541
  2108.2500      0.1790     24.3156     31.6683     45.0488     62.9473
  2108.5000     -2.0099     23.6776     30.4045     45.6781     57.4155
  2108.7500     -3.9217     23.0396     29.0227     45.3359     55.8549
  2109.0000     -5.3651     22.4168     27.6103     43.8696     59.2674
  2109.2500     -6.2672     21.8223     26.2389     41.3659     65.9129
  2109.5000     -6.6750     21.2668     24.9579     38.1233     81.0697
  2109.7500     -6.7197     20.7593     23.7963     34.5557     92.7221
  2110.0000     -6.5765     20.3060     22.7680     31.0696    108.8300
  2110.2500     -6.4204     19.9106     21.8770     27.9693    117.2160
  2110.5000     -6.3847     19.5733     21.1215     25.4183    125.7394
  2110.7500     -6.5321     19.2920     20.4973     23.4562    129.1166
  2111.0000     -6.8516     19.0620     19.9988     22.0465    131.5116
  2111.2500     -7.2602     18.8770     19.6195     21.1219    131.7124
  2111.5000     -7.6276     18.7299     19.3522     20.6116    130.6392
  2111.7500     -7.8114     18.6134     19.1883     20.4491    129.2847
  2112.0000     -7.6924     18.5205     19.1184     20.5684    126.1230
  2112.2500     -7.2019     18.4458     19.1315     20.9036    123.0724
  2112.5000     -6.3386     18.3866     19.2161     21.3911    117.6166
  2112.7500     -5.1778     18.3438     19.3596     21.9780    114.2665
  2113.0000     -3.8652     18.3222     19.5500     22.6264    111.0417
  2113.2500     -2.5997     18.3316     19.7758     23.3136    110.2020
  2113.5000     -1.6058     18.3852     20.0276     24.0304    109.9015
  2113.7500     -1.0938     18.4983     20.2987     24.7766    109.6187
  2114.0000     -1.2090     18.6859     20.5865     25.5575    108.5184
  2114.2500     -1.9886     18.9593     20.8926     26.3827    107.4106
  2114.5000     -3.3349     19.3254     21.2232     27.2667    105.5357
  2114.7500     -5.0243     19.7832     21.5895     28.2298    104.3413
  2115.0000     -6.7503     20.3247     22.0052     29.3040    102.9968
  2115.2500     -8.1948     20.9352     22.4868     30.5396    102.6278
  2115.5000     -9.1122     21.5961     23.0505     32.0131    103.0493
  2115.7500     -9.4044     22.2882     23.7114     33.8277    103.7443
  2116.0000     -9.1430     22.9980     24.4818     36.1050    104.3423
  2116.2500     -8.5553     23.7205     25.3698     38.9612    103.7402
  2116.5000     -7.9536     24.4610     26.3799     42.4695    100.4704
  2116.7500     -7.6452     25.2338     27.5128     46.6142     96.1563
  2117.0000     -7.8412     26.0580     28.7668     51.2534     84.8495
  2117.2500     -8.6074     26.9510     30.1404     56.1046     73.2754
  2117.5000     -9.8584     27.9202     31.6320     60.7828     51.0467
  2117.7500    -11.4002     28.9578     33.2399     64.8936     35.6094
  2118.0000    -13.0062     30.0346     34.9566     68.1625     16.7808
  2118.2500    -14.4805     31.0995     36.7638     70.5539      8.6969
  2118.5000    -15.7134     32.0830     38.6211     72.3195      2.5240
  2118.7500    -16.6924     32.9118     40.4580     73.9362      0.9284
  2119.0000    -17.4825     33.5247     42.1714     75.9354      0.1567
  2119.2500    -18.1772     33.8917     43.6320     78.6819      0.0386
  2119.5000    -18.8505     34.0243     44.7078     82.1840      0.0021
  2119.7500    -19.5175     33.9712     45.2943     86.0193   -999.2500
  2120.0000    -20.1266     33.8061     45.3486     89.4146   -999.2500
  2120.2500    -20.5849     33.6073     44.8981     91.4613   -999.2500
  2120.5000    -20.8107     33.4417     44.0353     91.3951   -999.2500
  2120.7500    -20.7824     33.3528     42.8876     88.8407   -999.2500
  2121.0000    -20.5720     33.3598     41.5880     83.9333   -999.2500
  2121.2500    -20.3407     33.4557     40.2528     77.2823   -999.2500
  2121.5000    -20.2889     33.6133     38.9738     69.7976   -999.2500
  2121.7500    -20.5996     33.7916     37.8178     62.4657   -999.2500
  2122.0000    -21.3689     33.9435     36.8315     56.1599   -999.2500
  2122.2500    -22.5738     34.0273     36.0486     51.5412   -999.2500
  2122.5000    -24.0756     34.0101     35.4958     49.0656   -999.2500
  2122.7500    -25.6518     33.8760     35.1952     49.0554   -999.2500
  2123.0000    -27.0552     33.6262     35.1684     51.7716   -999.2500
  2123.2500    -28.0657     33.2765     35.4346     57.4323   -999.2500
  2123.5000    -28.5358     32.8518     36.0103     66.1504   -999.2500
  2123.7500    -28.4143     32.3806     36.9034     77.8008   -999.2500
  2124.0000    -27.7402     31.8908     38.1055     91.8686   -999.2500
  2124.2500    -26.6299     31.4043     39.5818    107.3512   -999.2500
  2124.5000    -25.2342     30.9355     41.2557    122.7806   -999.2500
  2124.7500    -23.7023     30.4923     42.9996    136.3947   -999.2500
  2125.0000    -22.1441     30.0765     44.6320    146.4350   -999.2500
  2125.2500    -20.6171     29.6860     45.9381    151.4919   -999.2500
  2125.5000    -19.1342     29.3182     46.7141    150.8002   -999.2500
  2125.7500    -17.6961     28.9714     46.8266    144.3982   -999.2500
  2126.0000    -16.3298     28.6463     46.2546    133.1141   -999.2500
  2126.2500    -15.1174     28.3468     45.0932    118.3856   -999.2500
  2126.5000    -14.1999     28.0799     43.5126    101.9666   -999.2500
  2126.7500    -13.7419     27.8586     41.7074     85.5944   -999.2500
  2127.0000    -13.8784     27.7022     39.8480     70.6981   -999.2500
  2127.2500    -14.6542     27.2797     38.0624     58.2096   -999.2500
  2127.5000    -15.9813     26.9975     36.4326     48.5120   -999.2500
  2127.7500    -17.6343     27.2455     35.0049     41.5144   -999.2500
  2128.0000    -19.2857     27.7353     33.8007     36.8118   -999.2500
  2128.2500    -20.5742     28.5409     32.8246     33.8693   -999.2500
  2128.5000    -21.1845     29.7465     32.0722     32.1746   -999.2500
  2128.7500    -20.9160     31.4445     31.5320     31.3276   -999.2500
  2129.0000    -19.7259     33.7325     31.1854     31.0592   -999.2500
  2129.2500    -17.7272     36.7052     31.0069     31.2036   -999.2500
  2129.5000    -15.1560     40.4385     30.9639     31.6514   -999.2500
  2129.7500    -12.3144     44.9635     31.0168     32.3072   -999.2500
  2130.0000     -9.4979     50.2309     31.1226     33.0648   -999.2500
  2130.2500     -6.9487     56.0735     31.2399     33.8019   -999.2500
  2130.5000     -4.8182     62.1995     31.3381     34.3865   -999.2500
  2130.7500     -3.1633     68.2292     31.4056     34.6898   -999.2500
  2131.0000     -1.9656     76.9224     31.4577     34.6052   -999.2500
  2131.2500     -1.1548     82.1734     31.5390     34.0681   -999.2500
