~Version Information
VERS.                      2.0: CWLS Log ASCII Standard - VERSION 2.0
WRAP.                       NO: One line per depth step
~Well Information Block
STRT.FT               520.0000: 
STOP.FT              2183.5000: 
STEP.FT                 0.1000: 
NULL.                -999.2500: 
COMP.          Pioneer Natural Resources: COMPANY
WELL.             Enzo 43-8 Tr: WELL
FLD.           Purgatoire River: FIELD
LOC.           2303' FSL & 604' FEL: LOCATION
PROV.                 Colorado: PROVINCE
CNTY.               Las Animas: COUNTRY
SRVC.                Patterson: SERVICE COMPANY
DATE.          Sun Oct 31 15:10:54 2004: LOG DATE
UWI.           05 071 08213 00: UNIQUE WELL ID
~Curve Information Block
DEPT.FT            0 000 00 00: Depth
DCAL.in                       : CDL Caliper
RHOB.g/cc                     : CDL Bulk Density
RHOC.g/cc                     : CDL Density Correction
DPOR.pu                       : CDL Density Porosity
NPOR.pu                       : Neutron Porosity
GR.GAPI                       : Gamma Ray
~Parameter Information Block
~A  Depth       DCAL        RHOB        RHOC        DPOR        NPOR         GR     
# ...
   846.4000      8.0177      2.4107      0.0385     14.5022     17.1170     63.6702
   846.5000      8.0178      2.3932      0.0273     15.5608     17.2876     61.5593
   846.6000      8.0178      2.3834     -0.0175     16.1592     16.9422     57.9073
   846.7000      8.0178      2.3852     -0.0009     16.0492     16.7083     53.9650
   846.8000      8.0166      2.3939      0.0406     15.5190     16.9385     51.9565
   846.9000      8.0166      2.4105      0.0005     14.5127     17.2820     52.0139
   847.0000      8.0155      2.4334      0.0627     13.1263     17.5099     53.1294
   847.1000      8.0155      2.4414      0.0837     12.6438     17.7403     56.1604
   847.2000      8.0155      2.4323      0.0080     13.1915     18.0483     59.5888
   847.3000      8.0171      2.4338      0.0288     13.1016     18.5316     62.5511
   847.4000      8.0171      2.4533      0.0690     11.9188     19.0845     67.9791
   847.5000      8.0216      2.4762      0.0736     10.5353     19.4957     75.1926
   847.6000      8.0216      2.4905      0.1108      9.6672     20.1077     80.4712
   847.7000      8.0216      2.4963      0.0473      9.3128     21.4140     82.6685
   847.8000      8.0254      2.5113      0.0233      8.4045     23.0823     83.5642
   847.9000      8.0254      2.5405      0.0656      6.6350     24.2659     87.0302
   848.0000      8.0265      2.5594      0.0915      5.4931     24.9511     94.9729
   848.1000      8.0265      2.5539      0.0467      5.8244     25.6907    103.3405
   848.2000      8.0265      2.5364      0.0269      6.8865     26.4196    107.3109
   848.3000      8.0286      2.5171      0.0215      8.0565     26.9223    110.2807
   848.4000      8.0286      2.5010     -0.0250      9.0321     27.2732    117.4810
   848.5000      8.0293      2.5013     -0.0013      9.0149     27.5416    126.1768
   848.6000      8.0293      2.5235      0.0083      7.6650     27.7470    133.9649
   848.7000      8.0293      2.5504      0.0662      6.0363     27.8718    140.8071
   848.8000      8.0252      2.5662      0.0257      5.0771     27.7858    142.8333
   848.9000      8.0252      2.5757      0.0359      4.5035     27.4776    138.0448
   849.0000      8.0172      2.5831      0.0682      4.0556     27.1547    131.3267
   849.1000      8.0172      2.5919      0.0165      3.5202     26.7876    126.2727
   849.2000      8.0172      2.6073      0.0602      2.5900     26.3213    121.2468
   849.3000      8.0050      2.6180      0.1104      1.9419     25.9083    116.8381
   849.4000      8.0050      2.6085      0.0907      2.5134     25.6639    116.6028
   849.5000      7.9908      2.5760      0.0978      4.4824     25.7110    120.1712
   849.6000      7.9908      2.5355      0.0206      6.9371     26.1005    123.8500
   849.7000      7.9908      2.5105      0.0245      8.4561     26.5480    124.8779
   849.8000      7.9740      2.5002      0.0322      9.0796     26.8027    123.3124
   849.9000      7.9740      2.4874      0.0709      9.8573     26.7234    123.1348
   850.0000      7.9622      2.4787     -0.0198     10.3803     26.1635    124.5251
   850.1000      7.9622      2.4938      0.0445      9.4655     25.5693    121.8179
   850.2000      7.9622      2.5245      0.0656      7.6069     25.4616    112.4767
   850.3000      7.9643      2.5585      0.0566      5.5449     25.7064    101.9761
   850.4000      7.9643      2.5933      0.1317      3.4369     25.9007     96.6328
   850.5000      7.9718      2.6157      0.1135      2.0815     25.8911     95.4238
   850.6000      7.9718      2.6222      0.1136      1.6869     25.9015     93.5028
   850.7000      7.9718      2.6251      0.1317      1.5083     26.2716     91.4617
   850.8000      7.9774      2.6287      0.1044      1.2915     27.0515     90.6147
   850.9000      7.9774      2.6219      0.1192      1.7018     27.8473     90.1089
   851.0000      7.9806      2.5986      0.0473      3.1132     28.3852     90.5993
   851.1000      7.9806      2.5759      0.0145      4.4898     28.9057     94.6291
   851.2000      7.9806      2.5669      0.0397      5.0370     29.3775    104.7713
   851.3000      7.9818      2.5685      0.0297      4.9373     29.5188    116.3524
   851.4000      7.9818      2.5805      0.0463      4.2117     29.5611    121.2903
   851.5000      7.9825      2.5999      0.0676      3.0344     29.8024    119.9341
   851.6000      7.9825      2.6186      0.0880      1.9060     30.1496    117.7317
   851.7000      7.9825      2.6228      0.1136      1.6482     30.3381    119.0027
   851.8000      7.9842      2.6008      0.0944      2.9841     30.1509    123.9604
   851.9000      7.9842      2.5631      0.0265      5.2696     29.5422    128.1934
   852.0000      7.9858      2.5361      0.0312      6.9056     28.5269    130.4974
   852.1000      7.9858      2.5369      0.0481      6.8574     27.2817    134.1510
   852.2000      7.9858      2.5585      0.0975      5.5465     26.4322    138.2150
   852.3000      7.9843      2.5802      0.0879      4.2331     26.4134    137.8619
   852.4000      7.9843      2.5894      0.1042      3.6719     26.7038    133.6212
   852.5000      7.9819      2.5802      0.0999      4.2281     26.6510    129.6002
   852.6000      7.9819      2.5529      0.0619      5.8875     26.3983    127.7888
   852.7000      7.9819      2.5221      0.0555      7.7507     26.3499    127.4608
   852.8000      7.9799      2.5087      0.0235      8.5609     26.2396    127.3014
   852.9000      7.9799      2.5187      0.0587      7.9567     25.5863    128.7127
   853.0000      7.9799      2.5372      0.0708      6.8359     24.7589    128.9776
   853.1000      7.9799      2.5456      0.1149      6.3286     24.6936    122.7122
   853.2000      7.9799      2.5362      0.1071      6.8952     25.6707    112.4068
   853.3000      7.9820      2.5263      0.0441      7.4993     26.9538    104.4219
   853.4000      7.9820      2.5348      0.0828      6.9835     27.5886    101.2761
   853.5000      7.9834      2.5508      0.0781      6.0110     27.2036    100.2789
   853.6000      7.9834      2.5675      0.0364      5.0024     26.3743     98.1110
   853.7000      7.9834      2.6001      0.0495      3.0265     26.2673     96.6037
   853.8000      7.9827      2.6463      0.1036      0.2230     27.1475     98.1090
   853.9000      7.9827      2.6818      0.0979     -1.9279     28.1158    100.1683
   854.0000      7.9822      2.7041      0.0970     -3.2787     28.4530    101.7308
   854.1000      7.9822      2.7232      0.1744     -4.4339     28.2640    102.5794
   854.2000      7.9822      2.7319      0.1068     -4.9635     27.8084    101.5447
   854.3000      7.9822      2.7238      0.1160     -4.4721     27.1373    100.3217
   854.4000      7.9822      2.6930      0.1052     -2.6052     26.6066     99.9474
   854.5000      7.9810      2.6415      0.0201      0.5174     26.5134    100.7087
   854.6000      7.9810      2.5982     -0.0048      3.1405     26.6762    101.1855
   854.7000      7.9810      2.5920     -0.0185      3.5175     26.8847     98.4029
   854.8000      7.9777      2.6107      0.0390      2.3820     27.0379     94.5471
   854.9000      7.9777      2.6186      0.0485      1.9004     26.9783     93.1566
   855.0000      7.9688      2.6069      0.0270      2.6095     26.6314     93.7131
   855.1000      7.9688      2.5923      0.0167      3.4973     26.1829     93.7332
   855.2000      7.9688      2.5921      0.0347      3.5085     26.0463     93.7419
   855.3000      7.9653      2.6073      0.0535      2.5879     26.3481     96.5889
   855.4000      7.9653      2.6163      0.0735      2.0405     26.6710     99.4127
   855.5000      7.9782      2.6061      0.0365      2.6626     26.7400     97.3423
   855.6000      7.9782      2.5924      0.0307      3.4893     26.7267     92.6826
   855.7000      7.9782      2.5852      0.0613      3.9282     26.7318     89.8097
   855.8000      7.9841      2.5750      0.0402      4.5449     26.5806     89.4656
   855.9000      7.9841      2.5596      0.0280      5.4768     26.3977     90.6481
