~Version Information
VERS.                      2.0: CWLS Log ASCII Standard - VERSION 2.0
WRAP.                       NO: One line per depth step
~Well Information Block
STRT.FT               450.0000: 
STOP.FT              1739.2000: 
STEP.FT                 0.1000: 
NULL.                -999.2500: 
COMP.          Pioneer Natural Resources: COMPANY
WELL.            Harlee L 34-9: WELL
FLD.           Purgatoire River: FIELD
LOC.           600' FSL & 2125' FEL: LOCATION
PROV.                 Colorado: PROVINCE
CNTY.               Las Animas: COUNTRY
SRVC.                Patterson: SERVICE COMPANY
DATE.          Wed Jan 26 13:57:24 2005: LOG DATE
UWI.           05 071 08009 00: UNIQUE WELL ID
~Curve Information Block
DEPT.FT            0 000 00 00: Depth
DCAL.in                       : CDL Caliper
RHOB.g/cc                     : CDL Bulk Density
RHOC.g/cc                     : CDL Density Correction
DPOR.pu                       : CDL Density Porosity
NPOR.pu                       : Neutron Porosity
GR.GAPI                       : Gamma Ray
~Parameter Information Block
~A  Depth       DCAL        RHOB        RHOC        DPOR        NPOR         GR     
# ...
  1285.2000      8.7850      2.5445      0.0031      6.3959     19.4327    117.7849
  1285.3000      8.7768      2.5381     -0.0001      6.7844     18.7242    123.0627
  1285.4000      8.7768      2.5360     -0.0174      6.9112     18.1402    127.5145
  1285.5000      8.7579      2.5529      0.0163      5.8868     18.4086    129.2126
  1285.6000      8.7579      2.5901      0.0523      3.6323     19.3036    131.7352
  1285.7000      8.7579      2.6299      0.0864      1.2164     19.8058    134.6983
  1285.8000      8.7365      2.6471      0.1048      0.1731     19.2681    134.2191
  1285.9000      8.7365      2.6395      0.0604      0.6347     18.4233    123.3808
  1286.0000      8.7248      2.6309      0.0453      1.1582     18.1994    104.4976
  1286.1000      8.7248      2.6307      0.0623      1.1708     18.1274     90.7166
  1286.2000      8.7248      2.6214      0.0541      1.7316     17.6612     84.7896
  1286.3000      8.7225      2.6005      0.0062      2.9985     17.2184     78.2561
  1286.4000      8.7225      2.5862      0.0223      3.8685     16.8555     70.4272
  1286.5000      8.7134      2.5761     -0.0263      4.4776     16.2731     70.1547
  1286.6000      8.7134      2.5555     -0.0140      5.7300     15.7471     78.0981
  1286.7000      8.7134      2.5291     -0.0600      7.3244     16.2263     86.0124
  1286.8000      8.6829      2.5114     -0.0389      8.3984     18.3355     89.2705
  1286.9000      8.6829      2.5021     -0.0178      8.9621     20.8256     89.0265
  1287.0000      8.6427      2.5010     -0.0588      9.0290     22.0277     88.6762
  1287.1000      8.6427      2.5133      0.0206      8.2835     22.0995     91.6678
  1287.2000      8.6427      2.5252      0.0484      7.5635     22.3346     96.0736
  1287.3000      8.6126      2.5215     -0.0071      7.7876     23.5967     95.9437
  1287.4000      8.6126      2.5125     -0.0227      8.3338     25.0322     91.8978
  1287.5000      8.5880      2.5036      0.0554      8.8720     25.6014     91.0020
  1287.6000      8.5880      2.4812      0.0397     10.2313     25.6637     95.5460
  1287.7000      8.5880      2.4446     -0.0110     12.4504     25.5441    100.6113
  1287.8000      8.5588      2.4061     -0.0355     14.7845     24.9604    100.7788
  1287.9000      8.5588      2.3777     -0.0442     16.5023     23.6798     95.2483
  1288.0000      8.5190      2.3749      0.0048     16.6698     22.3463     89.3048
  1288.1000      8.5190      2.4026      0.0315     14.9910     21.7756     89.3159
  1288.2000      8.5190      2.4433      0.0810     12.5259     22.0242     92.9412
  1288.3000      8.4754      2.4798      0.0423     10.3125     22.7512     94.6161
  1288.4000      8.4754      2.5119      0.0894      8.3674     23.2967     94.0603
  1288.5000      8.4620      2.5355      0.1122      6.9371     22.9090     92.2012
  1288.6000      8.4620      2.5383      0.1265      6.7672     21.8683     89.1580
  1288.7000      8.4620      2.5207      0.1122      7.8339     20.7353     87.8764
  1288.8000      8.5044      2.5006      0.0787      9.0563     19.8246     91.1116
  1288.9000      8.5044      2.4955      0.0495      9.3632     19.5992     95.1224
  1289.0000      8.5925      2.5033      0.0646      8.8923     20.0341     95.6408
  1289.1000      8.5925      2.5131      0.0259      8.2947     20.6581     93.6533
  1289.2000      8.5925      2.5252      0.0527      7.5643     20.9315     90.2207
  1289.3000      8.6909      2.5403      0.0868      6.6508     20.7892     84.5075
  1289.4000      8.6909      2.5513      0.0950      5.9802     20.5834     79.4931
  1289.5000      8.7543      2.5564      0.0574      5.6746     20.2669     78.0838
  1289.6000      8.7543      2.5635      0.0744      5.2405     20.0431     78.2052
  1289.7000      8.7543      2.5724      0.0982      4.7057     20.5691     78.7255
  1289.8000      8.7785      2.5667      0.0845      5.0497     21.0901     81.4711
  1289.9000      8.7785      2.5418      0.0583      6.5568     20.4481     86.6806
  1290.0000      8.7879      2.5190      0.0126      7.9376     19.3347     88.4608
  1290.1000      8.7879      2.5154      0.0330      8.1568     19.0379     84.6585
  1290.2000      8.7879      2.5209      0.0631      7.8266     19.9684     83.5566
  1290.3000      8.7975      2.5265      0.0133      7.4868     21.2377     86.5546
  1290.4000      8.7975      2.5358      0.0472      6.9232     21.3506     85.4879
  1290.5000      8.8057      2.5368      0.0519      6.8607     20.2570     80.3200
  1290.6000      8.8057      2.5169      0.0163      8.0680     19.5352     78.9379
  1290.7000      8.8057      2.4877     -0.0136      9.8349     20.1011     82.6447
  1290.8000      8.8049      2.4671     -0.0202     11.0835     20.9682     85.4723
  1290.9000      8.8049      2.4612     -0.0232     11.4421     20.8120     85.5738
  1291.0000      8.8030      2.4694     -0.0130     10.9431     20.0892     86.8715
  1291.1000      8.8030      2.4865     -0.0057      9.9070     19.9041     91.3736
  1291.2000      8.8030      2.5005      0.0318      9.0580     20.1022     97.8856
  1291.3000      8.8033      2.4998      0.0505      9.1002     19.8245    102.3256
  1291.4000      8.8033      2.4868      0.0218      9.8903     19.4707    101.7230
  1291.5000      8.8019      2.4731      0.0162     10.7197     19.8986     99.5992
  1291.6000      8.8019      2.4663     -0.0155     11.1315     20.7551    100.7942
  1291.7000      8.8019      2.4700      0.0109     10.9104     21.2807    101.9178
  1291.8000      8.8007      2.4836      0.0009     10.0851     21.2605     95.7227
  1291.9000      8.8007      2.5024     -0.0215      8.9463     20.3565     85.6838
  1292.0000      8.8025      2.5196      0.0210      7.9016     18.7918     83.6899
  1292.1000      8.8025      2.5286      0.0238      7.3586     17.7256     93.3847
  1292.2000      8.8025      2.5244      0.0281      7.6149     17.7386    106.6055
  1292.3000      8.8045      2.5157     -0.0092      8.1404     18.6597    114.9310
  1292.4000      8.8045      2.5206     -0.0132      7.8420     19.8050    116.1331
  1292.5000      8.8041      2.5375      0.0524      6.8162     20.3428    111.6048
  1292.6000      8.8041      2.5502      0.0363      6.0456     19.9945    105.0485
  1292.7000      8.8041      2.5580      0.0227      5.5768     19.0205    101.1614
  1292.8000      8.8034      2.5676      0.0318      4.9944     18.0034     99.0942
  1292.9000      8.8034      2.5701      0.0626      4.8432     17.5680     96.5372
  1293.0000      8.8036      2.5543      0.0618      5.8001     17.8132     94.7141
  1293.1000      8.8036      2.5348      0.0017      6.9834     18.3611     94.0496
  1293.2000      8.8036      2.5337      0.0156      7.0469     18.7978     95.0232
  1293.3000      8.8037      2.5457      0.0327      6.3212     19.0682     95.0642
  1293.4000      8.8037      2.5521      0.0365      5.9318     19.5813     93.6776
  1293.5000      8.8004      2.5435      0.0441      6.4517     20.7110     94.8986
  1293.6000      8.8004      2.5197     -0.0056      7.8996     21.4716     95.4564
  1293.7000      8.8004      2.4920     -0.0172      9.5771     20.7072     92.6093
  1293.8000      8.7971      2.4749     -0.0194     10.6123     19.1306     92.8896
  1293.9000      8.7971      2.4657      0.0117     11.1703     18.1637     95.6850
  1294.0000      8.8013      2.4534      0.0040     11.9123     17.9831     92.3968
  1294.1000      8.8013      2.4381     -0.0098     12.8444     18.0949     82.0089
  1294.2000      8.8013      2.4267     -0.0256     13.5309     18.4296     73.0080
  1294.3000      8.8054      2.4267      0.0137     13.5353     18.4080     69.7934
  1294.4000      8.8054      2.4410      0.0318     12.6685     17.4037     67.5845
  1294.5000      8.8060      2.4635      0.0411     11.3051     16.1918     63.4041
  1294.6000      8.8060      2.4798      0.0826     10.3158     15.8142     61.7516
  1294.7000      8.8060      2.4834      0.0110     10.0951     16.3282     64.2585
