~Version Information
 VERS.                      2.0: CWLS Log ASCII Standard - VERSION 2.0
 WRAP.                       NO: One line per depth step
 ~Well Information Block
 STRT.FT               465.6000: 
 STOP.FT              1777.2000: 
 STEP.FT                 0.1000: 
 NULL.                -999.2500: 
 COMP.          Petrogulf Corporation: COMPANY
 WELL.          Alexander 9-43R: WELL
 FLD.           Purgatorie River: FIELD
 LOC.           1652' FSL & 1049' FEL: LOCATION
 CNTY.               Las Animas: COUNTY
 SRVC.                         : SERVICE COMPANY
 DATE.          Fri Sep 03 15:08:45 2004: LOG DATE
 UWI.           05 071 08036 00: UNIQUE WELL ID
 STAT.                 Colorado: STATE
 PROV.                         :Province
 ~Curve Information Block
 DEPT.FT            0 000 00 00: Depth
 DCAL.in                       : CDL Caliper
 RHOB.g/cc                     : CDL Bulk Density
 RHOC.g/cc                     : CDL Density Correction
 DPOR.pu                       : CDL Density Porosity
 GR.GAPI                       : Gamma Ray
 NPOR.pu                       : Neutron Porosity
 ~Parameter Information Block
 ~A  Depth       DCAL        RHOB        RHOC        DPOR         GR         NPOR    
# ...
  1425.6000      7.9902      2.6682      0.1977     -1.1007    103.7126     23.4088
  1425.7000      7.9902      2.6782      0.1988     -1.7112    106.9021     23.0552
  1425.8000      7.9765      2.6746      0.2302     -1.4903    104.6009     22.8354
  1425.9000      7.9765      2.6471      0.1577      0.1734     98.8225     22.9731
  1426.0000      7.9752      2.6061      0.1149      2.6596     93.2948     23.3894
  1426.1000      7.9752      2.5733      0.0800      4.6508     92.5189     23.4900
  1426.2000      7.9752      2.5558      0.1107      5.7083     95.5187     22.9795
  1426.3000      7.9861      2.5480      0.0855      6.1802     92.9703     22.3022
  1426.4000      7.9861      2.5388      0.0862      6.7369     83.9041     22.1346
  1426.5000      8.0399      2.5238      0.0648      7.6495     78.8904     22.6071
  1426.6000      8.0399      2.5160      0.0369      8.1214     81.2726     22.9002
  1426.7000      8.0399      2.5278      0.0398      7.4077     83.0996     22.4472
  1426.8000      8.0087      2.5472      0.1013      6.2282     80.3000     21.8026
  1426.9000      8.0087      2.5609      0.0548      5.4030     76.2063     21.3505
  1427.0000      8.0119      2.5760      0.0650      4.4862     75.1134     21.0327
  1427.1000      8.0119      2.5921      0.1402      3.5109     79.3181     21.1760
  1427.2000      8.0119      2.5958      0.1277      3.2854     86.2444     21.7448
  1427.3000      7.9934      2.5875      0.0927      3.7902     88.1922     21.9403
  1427.4000      7.9934      2.5777      0.0779      4.3848     82.5187     21.6095
  1427.5000      7.9936      2.5707      0.0845      4.8044     77.0261     21.2453
  1427.6000      7.9936      2.5644      0.0975      5.1861     77.5208     20.9359
  1427.7000      7.9936      2.5663      0.0413      5.0711     78.3938     20.7216
  1427.8000      7.9873      2.5865      0.1243      3.8472     74.8025     20.6433
  1427.9000      7.9873      2.6176      0.0970      1.9666     73.1419     20.2795
  1428.0000      7.9821      2.6380      0.1326      0.7271     77.7100     19.6358
  1428.1000      7.9821      2.6277      0.1518      1.3517     85.3802     19.3482
  1428.2000      7.9821      2.6023      0.0848      2.8880     95.9516     19.4692
  1428.3000      7.9824      2.5948      0.1634      3.3467    110.6862     19.8120
  1428.4000      7.9824      2.5966      0.1720      3.2360    125.5208     20.4177
  1428.5000      7.9887      2.5804      0.1121      4.2184    136.6470     21.1599
  1428.6000      7.9887      2.5473      0.0970      6.2264    145.1220     21.9195
  1428.7000      7.9887      2.5170      0.0676      8.0624    153.2427     22.8670
  1428.8000      7.9929      2.5032      0.0738      8.8965    162.0231     24.0925
  1428.9000      7.9929      2.5119      0.0785      8.3726    170.2439     25.2913
  1429.0000      8.0224      2.5416      0.1594      6.5682    174.4910     26.0373
  1429.1000      8.0224      2.5765      0.2106      4.4562    171.9191     26.1666
  1429.2000      8.0224      2.5914      0.2092      3.5545    168.5264     26.0087
  1429.3000      8.0863      2.5743      0.1674      4.5902    172.0193     25.9171
  1429.4000      8.0863      2.5378      0.1334      6.7978    178.0542     25.8821
  1429.5000      8.1164      2.5025      0.1481      8.9394    178.5297     26.0476
  1429.6000      8.1164      2.4757      0.1407     10.5643    170.8640     26.5601
  1429.7000      8.1164      2.4653      0.0708     11.1940    160.2258     27.1554
  1429.8000      8.1253      2.4802      0.1046     10.2889    155.7040     27.6171
  1429.9000      8.1253      2.5126      0.0990      8.3299    156.8380     28.0339
  1430.0000      8.1332      2.5582      0.0999      5.5610    155.4209     28.2935
  1430.1000      8.1332      2.6169      0.2120      2.0072    150.8438     28.0922
  1430.2000      8.1332      2.6641      0.2749     -0.8557    146.1591     27.6305
  1430.3000      8.1236      2.6758      0.2840     -1.5623    139.7305     27.5084
  1430.4000      8.1236      2.6569      0.2499     -0.4171    130.8683     27.6363
  1430.5000      8.1054      2.6255      0.1467      1.4872    121.5025     27.2564
  1430.6000      8.1054      2.5950      0.1091      3.3343    111.5825     26.3975
  1430.7000      8.1054      2.5776      0.0706      4.3869    101.4509     25.7185
  1430.8000      8.0477      2.5827      0.0667      4.0789     93.4613     25.1461
  1430.9000      8.0477      2.6088      0.0310      2.4984     88.3268     24.2235
  1431.0000      8.0484      2.6343      0.1233      0.9539     82.6588     23.1521
  1431.1000      8.0484      2.6285      0.1211      1.3056     75.4951     22.5007
  1431.2000      8.0484      2.5951      0.0533      3.3249     72.0432     22.5411
  1431.3000      8.0522      2.5626      0.0303      5.2940     74.1587     22.7456
  1431.4000      8.0522      2.5360      0.0334      6.9104     77.8715     22.5927
  1431.5000      8.0559      2.5119     -0.0080      8.3689     79.5058     22.2372
  1431.6000      8.0559      2.5071     -0.0125      8.6633     76.8933     21.6637
  1431.7000      8.0559      2.5299      0.0158      7.2807     70.9443     20.7962
  1431.8000      8.0622      2.5595      0.0194      5.4832     64.8069     20.1938
  1431.9000      8.0622      2.5758      0.0380      4.4953     62.7450     20.1461
  1432.0000      8.0583      2.5793      0.0895      4.2855     65.4589     20.2639
  1432.1000      8.0583      2.5794      0.0409      4.2791     69.0709     20.5060
  1432.2000      8.0583      2.5843      0.0727      3.9811     71.3740     20.9268
  1432.3000      8.0609      2.5890      0.0841      3.6963     72.4988     21.0118
  1432.4000      8.0609      2.5816      0.0779      4.1459     71.5707     20.5685
  1432.5000      8.0618      2.5683      0.0244      4.9538     70.1665     19.8918
  1432.6000      8.0618      2.5630      0.0341      5.2726     71.1309     19.4637
  1432.7000      8.0618      2.5648      0.0689      5.1646     73.5697     19.6930
  1432.8000      8.0638      2.5696      0.0709      4.8729     74.9019     20.1208
  1432.9000      8.0638      2.5775      0.1001      4.3916     75.2962     20.2744
  1433.0000      8.0579      2.5876      0.0874      3.7822     76.9381     20.3815
  1433.1000      8.0579      2.5997      0.1185      3.0514     80.1335     20.5182
  1433.2000      8.0579      2.6077      0.1215      2.5615     82.5119     20.7197
  1433.3000      8.0567      2.6023      0.1172      2.8896     81.9089     21.1850
  1433.4000      8.0567      2.5820      0.1177      4.1184     79.2693     21.7327
  1433.5000      8.0576      2.5554      0.0404      5.7322     77.1763     21.9532
  1433.6000      8.0576      2.5339      0.0362      7.0367     76.6850     21.9667
  1433.7000      8.0576      2.5200      0.0331      7.8807     80.3241     22.2476
  1433.8000      8.0582      2.5132      0.0184      8.2894     90.4022     22.5709
  1433.9000      8.0582      2.5142      0.0171      8.2295    102.8252     22.4242
  1434.0000      8.0624      2.5118      0.0350      8.3759    110.3152     22.0508
  1434.1000      8.0624      2.5012      0.0189      9.0193    112.1476     21.8517
  1434.2000      8.0624      2.5004      0.0263      9.0648    111.7456     21.7113
  1434.3000      8.0644      2.5179      0.1057      8.0072    106.8841     21.3660
  1434.4000      8.0644      2.5446      0.0879      6.3878     97.4676     21.0121
  1434.5000      8.0238      2.5777      0.1373      4.3848     91.7545     20.7573
  1434.6000      8.0238      2.6089      0.1800      2.4886     91.3570     20.5462
  1434.7000      8.0238      2.6221      0.1844      1.6923     88.7658     20.5007
  1434.8000      7.9954      2.6158      0.1504      2.0721     81.3623     20.5983
  1434.9000      7.9954      2.6084      0.1335      2.5240     74.6832     20.7019
  1435.0000      7.9957      2.6093      0.1583      2.4684     73.5257     20.9023
  1435.1000      7.9957      2.6109      0.1590      2.3687     76.2730     21.1632
