~Version Information
VERS.                      2.0: CWLS Log ASCII Standard - VERSION 2.0
WRAP.                       NO: One line per depth step
~Well Information Block
STRT.FT               -12.5000: 
STOP.FT              2487.7500: 
STEP.FT                 0.2500: 
NULL.                -999.2500: 
COMP.          Petrogulf Corporation: COMPANY
WELL.             Royal 8-33 V: WELL
FLD.           Purgatorie River: FIELD
LOC.           2365' FSL & 2336' FEL--: LOCATION
CNTY.               Las Animas: COUNTY
SRVC.                         : SERVICE COMPANY
DATE.          Sat Jan 17 11:43:49 2004: LOG DATE
UWI.           05 071 07934 00: UNIQUE WELL ID
STAT.                       CO: STATE
~Curve Information Block
DEPT.FT            0 000 00 00: Depth
CCL.                          : Casing Collar Locator
TT3.usec                      : CBL 3' Travel Time
AMP3.mV                       : CBL 3' Amplitude
GR.GAPI                       : Gamma Ray
~Parameter Information Block
~A  Depth       CCL         TT3         AMP3         GR     
# ...
  2131.5000      0.0000    832.3871      7.8885     76.3693
  2131.7500      0.0000    835.5795      7.8810     73.7102
  2132.0000      0.0000    837.3098      7.7827     72.7375
  2132.2500      0.0000    837.6479      7.6136     74.9984
  2132.5000      0.0000    835.6645      7.4053     79.8349
  2132.7500      0.0000    830.1907      7.1919     84.6820
  2133.0000      0.0000    821.8221      6.9527     87.5732
  2133.2500      0.0000    813.9402      6.5761     88.6623
  2133.5000      0.0000    810.5814      5.9295     88.9697
  2133.7500      0.0000    812.7079      5.0046     88.5986
  2134.0000      0.0000    816.8079      3.9732     87.1314
  2134.2500      0.0000    816.9584      3.0751     85.1837
  2134.5000      3.7802    808.1808      2.4610     84.3504
  2134.7500      0.0000    788.9749      2.1363     85.5263
  2135.0000      0.0000    762.0515      2.0088     87.9723
  2135.2500      0.0000    732.8345      1.9694     89.9588
  2135.5000      0.0000    706.4413      1.9524     89.8731
  2135.7500      0.0000    685.2849      1.9467     86.9618
  2136.0000      0.0000    669.1152      1.9594     81.6289
  2136.2500      0.0000    656.8441      1.9795     75.0610
  2136.5000      0.0000    648.0119      1.9816     68.3108
  2136.7500      0.0000    642.9053      1.9519     61.9135
  2137.0000      0.0000    641.9840      1.8942     56.5259
  2137.2500      0.0000    645.2073      1.8164     53.3734
  2137.5000      0.0000    651.4274      1.7260     53.4745
  2137.7500      0.0000    658.2606      1.6336     56.5555
  2138.0000      0.0000    662.8969      1.5476     61.1006
  2138.2500      0.0000    663.4578      1.4705     65.3938
  2138.5000      0.0000    659.9628      1.4056     68.3760
  2138.7500      0.0000    654.2421      1.3654     69.7746
  2139.0000      0.0000    648.8107      1.3740     69.8989
  2139.2500      0.0000    645.4469      1.4566     69.4368
  2139.5000      0.0000    644.5091      1.6140     69.2505
  2139.7500      0.0000    645.2880      1.8021     70.0783
  2140.0000      0.0000    646.7441      1.9517     72.1547
  2140.2500      0.0000    647.9876      2.0192     74.9915
  2140.5000      0.0000    648.4608      2.0095     77.7022
  2140.7500      0.0000    648.0099      1.9503     79.8051
  2141.0000      0.0000    646.8497      1.8619     81.6539
  2141.2500      0.0000    645.3912      1.7579     83.9343
  2141.5000      0.0000    644.0313      1.6568     86.8697
  2141.7500      0.0000    643.0204      1.5778     90.0342
  2142.0000      0.0000    642.4309      1.5278     92.7362
  2142.2500      0.0000    642.1890      1.4983     94.4196
  2142.5000      0.0000    642.1358      1.4767     94.9486
  2142.7500      0.0000    642.1013      1.4559     94.7013
  2143.0000      0.0000    641.9778      1.4372     94.2094
  2143.2500      0.0000    641.7620      1.4291     93.6179
  2143.5000      0.0000    641.5309      1.4395     92.8005
  2143.7500      0.0000    641.3731      1.4625     92.1099
  2144.0000      0.0000    641.3484      1.4794     92.5906
  2144.2500      0.0000    641.5043      1.4787     95.0296
  2144.5000      0.0000    641.8948      1.4727     98.8497
  2144.7500      0.0000    642.5559      1.4827    102.2692
  2145.0000      0.0000    643.4587      1.5088    103.5019
  2145.2500      0.0000    644.4879      1.5268    101.6843
  2145.5000      0.0000    645.4767      1.5189     97.0910
  2145.7500      0.0000    646.2852      1.5030     91.0910
  2146.0000      0.0000    646.8557      1.5202     85.7939
  2146.2500      0.0000    647.1797      1.5915     83.1567
  2146.5000      0.0000    647.2261      1.6953     83.8466
  2146.7500      0.0000    646.9490      1.7867     86.6686
  2147.0000      0.0000    646.4155      1.8322     89.3963
  2147.2500      0.0000    645.9755      1.8242     90.6498
  2147.5000      0.0000    646.4271      1.7697     90.9116
  2147.7500      0.0000    649.0787      1.6809     91.4905
  2148.0000      0.0000    655.3568      1.5843     92.8694
  2148.2500      0.0000    665.7271      1.5210     94.5360
  2148.5000      0.0000    678.7496      1.5181     96.0500
  2148.7500      0.0000    691.5394      1.5561     97.5441
  2149.0000      0.0000    701.5688      1.5836     99.0834
  2149.2500      0.0000    707.9188      1.5723     99.9901
  2149.5000      0.0000    710.6326      1.5455     99.1484
  2149.7500      0.0000    709.3011      1.5422     96.0783
  2150.0000      0.0000    703.1996      1.5707     91.5851
  2150.2500      0.0000    693.1249      1.6112     87.2213
  2150.5000      0.0000    682.2119      1.6504     84.1496
  2150.7500      0.0000    674.0905      1.6885     82.5232
  2151.0000      0.0000    670.4779      1.7197     81.7132
  2151.2500      0.0000    670.6595      1.7328     80.9143
  2151.5000      0.0000    672.5748      1.7341     79.7063
  2151.7500      0.0000    674.2033      1.7489     78.3498
  2152.0000      0.0000    674.6509      1.7885     77.5620
  2152.2500      0.0000    674.4086      1.8329     77.8862
  2152.5000      0.0000    674.5966      1.8538     79.3736
  2152.7500      0.0000    676.0867      1.8460     81.8739
  2153.0000      0.0000    679.0416      1.8261     85.2594
  2153.2500      0.0000    682.3245      1.8107     89.0998
  2153.5000      0.0000    683.3475      1.8054     92.4614
  2153.7500      0.0000    679.6566      1.8059     94.5285
  2154.0000      0.0000    671.2111      1.8030     95.2773
  2154.2500      0.0000    660.6313      1.7930     95.0602
  2154.5000      0.0000    651.0616      1.7837     93.8082
  2154.7500      0.0000    644.1081      1.7828     91.2846
  2155.0000      0.0000    639.6241      1.7773     87.8852
  2155.2500      0.0000    636.7399      1.7365     84.6126
  2155.5000      0.0000    634.7962      1.6421     82.5801
  2155.7500      0.0000    633.6003      1.5145     82.8439
  2156.0000      0.0000    633.1584      1.4043     85.9797
  2156.2500      0.0000    633.2720      1.3532     91.2306
  2156.5000      0.0000    633.4312      1.3609     96.5273
  2156.7500      0.0000    633.2572      1.3850     99.8313
  2157.0000      0.0000    633.0836      1.3809    100.3939
  2157.2500      0.0000    633.7892      1.3457     98.7534
  2157.5000      0.0000    635.7843      1.3206     95.9977
  2157.7500      0.0000    638.3799      1.3462     93.3193
  2158.0000      0.0000    640.3955      1.4189     91.7562
  2158.2500      0.0000    641.1844      1.4957     91.5788
  2158.5000      4.0000    640.9094      1.5399     91.9473
  2158.7500      0.0000    640.1094      1.5511     91.7002
  2159.0000      0.0000    639.2626      1.5487     90.4944
  2159.2500      0.0000    638.6455      1.5410     88.9112
  2159.5000      0.0000    638.3644      1.5272     87.6979
  2159.7500      0.0000    638.4175      1.5174     87.2566
  2160.0000      0.0000    638.7355      1.5265     87.6044
  2160.2500      0.0000    639.1917      1.5561     88.3409
  2160.5000      0.0000    639.6351      1.5933     88.6054
  2160.7500      0.0000    639.9822      1.6221     87.4823
  2161.0000      0.0000    640.2930      1.6335     84.7338
  2161.2500      0.0000    640.7255      1.6333     81.0586
  2161.5000      0.0000    641.3979      1.6354     77.6151
  2161.7500      0.0000    642.3533      1.6453     75.4571
  2162.0000      0.0000    643.7440      1.6550     75.3264
  2162.2500      0.0000    646.1038      1.6538     77.5381
  2162.5000      0.0000    650.3162      1.6398     81.6549
  2162.7500      0.0000    656.8778      1.6195     86.3192
  2163.0000      0.0000    664.7267      1.5999     89.8798
  2163.2500      0.0000    670.9910      1.5794     91.5145
  2163.5000      0.0000    672.7379      1.5505     91.5775
  2163.7500      0.0000    669.5270      1.5131     90.8030
  2164.0000      0.0000    664.0624      1.4784     89.6581
  2164.2500      0.0000    659.9408      1.4559     88.7200
  2164.5000      0.0000    658.6009      1.4381     89.1375
  2164.7500      0.0000    658.5225      1.4058     92.0073
