~Version Information
VERS.                      2.0: CWLS Log ASCII Standard - VERSION 2.0
WRAP.                       NO: One line per depth step
~Well Information Block
STRT.FT               460.0000: 
STOP.FT               961.2500: 
STEP.FT                 0.2500: 
NULL.                -999.2500: 
COMP.          Pioneer Natural Resources: COMPANY
WELL.                Pug 33-19: WELL
FLD.           Purgatoire River: FIELD
LOC.           1381' FSL & 2140' FEL: LOCATION
PROV.                 Colorado: PROVINCE
CNTY.               Las Animas: COUNTRY
SRVC.                Patterson: SERVICE COMPANY
DATE.          Tue Dec 14 08:25:14 2004: LOG DATE
UWI.           05 071 08193 00: UNIQUE WELL ID
~Curve Information Block
DEPT.FT            0 000 00 00: Depth
SN.Ohm-m                      : IEL Short Normal
SP.mV                         : IEL Spontaneous Potential
DIR.Ohm-m                     : IEL Induction Resistivity
GR.GAPI                       : Gamma Ray
~Parameter Information Block
~A  Depth        SN          SP         DIR          GR     
# ...
   728.0000     11.6420     64.3542     10.3787    109.7568
   728.2500     11.9209     64.0663     10.6932    105.9314
   728.5000     12.2290     63.8090     11.0301    101.1856
   728.7500     12.5527     63.5926     11.3615     98.5709
   729.0000     12.8726     63.4198     11.6658     95.7115
   729.2500     13.1707     63.2877     11.9358     94.9072
   729.5000     13.4363     63.1903     12.1777     95.8183
   729.7500     13.6656     63.1212     12.4001     97.6960
   730.0000     13.8529     63.0746     12.6012    101.3647
   730.2500     13.9849     63.0454     12.7668    103.5338
   730.5000     14.0434     63.0278     12.8791    105.4241
   730.7500     14.0180     63.0148     12.9284    105.9096
   731.0000     13.9172     62.9980     12.9185    106.7438
   731.2500     13.7676     62.9694     12.8634    108.2046
   731.5000     13.6013     62.9218     12.7787    112.1811
   731.7500     13.4422     62.8515     12.6738    115.4049
   732.0000     13.3006     62.7576     12.5516    119.1864
   732.2500     13.1782     62.6421     12.4150    120.0691
   732.5000     13.0742     62.5081     12.2738    118.4653
   732.7500     12.9878     62.3574     12.1448    115.8833
   733.0000     12.9159     62.1903     12.0448    111.4297
   733.2500     12.8538     62.0059     11.9842    109.2858
   733.5000     12.7990     61.8042     11.9633    108.8044
   733.7500     12.7531     61.5891     11.9748    110.3882
   734.0000     12.7147     61.3683     12.0063    114.3856
   734.2500     12.6747     61.1506     12.0438    117.0562
   734.5000     12.6195     60.9420     12.0736    119.4802
   734.7500     12.5463     60.7403     12.0858    119.4195
   735.0000     12.4751     60.5350     12.0781    116.5048
   735.2500     12.4481     60.3099     12.0593    113.2501
   735.5000     12.5127     60.0497     12.0483    108.6084
   735.7500     12.7021     59.7447     12.0696    106.8684
   736.0000     13.0254     59.3931     12.1459    106.5050
   736.2500     13.4662     58.9996     12.2909    106.8397
   736.5000     13.9871     58.5720     12.5052    106.4032
   736.7500     14.5405     58.1175     12.7781    104.9527
   737.0000     15.0876     57.6424     13.0936    101.0526
   737.2500     15.6174     57.1522     13.4410     97.6192
   737.5000     16.1488     56.6544     13.8219     91.9716
   737.7500     16.7130     56.1591     14.2513     88.2538
   738.0000     17.3315     55.6784     14.7517     82.9115
   738.2500     18.0059     55.2246     15.3446     79.3239
   738.5000     18.7221     54.8072     16.0404     73.6369
   738.7500     19.4586     54.4315     16.8312     69.8427
   739.0000     20.1896     54.0986     17.6862     65.1524
   739.2500     20.8853     53.8067     18.5544     63.3273
   739.5000     21.5150     53.5535     19.3746     62.9199
   739.7500     22.0533     53.3365     20.0865     63.8486
   740.0000     22.4834     53.1538     20.6402     66.0076
   740.2500     22.7955     53.0036     20.9989     67.5921
   740.5000     22.9854     52.8833     21.1422     70.2071
   740.7500     23.0563     52.7897     21.0752     72.1350
   741.0000     23.0215     52.7184     20.8404     74.8321
   741.2500     22.9052     52.6644     20.5115     76.1967
   741.5000     22.7367     52.6224     20.1667     77.8443
   741.7500     22.5422     52.5869     19.8569     79.1608
   742.0000     22.3399     52.5520     19.5936     81.7929
   742.2500     22.1403     52.5115     19.3622     83.6110
   742.5000     21.9492     52.4586     19.1506     85.4184
   742.7500     21.7698     52.3863     18.9696     85.6235
   743.0000     21.6040     52.2883     18.8499     84.4804
   743.2500     21.4540     52.1597     18.8190     83.2246
   743.5000     21.3227     51.9978     18.8793     81.7170
   743.7500     21.2109     51.8036     19.0050     81.2679
   744.0000     21.1155     51.5821     19.1572     80.9391
   744.2500     21.0327     51.3421     19.3007     80.4552
   744.5000     20.9610     51.0956     19.4067     79.1047
   744.7500     20.8976     50.8553     19.4482     78.2292
   745.0000     20.8339     50.6326     19.4034     78.1709
   745.2500     20.7571     50.4362     19.2721     79.3186
   745.5000     20.6592     50.2713     19.0867     82.1704
   745.7500     20.5443     50.1396     18.8987     84.1353
   746.0000     20.4277     50.0402     18.7511     86.5507
   746.2500     20.3269     49.9694     18.6606     87.7216
   746.5000     20.2529     49.9222     18.6185     88.4737
   746.7500     20.2069     49.8926     18.6036     88.0935
   747.0000     20.1830     49.8756     18.5929     86.6072
   747.2500     20.1727     49.8667     18.5675     85.6524
   747.5000     20.1668     49.8618     18.5144     84.9182
   747.7500     20.1577     49.8557     18.4301     84.5198
   748.0000     20.1412     49.8408     18.3242     82.6655
   748.2500     20.1182     49.8078     18.2174     80.2123
   748.5000     20.0951     49.7477     18.1332     75.8825
   748.7500     20.0830     49.6554     18.0869     73.8718
   749.0000     20.0944     49.5327     18.0780     73.3281
   749.2500     20.1360     49.3880     18.0953     74.1096
   749.5000     20.2030     49.2344     18.1303     75.4551
   749.7500     20.2801     49.0846     18.1880     76.1648
   750.0000     20.3496     48.9463     18.2829     77.4435
   750.2500     20.4009     48.8201     18.4235     78.5024
   750.5000     20.4347     48.6998     18.6005     79.4063
   750.7500     20.4626     48.5758     18.7895     78.9325
   751.0000     20.5023     48.4386     18.9643     77.0313
   751.2500     20.5703     48.2814     19.1081     76.0765
   751.5000     20.6731     48.0993     19.2154     76.7918
   751.7500     20.8033     47.8881     19.2871     78.7130
   752.0000     20.9453     47.6423     19.3277     82.1908
   752.2500     21.0881     47.3552     19.3461     83.8274
   752.5000     21.2332     47.0207     19.3595     84.5912
   752.7500     21.3909     46.6375     19.3932     84.4548
   753.0000     21.5693     46.2122     19.4739     84.6204
   753.2500     21.7633     45.7622     19.6188     85.3283
   753.5000     21.9462     45.3145     19.8273     86.6564
   753.7500     22.0691     44.9019     20.0795     86.9798
   754.0000     22.0688     44.5563     20.3372     85.7366
   754.2500     21.8904     44.3015     20.5494     83.8390
   754.5000     21.5151     44.1499     20.6589     80.6148
   754.7500     20.9763     44.1023     20.6142     79.2661
   755.0000     20.3486     44.1524     20.3810     79.8719
   755.2500     19.7113     44.2908     19.9487     82.2642
   755.5000     19.1120     44.5072     19.3306     88.2946
   755.7500     18.5531     44.7887     18.5597     93.3836
   756.0000     18.0078     45.1175     17.6810    101.4868
   756.2500     17.4472     45.4698     16.7437    106.4200
   756.5000     16.8612     45.8186     15.7953    111.9466
   756.7500     16.2624     46.1382     14.8778    114.2716
   757.0000     15.6781     46.4094     14.0251    116.8306
   757.2500     15.1347     46.6229     13.2611    118.7440
   757.5000     14.6445     46.7789     12.5985    122.0638
   757.7500     14.2037     46.8856     12.0409    123.7675
   758.0000     13.8018     46.9561     11.5848    124.2243
   758.2500     13.4345     47.0052     11.2237    123.2368
   758.5000     13.1042     47.0472     10.9488    121.1982
   758.7500     12.8102     47.0929     10.7495    120.0832
   759.0000     12.5414     47.1466     10.6114    118.8376
   759.2500     12.2838     47.2045     10.5162    118.1775
   759.5000     12.0352     47.2552     10.4443    117.7047
   759.7500     11.8146     47.2832     10.3813    117.9819
   760.0000     11.6587     47.2741     10.3244    119.3447
   760.2500     11.6085     47.2191     10.2846    120.6066
   760.5000     11.6944     47.1177     10.2815    122.0095
   760.7500     11.9261     46.9764     10.3342    121.9176
   761.0000     12.2904     46.8052     10.4528    119.6476
   761.2500     12.7525     46.6152     10.6366    116.9179
