~Version Information
VERS.                      2.0: CWLS Log ASCII Standard - VERSION 2.0
WRAP.                       NO: One line per depth step
~Well Information Block
STRT.FT               528.0000: 
STOP.FT              2251.5000: 
STEP.FT                 0.2500: 
NULL.                -999.2500: 
COMP.          Pioneer Natural Resources: COMPANY
WELL.           Parklane 43-34: WELL
FLD.           Purgatorie River: FIELD
LOC.           1704' FSL & 1119' FEL: LOCATION
PROV.                 Colorado: PROVINCE
CNTY.               Las Animas: COUNTRY
SRVC.                         : SERVICE COMPANY
DATE.          Thu Oct 07 01:37:17 2004: LOG DATE
UWI.           05 071 08162 00: UNIQUE WELL ID
~Curve Information Block
DEPT.FT            0 000 00 00: Depth
LTEN.lb                       : Surface Line Tension
SN.Ohm-m                      : IEL Short Normal
SP.mV                         : IEL Spontaneous Potential
DIR.Ohm-m                     : IEL Induction Resistivity
GR.GAPI                       : Gamma Ray
~Parameter Information Block
~A  Depth       LTEN         SN          SP         DIR          GR     
# ...
  1788.0000    904.4876     26.9934    -99.2064     11.8538     59.0547
  1788.2500    904.0453     23.3455    -97.8186     10.7159     59.8079
  1788.5000    902.2810     19.7705    -96.6795      9.7969     64.1355
  1788.7500    899.7994     16.5667    -95.9011      9.0632     69.0428
  1789.0000    897.5035     13.9349    -95.5296      8.4728     78.4778
  1789.2500    896.3041     11.9317    -95.5419      7.9856     85.4166
  1789.5000    896.9406     10.4864    -95.8603      7.5690     95.7068
  1789.7500    899.5645      9.4660    -96.3757      7.2004    101.9388
  1790.0000    903.2729      8.7439    -96.9778      6.8677    109.2565
  1790.2500    906.2603      8.2326    -97.5693      6.5676    112.2069
  1790.5000    906.8229      7.8767    -98.0774      6.3019    113.8096
  1790.7500    904.6146      7.6315    -98.4468      6.0732    113.8082
  1791.0000    901.0301      7.4541    -98.6417      5.8820    113.7012
  1791.2500    898.1740      7.3106    -98.6487      5.7276    113.7580
  1791.5000    897.3428      7.1849    -98.4806      5.6097    113.3665
  1791.7500    898.4866      7.0747    -98.1904      5.5293    112.4269
  1792.0000    900.9467      6.9815    -97.8688      5.4874    109.9755
  1792.2500    904.4070      6.9036    -97.6321      5.4826    107.9063
  1792.5000    908.9188      6.8394    -97.5948      5.5087    104.8939
  1792.7500    914.0775      6.7893    -97.8360      5.5549    103.4202
  1793.0000    918.4941      6.7518    -98.3731      5.6081    102.5134
  1793.2500    920.4033      6.7176    -99.1551      5.6579    102.8182
  1793.5000    918.8092      6.6723   -100.0788      5.7019    104.3798
  1793.7500    913.9306      6.6080   -101.0139      5.7452    105.8646
  1794.0000    906.8249      6.5309   -101.8365      5.7969    108.1427
  1794.2500    899.0983      6.4609   -102.4595      5.8628    109.3182
  1794.5000    892.9455      6.4231   -102.8384      5.9419    109.9306
  1794.7500    890.4999      6.4400   -102.9764      6.0272    109.4520
  1795.0000    892.2555      6.5274   -102.9155      6.1086    108.1780
  1795.2500    896.3246      6.6906   -102.7226      6.1780    107.6611
  1795.5000    899.9450      6.9227   -102.4737      6.2329    107.5521
  1795.7500    901.8356      7.2042   -102.2407      6.2783    107.2183
  1796.0000    902.7056      7.5074   -102.0744      6.3256    105.2110
  1796.2500    903.5172      7.8056   -101.9946      6.3872    103.0143
  1796.5000    903.9670      8.0824   -101.9851      6.4707     99.7406
  1796.7500    903.0419      8.3338   -101.9993      6.5773     98.2533
  1797.0000    900.5053      8.5568   -101.9750      6.7038     97.3718
  1797.2500    897.3058      8.7330   -101.8608      6.8477     97.4539
  1797.5000    894.8716      8.8256   -101.6346      7.0085     98.0347
  1797.7500    894.4781      8.7998   -101.3246      7.1844     98.5649
  1798.0000    896.8301      8.6546   -101.0050      7.3687     99.8672
  1798.2500    901.4861      8.4409   -100.7775      7.5505    101.5156
  1798.5000    906.8166      8.2470   -100.7458      7.7209    105.7159
  1798.7500    911.0945      8.1583   -100.9785      7.8789    109.4417
  1799.0000    913.6447      8.2157   -101.4878      8.0273    114.8822
  1799.2500    914.7254      8.4000   -102.2213      8.1636    117.2208
  1799.5000    914.5908      8.6522   -103.0722      8.2729    117.3350
  1799.7500    913.1156      8.9169   -103.9107      8.3346    115.0558
  1800.0000    910.3439      9.1762   -104.6139      8.3373    109.2474
  1800.2500    907.1108      9.4491   -105.0966      8.2906    104.8976
  1800.5000    904.9196      9.7565   -105.3301      8.2212     99.7037
  1800.7500    905.0117     10.0846   -105.3397      8.1582     98.0567
  1801.0000    907.2773     10.3784   -105.1896      8.1196     98.7265
  1801.2500    910.0701     10.5664   -104.9639      8.1084    100.6897
  1801.5000    911.4583     10.5960   -104.7402      8.1135    104.3321
  1801.7500    910.7245     10.4542   -104.5736      8.1146    106.5734
  1802.0000    908.5040     10.1674   -104.4939      8.0884    109.3709
  1802.2500    905.7311      9.7867   -104.5080      8.0173    110.9941
  1802.5000    902.8871      9.3670   -104.6032      7.8965    113.4287
  1802.7500    900.1569      8.9492   -104.7523      7.7327    115.1987
  1803.0000    897.8437      8.5516   -104.9073      7.5382    118.1600
  1803.2500    896.3365      8.1729   -104.9934      7.3255    120.3179
  1803.5000    895.8213      7.8054   -104.9114      7.1065    123.4619
  1803.7500    896.3463      7.4468   -104.5511      6.8924    124.9024
  1804.0000    898.1810      7.1067   -103.8212      6.6921    124.8232
  1804.2500    901.6367      6.8048   -102.6872      6.5096    123.0629
  1804.5000    906.2488      6.5654   -101.1960      6.3450    119.0398
  1804.7500    910.4941      6.4099    -99.4830      6.1979    116.5681
  1805.0000    912.7764      6.3473    -97.7451      6.0711    114.4112
  1805.2500    912.5765      6.3656    -96.1909      5.9712    113.9984
  1805.5000    910.3772      6.4281    -94.9808      5.9054    114.0863
  1805.7500    906.8503      6.4829    -94.1885      5.8767    114.0422
  1806.0000    902.8034      6.4838    -93.7828      5.8799    113.2876
  1806.2500    899.7337      6.4137    -93.6524      5.9028    112.4871
  1806.5000    899.4814      6.2928    -93.6494      5.9316    111.6330
  1806.7500    902.9028      6.1649    -93.6386      5.9580    111.5902
  1807.0000    909.0471      6.0721    -93.5363      5.9817    111.9972
  1807.2500    915.5712      6.0344    -93.3200      6.0069    112.0975
  1807.5000    919.9102      6.0488    -93.0159      6.0372    111.3577
  1807.7500    920.5465      6.1002    -92.6749      6.0738    110.2424
  1808.0000    917.7259      6.1723    -92.3469      6.1168    107.9618
  1808.2500    913.0829      6.2508    -92.0676      6.1687    106.1871
  1808.5000    908.6165      6.3238    -91.8594      6.2361    103.2419
  1808.7500    905.9115      6.3815    -91.7452      6.3274    101.3044
  1809.0000    905.7878      6.4194    -91.7619      6.4481     99.2842
  1809.2500    908.0115      6.4393    -91.9630      6.5961     99.0029
  1809.5000    911.2160      6.4476    -92.4053      6.7620    100.3037
  1809.7500    913.6457      6.4537    -93.1280      6.9352    102.0015
  1810.0000    914.5814      6.4697    -94.1227      7.1122    105.0599
  1810.2500    914.8668      6.5099    -95.3144      7.2983    107.0729
  1810.5000    915.4873      6.5892    -96.5611      7.5010    109.5465
  1810.7500    915.9541      6.7191    -97.6790      7.7216    110.4939
  1811.0000    914.7975      6.9049    -98.4779      7.9530    110.1938
  1811.2500    911.5140      7.1441    -98.8039      8.1861    108.7268
  1811.5000    907.5462      7.4284    -98.5773      8.4180    105.6379
  1811.7500    905.3413      7.7469    -97.8109      8.6562    104.0669
  1812.0000    906.4393      8.0908    -96.6082      8.9141    103.5190
  1812.2500    910.2201      8.4556    -95.1388      9.2044    103.9753
  1812.5000    914.4372      8.8400    -93.5981      9.5374    104.4073
  1812.7500    917.0351      9.2414    -92.1733      9.9235    104.0932
  1813.0000    917.4404      9.6541    -91.0058     10.3738    103.1296
  1813.2500    916.3651     10.0714    -90.1770     10.8950    102.3786
  1813.5000    914.9583     10.4919    -89.7092     11.4831    100.2089
  1813.7500    914.1880     10.9251    -89.5754     12.1261     97.1893
  1814.0000    914.3923     11.3930    -89.7199     12.8155     90.2381
  1814.2500    915.0956     11.9236    -90.0703     13.5581     85.2079
  1814.5000    915.4946     12.5402    -90.5460     14.3733     79.4875
  1814.7500    915.2194     13.2506    -91.0601     15.2748     77.2112
  1815.0000    914.4728     14.0405    -91.5243     16.2497     74.6674
  1815.2500    913.5604     14.8757    -91.8576     17.2453     72.6245
  1815.5000    912.5601     15.7114    -92.0069     18.1732     68.7252
  1815.7500    911.3925     16.5051    -91.9616     18.9324     65.8904
