~Version Information
VERS.                      2.0: CWLS Log ASCII Standard - VERSION 2.0
WRAP.                       NO: One line per depth step
~Well Information Block
STRT.FT               -11.2500: 
STOP.FT              1934.7500: 
STEP.FT                 0.2500: 
NULL.                -999.2500: 
COMP.          Pioneer Natural Resources: COMPANY
WELL.          Commander 43-26 Tr: WELL
FLD.           Purgatorie River: FIELD
LOC.           2439' FSL  & 446' FEL--------: LOCATION
PROV.                       CO: PROVINCE
CNTY.               Las Animas: COUNTRY
SRVC.          Patterson Wireline: SERVICE COMPANY
DATE.          Tue Apr 26 09:07:23 2005: LOG DATE
UWI.           05 071 08341 00: UNIQUE WELL ID
~Curve Information Block
DEPT.FT            0 000 00 00: Depth
CCL.                          : Casing Collar Locator
TT3.usec                      : CBL 3' Travel Time
AMP3.mV                       : CBL 3' Amplitude
GR.GAPI                       : Gamma Ray
~Parameter Information Block
~A  Depth       CCL         TT3         AMP3         GR     
# ...
  1630.2500      0.0000    691.6209      3.8165     89.6458
  1630.5000      0.0000    684.5285      3.7020     97.2009
  1630.7500      0.0000    680.3743      3.6101    108.1732
  1631.0000      0.0000    681.5890      3.5712    119.9739
  1631.2500      0.0000    687.2126      3.5872    130.5249
  1631.5000      0.0000    693.5861      3.6366    138.9250
  1631.7500      0.0000    697.3447      3.6924    145.1688
  1632.0000      0.0000    697.5189      3.7396    149.6231
  1632.2500      0.0000    695.4127      3.7745    152.5868
  1632.5000      0.0000    693.2759      3.7933    153.9832
  1632.7500      0.0000    693.0427      3.7900    153.4803
  1633.0000      0.0000    695.7684      3.7673    151.0730
  1633.2500      0.0000    701.9556      3.7397    147.6277
  1633.5000      0.0000    712.3184      3.7171    144.8516
  1633.7500      0.0000    727.7408      3.6951    144.3940
  1634.0000      0.0000    747.6002      3.6748    146.5457
  1634.2500      0.0000    767.8113      3.6790    150.0151
  1634.5000      0.0000    781.5439      3.7324    153.2801
  1634.7500      0.0000    783.3435      3.8245    155.8020
  1635.0000      0.0000    773.4986      3.9042    157.7201
  1635.2500      0.0000    758.3327      3.9217    158.9837
  1635.5000      0.0000    745.3704      3.8704    159.2300
  1635.7500      0.0000    737.6205      3.7829    158.1881
  1636.0000      0.0000    732.6992      3.6950    155.7530
  1636.2500      0.0000    727.1662      3.6260    151.7269
  1636.5000      0.0000    720.4431      3.5821    145.9560
  1636.7500      0.0000    714.3229      3.5618    139.0490
  1637.0000      0.0000    710.2584      3.5565    132.8453
  1637.2500      0.0000    708.2138      3.5578    129.6879
  1637.5000      0.0000    707.3942      3.5637    130.7664
  1637.7500      0.0000    707.1059      3.5699    135.0398
  1638.0000      0.0000    706.9715      3.5625    140.0510
  1638.2500      0.0000    706.8008      3.5329    143.8490
  1638.5000      0.0000    706.4399      3.4909    145.9281
  1638.7500      0.0000    705.6345      3.4580    146.5232
  1639.0000      0.0000    704.0861      3.4480    145.7701
  1639.2500      0.0000    701.8174      3.4555    143.9853
  1639.5000      0.0000    699.5045      3.4646    142.1266
  1639.7500      0.0000    698.0780      3.4677    141.0311
  1640.0000      0.0000    697.4476      3.4663    140.3753
  1640.2500      0.0000    695.4246      3.4606    139.2744
  1640.5000      0.0000    687.7961      3.4492    137.9029
  1640.7500      0.0000    669.5383      3.4370    137.8773
  1641.0000      0.0000    637.2153      3.4378    140.8706
  1641.2500      0.0000    592.5908      3.4660    146.9589
  1641.5000      0.0000    544.9364      3.5192    154.1683
  1641.7500      0.0000    508.3311      3.5725    159.5329
  1642.0000      0.0000    494.6519      3.5981    160.7937
  1642.2500      0.0000    507.5443      3.5878    157.2962
  1642.5000      0.0000    540.9645      3.5577    149.6905
  1642.7500      0.0000    582.1672      3.5372    139.2542
  1643.0000      0.0000    617.5707      3.5444    127.5219
  1643.2500      0.0000    638.1638      3.5661    116.1150
  1643.5000      0.0000    641.5653      3.5754    106.5999
  1643.7500      0.0000    631.8995      3.5697    100.2643
  1644.0000      0.0000    618.9931      3.5793     97.6231
  1644.2500      0.0000    614.2333      3.6368     97.9451
  1644.5000      0.0000    622.7977      3.7413     99.3840
  1644.7500      0.0000    639.9380      3.8515     99.8739
  1645.0000      0.0000    656.5445      3.9194     98.3859
  1645.2500      0.0000    667.6074      3.9223     95.8226
  1645.5000      0.0000    674.6838      3.8614     94.4927
  1645.7500      0.0000    682.4540      3.7565     96.0080
  1646.0000      0.0000    694.8726      3.6609     99.4853
  1646.2500      0.0000    713.0032      3.6495    102.3954
  1646.5000      0.0000    733.4434      3.7500    103.6365
  1646.7500      0.0000    748.7310      3.8938    105.3020
  1647.0000      0.0000    752.0970      3.9707    110.7140
  1647.2500      0.0000    743.1172      3.9419    120.6976
  1647.5000      0.0000    727.6458      3.8706    132.2226
  1647.7500      0.0000    712.0995      3.8275    140.7923
  1648.0000      0.0000    699.1182      3.7969    144.0027
  1648.2500      0.0000    688.4454      3.7124    142.8240
  1648.5000      0.0000    679.9659      3.5695    139.9282
  1648.7500      0.0000    674.7726      3.4522    137.6026
  1649.0000      0.0000    673.8580      3.4383    137.3599
  1649.2500      0.0000    676.6437      3.5111    140.3155
  1649.5000      0.0000    681.1131      3.5884    146.5239
  1649.7500      0.0000    685.2848      3.6188    153.9588
  1650.0000      0.0000    688.2054      3.6251    159.1189
  1650.2500      0.0000    689.3851      3.6636    159.3395
  1650.5000      0.0000    688.0133      3.7528    154.5021
  1650.7500      0.0000    683.5585      3.8461    146.5311
  1651.0000      0.0000    676.8973      3.8809    137.8084
  1651.2500      0.0000    670.0569      3.8577    130.2626
  1651.5000      0.0000    664.6402      3.8448    125.1176
  1651.7500      0.0000    660.6457      3.8850    122.4526
  1652.0000      0.0000    656.7119      3.9238    120.9809
  1652.2500      0.0000    651.4867      3.8654    119.1147
  1652.5000      0.0000    645.2064      3.6935    116.8059
  1652.7500      0.0000    640.1124      3.5022    115.9822
  1653.0000      0.0000    638.5929      3.3992    118.6463
  1653.2500      0.0000    640.3188      3.4005    124.6709
  1653.5000      0.0000    641.7842      3.4294    131.8658
  1653.7500      0.0000    639.6605      3.4068    138.1965
  1654.0000      0.0000    634.5908      3.3273    143.5396
  1654.2500      0.0000    631.0717      3.2407    149.1039
  1654.5000      0.0000    633.6588      3.1650    155.4730
  1654.7500      0.0000    643.4893      3.0438    161.5639
  1655.0000      0.0000    657.8377      2.8121    165.3800
  1655.2500      0.0000    672.0308      2.4968    165.6049
  1655.5000      0.0000    682.0008      2.2301    162.6787
  1655.7500      0.0000    686.4056      2.1526    158.5015
  1656.0000      0.0000    687.2646      2.3052    154.9241
  1656.2500      0.0000    688.2660      2.6066    152.4800
  1656.5000      0.0000    692.1274      2.9262    150.6531
  1656.7500      0.0000    699.4301      3.1827    148.8614
  1657.0000      0.0000    709.0790      3.3847    146.6014
  1657.2500     -2.0000    718.8680      3.5758    143.0222
  1657.5000     -2.0000    726.1761      3.7459    137.4682
  1657.7500      0.0000    729.7145      3.8224    130.9678
  1658.0000      0.0000    730.5626      3.7622    126.4187
  1658.2500      0.0000    730.6578      3.6276    126.3253
  1658.5000      0.0000    730.8941      3.5405    130.5716
  1658.7500      0.0000    731.1014      3.5601    137.0006
  1659.0000      0.0000    730.6910      3.6279    143.6066
  1659.2500      0.0000    728.7397      3.6412    149.4424
  1659.5000      0.0000    724.5042      3.5696    154.0075
  1659.7500      0.0000    718.4602      3.4897    156.7973
  1660.0000      0.0000    712.2913      3.5063    157.5216
  1660.2500      0.0000    707.4930      3.6407    156.4841
  1660.5000      0.0000    704.2656      3.8001    154.9345
  1660.7500      0.0000    701.7888      3.8634    155.1211
  1661.0000      0.0000    699.3496      3.7976    159.4165
  1661.2500      0.0000    697.1916      3.6835    168.4601
  1661.5000      0.0000    696.2574      3.6260    179.7171
  1661.7500      0.0000    697.0798      3.6451    188.2313
  1662.0000      0.0000    699.0337      3.6563    189.4874
  1662.2500      0.0000    700.7552      3.5611    182.0589
  1662.5000      0.0000    701.0005      3.3606    167.9347
  1662.7500      0.0000    698.9952      3.1766    150.7861
  1663.0000      0.0000    694.4890      3.1472    133.9545
  1663.2500      0.0000    688.1055      3.2960    119.4924
  1663.5000      0.0000    681.5134      3.5054    108.2067
