~Version Information
 VERS.                                  2.0 : CWLS LAS VERSION
 WRAP.                                   NO : WRAPING MODE
 SWARE .                 MController 2.5.0J : SOFTWARE VERSION
~Well Information
 WELL.                         Leier 17-24R : WELL
 COMP.                Petrogulf Corporation : COMPANY
 FLD.                      Purgatoire River : FIELD
 LOC.                SE/NE Sec 17 T33S R67W : LOCATION
 DATE.                          10/17-18/05 : DATE(S) LOGGED
 SRVC.       BLANCO Geological Services LLC : SERVICE COMPANY
 STAT.                                   CO : STATE
 CNTY.                           Las Animas : COUNTY
 CTRY.                                  USA : COUNTRY
 API.                       05-071-08410-00 : API NUMBER
 STRT.FT                              31.00 : START DEPTH
 STOP.FT                            1390.00 : STOP DEPTH
 STEP.FT                               1.00 : DEPTH INCREMENT
 NULL.                                -9999 : NULL VALUE
~Curve information
 DEPTH.FT                                   :
 ROP.MIN/FT                                 :
 GAS.UNITS                                  :
~ASCII Log data
# ...
       231.0         0.27          8.8 
       232.0         0.27          9.2 
       233.0         0.30          9.2 
       234.0         0.30          8.9 
       235.0         0.33          8.7 
       236.0         1.65          8.8 
       237.0         0.30          8.4 
       238.0         0.33          7.8 
       239.0         0.20          8.2 
       240.0         0.27          8.1 
       241.0         0.27          8.4 
       242.0         0.27          8.4 
       243.0         0.27          8.3 
       244.0         0.23          7.9 
       245.0         0.27          8.0 
       246.0         0.33          8.0 
       247.0         0.37          7.5 
       248.0         0.28          7.5 
       249.0         0.27          7.4 
       250.0         0.27          7.9 
       251.0         0.27          7.7 
       252.0         0.30          7.5 
       253.0         0.27          7.6 
       254.0         0.27          7.5 
       255.0         0.27          7.2 
       256.0         0.30          7.6 
       257.0         0.27          7.4 
       258.0         0.27          7.6 
       259.0         0.27          7.3 
       260.0         0.28          7.3 
       261.0         0.27          7.5 
       262.0         0.30          7.6 
       263.0         0.23          7.0 
       264.0         0.23          7.2 
       265.0         0.17          7.4 
       266.0         1.13          7.2 
       267.0         0.20          6.9 
       268.0         0.20          7.0 
       269.0         0.27          7.0 
       270.0         0.25          6.9 
       271.0         0.30          6.9 
       272.0         0.30          7.0 
       273.0         0.23          7.1 
       274.0         0.27          7.0 
       275.0         0.30          7.0 
       276.0         0.27          7.3 
       277.0         0.27          7.3 
       278.0         0.20          7.0 
       279.0         0.23          7.0 
       280.0         0.23          7.1 
       281.0         0.20          6.7 
       282.0         0.20          7.0 
       283.0         0.55          7.5 
       284.0         0.53          7.1 
       285.0         0.40          7.2 
       286.0         0.30          7.2 
       287.0         0.27          6.9 
       288.0         0.23          7.2 
       289.0         0.20          6.5 
       290.0         0.17          6.6 
       291.0         0.17          6.8 
       292.0         0.27          7.0 
       293.0         0.23          6.6 
       294.0         0.25          6.7 
       295.0         0.30          6.9 
       296.0         1.77          7.0 
       297.0         0.30          6.6 
       298.0         0.27          6.6 
       299.0         0.23          6.8 
       300.0         0.28          6.7 
       301.0         0.27          6.5 
       302.0         0.37          6.3 
       303.0         0.43          6.6 
       304.0         0.27          6.4 
       305.0         0.43          6.4 
       306.0         0.37          6.2 
       307.0         0.37          6.5 
       308.0         0.40          6.0 
       309.0         0.35          6.3 
       310.0         0.33          6.4 
       311.0         0.37          6.1 
       312.0         0.33          6.2 
       313.0         0.37          6.2 
       314.0         0.33          6.0 
       315.0         0.33          6.2 
       316.0         0.27          5.9 
       317.0         0.23          6.1 
       318.0         0.20          5.9 
       319.0         0.30          5.6 
       320.0         0.28          5.5 
       321.0         0.27          5.8 
       322.0         0.30          6.0 
       323.0         0.23          6.0 
       324.0         0.30          5.5 
       325.0         0.33          5.9 
       326.0         1.37          5.9 
       327.0         0.28          5.3 
       328.0         0.30          5.3 
       329.0         0.27          5.5 
       330.0         0.30          5.5 
       331.0         0.27          5.4 
       332.0         0.27          5.5 
       333.0         0.27          5.3 
       334.0         0.33          5.2 
       335.0         0.23          5.1 
       336.0         0.23          5.2 
       337.0         0.27          5.0 
       338.0         0.30          5.2 
       339.0         0.23          5.0 
       340.0         0.28          5.0 
       341.0         0.37          4.9 
       342.0         0.30          4.9 
       343.0         0.43          4.8 
       344.0         0.33          5.0 
       345.0         0.40          5.0 
       346.0         0.33          4.9 
       347.0         0.30          4.8 
       348.0         0.23          4.3 
       349.0         0.27          5.0 
       350.0         0.22          4.4 
       351.0         0.17          4.4 
       352.0         0.13          4.7 
       353.0         0.17          4.4 
       354.0         0.13          4.6 
       355.0         0.17          4.3 
       356.0         1.37          4.7 
       357.0         0.30          4.6 
       358.0         0.43          4.7 
       359.0         0.38          4.6 
       360.0         0.33          4.4 
       361.0         0.50          4.4 
       362.0         0.30          4.4 
       363.0         0.30          4.4 
       364.0         0.27          4.1 
       365.0         0.23          4.0 
       366.0         0.13          4.1 
       367.0         0.13          4.1 
       368.0         0.27          3.8 
       369.0         0.37          4.3 
       370.0         0.28          3.9 
       371.0         0.13          3.8 
       372.0         0.23          3.8 
       373.0         0.37          3.7 
       374.0         0.30          3.9 
       375.0         0.23          3.9 
       376.0         0.27          4.1 
       377.0         0.23          3.9 
       378.0         0.20          4.1 
       379.0         0.27          4.0 
       380.0         0.27          3.9 
       381.0         0.22          3.7 
       382.0         0.23          3.9 
       383.0         0.20          3.4 
       384.0         0.23          3.7 
       385.0         0.20          3.6 
       386.0         1.47          6.3 
       387.0         0.30         25.2 
       388.0         0.27         51.0 
       389.0         0.18         63.2 
       390.0         0.10         67.2 
       391.0         0.13         70.2 
       392.0         0.10         71.9 
       393.0         0.17         73.5 
       394.0         0.27         74.5 
       395.0         0.33         78.8 
       396.0         0.37        101.3 
       397.0         0.23        112.0 
       398.0         0.10        114.7 
       399.0         0.13        116.7 
       400.0         0.13        117.9 
       401.0         0.17        118.4 
       402.0         0.27        118.4 
       403.0         0.30        117.9 
       404.0         0.38        116.8 
       405.0         0.33        100.9 
       406.0         0.33        106.2 
       407.0         0.33        107.4 
       408.0         0.37        106.8 
       409.0         0.33        104.3 
       410.0         0.33        102.5 
       411.0         0.40        100.7 
       412.0         0.33        102.6 
       413.0         0.35         98.4 
       414.0         0.30        118.8 
       415.0         0.20        129.4 
       416.0         1.60       1448.7 
       417.0         0.17        641.6 
       418.0         0.13        627.3 
       419.0         0.10        620.0 
       420.0         0.13        614.9 
       421.0         0.17        609.5 
       422.0         0.13        606.7 
       423.0         0.18        607.0 
       424.0         0.13        608.6 
       425.0         0.13        610.2 
       426.0         0.10        609.2 
       427.0         0.13        608.9 
       428.0         0.13        607.0 
       429.0         0.13        610.5 
       430.0         0.13        607.9 
