~Version Information
VERS.                      2.0: CWLS Log ASCII Standard - VERSION 2.0
WRAP.                       NO: One line per depth step
~Well Information Block
STRT.FT                -6.7500: 
STOP.FT              1181.0000: 
STEP.FT                 0.2500: 
NULL.                -999.2500: 
COMP.          Pioneer Natural Resources: COMPANY
WELL.          Pacheco 33-27 Tr: WELL
FLD.           Purgatorie River: FIELD
LOC.           2251' FSL & 2342' FEL--: LOCATION
PROV.                       CO: PROVINCE
CNTY.               Las Animas: COUNTRY
SRVC.          Patterson Wireline: SERVICE COMPANY
DATE.          Wed Jun 15 10:58:02 2005: LOG DATE
UWI.           05 071 08384 00: UNIQUE WELL ID
~Curve Information Block
DEPT.FT            0 000 00 00: Depth
CCL.                          : Casing Collar Locator
TT3.usec                      : CBL 3' Travel Time
AMP3.mV                       : CBL 3' Amplitude
GR.GAPI                       : Gamma Ray
~Parameter Information Block
~A  Depth       CCL         TT3         AMP3         GR     
# ...
   529.2500      2.0000    832.6475      8.2791     77.2010
   529.5000      0.0000    825.1722      8.2016     64.3205
   529.7500      0.0000    807.2452      8.2589     53.8231
   530.0000      0.0000    775.8196      8.4826     46.4533
   530.2500      0.0000    737.5335      8.8450     42.3490
   530.5000      0.0000    707.6147      9.2726     41.6422
   530.7500      0.0000    697.7436      9.7176     44.3211
   531.0000      0.0000    706.2001     10.1941     49.8210
   531.2500      0.0000    722.3141     10.7256     57.5282
   531.5000      0.0000    737.9358     11.2830     67.6996
   531.7500      0.0000    751.9760     11.8030     80.9346
   532.0000      0.0000    766.4974     12.2518     96.2644
   532.2500      0.0000    781.8329     12.6510    110.4620
   532.5000      0.0000    795.0797     13.0475    120.0215
   532.7500      0.0000    801.7740     13.4560    123.8386
   533.0000      0.0000    799.6772     13.8228    123.6343
   533.2500      0.0000    792.0616     14.0447    121.8082
   533.5000      0.0000    786.1545     14.0420    119.4049
   533.7500      0.0000    787.0132     13.8221    116.4764
   534.0000      0.0000    793.2933     13.4674    113.6664
   534.2500      0.0000    799.5585     13.0578    112.2726
   534.5000      0.0000    801.6136     12.6145    112.5925
   534.7500      0.0000    798.4037     12.1252    113.0647
   535.0000      0.0000    789.8270     11.6057    111.6920
   535.2500      0.0000    775.6012     11.1145    108.0449
   535.5000      0.0000    757.4793     10.7022    103.3843
   535.7500      0.0000    740.9922     10.3607     99.2311
   536.0000      0.0000    733.2599     10.0380     96.5046
   536.2500      0.0000    738.6562      9.7107     95.6026
   536.5000      0.0000    755.9985      9.4273     96.4520
   536.7500      0.0000    779.0681      9.2637     98.7318
   537.0000      0.0000    800.1417      9.2314    102.5151
   537.2500      0.0000    813.9700      9.2482    108.2332
   537.5000      0.0000    818.9705      9.2139    115.6263
   537.7500      0.0000    815.6016      9.1075    123.1893
   538.0000      0.0000    805.2209      8.9990    129.0875
   538.2500      0.0000    790.9862      8.9672    132.6275
   538.5000      0.0000    778.2016      9.0168    134.8616
   538.7500      0.0000    771.6611      9.0792    137.7795
   539.0000      0.0000    772.3544      9.0890    142.3413
   539.2500      0.0000    777.5411      9.0449    146.8107
   539.5000      0.0000    783.6440      8.9911    147.5417
   539.7500      0.0000    788.3174      8.9510    142.0823
   540.0000      0.0000    790.6631      8.9041    131.5267
   540.2500      0.0000    791.2114      8.8346    119.9237
   540.5000      0.0000    791.9090      8.7791    111.5695
   540.7500      0.0000    795.0394      8.8006    108.2491
   541.0000      0.0000    801.4409      8.9151    108.2349
   541.2500      0.0000    809.7871      9.0630    108.0502
   541.5000      0.0000    817.6752      9.1621    105.8124
   541.7500      0.0000    823.3826      9.1831    102.8314
   542.0000      0.0000    826.6483      9.1685    101.7122
   542.2500      0.0000    828.1670      9.1794    103.3822
   542.5000      0.0000    828.7441      9.2298    106.5431
   542.7500      0.0000    828.8080      9.2819    109.6044
   543.0000      0.0000    828.2057      9.3055    112.2675
   543.2500      0.0000    825.9620      9.3234    115.2998
   543.5000      0.0000    820.1851      9.3777    119.4310
   543.7500      0.0000    808.7411      9.4601    124.5270
   544.0000      0.0000    790.8577      9.4970    129.4298
   544.2500      0.0000    768.4694      9.4194    132.5168
   544.5000      0.0000    745.7192      9.2389    132.7004
   544.7500      0.0000    726.8862      9.0416    130.3860
   545.0000      0.0000    714.7357      8.9053    127.7080
   545.2500      0.0000    710.5941      8.8339    127.0915
   545.5000      0.0000    715.3365      8.7793    128.7008
   545.7500      0.0000    729.2993      8.7131    129.7798
   546.0000      0.0000    750.4725      8.6557    127.4714
   546.2500      0.0000    773.0854      8.6293    121.8968
   546.5000      0.0000    789.4716      8.6070    115.6897
   546.7500      0.0000    794.5255      8.5340    111.0499
   547.0000      0.0000    788.6263      8.4024    108.2714
   547.2500      0.0000    776.3818      8.2797    106.8417
   547.5000      0.0000    763.0441      8.2414    106.7051
   547.7500      0.0000    752.0826      8.2838    107.9924
   548.0000      0.0000    744.8302      8.3253    110.2776
   548.2500      0.0000    740.8901      8.3025    112.8383
   548.5000      0.0000    738.7357      8.2433    115.4584
   548.7500      0.0000    736.7517      8.2235    118.4144
   549.0000      0.0000    734.3304      8.2667    121.7683
   549.2500      0.0000    732.3423      8.3167    125.1956
   549.5000      0.0000    732.6939      8.3144    128.4855
   549.7500      0.0000    737.2646      8.2767    131.6585
   550.0000      0.0000    747.1125      8.2772    134.4042
   550.2500      0.0000    762.3270      8.3584    135.9249
   550.5000      0.0000    781.8388      8.4803    135.8409
   550.7500      0.0000    802.7941      8.5605    135.0094
   551.0000      0.0000    820.8293      8.5593    134.7292
   551.2500      0.0000    832.3367      8.5207    134.9628
   551.5000      0.0000    837.1165      8.5224    133.9904
   551.7500      0.0000    838.4976      8.5875    130.2041
   552.0000      0.0000    840.5952      8.6556    123.8752
   552.2500      0.0000    845.4099      8.6537    116.8928
   552.5000      0.0000    852.1044      8.5883    111.1378
   552.7500      0.0000    858.3758      8.5501    107.3832
   553.0000      0.0000    862.2343      8.6186    105.4126
   553.2500      0.0000    862.7879      8.7690    104.5631
   553.5000      0.0000    860.1503      8.8861    104.0688
   553.7500      0.0000    855.2113      8.8739    103.3649
   554.0000      0.0000    849.1563      8.7434    102.4855
   554.2500      0.0000    842.3426      8.5918    102.2751
   554.5000      0.0000    833.6898      8.4998    103.8199
   554.7500      0.0000    822.2696      8.4530    107.3508
   555.0000      0.0000    809.8972      8.3684    111.9697
   555.2500      0.0000    800.9061      8.1928    116.6124
   555.5000      0.0000    798.0328      7.9685    120.8158
   555.7500      0.0000    799.0525      7.7950    124.5388
   556.0000      0.0000    798.9111      7.7297    127.8665
   556.2500      0.0000    794.9222      7.7375    131.0095
   556.5000      0.0000    788.6158      7.7394    134.2180
   556.7500      0.0000    783.0821      7.6971    137.4848
   557.0000      0.0000    780.2148      7.6439    140.2367
   557.2500      0.0000    780.6378      7.6332    141.2702
   557.5000      0.0000    784.8417      7.6710    139.1729
   557.7500      0.0000    793.2093      7.7093    133.0229
   558.0000      0.0000    804.8992      7.7089    123.0465
   558.2500      0.0000    817.4237      7.6940    111.1142
   558.5000      0.0000    827.9851      7.7290    100.4309
   558.7500      0.0000    835.1127      7.8426     94.0844
   559.0000      0.0000    838.7182      7.9837     93.4989
   559.2500      0.0000    839.0266      8.0648     98.0813
   559.5000      0.0000    835.9710      8.0516    105.9913
   559.7500      0.0000    829.4637      8.0042    115.0083
   560.0000      0.0000    819.9903      8.0207    123.0463
   560.2500      0.0000    809.1045      8.1366    128.8154
   560.5000      0.0000    799.4937      8.2928    132.5886
   560.7500      0.0000    794.1691      8.4060    135.7733
   561.0000      0.0000    794.7190      8.4574    139.1549
   561.2500      0.0000    799.7254      8.4953    141.8777
   561.5000      0.0000    805.0503      8.5585    142.3485
   561.7500      0.0000    806.6712      8.6174    139.9310
   562.0000      0.0000    803.9164      8.5974    135.9071
   562.2500      0.0000    799.5640      8.4561    132.8486
   562.5000      0.0000    796.7056      8.2332    132.5092
