~Version Information
VERS.                      2.0: CWLS Log ASCII Standard - VERSION 2.0
WRAP.                       NO: One line per depth step
~Well Information Block
STRT.FT                -8.0000: 
STOP.FT              2410.0000: 
STEP.FT                 0.2500: 
NULL.                -999.2500: 
COMP.          Petrogulf Corporation: COMPANY
WELL.            Torcom 17-33V: WELL
FLD.           Purgatorie River: FIELD
LOC.           1544' FSL & 1746' FEL--: LOCATION
PROV.                       CO: PROVINCE
CNTY.               Las Animas: COUNTRY
SRVC.          Patterson Wireline: SERVICE COMPANY
DATE.          Wed Dec 10 17:24:27 2003: LOG DATE
UWI.                          : UNIQUE WELL ID
~Curve Information Block
DEPT.FT            0 000 00 00: Depth
CCL.                          : Casing Collar Locator
TT3.usec                      : CBL 3' Travel Time
AMP3.mV                       : CBL 3' Amplitude
GR.GAPI                       : Gamma Ray
~Parameter Information Block
~A  Depth       CCL         TT3         AMP3         GR     
# ...
   293.5000      0.0000    691.2468      3.0357     98.9972
   293.7500      0.0000    694.2686      3.1358     98.3265
   294.0000      0.0000    703.5459      3.3808     97.4049
   294.2500      0.0000    719.0158      3.6189     95.8095
   294.5000      0.0000    734.8842      3.7216     93.5537
   294.7500      0.0000    745.0377      3.6580     90.9157
   295.0000      0.0000    750.1833      3.5004     88.1787
   295.2500      0.0000    757.5982      3.3764     85.6444
   295.5000      0.0000    772.5459      3.3897     83.8040
   295.7500      0.0000    790.9451      3.5435     83.1935
   296.0000      0.0000    801.9017      3.7303     83.9223
   296.2500      0.0000    797.5738      3.8120     85.4078
   296.5000      0.0000    780.8047      3.7283     86.6851
   296.7500      0.0000    763.1885      3.5407     87.1329
   297.0000      0.0000    754.5444      3.3780     87.0251
   297.2500      0.0000    753.9125      3.3330     87.2995
   297.5000      0.0000    751.8726      3.3964     88.5259
   297.7500      0.0000    740.6815      3.4704     90.1269
   298.0000      0.0000    720.6130      3.4358     90.9000
   298.2500      0.0000    698.4628      3.2338     90.3150
   298.5000      0.0000    682.3992      2.9228     89.0765
   298.7500      0.0000    676.8721      2.6616     88.4462
   299.0000      0.0000    680.1637      2.6068     89.1868
   299.2500      0.0000    686.2871      2.7935     91.0624
   299.5000      0.0000    689.3213      3.1079     93.0760
   299.7500      0.0000    686.5295      3.3777     94.2290
   300.0000      0.0000    678.8621      3.4954     94.1934
   300.2500      0.0000    669.7484      3.4687     93.2324
   300.5000      0.0000    663.6359      3.3767     91.7811
   300.7500      0.0000    664.3321      3.2981     90.5228
   301.0000      0.0000    672.6817      3.2708     90.5342
   301.2500      0.0000    685.2911      3.2848     92.7033
   301.5000      0.0000    697.5783      3.2978     97.0210
   301.7500      0.0000    709.2664      3.2755    102.6655
   302.0000      1.8307    724.4567      3.2323    108.4490
   302.2500      0.0000    744.0003      3.2285    112.9501
   302.5000      0.0000    760.4677      3.3187    114.7933
   302.7500      0.0000    764.5809      3.5029    113.5213
   303.0000      0.0000    755.6204      3.7237    110.0361
   303.2500      0.0000    742.2117      3.9009    105.7375
   303.5000      0.0000    733.5253      3.9795    101.4745
   303.7500      0.0000    732.2818      3.9694     97.5833
   304.0000      0.0000    735.6366      3.9345     94.2347
   304.2500      0.0000    739.9889      3.9237     91.1251
   304.5000      0.0000    744.0557      3.9146     87.5025
   304.7500      0.0000    748.4103      3.8433     83.3326
   305.0000      0.0000    752.9384      3.6904     80.1442
   305.2500      0.0000    754.9395      3.5223     80.0834
   305.5000      0.0000    750.6799      3.4356     84.2410
   305.7500      0.0000    739.8417      3.4568     91.9834
   306.0000      0.0000    727.4292      3.5088    101.3830
   306.2500      0.0000    719.4229      3.4905    110.0671
   306.5000      0.0000    716.8622      3.3878    116.1949
   306.7500      0.0000    715.9279      3.2871    119.1186
   307.0000      0.0000    713.6878      3.2746    119.2046
   307.2500      0.0000    712.0715      3.3377    117.1542
   307.5000      0.0000    715.8103      3.3772    113.6196
   307.7500      0.0000    728.0447      3.3133    109.3659
   308.0000      0.0000    748.7302      3.1749    105.5565
   308.2500      0.0000    775.3405      3.0861    103.5681
   308.5000      0.0000    802.6410      3.1541    104.1586
   308.7500      0.0000    822.6361      3.3590    106.6459
   309.0000      0.0000    828.1551      3.5595    109.2213
   309.2500      0.0000    818.4987      3.6216    110.4969
   309.5000      0.0000    800.7645      3.5484    110.6291
   309.7500      0.0000    784.2511      3.4747    110.5518
   310.0000      0.0000    773.4225      3.5257    110.3405
   310.2500      0.0000    766.5944      3.6882    109.0433
   310.5000      0.0000    760.2589      3.8321    106.1783
   310.7500      0.0000    752.3604      3.8516    102.6966
   311.0000      0.0000    741.2319      3.7649    100.1923
   311.2500      0.0000    724.0054      3.6771     99.5946
   311.5000      0.0000    698.5094      3.6675    100.8206
   311.7500      0.0000    667.0635      3.7236    103.3304
   312.0000      0.0000    637.1647      3.7769    106.6111
   312.2500      0.0000    616.9460      3.7886    110.0663
   312.5000      0.0000    609.3602      3.7840    112.7344
   312.7500      0.0000    611.1064      3.7940    113.6085
   313.0000      0.0000    616.7054      3.7867    112.4318
   313.2500      0.0000    622.4588      3.6923    109.9963
   313.5000      0.0000    626.9473      3.5025    107.5322
   313.7500      0.0000    629.8899      3.3166    105.7756
   314.0000      0.0000    631.6086      3.2602    104.4512
   314.2500      0.0000    633.1180      3.3552    102.5652
   314.5000      0.0000    636.3615      3.4940     99.2508
   314.7500      0.0000    644.2067      3.5500     94.5453
   315.0000      0.0000    659.3837      3.4979     89.5007
   315.2500      0.0000    682.0148      3.4075     85.2988
   315.5000      0.0000    707.7861      3.3390     82.0410
   315.7500      0.0000    729.6351      3.2821     78.7712
   316.0000      0.0000    742.3683      3.2093     74.8834
   316.2500      0.0000    745.6857      3.1558     71.0006
   316.5000      0.0000    742.6066      3.2015     68.2135
   316.7500      0.0000    735.6598      3.3740     66.9345
   317.0000      0.0000    725.3824      3.5987     66.6954
   317.2500      0.0000    712.4316      3.7621     66.6873
   317.5000      0.0000    700.1855      3.8045     66.3881
   317.7500      0.0000    694.1740      3.7407     66.0140
   318.0000      0.0000    698.3392      3.6118     66.3461
   318.2500      0.0000    711.6509      3.4440     67.7596
   318.5000      0.0000    728.4497      3.2590     69.5069
   318.7500      0.0000    742.9391      3.1005     70.4827
   319.0000      1.6962    754.1545      3.0155     70.6701
   319.2500      2.0000    765.2352      2.9962     71.3607
   319.5000      0.0000    776.4586      2.9712     73.9641
   319.7500      0.0000    781.0878      2.8860     78.8312
   320.0000      0.0000    770.9872      2.7801     84.8735
   320.2500      0.0000    745.3926      2.7476     89.8773
   320.5000      0.0000    711.9905      2.8251     91.7104
   320.7500      0.0000    680.4968      2.9570     90.0681
   321.0000      0.0000    656.9083      3.0769     86.9508
   321.2500      0.0000    642.4443      3.1793     84.9339
   321.5000      0.0000    635.4199      3.2818     85.1630
   321.7500      0.0000    633.6394      3.3565     87.2615
   322.0000      0.0000    636.1371      3.3572     90.4283
   322.2500      0.0000    643.6385      3.3012     93.8478
   322.5000      0.0000    657.4203      3.2677     96.4043
   322.7500      0.0000    677.1887      3.3037     96.9846
   323.0000      0.0000    699.9642      3.3774     95.3402
   323.2500      0.0000    721.5529      3.4406     92.3581
   323.5000      0.0000    739.0834      3.4932     89.4269
   323.7500      0.0000    751.5137      3.5565     87.6820
   324.0000      0.0000    757.9753      3.6172     87.6492
   324.2500      0.0000    756.7100      3.6387     89.1891
   324.5000      0.0000    746.1721      3.6181     91.7845
   324.7500      0.0000    727.2900      3.5907     94.9693
   325.0000      0.0000    704.9465      3.5752     98.1763
   325.2500      0.0000    686.5443      3.5462    100.1457
   325.5000      0.0000    677.5661      3.4806     99.4222
   325.7500      0.0000    677.7230      3.4065     96.0182
   326.0000      0.0000    681.4929      3.3690     91.8479
   326.2500      0.0000    682.2194      3.3601     88.8299
   326.5000      0.0000    676.1074      3.3255     87.1172
   326.7500      0.0000    663.9380      3.2485     85.6990
