~Version Information
VERS.                      2.0: CWLS Log ASCII Standard - VERSION 2.0
WRAP.                       NO: One line per depth step
~Well Information Block
STRT.FT               -11.0000: 
STOP.FT              1523.2500: 
STEP.FT                 0.2500: 
NULL.                -999.2500: 
COMP.          Petrogulf Corporation: COMPANY
WELL.             State 16-43R: WELL
FLD.           Purgatorie River: FIELD
LOC.           2538' FSL & 716' FEL--: LOCATION
PROV.                       CO: PROVINCE
CNTY.               Las Animas: COUNTRY
SRVC.          Patterson Wireline: SERVICE COMPANY
DATE.          Fri Sep 09 13:13:52 2005: LOG DATE
UWI.           05 071 08338 00: UNIQUE WELL ID
~Curve Information Block
DEPT.FT            0 000 00 00: Depth
CCL.                          : Casing Collar Locator
TT3.usec                      : CBL 3' Travel Time
AMP3.mV                       : CBL 3' Amplitude
GR.GAPI                       : Gamma Ray
~Parameter Information Block
~A  Depth       CCL         TT3         AMP3         GR     
# ...
   793.0000      0.0000    816.6542      8.4180     71.9889
   793.2500      0.0000    773.4504      8.9953     80.0059
   793.5000      0.0000    740.8259      9.5024     88.4614
   793.7500      0.0000    723.8435      9.8021     96.3269
   794.0000      0.0000    722.2328      9.7769    101.4005
   794.2500      0.0000    731.5162      9.4355    101.8347
   794.5000      0.0000    745.0598      8.9323     97.5040
   794.7500      0.0000    757.0591      8.4697     90.3642
   795.0000      0.0000    765.0317      8.1800     83.9090
   795.2500      0.0000    769.8293      8.0847     81.8909
   795.5000      0.0000    773.1436      8.1404     86.4998
   795.7500      0.0000    774.7432      8.3032     97.0573
   796.0000      0.0000    771.9338      8.5562    110.4165
   796.2500      0.0000    761.9737      8.8950    122.8901
   796.5000      0.0000    745.8663      9.2991    132.2541
   796.7500      0.0000    729.9529      9.7228    138.3635
   797.0000      0.0000    722.5829     10.1150    142.0125
   797.2500      0.0000    727.8289     10.4478    143.4486
   797.5000      0.0000    742.1779     10.7193    142.3197
   797.7500      0.0000    757.5024     10.9345    138.8034
   798.0000      0.0000    766.8162     11.0961    134.2296
   798.2500      0.0000    767.1290     11.2179    130.4915
   798.5000      0.0000    758.5751     11.3278    128.9244
   798.7500      0.0000    743.5980     11.4490    129.5695
   799.0000      0.0000    727.2145     11.5778    131.4099
   799.2500      0.0000    715.1981     11.6860    133.2985
   799.5000      0.0000    710.1730     11.7424    134.4471
   799.7500      0.0000    710.6136     11.7323    134.1479
   800.0000      0.0000    714.3710     11.6627    131.7330
   800.2500      0.0000    721.2842     11.5578    127.2710
   800.5000      0.0000    731.2583     11.4506    121.9349
   800.7500      0.0000    741.7172     11.3727    117.0964
   801.0000      0.0000    748.8756     11.3439    113.1450
   801.2500      0.0000    751.0243     11.3670    109.8543
   801.5000      0.0000    749.5012     11.4274    107.8009
   801.7500      0.0000    746.6299     11.4940    108.2716
   802.0000      0.0000    743.3358     11.5239    111.3505
   802.2500      0.0000    738.6337     11.4708    115.1249
   802.5000      0.0000    730.9462     11.2952    117.5298
   802.7500      0.0000    719.8483     10.9697    118.3425
   803.0000      0.0000    706.6200     10.4949    118.7886
   803.2500      0.0000    693.3821      9.9334    119.7070
   803.5000      0.0000    682.3885      9.4148    120.8835
   803.7500      0.0000    676.2030      9.0542    122.0511
   804.0000      0.0000    677.0974      8.8576    123.4847
   804.2500      0.0000    684.8837      8.7534    124.9996
   804.5000      0.0000    695.7733      8.7045    125.0418
   804.7500      0.0000    704.6146      8.7330    121.6295
   805.0000     -2.0000    708.8122      8.8494    114.0526
   805.2500      2.0000    709.6240      9.0176    103.2695
   805.5000      0.0000    709.5176      9.1990     91.0323
   805.7500      0.0000    708.6432      9.4133     79.0793
   806.0000      0.0000    704.1490      9.7496     68.7989
   806.2500      0.0000    693.9467     10.2891     61.0036
   806.5000      0.0000    682.1992     10.9755     55.8511
   806.7500      0.0000    678.5550     11.5839     52.9782
   807.0000      0.0000    688.8916     11.8962     51.6894
   807.2500      0.0000    708.8838     11.9014     51.1927
   807.5000      0.0000    729.0311     11.7704     50.9191
   807.7500      0.0000    743.2892     11.6664     50.6319
   808.0000      0.0000    751.3632     11.6384     50.1908
   808.2500      0.0000    755.7951     11.6588     49.3431
   808.5000      0.0000    758.8578     11.6911     47.8162
   808.7500      0.0000    761.0616     11.7166     45.5275
   809.0000      0.0000    761.3663     11.7315     42.6398
   809.2500      0.0000    758.0448     11.7364     39.4571
   809.5000      0.0000    749.6255     11.7281     36.3365
   809.7500      0.0000    736.6501     11.7007     33.6799
   810.0000      0.0000    723.4833     11.6539     31.8882
   810.2500      0.0000    716.4850     11.5979     31.1756
   810.5000      0.0000    718.3812     11.5512     31.3652
   810.7500      0.0000    725.2719     11.5281     31.8871
   811.0000      0.0000    730.2673     11.5262     32.1306
   811.2500      0.0000    729.0833     11.5248     31.9530
   811.5000      0.0000    722.0891     11.5000     31.8170
   811.7500      0.0000    713.0553     11.4450     32.1893
   812.0000      0.0000    706.8533     11.3752     32.7722
   812.2500      0.0000    706.9865     11.3151     32.7156
   812.5000      0.0000    713.6148     11.2767     31.7643
   812.7500      0.0000    722.9082     11.2468     30.8499
   813.0000      0.0000    728.2407     11.1954     31.3618
   813.2500      0.0000    723.5419     11.1031     34.0267
   813.5000      0.0000    707.5792     10.9827     38.4241
   813.7500      0.0000    685.3105     10.8717     43.1751
   814.0000      0.0000    663.8708     10.8027     46.6244
   814.2500      0.0000    646.5973     10.7827     47.8129
   814.5000      0.0000    632.0090     10.7986     47.0393
   814.7500      0.0000    619.3796     10.8340     45.4402
   815.0000      0.0000    613.5999     10.8779     44.1349
   815.2500      0.0000    622.0702     10.9204     43.8761
   815.5000      0.0000    646.7373     10.9458     45.3109
   815.7500      0.0000    680.5639     10.9372     49.2195
   816.0000      0.0000    711.8784     10.8892     56.3727
   816.2500      0.0000    731.9372     10.8166     67.1565
   816.5000      0.0000    739.3802     10.7469     81.2296
   816.7500      0.0000    738.4598     10.7046     97.3166
   817.0000      0.0000    733.3118     10.6987    113.2948
   817.2500      0.0000    724.8503     10.7192    126.8310
   817.5000      0.0000    713.3842     10.7412    136.4141
   817.7500      0.0000    702.1771     10.7404    141.9952
   818.0000      0.0000    696.6559     10.7130    144.6340
   818.2500      0.0000    700.7184     10.6772    145.5000
   818.5000      0.0000    714.4490     10.6502    145.0812
   818.7500      0.0000    734.3141     10.6302    143.0886
   819.0000      0.0000    754.7350     10.6038    139.0783
   819.2500      0.0000    770.2644     10.5652    133.3628
   819.5000      0.0000    777.6477     10.5176    127.3463
   819.7500      0.0000    776.6329     10.4598    122.6235
   820.0000      0.0000    769.2383     10.3786    119.7279
   820.2500      0.0000    758.2504     10.2603    118.1371
   820.5000      0.0000    745.9921     10.1092    117.3837
   820.7500      0.0000    734.0308      9.9527    117.6169
   821.0000      0.0000    723.3450      9.8268    119.0496
   821.2500      0.0000    714.0813      9.7475    121.3203
   821.5000      0.0000    705.4796      9.6893    123.6613
   821.7500      0.0000    696.9615      9.5873    125.5324
   822.0000      0.0000    689.5668      9.3659    126.8730
   822.2500      0.0000    685.8680      8.9795    128.0008
   822.5000      0.0000    688.0317      8.4379    129.5073
   822.7500      0.0000    695.7755      7.7979    131.6376
   823.0000      0.0000    706.3719      7.1325    133.3071
   823.2500      0.0000    716.9652      6.5032    132.4028
   823.5000      0.0000    726.7397      5.9424    127.7694
   823.7500      0.0000    736.1580      5.4444    120.6594
   824.0000      0.0000    744.2129      4.9749    113.9426
   824.2500      0.0000    747.5928      4.5042    110.0362
   824.5000      0.0000    743.6292      4.0394    109.5295
   824.7500      0.0000    734.1844      3.6221    111.0935
   825.0000      0.0000    725.8340      3.2978    112.2085
   825.2500      0.0000    725.5004      3.0862    110.4367
   825.5000      0.0000    735.9973      2.9763    104.8524
   825.7500      0.0000    756.1727      2.9418     96.6657
   826.0000      0.0000    785.1098      2.9593     88.3691
   826.2500      0.0000    825.2897      3.0175     81.9724
