~Version Information
VERS.                      2.0: CWLS Log ASCII Standard - VERSION 2.0
WRAP.                       NO: One line per depth step
~Well Information Block
STRT.FT              2983.0000: 
STOP.FT              3214.7500: 
STEP.FT                 0.0500: 
NULL.                -999.2500: 
COMP.          Pioner Natural Resources: COMPANY
WELL.              Vespar 43-7: WELL
FLD.           Purgatoire River: FIELD
LOC.           2338' FSL & 1141' FEL------: LOCATION
PROV.                 Colorado: PROVINCE
CNTY.               Las Animas: COUNTRY
SRVC.                         : SERVICE COMPANY
DATE.          Fri Apr 15 15:31:19 2005: LOG DATE
UWI.                          : UNIQUE WELL ID
~Curve Information Block
DEPT.FT            0 000 00 00: Depth
GR.GAPI                       : Gamma Ray
CCL.                          : Casing Collar Locator
TT3.usec                      : CBL 3' Travel Time
AMP3.mV                       : CBL 3' Amplitude
AMP5.mV                       : CBL 5' Amplitude
~Parameter Information Block
~A  Depth        GR         CCL         TT3         AMP3        AMP5    
# ...
  3184.6000     69.0409      0.0000    260.2502     77.0053    129.2916
  3184.6500     69.0409      0.0000    260.2502     77.0053    129.2916
  3184.7000     69.0409      0.0000    260.2502     77.0053    129.2916
  3184.7500     66.8625      0.0000    260.1276     78.5948    133.7903
  3184.8000     66.8625      0.0000    260.1276     78.5948    133.7903
  3184.8500     66.8625      0.0000    260.1276     78.5948    133.7903
  3184.9000     66.8625      0.0000    260.1276     78.5948    133.7903
  3184.9500     66.8625      0.0000    260.1276     78.5948    133.7903
  3185.0000     63.7600      0.0000    260.0987     79.2942    137.4124
  3185.0500     63.7600      0.0000    260.0987     79.2942    137.4124
  3185.1000     63.7600      0.0000    260.0987     79.2942    137.4124
  3185.1500     63.7600      0.0000    260.0987     79.2942    137.4124
  3185.2000     63.7600      0.0000    260.0987     79.2942    137.4124
  3185.2500     61.1747      0.0000    260.0991     79.5280    139.7726
  3185.3000     61.1747      0.0000    260.0991     79.5280    139.7726
  3185.3500     61.1747      0.0000    260.0991     79.5280    139.7726
  3185.4000     61.1747      0.0000    260.0991     79.5280    139.7726
  3185.4500     61.1747      0.0000    260.0991     79.5280    139.7726
  3185.5000     60.9873      0.0000    260.1052     79.5831    141.1664
  3185.5500     60.9873      0.0000    260.1052     79.5831    141.1664
  3185.6000     60.9873      0.0000    260.1052     79.5831    141.1664
  3185.6500     60.9873      0.0000    260.1052     79.5831    141.1664
  3185.7000     60.9873      0.0000    260.1052     79.5831    141.1664
  3185.7500     64.0399      0.0000    260.1103     79.6022    141.9632
  3185.8000     64.0399      0.0000    260.1103     79.6022    141.9632
  3185.8500     64.0399      0.0000    260.1103     79.6022    141.9632
  3185.9000     64.0399      0.0000    260.1103     79.6022    141.9632
  3185.9500     64.0399      0.0000    260.1103     79.6022    141.9632
  3186.0000     69.0898      0.0000    260.1114     79.6501    142.3820
  3186.0500     69.0898      0.0000    260.1114     79.6501    142.3820
  3186.1000     69.0898      0.0000    260.1114     79.6501    142.3820
  3186.1500     69.0898      0.0000    260.1114     79.6501    142.3820
  3186.2000     69.0898      0.0000    260.1114     79.6501    142.3820
  3186.2500     73.7066      0.0000    260.1068     79.7499    142.5644
  3186.3000     73.7066      0.0000    260.1068     79.7499    142.5644
  3186.3500     73.7066      0.0000    260.1068     79.7499    142.5644
  3186.4000     73.7066      0.0000    260.1068     79.7499    142.5644
  3186.4500     73.7066      0.0000    260.1068     79.7499    142.5644
  3186.5000     76.4404      0.0000    260.0967     79.8926    142.6257
  3186.5500     76.4404      0.0000    260.0967     79.8926    142.6257
  3186.6000     76.4404      0.0000    260.0967     79.8926    142.6257
  3186.6500     76.4404      0.0000    260.0967     79.8926    142.6257
  3186.7000     76.4404      0.0000    260.0967     79.8926    142.6257
  3186.7500     77.9869      0.0000    260.0832     80.0516    142.6402
  3186.8000     77.9869      0.0000    260.0832     80.0516    142.6402
  3186.8500     77.9869      0.0000    260.0832     80.0516    142.6402
  3186.9000     77.9869      0.0000    260.0832     80.0516    142.6402
  3186.9500     77.9869      0.0000    260.0832     80.0516    142.6402
  3187.0000     79.9929      0.0000    260.0687     80.2018    142.6402
  3187.0500     79.9929      0.0000    260.0687     80.2018    142.6402
  3187.1000     79.9929      0.0000    260.0687     80.2018    142.6402
  3187.1500     79.9929      0.0000    260.0687     80.2018    142.6402
  3187.2000     79.9929      0.0000    260.0687     80.2018    142.6402
  3187.2500     82.7827      0.0000    260.0554     80.3281    142.6300
  3187.3000     82.7827      0.0000    260.0554     80.3281    142.6300
  3187.3500     82.7827      0.0000    260.0554     80.3281    142.6300
  3187.4000     82.7827      0.0000    260.0554     80.3281    142.6300
  3187.4500     82.7827      0.0000    260.0554     80.3281    142.6300
  3187.5000     84.6340      0.0000    260.0452     80.4239    142.6075
  3187.5500     84.6340      0.0000    260.0452     80.4239    142.6075
  3187.6000     84.6340      0.0000    260.0452     80.4239    142.6075
  3187.6500     84.6340      0.0000    260.0452     80.4239    142.6075
  3187.7000     84.6340      0.0000    260.0452     80.4239    142.6075
  3187.7500     83.4230      0.0000    260.0395     80.4885    142.5764
  3187.8000     83.4230      0.0000    260.0395     80.4885    142.5764
  3187.8500     83.4230      0.0000    260.0395     80.4885    142.5764
  3187.9000     83.4230      0.0000    260.0395     80.4885    142.5764
  3187.9500     83.4230      0.0000    260.0395     80.4885    142.5764
  3188.0000     78.7376      0.0000    260.0394     80.5237    142.5450
  3188.0500     78.7376      0.0000    260.0394     80.5237    142.5450
  3188.1000     78.7376      0.0000    260.0394     80.5237    142.5450
  3188.1500     78.7376      0.0000    260.0394     80.5237    142.5450
  3188.2000     78.7376      0.0000    260.0394     80.5237    142.5450
  3188.2500     72.2756      0.0000    260.0452     80.5283    142.5219
  3188.3000     72.2756      0.0000    260.0452     80.5283    142.5219
  3188.3500     72.2756      0.0000    260.0452     80.5283    142.5219
  3188.4000     72.2756      0.0000    260.0452     80.5283    142.5219
  3188.4500     72.2756      0.0000    260.0452     80.5283    142.5219
  3188.5000     66.4466      0.0000    260.0542     80.5017    142.5103
  3188.5500     66.4466      0.0000    260.0542     80.5017    142.5103
  3188.6000     66.4466      0.0000    260.0542     80.5017    142.5103
  3188.6500     66.4466      0.0000    260.0542     80.5017    142.5103
  3188.7000     66.4466      0.0000    260.0542     80.5017    142.5103
  3188.7500     62.7867      0.0000    260.0613     80.4554    142.5039
  3188.8000     62.7867      0.0000    260.0613     80.4554    142.5039
  3188.8500     62.7867      0.0000    260.0613     80.4554    142.5039
  3188.9000     62.7867      0.0000    260.0613     80.4554    142.5039
  3188.9500     62.7867      0.0000    260.0613     80.4554    142.5039
  3189.0000     61.5225      0.0000    260.0626     80.4158    142.4849
  3189.0500     61.5225      0.0000    260.0626     80.4158    142.4849
  3189.1000     61.5225      0.0000    260.0626     80.4158    142.4849
  3189.1500     61.5225      0.0000    260.0626     80.4158    142.4849
  3189.2000     61.5225      0.0000    260.0626     80.4158    142.4849
  3189.2500     62.0054      0.0000    260.0587     80.4088    142.4339
  3189.3000     62.0054      0.0000    260.0587     80.4088    142.4339
  3189.3500     62.0054      0.0000    260.0587     80.4088    142.4339
  3189.4000     62.0054      0.0000    260.0587     80.4088    142.4339
  3189.4500     62.0054      0.0000    260.0587     80.4088    142.4339
  3189.5000     63.0906      0.0000    260.0540     80.4389    142.3491
  3189.5500     63.0906      0.0000    260.0540     80.4389    142.3491
  3189.6000     63.0906      0.0000    260.0540     80.4389    142.3491
  3189.6500     63.0906      0.0000    260.0540     80.4389    142.3491
  3189.7000     63.0906      0.0000    260.0540     80.4389    142.3491
  3189.7500     63.5156      0.0000    260.0508     80.4908    142.2577
  3189.8000     63.5156      0.0000    260.0508     80.4908    142.2577
  3189.8500     63.5156      0.0000    260.0508     80.4908    142.2577
  3189.9000     63.5156      0.0000    260.0508     80.4908    142.2577
  3189.9500     63.5156      0.0000    260.0508     80.4908    142.2577
  3190.0000     62.7496      0.0000    260.0469     80.5463    142.2012
  3190.0500     62.7496      0.0000    260.0469     80.5463    142.2012
  3190.1000     62.7496      0.0000    260.0469     80.5463    142.2012
  3190.1500     62.7496      0.0000    260.0469     80.5463    142.2012
