~Version Information
VERS.                      2.0: CWLS Log ASCII Standard - VERSION 2.0
WRAP.                       NO: One line per depth step
~Well Information Block
STRT.FT               480.0000: 
STOP.FT              1994.2000: 
STEP.FT                 0.1000: 
NULL.                -999.2500: 
COMP.          Evergreen Operating Corporation: COMPANY
WELL.          McCullough 34-32 Tr: WELL
FLD.           Purgatoire River: FIELD
LOC.           394' FSL & 2077' FEL: LOCATION
PROV.                 Colorado: PROVINCE
CNTY.               Las Animas: COUNTRY
SRVC.                Patterson: SERVICE COMPANY
DATE.          Mon Sep 20 07:30:00 2004: LOG DATE
UWI.           05 071 08157 00: UNIQUE WELL ID
~Curve Information Block
DEPT.FT            0 000 00 00: Depth
DCAL.in                       : CDL Caliper
RHOB.g/cc                     : CDL Bulk Density
RHOC.g/cc                     : CDL Density Correction
DPOR.pu                       : CDL Density Porosity
NPOR.pu                       : Neutron Porosity
GR.GAPI                       : Gamma Ray
~Parameter Information Block
~A  Depth       DCAL        RHOB        RHOC        DPOR        NPOR         GR     
# ...
   777.6000      8.0139      2.4912      0.0692      9.6252     18.7290     63.5042
   777.7000      8.0139      2.5025      0.0094      8.9400     18.8937     64.9807
   777.8000      8.0207      2.5326      0.0612      7.1155     19.5093     63.3148
   777.9000      8.0207      2.5696      0.0736      4.8701     20.4239     61.8199
   778.0000      8.0303      2.5961      0.0757      3.2693     21.4690     62.7358
   778.1000      8.0303      2.6009      0.0680      2.9734     22.5965     66.5392
   778.2000      8.0303      2.5864      0.0563      3.8546     23.8273     72.5528
   778.3000      8.0280      2.5684      0.0169      4.9428     24.6356     81.4012
   778.4000      8.0280      2.5618      0.0597      5.3460     24.2402     92.0034
   778.5000      8.0075      2.5630      0.0627      5.2702     23.4977     98.8789
   778.6000      8.0075      2.5558      0.0941      5.7077     23.7205    100.6779
   778.7000      8.0075      2.5317      0.0677      7.1716     24.3532    101.7723
   778.8000      7.9828      2.5060      0.0317      8.7282     24.2246    103.9815
   778.9000      7.9828      2.4997      0.0391      9.1120     23.5621    105.6306
   779.0000      7.9642      2.5091      0.0810      8.5399     23.1697    103.5839
   779.1000      7.9642      2.5224      0.0089      7.7305     22.9403     98.7148
   779.2000      7.9642      2.5371      0.0920      6.8452     22.3230     97.0946
   779.3000      7.9551      2.5482      0.0599      6.1719     21.3102     99.0978
   779.4000      7.9551      2.5530      0.0878      5.8792     20.3535     99.7338
   779.5000      7.9543      2.5513      0.0638      5.9791     19.8815     97.2063
   779.6000      7.9543      2.5475      0.0223      6.2093     19.6716     93.5743
   779.7000      7.9543      2.5455      0.0906      6.3327     19.2445     92.4746
   779.8000      7.9577      2.5480      0.0227      6.1836     18.7381     92.3956
   779.9000      7.9577      2.5603      0.0797      5.4358     18.5839     89.1946
   780.0000      7.9657      2.5760      0.0306      4.4857     18.7910     86.2330
   780.1000      7.9657      2.5800      0.0715      4.2406     19.1220     86.4587
   780.2000      7.9657      2.5654      0.0323      5.1258     19.5492     87.4912
   780.3000      7.9753      2.5471      0.0016      6.2391     19.8089     87.9643
   780.4000      7.9753      2.5420      0.0508      6.5475     19.8138     88.8846
   780.5000      7.9770      2.5546      0.0435      5.7807     20.2014     90.3366
   780.6000      7.9770      2.5950      0.0366      3.3353     21.2604     90.2130
   780.7000      7.9770      2.6598      0.1366     -0.5918     22.2863     86.7643
   780.8000      7.9828      2.7134      0.1787     -3.8449     22.6401     80.7537
   780.9000      7.9828      2.7251      0.1823     -4.5504     22.9078     75.8559
   781.0000      8.0069      2.7005      0.1172     -3.0635     23.6489     76.4976
   781.1000      8.0069      2.6699      0.0870     -1.2055     24.5414     79.9634
   781.2000      8.0069      2.6529      0.0831     -0.1749     25.0250     79.4745
   781.3000      8.0307      2.6464      0.0428      0.2212     24.6563     76.6905
   781.4000      8.0307      2.6398      0.0544      0.6205     23.6136     76.3767
   781.5000      8.0450      2.6294      0.0256      1.2489     22.6509     77.3849
   781.6000      8.0450      2.6195      0.0722      1.8464     22.0428     75.5165
   781.7000      8.0450      2.6144      0.0731      2.1587     21.2775     71.6422
   781.8000      8.0549      2.6210      0.0691      1.7559     20.1000     72.9985
   781.9000      8.0549      2.6379      0.0951      0.7315     18.8113     80.9170
   782.0000      8.0596      2.6365      0.1128      0.8178     17.8449     87.6433
   782.1000      8.0596      2.6000      0.0799      3.0316     17.5152     87.7723
   782.2000      8.0596      2.5614      0.0347      5.3684     18.2430     81.9971
   782.3000      8.0609      2.5530      0.0522      5.8785     19.6942     76.1089
   782.4000      8.0609      2.5630      0.0571      5.2714     20.6811     75.3199
   782.5000      8.0631      2.5715      0.0673      4.7574     20.5219     78.1921
   782.6000      8.0631      2.5755      0.0753      4.5175     19.5916     82.2850
   782.7000      8.0631      2.5751      0.0558      4.5393     18.9494     84.5399
   782.8000      8.0666      2.5688      0.0513      4.9210     18.9996     84.0420
   782.9000      8.0666      2.5608      0.0463      5.4054     19.1589     86.0856
   783.0000      8.0698      2.5605      0.0508      5.4243     18.8456     89.8938
   783.1000      8.0698      2.5738      0.0302      4.6164     18.5575     88.4378
   783.2000      8.0698      2.5964      0.0658      3.2456     19.0482     81.4805
   783.3000      8.0709      2.6191      0.0213      1.8712     19.9225     75.1150
   783.4000      8.0709      2.6377      0.1041      0.7465     20.5280     74.3138
   783.5000      8.0684      2.6439      0.0894      0.3683     20.9832     80.3429
   783.6000      8.0684      2.6304      0.0878      1.1899     21.6048     89.2895
   783.7000      8.0684      2.6040      0.0488      2.7890     22.5465     95.3368
   783.8000      8.0630      2.5921     -0.0245      3.5104     23.3442     99.4494
   783.9000      8.0630      2.6108      0.0650      2.3787     23.3773    106.5095
   784.0000      8.0615      2.6383      0.0690      0.7102     23.2494    114.6333
   784.1000      8.0615      2.6476      0.0902      0.1479     23.8763    118.6659
   784.2000      8.0615      2.6343      0.0465      0.9493     25.0401    118.7031
   784.3000      8.0659      2.6155      0.0572      2.0899     25.7031    117.3692
   784.4000      8.0659      2.6070      0.0420      2.6049     25.2424    114.4228
   784.5000      8.0701      2.6089      0.0543      2.4909     24.3345    110.1554
   784.6000      8.0701      2.6150      0.0515      2.1191     23.7217    107.5042
   784.7000      8.0701      2.6196      0.0898      1.8442     23.3022    109.1276
   784.8000      8.0722      2.6192      0.0473      1.8675     22.9590    112.7334
   784.9000      8.0722      2.6155      0.0517      2.0886     22.9491    112.4173
   785.0000      8.0735      2.6092      0.0415      2.4701     22.9294    107.9376
   785.1000      8.0735      2.5998      0.0614      3.0405     22.5950    105.3416
   785.2000      8.0735      2.5864      0.0433      3.8565     22.5909    107.3455
   785.3000      8.0740      2.5714      0.0473      4.7656     23.1501    106.1523
   785.4000      8.0740      2.5651      0.0141      5.1472     23.7079     99.9889
   785.5000      8.0782      2.5703      0.0456      4.8333     24.0783     97.6256
   785.6000      8.0782      2.5746      0.0478      4.5722     24.1111     99.8524
   785.7000      8.0782      2.5666      0.0309      5.0532     23.6231    103.6787
   785.8000      8.0822      2.5425      0.0144      6.5180     23.4722    110.3502
   785.9000      8.0822      2.5053      0.0171      8.7718     24.6848    116.9872
   786.0000      8.0747      2.4678     -0.0184     11.0406     26.6604    118.8037
   786.1000      8.0747      2.4348      0.0147     13.0435     27.7795    116.1091
   786.2000      8.0747      2.3930      0.0173     15.5767     28.0886    113.6991
   786.3000      8.0642      2.3318      0.0053     19.2824     28.8944    115.9745
   786.4000      8.0642      2.2538     -0.0061     24.0112     30.4087    121.8078
   786.5000      8.0671      2.1705     -0.0481     29.0636     31.8403    127.5212
   786.6000      8.0671      2.0899     -0.0520     33.9446     32.9610    128.6444
   786.7000      8.0671      2.0023     -0.0530     39.2551     34.0651    126.1888
   786.8000      8.0941      1.8963     -0.0878     45.6818     34.7595    124.1866
   786.9000      8.0941      1.7792     -0.0710     52.7769     34.5454    118.8629
   787.0000      8.1348      1.6694     -0.0536     59.4319     33.9863    108.4777
   787.1000      8.1348      1.5954     -0.0524     63.9172     33.7901     97.7859
