~Version Information
VERS.                      2.0: CWLS Log ASCII Standard - VERSION 2.0
WRAP.                       NO: One line per depth step
~Well Information Block
STRT.FT               260.0000: 
STOP.FT              2611.5000: 
STEP.FT                 0.2500: 
NULL.                -999.2500: 
COMP.          Pioneer Natural Resources: COMPANY
WELL.           Costello 44-24: WELL
FLD.           Purgatoire River: FIELD
LOC.           327' FSL & 378' FEL: LOCATION
PROV.                 Colorado: PROVINCE
CNTY.               Las Animas: COUNTRY
SRVC.                Patterson: SERVICE COMPANY
DATE.          Mon Jul 11 00:49:32 2005: LOG DATE
UWI.           05 071 08413 00: UNIQUE WELL ID
~Curve Information Block
DEPT.FT            0 000 00 00: Depth
SN.Ohm-m                      : IEL Short Normal
SP.mV                         : IEL Spontaneous Potential
DIR.Ohm-m                     : IEL Induction Resistivity
GR.GAPI                       : Gamma Ray
~Parameter Information Block
~A  Depth        SN          SP         DIR          GR     
# ...
  1633.5000   2000.0000    200.0000     17.9570    123.6445
  1633.7500   2000.0000    200.0000     17.7484    118.3224
  1634.0000   2000.0000    200.0000     17.4521    111.8014
  1634.2500   2000.0000    200.0000     17.1165    109.2541
  1634.5000   2000.0000    200.0000     16.8063    109.2969
  1634.7500   2000.0000    200.0000     16.5764    112.1350
  1635.0000   2000.0000    200.0000     16.4575    119.5052
  1635.2500   2000.0000    200.0000     16.4519    125.1336
  1635.5000   2000.0000    200.0000     16.5376    132.4493
  1635.7500   2000.0000    200.0000     16.6738    135.9232
  1636.0000   2000.0000    200.0000     16.8097    138.8450
  1636.2500   2000.0000    200.0000     16.8907    139.3825
  1636.5000   2000.0000    200.0000     16.8677    138.4739
  1636.7500   2000.0000    200.0000     16.7109    137.1646
  1637.0000   2000.0000    200.0000     16.4258    135.1597
  1637.2500   2000.0000    200.0000     16.0526    134.2172
  1637.5000   2000.0000    200.0000     15.6456    133.3649
  1637.7500   2000.0000    200.0000     15.2494    132.9380
  1638.0000   2000.0000    200.0000     14.8896    132.6026
  1638.2500   2000.0000    200.0000     14.5778    132.9768
  1638.5000   2000.0000    200.0000     14.3196    134.8804
  1638.7500   2000.0000    200.0000     14.1176    136.8446
  1639.0000   2000.0000    200.0000     13.9704    140.0341
  1639.2500   2000.0000    200.0000     13.8700    141.9189
  1639.5000   2000.0000    200.0000     13.7977    143.9607
  1639.7500   2000.0000    200.0000     13.7225    144.5755
  1640.0000   2000.0000    200.0000     13.6072    143.9326
  1640.2500   2000.0000    200.0000     13.4270    142.3522
  1640.5000   2000.0000    200.0000     13.1862    138.8331
  1640.7500   2000.0000    200.0000     12.9187    136.4404
  1641.0000   2000.0000    200.0000     12.6668    133.8936
  1641.2500   2000.0000    200.0000     12.4573    133.2499
  1641.5000   2000.0000    200.0000     12.2920    134.1980
  1641.7500   2000.0000    200.0000     12.1548    136.0621
  1642.0000   2000.0000    200.0000     12.0266    139.6521
  1642.2500   2000.0000    200.0000     11.8992    141.5644
  1642.5000   2000.0000    200.0000     11.7764    142.7258
  1642.7500   2000.0000    200.0000     11.6645    142.7390
  1643.0000   2000.0000    200.0000     11.5614    143.1443
  1643.2500   2000.0000    200.0000     11.4544    144.2560
  1643.5000   2000.0000    200.0000     11.3302    147.0811
  1643.7500   2000.0000    200.0000     11.1866    149.3840
  1644.0000   2000.0000    200.0000     11.0361    152.9895
  1644.2500   2000.0000    200.0000     10.8991    155.1893
  1644.5000   2000.0000    200.0000     10.7948    157.3362
  1644.7500   2000.0000    200.0000     10.7366    157.5947
  1645.0000   2000.0000    200.0000     10.7321    156.5907
  1645.2500   2000.0000    200.0000     10.7852    155.8069
  1645.5000   2000.0000    200.0000     10.8969    155.6615
  1645.7500   2000.0000    200.0000     11.0644    156.1756
  1646.0000   2000.0000    200.0000     11.2785    156.4002
  1646.2500   2000.0000    200.0000     11.5225    155.1432
  1646.5000   2000.0000    200.0000     11.7740    150.1370
  1646.7500   2000.0000    200.0000     12.0095    144.7457
  1647.0000   2000.0000    200.0000     12.2121    134.4035
  1647.2500   2000.0000    200.0000     12.3795    126.7674
  1647.5000   2000.0000    200.0000     12.5296    115.7015
  1647.7500   2000.0000    200.0000     12.6978    109.4982
  1648.0000   2000.0000    200.0000     12.9258    103.6423
  1648.2500   2000.0000    200.0000     13.2482    102.9163
  1648.5000   2000.0000    200.0000     13.6810    106.9347
  1648.7500   2000.0000    200.0000     14.2132    112.1990
  1649.0000   2000.0000    200.0000     14.8038    121.4081
  1649.2500   2000.0000    200.0000     15.3907    126.9151
  1649.5000   2000.0000    200.0000     15.9170    132.4149
  1649.7500   2000.0000    200.0000     16.3616    133.6768
  1650.0000   2000.0000    200.0000     16.7492    131.5454
  1650.2500   2000.0000    200.0000     17.1298    127.4539
  1650.5000   2000.0000    200.0000     17.5494    118.1381
  1650.7500   2000.0000    200.0000     18.0285    110.9333
  1651.0000   2000.0000    200.0000     18.5477    101.1718
  1651.2500   2000.0000    200.0000     19.0372     96.5849
  1651.5000   2000.0000    200.0000     19.3896     93.2640
  1651.7500   2000.0000    200.0000     19.5114     92.8851
  1652.0000   2000.0000    200.0000     19.3816     93.4755
  1652.2500   2000.0000    200.0000     19.0567     94.2013
  1652.5000   2000.0000    200.0000     18.6160     96.7610
  1652.7500   2000.0000    200.0000     18.1099    100.5641
  1653.0000   2000.0000    200.0000     17.5513    110.4314
  1653.2500   2000.0000    200.0000     16.9396    119.2042
  1653.5000   2000.0000    200.0000     16.2818    132.9972
  1653.7500   2000.0000    200.0000     15.5909    140.8837
  1654.0000   2000.0000    200.0000     14.8755    148.9170
  1654.2500   2000.0000    200.0000     14.1367    151.6463
  1654.5000   2000.0000    200.0000     13.3797    152.8313
  1654.7500   2000.0000    200.0000     12.6249    152.4409
  1655.0000   2000.0000    200.0000     11.9069    151.0928
  1655.2500   2000.0000    200.0000     11.2625    150.1784
  1655.5000   2000.0000    200.0000     10.7179    149.6793
  1655.7500   2000.0000    200.0000     10.2840    150.4424
  1656.0000   2000.0000    200.0000      9.9552    153.8219
  1656.2500   2000.0000    200.0000      9.7123    157.4302
  1656.5000   2000.0000    200.0000      9.5265    163.3152
  1656.7500   2000.0000    200.0000      9.3685    166.1752
  1657.0000   2000.0000    200.0000      9.2182    167.3571
  1657.2500   2000.0000    200.0000      9.0705    166.2799
  1657.5000   2000.0000    200.0000      8.9335    163.5248
  1657.7500   2000.0000    200.0000      8.8224    161.8126
  1658.0000   2000.0000    200.0000      8.7531    159.7461
  1658.2500   2000.0000    200.0000      8.7393    158.3786
  1658.5000   2000.0000    200.0000      8.7910    156.1284
  1658.7500   2000.0000    200.0000      8.9138    154.8716
  1659.0000   2000.0000    200.0000      9.1073    154.0819
  1659.2500   2000.0000    200.0000      9.3632    154.1730
  1659.5000   2000.0000    200.0000      9.6631    153.8155
  1659.7500   2000.0000    200.0000      9.9792    152.0345
  1660.0000   2000.0000    200.0000     10.2785    145.3569
  1660.2500   2000.0000    200.0000     10.5327    137.9817
  1660.5000   2000.0000    200.0000     10.7284    123.8254
  1660.7500   2000.0000    200.0000     10.8740    113.9981
  1661.0000   2000.0000    200.0000     10.9983    102.2674
  1661.2500   2000.0000    200.0000     11.1409     98.2302
  1661.5000   2000.0000    200.0000     11.3419     99.0991
  1661.7500   2000.0000    200.0000     11.6314    103.7447
  1662.0000   2000.0000    200.0000     12.0206    114.0806
  1662.2500   2000.0000    200.0000     12.4953    121.1470
  1662.5000   2000.0000    200.0000     13.0135    129.0409
  1662.7500   2000.0000    200.0000     13.5145    131.7297
  1663.0000   2000.0000    200.0000     13.9382    132.3793
  1663.2500   2000.0000    200.0000     14.2472    131.3834
  1663.5000   2000.0000    200.0000     14.4344    128.8813
  1663.7500   2000.0000    200.0000     14.5171    126.7089
  1664.0000   2000.0000    200.0000     14.5229    122.5564
  1664.2500   2000.0000    200.0000     14.4799    119.3959
  1664.5000   2000.0000    200.0000     14.4107    115.4449
  1664.7500   2000.0000    200.0000     14.3283    114.4400
  1665.0000   2000.0000    200.0000     14.2349    116.6136
  1665.2500   2000.0000    200.0000     14.1247    120.5602
  1665.5000   2000.0000    200.0000     13.9912    129.5139
  1665.7500   2000.0000    200.0000     13.8337    136.8177
  1666.0000   2000.0000    200.0000     13.6571    147.8780
  1666.2500   2000.0000    200.0000     13.4663    153.8676
  1666.5000   2000.0000    200.0000     13.2604    159.0045
  1666.7500   2000.0000    200.0000     13.0357    159.9288
