~Version Information
VERS.                      2.0: CWLS Log ASCII Standard - VERSION 2.0
WRAP.                       NO: One line per depth step
~Well Information Block
STRT.FT                 8.7500: 
STOP.FT              2723.0000: 
STEP.FT                 0.2500: 
NULL.                -999.2500: 
COMP.          Pioneer Natural Resources: COMPANY
WELL.           Desoto 13-7 Tr: WELL
FLD.           Purgatoire River: FIELD
LOC.           1404' FSL & 1115' FWL: LOCATION
PROV.                 Colorado: PROVINCE
CNTY.               Las Animas: COUNTRY
SRVC.                Patterson: SERVICE COMPANY
DATE.          Wed Mar 16 18:00:51 2005: LOG DATE
UWI.           05 071 08216 00: UNIQUE WELL ID
~Curve Information Block
DEPT.FT            0 000 00 00: Depth
GR.GAPI                       : Gamma Ray
CCL.                          : Casing Collar Locator
TT3.usec                      : CBL 3' Travel Time
AMP3.mV                       : CBL 3' Amplitude
AMP5.mV                       : CBL 5' Amplitude
~Parameter Information Block
~A  Depth        GR         CCL         TT3         AMP3        AMP5    
# ...
  2164.7500     83.0749      0.0000    294.9662     50.3788     16.9071
  2165.0000     82.1825      0.0000    300.2494     47.6162     16.7240
  2165.2500     80.2578      0.0000    303.7560     45.8009     16.7657
  2165.5000     77.2504      0.0000    305.6007     44.9814     16.9357
  2165.7500     74.0097      0.0000    306.2900     44.9166     17.1980
  2166.0000     71.6256      2.3450    306.2892     45.3183     17.5140
  2166.2500     70.7571      0.0000    305.7434     46.0625     17.8403
  2166.5000     71.6740      0.0000    304.5144     47.2427     18.1493
  2166.7500     74.3354      0.0000    302.3946     49.0739     18.4502
  2167.0000     77.9873      0.0000    299.2061     51.6877     18.8161
  2167.2500     80.9973      0.0000    294.6740     54.9842     19.4238
  2167.5000     81.7478      0.0000    288.5013     58.6878     20.5804
  2167.7500     79.9283      0.0000    281.0166     62.4360     22.6237
  2168.0000     76.7044      0.0000    273.5699     65.7713     25.6620
  2168.2500     73.5589      0.0000    267.7609     68.2496     29.4007
  2168.5000     71.1805      0.0000    264.2719     69.7144     33.3021
  2168.7500     69.5009      0.0000    262.6686     70.4011     36.8800
  2169.0000     68.5368      0.0000    262.1014     70.7273     39.7962
  2169.2500     68.8024      0.0000    261.9305     71.0191     41.8362
  2169.5000     70.6322      0.0000    261.8582     71.3988     42.9697
  2169.7500     73.2544      0.0000    261.7969     71.8316     43.3986
  2170.0000     75.0637      0.0000    261.7439     72.2180     43.4550
  2170.2500     75.1406      0.0000    261.7096     72.4698     43.4291
  2170.5000     74.3504      0.0000    261.6987     72.5442     43.4629
  2170.7500     74.6606      0.0000    261.7051     72.4571     43.5440
  2171.0000     77.2599      0.0000    261.7184     72.2733     43.5677
  2171.2500     81.3937      0.0000    261.7321     72.0660     43.4272
  2171.5000     85.0284      0.0000    261.7466     71.8683     43.0847
  2171.7500     86.4884      0.0000    261.7691     71.6536     42.5997
  2172.0000     85.4353      0.0000    261.8115     71.3582     42.1015
  2172.2500     82.6721      0.0000    261.8821     70.9369     41.7140
  2172.5000     79.4692      0.0000    261.9744     70.4180     41.4876
  2172.7500     77.0415      0.0000    262.0654     69.9100     41.3872
  2173.0000     76.2380      0.0000    262.1337     69.5400     41.3323
  2173.2500     77.2843      0.0000    262.1778     69.3704     41.2502
  2173.5000     79.6158      0.0000    262.2121     69.3629     41.1150
  2173.7500     82.1768      0.0000    262.2499     69.4120     40.9535
  2174.0000     84.2603      0.0000    262.2947     69.4116     40.8120
  2174.2500     86.0515      0.0000    262.3444     69.3111     40.7109
  2174.5000     88.2224      0.0000    262.3936     69.1378     40.6306
  2174.7500     91.2087      0.0000    262.4344     68.9698     40.5359
  2175.0000     95.1258      0.0000    262.4613     68.8701     40.4115
  2175.2500    100.1244      0.0000    262.4754     68.8485     40.2766
  2175.5000    106.4176      0.0000    262.4815     68.8843     40.1688
  2175.7500    113.9896      0.0000    262.4839     68.9536     40.1131
  2176.0000    122.3996      0.0000    262.4891     69.0221     40.1064
  2176.2500    130.6686      0.0000    262.5042     69.0435     40.1303
  2176.5000    137.3193      0.0000    262.5285     68.9931     40.1716
  2176.7500    141.1796      0.0000    262.5514     68.8857     40.2224
  2177.0000    142.5591      0.0000    262.5647     68.7495     40.2646
  2177.2500    143.0770      0.0000    262.5710     68.6009     40.2661
  2177.5000    143.8885      0.0000    262.5764     68.4554     40.2006
  2177.7500    144.5009      0.0000    262.5800     68.3374     40.0715
  2178.0000    143.7308      0.0000    262.5799     68.2573     39.9174
  2178.2500    141.4249      0.0000    262.5812     68.1904     39.7922
  2178.5000    138.6949      0.0000    262.5920     68.0970     39.7310
  2178.7500    136.6841      0.0000    262.6139     67.9601     39.7220
  2179.0000    135.6010      0.0000    262.6405     67.8086     39.7095
  2179.2500    134.7804      0.0000    262.6621     67.7206     39.6381
  2179.5000    133.1647      0.0000    262.6716     67.7916     39.4966
  2179.7500    129.8205      0.0000    262.6728     68.0573     39.3159
  2180.0000    124.6060      0.0000    262.6841     68.4299     39.1355
  2180.2500    118.6667      0.0000    262.7264     68.7371     38.9879
  2180.5000    114.0259      0.0000    262.8048     68.8417     38.9050
  2180.7500    112.3857      0.0000    262.9047     68.7246     38.9018
  2181.0000    114.1838      0.0000    263.0062     68.4593     38.9373
  2181.2500    118.6756      0.0000    263.0977     68.1280     38.9177
  2181.5000    124.7030      0.0000    263.1759     67.7712     38.7637
  2181.7500    131.1796      0.0000    263.2401     67.3984     38.4727
  2182.0000    137.0261      0.0000    263.2876     67.0170     38.1138
  2182.2500    141.1448      0.0000    263.3146     66.6529     37.7785
  2182.5000    142.7758      0.0000    263.3211     66.3537     37.5421
  2182.7500    141.8338      0.0000    263.3155     66.1550     37.4586
  2183.0000    138.9374      0.0000    263.3110     66.0409     37.5684
  2183.2500    135.1691      0.0000    263.3155     65.9691     37.8953
  2183.5000    131.4706      0.0000    263.3272     65.9472     38.4228
  2183.7500    128.0445      0.0000    263.3387     66.0482     39.0772
  2184.0000    124.5153      0.0000    263.3425     66.3347     39.7545
  2184.2500    120.7343      0.0000    263.3355     66.7957     40.3863
  2184.5000    117.2554      0.0000    263.3205     67.3656     40.9800
  2184.7500    115.0584      0.0000    263.3057     67.9630     41.5835
  2185.0000    114.7941      0.0000    263.2998     68.4982     42.2132
  2185.2500    116.0817      0.0000    263.3052     68.8904     42.8259
  2185.5000    117.4946      0.0000    263.3169     69.1136     43.3607
  2185.7500    117.4762      0.0000    263.3279     69.2050     43.7867
  2186.0000    115.5580      0.0000    263.3358     69.2072     44.1035
  2186.2500    112.7195      0.0000    263.3460     69.1228     44.3181
  2186.5000    110.4889      0.0000    263.3669     68.9416     44.4390
  2186.7500    109.6561      0.0000    263.4012     68.6930     44.4759
  2187.0000    109.8050      0.0000    263.4398     68.4455     44.4342
  2187.2500    109.8870      0.0000    263.4690     68.2598     44.3208
  2187.5000    109.1579      0.0000    263.4833     68.1576     44.1636
  2187.7500    107.7995      0.0000    263.4898     68.1317     44.0076
  2188.0000    106.7942      0.0000    263.4981     68.1695     43.8782
  2188.2500    106.8800      0.0000    263.5080     68.2738     43.7582
  2188.5000    107.3965      0.0000    263.5110     68.4650     43.6097
  2188.7500    106.5008      0.0000    263.5017     68.7476     43.4195
  2189.0000    102.8689      0.0000    263.4843     69.0574     43.2295
  2189.2500     96.9972      0.0000    263.4673     69.2535     43.1268
  2189.5000     90.6593      0.0000    263.4541     69.1941     43.1919
  2189.7500     85.4214      0.0000    263.4431     68.8478     43.4286
  2190.0000     81.9822      0.0000    263.4311     68.3372     43.7306
  2190.2500     80.4997      0.0000    263.4149     67.8655     43.9278
  2190.5000     80.7877      0.0000    263.3889     67.5829     43.8883
  2190.7500     82.1247      0.0000    263.3496     67.4999     43.5942
  2191.0000     83.5269      0.0000    263.3020     67.5112     43.1194
  2191.2500     84.6037      0.0000    263.2612     67.4995     42.5400
  2191.5000     85.8228      0.0000    263.2422     67.4133     41.8676
  2191.7500     87.5664      0.0000    263.2487     67.2499     41.0644
  2192.0000     89.1505      0.0000    263.2755     66.9833     40.1026
  2192.2500     89.2102      0.0000    263.3276     66.5277     38.9940
  2192.5000     87.0191      0.0000    263.4656     65.7742     37.7663
