~Version Information
VERS.                      2.0: CWLS Log ASCII Standard - VERSION 2.0
WRAP.                       NO: One line per depth step
~Well Information Block
STRT.FT               704.0000: 
STOP.FT              2530.0000: 
STEP.FT                 0.2500: 
NULL.                -999.2500: 
COMP.          Pioneer Natural Resources: COMPANY
WELL.          Aztec Federal 41-15: WELL
FLD.           Purgatorie River: FIELD
LOC.           706' FNL & 1253' FEL: LOCATION
CNTY.               Las Animas: COUNTY
SRVC.          Superior Well Services: SERVICE COMPANY
DATE.          Tue Mar 18 09-04-19 2008: LOG DATE
UWI.           05-071-08342-00: UNIQUE WELL ID
STAT.                       CO: STATE
~Curve Information Block
DEPT.FT            0 000 00 00: Depth
DIR.Ohm-m                     : IEL Induction Resistivity
SN.Ohm-m                      : IEL Short Normal
SP.mV                         : IEL Spontaneous Potential
GR.GAPI                       : Gamma Ray
~Parameter Information Block
~A  Depth       DIR          SN          SP          GR     
# ...
  1106.0000     35.0397   2000.0000   2000.0000     74.9883
  1106.2500     33.7823   2000.0000   2000.0000     83.5887
  1106.5000     33.0570   2000.0000   2000.0000     88.8329
  1106.7500     32.1309   2000.0000   2000.0000     95.2212
  1107.0000     31.5894   2000.0000   2000.0000     98.1175
  1107.2500     30.8060   2000.0000   2000.0000     99.9145
  1107.5000     30.2505   2000.0000   2000.0000     99.4474
  1107.7500     29.3014   2000.0000   2000.0000     97.0855
  1108.0000     28.5779   2000.0000   2000.0000     95.1640
  1108.2500     27.3835   2000.0000   2000.0000     93.0454
  1108.5000     26.5545   2000.0000   2000.0000     92.6652
  1108.7500     25.3441   2000.0000   2000.0000     93.7535
  1109.0000     24.5951   2000.0000   2000.0000     95.1038
  1109.2500     23.5746   2000.0000   2000.0000     96.7763
  1109.5000     22.9477   2000.0000   2000.0000    108.5312
  1109.7500     22.0469   2000.0000   2000.0000    107.8780
  1110.0000     21.4572   2000.0000   2000.0000    107.4727
  1110.2500     20.5856   2000.0000   2000.0000    109.0044
  1110.5000     20.0184   2000.0000   2000.0000    112.3094
  1110.7500     19.1938   2000.0000   2000.0000    120.3763
  1111.0000     18.6605   2000.0000   2000.0000    126.7205
  1111.2500     17.8846   2000.0000   2000.0000    135.6071
  1111.5000     17.3878   2000.0000   2000.0000    140.4523
  1111.7500     16.6892   2000.0000   2000.0000    146.0412
  1112.0000     16.2670   2000.0000   2000.0000    148.9427
  1112.2500     15.7241   2000.0000   2000.0000    152.5525
  1112.5000     15.4376   2000.0000   2000.0000    154.5356
  1112.7500     15.1426   2000.0000   2000.0000    156.6237
  1113.0000     15.0419   2000.0000   2000.0000    157.2734
  1113.2500     15.0316   2000.0000   2000.0000    157.2072
  1113.5000     15.1103   2000.0000   2000.0000    156.6291
  1113.7500     15.3352   2000.0000   2000.0000    154.9245
  1114.0000     15.5425   2000.0000   2000.0000    152.8533
  1114.2500     15.9170   2000.0000   2000.0000    147.6034
  1114.5000     16.1986   2000.0000   2000.0000    142.7901
  1114.7500     16.6573   2000.0000   2000.0000    135.0154
  1115.0000     16.9805   2000.0000   2000.0000    130.3484
  1115.2500     17.4714   2000.0000   2000.0000    124.5004
  1115.5000     17.7839   2000.0000   2000.0000    120.9862
  1115.7500     18.1924   2000.0000   2000.0000    115.5582
  1116.0000     18.4060   2000.0000   2000.0000    111.7301
  1116.2500     18.6211   2000.0000   2000.0000    106.2420
  1116.5000     18.6928   2000.0000   2000.0000    103.4651
  1116.7500     18.7038   2000.0000   2000.0000    102.0353
  1117.0000     18.6598   2000.0000   2000.0000    103.4972
  1117.2500     18.5466   2000.0000   2000.0000    109.5679
  1117.5000     18.4565   2000.0000   2000.0000    115.8646
  1117.7500     18.3198   2000.0000   2000.0000    127.1658
  1118.0000     18.2338   2000.0000   2000.0000    134.6013
  1118.2500     18.1160   2000.0000   2000.0000    143.3881
  1118.5000     18.0441   2000.0000   2000.0000    146.9133
  1118.7500     17.9415   2000.0000   2000.0000    148.3912
  1119.0000     17.8730   2000.0000   2000.0000    146.9501
  1119.2500     17.7690   2000.0000   2000.0000    141.6923
  1119.5000     17.7057   2000.0000   2000.0000    136.7451
  1119.7500     17.6481   2000.0000   2000.0000    128.6305
  1120.0000     17.6595   2000.0000   2000.0000    123.5651
  1120.2500     17.7970   2000.0000   2000.0000    117.3629
  1120.5000     17.9885   2000.0000   2000.0000    114.3436
  1120.7500     18.4323   2000.0000   2000.0000    111.2329
  1121.0000     18.8173   2000.0000   2000.0000    109.5939
  1121.2500     19.4747   2000.0000   2000.0000    106.6431
  1121.5000     19.9292   2000.0000   2000.0000    103.9921
  1121.7500     20.5885   2000.0000   2000.0000     99.4868
  1122.0000     21.0032   2000.0000   2000.0000     96.8611
  1122.2500     21.5990   2000.0000   2000.0000     94.7154
  1122.5000     21.9940   2000.0000   2000.0000     94.8901
  1122.7500     22.6112   2000.0000   2000.0000     97.3533
  1123.0000     23.0512   2000.0000   2000.0000     99.6892
  1123.2500     23.7565   2000.0000   2000.0000    102.2855
  1123.5000     24.2431   2000.0000   2000.0000    102.5475
  1123.7500     24.9502   2000.0000   2000.0000    100.5703
  1124.0000     25.3729   2000.0000   2000.0000     98.2581
  1124.2500     25.8871   2000.0000   2000.0000     94.5687
  1124.5000     26.1352   2000.0000   2000.0000     92.3946
  1124.7500     26.3649   2000.0000   2000.0000     89.6465
  1125.0000     26.4351   2000.0000   2000.0000     88.1219
  1125.2500     26.4432   2000.0000   2000.0000     86.5944
  1125.5000     26.3910   2000.0000   2000.0000     86.4121
  1125.7500     26.2080   2000.0000   2000.0000     87.7517
  1126.0000     25.9913   2000.0000   2000.0000     89.6403
  1126.2500     25.4936   2000.0000   2000.0000     93.4848
  1126.5000     25.0542   2000.0000   2000.0000     96.4653
  1126.7500     24.2902   2000.0000   2000.0000    101.3476
  1127.0000     23.7471   2000.0000   2000.0000    104.7558
  1127.2500     22.9065   2000.0000   2000.0000    109.6552
  1127.5000     22.3179   2000.0000   2000.0000    112.4903
  1127.7500     21.3664   2000.0000   2000.0000    116.0282
  1128.0000     20.6892   2000.0000   2000.0000    118.1969
  1128.2500     19.6565   2000.0000   2000.0000    121.6816
  1128.5000     18.9956   2000.0000   2000.0000    124.0862
  1128.7500     18.0978   2000.0000   2000.0000    127.0977
  1129.0000     17.5760   2000.0000   2000.0000    128.3978
  1129.2500     16.9083   2000.0000   2000.0000    129.4921
  1129.5000     16.5313   2000.0000   2000.0000    129.9894
  1129.7500     16.0500   2000.0000   2000.0000    130.5253
  1130.0000     15.7752   2000.0000   2000.0000    130.4208
  1130.2500     15.4189   2000.0000   2000.0000    129.0311
  1130.5000     15.2129     21.1739    -72.6988    127.5122
  1130.7500     14.9422     21.5060    -72.8727    125.7577
  1131.0000     14.7806     22.3996    -73.2817    125.7677
  1131.2500     14.5505     23.0054    -73.6468    127.8849
  1131.5000     14.3945     23.4723    -74.3168    130.1337
  1131.7500     14.1417     23.3908    -74.8250    133.1144
  1132.0000     13.9558     22.8691    -75.6013    134.0226
  1132.2500     13.6501     22.4171    -76.0523    133.3919
  1132.5000     13.4308     21.7286    -76.4803    132.0210
  1132.7500     13.0853     21.2921    -76.5383    129.5278
  1133.0000     12.8487     20.7256    -76.2769    128.0399
  1133.2500     12.4940     20.4431    -75.9249    126.5664
  1133.5000     12.2644     20.2011    -75.2755    126.2491
  1133.7500     11.9442     20.1641    -74.8426    126.7795
  1134.0000     11.7553     20.2157    -74.2922    127.5661
  1134.2500     11.5217     20.1972    -74.0235    128.5925
  1134.5000     11.4037     19.8384    -73.7772    128.7336
  1134.7500     11.2850     19.3288    -73.6952    127.9788
  1135.0000     11.2428     18.3410    -73.6170    127.0419
  1135.2500     11.2272     17.7116    -73.5397    125.1990
  1135.5000     11.2421     17.0195    -73.3166    123.5887
  1135.7500     11.2865     16.7981    -73.0898    120.5141
  1136.0000     11.3189     16.9719    -72.6819    118.1630
  1136.2500     11.3500     17.4619    -72.4070    114.4920
  1136.5000     11.3489     18.5842    -72.0375    112.0479
  1136.7500     11.3062     19.3937    -71.8248    108.5038
  1137.0000     11.2525     20.3895    -71.5464    106.3076
  1137.2500     11.1462     20.8311    -71.3830    103.4761
  1137.5000     11.0677     21.2191    -71.1775    102.1135
  1137.7500     10.9551     21.3493    -71.0807    101.3156
  1138.0000     10.8926     21.3966    -71.0277    101.7554
  1138.2500     10.8326     21.3538    -71.0630    103.7005
  1138.5000     10.8239     21.1965    -71.2002    105.6385
  1138.7500     10.8696     21.0085    -71.3171    109.2668
  1139.0000     10.9414     20.5649    -71.4756    112.0573
  1139.2500     11.1042     20.1765    -71.5535    116.3062
