~Version Information
VERS.                      2.0: CWLS Log ASCII Standard - VERSION 2.0
WRAP.                       NO: One line per depth step
~Well Information Block
STRT.FT                15.0000: 
STOP.FT              1869.0000: 
STEP.FT                 0.2500: 
NULL.                -999.2500: 
COMP.          Pioneer Natural Resources: COMPANY
WELL.          Victory 12-14 Tr: WELL
FLD.           Purgatoire River: FIELD
LOC.           2522' FNL & 276' FWL: LOCATION
PROV.                 Colorado: PROVINCE
CNTY.               Las Animas: COUNTRY
SRVC.                Patterson: SERVICE COMPANY
DATE.          Fri Jul 22 14:39:41 2005: LOG DATE
UWI.           05 071 08433 00: UNIQUE WELL ID
~Curve Information Block
DEPT.FT            0 000 00 00: Depth
GR.GAPI                       : Gamma Ray
CCL.                          : Casing Collar Locator
TT3.usec                      : CBL 3' Travel Time
AMP3.mV                       : CBL 3' Amplitude
~Parameter Information Block
~A  Depth        GR         CCL         TT3         AMP3    
# ...
  1824.0000    150.2033      0.0000    428.2233      8.6409
  1824.2500    144.6678      0.0000    409.2925      8.7939
  1824.5000    138.6676      0.0000    394.8004      8.9238
  1824.7500    133.3202      0.0000    386.7568      9.0218
  1825.0000    128.4123      0.0000    383.5007      9.0955
  1825.2500    123.1200      0.0000    382.1729      9.1534
  1825.5000    117.7919      0.0000    381.8494      9.1945
  1825.7500    114.4186      0.0000    385.4786      9.2096
  1826.0000    114.8292      0.0000    398.6715      9.1943
  1826.2500    118.7164      0.0000    424.4456      9.1629
  1826.5000    123.7479      0.0000    456.7836      9.1427
  1826.7500    127.3329      0.0000    480.4991      9.1520
  1827.0000    128.2193      0.0000    482.0921      9.1863
  1827.2500    127.0300      0.0000    462.4913      9.2274
  1827.5000    125.8019      0.0000    436.7836      9.2618
  1827.7500    126.7335      0.0000    421.3750      9.2921
  1828.0000    130.6641      0.0000    424.1633      9.3357
  1828.2500    136.3403      0.0000    445.5186      9.4144
  1828.5000    141.3218      0.0000    481.6679      9.5393
  1828.7500    143.8625      0.0000    522.8437      9.7005
  1829.0000    143.9902      0.0000    552.6490      9.8644
  1829.2500    142.9675      0.0000    557.8360      9.9806
  1829.5000    142.1332      0.0000    541.6842      9.9906
  1829.7500    142.2750      0.0000    524.1710      9.8467
  1830.0000    143.5086      0.0000    526.2960      9.5472
  1830.2500    145.2995      0.0000    554.2173      9.1685
  1830.5000    146.8418      0.0000    597.1215      8.8386
  1830.7500    147.7624      0.0000    637.9693      8.6241
  1831.0000    148.2619      0.0000    665.8696      8.4375
  1831.2500    148.3790      0.0000    679.6769      8.1242
  1831.5000    147.6229      0.0000    682.7913      7.6776
  1831.7500    145.7569      0.0000    678.1589      7.2945
  1832.0000    143.4909      0.0000    668.8421      7.1686
  1832.2500    141.9374      0.0000    660.1756      7.2875
  1832.5000    141.6461      0.0000    658.3087      7.4717
  1832.7500    142.3563      0.0000    666.0622      7.5671
  1833.0000    143.2949      0.0000    680.6937      7.5806
  1833.2500    143.6058      0.0000    695.9677      7.6595
  1833.5000    142.9586      0.0000    706.6350      7.9262
  1833.7500    141.8058      0.0000    710.8838      8.3117
  1834.0000    140.6325      0.0000    708.0176      8.6018
  1834.2500    139.1094      0.0000    694.6082      8.6899
  1834.5000    136.6374      0.0000    665.6039      8.7092
  1834.7500    133.7770      0.0000    620.8926      8.8553
  1835.0000    132.4165      0.0000    569.2973      9.1542
  1835.2500    134.1317      0.0000    523.7125      9.4670
  1835.5000    138.8026      0.0000    492.1631      9.6568
  1835.7500    145.0478      0.0000    474.5018      9.6861
  1836.0000    151.4454      0.0000    466.2164      9.5913
  1836.2500    156.9501      0.0000    463.1506      9.4238
  1836.5000    160.7137      0.0000    463.1152      9.2234
  1836.7500    162.3523      0.0000    465.5629      9.0215
  1837.0000    162.4331      0.0000    470.9923      8.8498
  1837.2500    162.2223      0.0000    480.0683      8.7362
  1837.5000    162.8107      0.0000    492.5566      8.6911
  1837.7500    164.4572      0.0000    507.0587      8.7022
  1838.0000    166.5032      0.0000    521.6808      8.7414
  1838.2500    167.7866      0.0000    534.5156      8.7761
  1838.5000    167.4359      0.0000    543.7798      8.7777
  1838.7500    165.6125      0.0000    548.7176      8.7285
  1839.0000    163.3790      0.0000    550.8009      8.6304
  1839.2500    161.5178      0.0000    553.3162      8.5078
  1839.5000    159.6108      0.0000    559.0232      8.3985
  1839.7500    156.7246      0.0000    567.8461      8.3330
  1840.0000    152.9019      0.0000    576.6752      8.3178
  1840.2500    149.3419      0.0000    581.8109      8.3344
  1840.5000    147.0294      0.0000    582.4175      8.3530
  1840.7500    145.8647      0.0000    581.8109      8.3480
  1841.0000    145.3905      0.0000    584.9813      8.3073
  1841.2500    145.7618      0.0000    594.7504      8.2320
  1841.5000    147.4896      0.0000    610.0347      8.1335
  1841.7500    150.3469      0.0000    626.9756      8.0280
  1842.0000    152.9485      0.0000    641.3947      7.9337
  1842.2500    153.5932      0.0000    650.9753      7.8707
  1842.5000    151.5154      0.0000    656.1933      7.8593
  1842.7500    147.2771      0.0000    659.4077      7.9118
  1843.0000    142.0483      0.0000    662.7619      8.0199
  1843.2500    136.8559      0.0000    666.8885      8.1516
  1843.5000    132.6998      0.0000    671.4763      8.2628
  1843.7500    130.7836      0.0000    676.3188      8.3176
  1844.0000    131.8662      0.0000    681.0259      8.3042
  1844.2500    135.4588      0.0000    684.0439      8.2376
  1844.5000    140.0466      0.0000    683.3273      8.1478
  1844.7500    143.9824      0.0000    678.8009      8.0577
  1845.0000    146.1133      0.0000    673.4285      7.9718
  1845.2500    146.0569      0.0000    670.9090      7.8838
  1845.5000    144.2631      0.0000    672.4612      7.7929
  1845.7500    141.6159      0.0000    676.0558      7.7108
  1846.0000    138.6990      0.0000    678.3873      7.6519
  1846.2500    135.4659      0.0000    677.6966      7.6197
  1846.5000    131.7142      0.0000    674.9850      7.6000
  1846.7500    127.6827      0.0000    672.1917      7.5674
  1847.0000    123.9712      0.0000    669.1022      7.5008
  1847.2500    120.8447      0.0000    663.0156      7.4006
  1847.5000    117.7716      0.0000    652.2750      7.2917
  1847.7500    113.9782      0.0000    639.5253      7.2101
  1848.0000    109.7300      0.0000    630.1356      7.1805
  1848.2500    106.8415      0.0000    627.2578      7.2057
  1848.5000    107.4771      0.0000    629.5843      7.2726
  1848.7500    112.4110      0.0000    633.6976      7.3647
  1849.0000    120.6252      0.0000    636.1718      7.4682
  1849.2500    130.3279      0.0000    632.7470      7.5708
  1849.5000    139.9661      0.0000    618.5102      7.6588
  1849.7500    148.4329      0.0000    591.7322      7.7202
  1850.0000    154.9293      0.0000    556.9854      7.7537
  1850.2500    159.0015      0.0000    522.6935      7.7748
  1850.5000    160.6775      0.0000    495.6500      7.8070
  1850.7500    160.4986      0.0000    478.6288      7.8600
  1851.0000    159.3757      0.0000    472.1866      7.9197
  1851.2500    158.2758      0.0000    476.3219      7.9617
  1851.5000    157.8738      0.0000    488.8684      7.9789
  1851.7500    158.3430      0.0000    503.0038      7.9933
  1852.0000    159.4749      0.0000    509.1703      8.0396
  1852.2500    161.0357      0.0000    501.8994      8.1379
  1852.5000    162.8792      0.0000    484.4249      8.2776
  1852.7500    164.6484      0.0000    466.0212      8.4250
  1853.0000    165.6612      0.0000    456.4675      8.5411
  1853.2500    165.3879      0.0000    463.2622      8.5936
  1853.5000    163.8413      0.0000    490.0590      8.5639
  1853.7500    161.2646      0.0000    533.6408      8.4525
  1854.0000    157.7106      0.0000    582.2761      8.2698
  1854.2500    153.2553      0.0000    619.2695      8.0046
  1854.5000    148.3847      0.0000    628.6949      7.5827
  1854.7500    143.6250      0.0000    598.0978      6.8526
  1855.0000    138.8612      0.0000    520.8387      5.6593
  1855.2500    133.6867      0.0000    403.1308      4.0077
  1855.5000    128.5015      0.0000    268.9727      2.1689
  1855.7500    124.6694      0.0000    150.6210      0.5547
  1856.0000    123.3165      0.0000     69.3356     -0.5536
  1856.2500    124.1875      0.0000     25.8405     -1.1470
  1856.5000    125.7813      0.0000      7.7113     -1.3946
  1856.7500    126.4731      0.0000      1.8261     -1.4750
  1857.0000    125.5491      0.0000      0.3380     -1.4954
  1857.2500    123.4803      0.0000      0.0450     -1.4994
