~Version Information
VERS.                      2.0: CWLS Log ASCII Standard - VERSION 2.0
WRAP.                       NO: One line per depth step
~Well Information Block
STRT.FT               845.0000: 
STOP.FT              2308.2500: 
STEP.FT                 0.2500: 
NULL.                -999.2500: 
COMP.          Pioneer Natural Resources: COMPANY
WELL.             Vector 33-23: WELL
FLD.           Purgatoire River: FIELD
LOC.           1560' FEL & 1988' FSL----: LOCATION
PROV.                 Colorado: PROVINCE
CNTY.               Las Animas: COUNTRY
SRVC.                Patterson: SERVICE COMPANY
DATE.          Sat Mar 26 12:39:07 2005: LOG DATE
UWI.           05 071 08336 00: UNIQUE WELL ID
~Curve Information Block
DEPT.FT            0 000 00 00: Depth
SN.Ohm-m                      : IEL Short Normal
SP.mV                         : IEL Spontaneous Potential
DIR.Ohm-m                     : IEL Induction Resistivity
GR.GAPI                       : Gamma Ray
~Parameter Information Block
~A  Depth        SN          SP         DIR          GR     
   845.0000   2000.0000   2000.0000 100000.0000    114.9086
   845.2500   2000.0000   2000.0000 100000.0000    115.8502
   845.5000   2000.0000   2000.0000 100000.0000    117.6828
   845.7500   2000.0000   2000.0000 100000.0000    118.4866
   846.0000   2000.0000   2000.0000 100000.0000    118.0875
   846.2500   2000.0000   2000.0000 100000.0000    116.7112
   846.5000   2000.0000   2000.0000 100000.0000    113.7554
   846.7500   2000.0000   2000.0000 100000.0000    111.7973
   847.0000   2000.0000   2000.0000 100000.0000    109.6818
   847.2500   2000.0000   2000.0000 100000.0000    108.9681
   847.5000   2000.0000   2000.0000 100000.0000    108.5001
   847.7500   2000.0000   2000.0000 100000.0000    108.1834
   848.0000   2000.0000   2000.0000 100000.0000    107.5833
   848.2500   2000.0000   2000.0000 100000.0000    107.4134
   848.5000   2000.0000   2000.0000 100000.0000    107.9429
   848.7500   2000.0000   2000.0000 100000.0000    108.6853
   849.0000   2000.0000   2000.0000 100000.0000    109.5978
   849.2500   2000.0000   2000.0000 100000.0000    109.5601
   849.5000   2000.0000   2000.0000 100000.0000    108.1706
   849.7500   2000.0000   2000.0000 100000.0000    106.5997
   850.0000   2000.0000   2000.0000 100000.0000    104.1080
   850.2500   2000.0000   2000.0000 100000.0000    102.7447
   850.5000   2000.0000   2000.0000 100000.0000    101.4894
   850.7500   2000.0000   2000.0000 100000.0000    101.2505
   851.0000   2000.0000   2000.0000 100000.0000    101.6042
   851.2500   2000.0000   2000.0000 100000.0000    101.9955
   851.5000   2000.0000   2000.0000 100000.0000    102.3028
   851.7500   2000.0000   2000.0000 100000.0000    102.2947
   852.0000   2000.0000   2000.0000 100000.0000    102.2832
   852.2500   2000.0000   2000.0000 100000.0000    102.4191
   852.5000   2000.0000   2000.0000 100000.0000    102.7619
   852.7500   2000.0000   2000.0000 100000.0000    102.9397
   853.0000   2000.0000   2000.0000 100000.0000    103.0819
   853.2500   2000.0000   2000.0000 100000.0000    103.3183
   853.5000   2000.0000   2000.0000 100000.0000    104.4938
   853.7500   2000.0000   2000.0000 100000.0000    106.0565
   854.0000   2000.0000   2000.0000 100000.0000    109.5854
   854.2500   2000.0000   2000.0000 100000.0000    112.6096
   854.5000   2000.0000   2000.0000 100000.0000    117.6913
   854.7500   2000.0000   2000.0000 100000.0000    120.9532
   855.0000   2000.0000   2000.0000 100000.0000    124.7198
   855.2500   2000.0000   2000.0000 100000.0000     84.0889
   855.5000   2000.0000   2000.0000 100000.0000     84.2938
   855.7500   2000.0000   2000.0000 100000.0000     83.6860
   856.0000   2000.0000   2000.0000 100000.0000     82.1020
   856.2500   2000.0000   2000.0000 100000.0000     81.0810
   856.5000   2000.0000   2000.0000 100000.0000     80.3461
   856.7500   2000.0000   2000.0000 100000.0000     80.3904
   857.0000   2000.0000   2000.0000 100000.0000     80.4160
   857.2500   2000.0000   2000.0000 100000.0000     79.8624
   857.5000   2000.0000   2000.0000 100000.0000     78.1336
   857.7500   2000.0000   2000.0000 100000.0000     76.9629
   858.0000   2000.0000   2000.0000 100000.0000     76.4758
   858.2500   2000.0000   2000.0000 100000.0000     77.4541
   858.5000   2000.0000   2000.0000 100000.0000     80.8174
   858.7500   2000.0000   2000.0000 100000.0000     83.9427
   859.0000   2000.0000   2000.0000 100000.0000     89.1984
   859.2500   2000.0000   2000.0000 100000.0000     92.7165
   859.5000   2000.0000   2000.0000 100000.0000     97.4146
   859.7500   2000.0000   2000.0000     12.1380     99.7750
   860.0000   2000.0000   2000.0000      4.8604    101.6471
   860.2500   2000.0000   2000.0000      3.0633    101.7713
   860.5000   2000.0000   2000.0000      2.5231    100.8461
   860.7500   2000.0000   2000.0000      2.6062     99.9904
   861.0000   2000.0000   2000.0000      3.3805     98.9606
   861.2500   2000.0000   2000.0000      5.8543     98.5255
   861.5000   2000.0000   2000.0000     19.4065     98.2517
   861.7500   2000.0000   2000.0000 100000.0000     98.5505
   862.0000   2000.0000   2000.0000 100000.0000    100.4925
   862.2500   2000.0000   2000.0000 100000.0000    103.0544
   862.5000   2000.0000   2000.0000 100000.0000    108.3348
   862.7500   2000.0000   2000.0000 100000.0000    112.1260
   863.0000   2000.0000   2000.0000     69.7502    117.0397
   863.2500   2000.0000   2000.0000     18.6128    119.3454
   863.5000   2000.0000   2000.0000     12.2217    121.0284
   863.7500   2000.0000   2000.0000     10.3013    121.0304
   864.0000   2000.0000   2000.0000      9.8220    119.8479
   864.2500   2000.0000   2000.0000     10.0340    118.7477
   864.5000   2000.0000   2000.0000     10.6397    117.5999
   864.7500   2000.0000   2000.0000     11.4369    117.6126
   865.0000   2000.0000   2000.0000     12.2066    118.9458
   865.2500   2000.0000   2000.0000     12.7369    120.3913
   865.5000   2000.0000   2000.0000     12.9640    122.4472
   865.7500   2000.0000   2000.0000     13.0542    123.2294
   866.0000   2000.0000   2000.0000     13.2991    123.1596
   866.2500   2000.0000   2000.0000     13.9452    122.4257
   866.5000   2000.0000   2000.0000     15.0728    120.6908
   866.7500   2000.0000   2000.0000     16.4775    119.1336
   867.0000   2000.0000   2000.0000     17.6097    115.9335
   867.2500   2000.0000   2000.0000     17.8783    113.2718
   867.5000   2000.0000   2000.0000     17.2213    109.2852
   867.7500   2000.0000   2000.0000     16.1260    107.1508
   868.0000   2000.0000   2000.0000     15.1110    104.8353
   868.2500   2000.0000   2000.0000     14.4496    103.5288
   868.5000   2000.0000   2000.0000     14.2195    101.5166
   868.7500   2000.0000   2000.0000     14.3994    100.3016
   869.0000   2000.0000   2000.0000     14.9092     99.2820
   869.2500   2000.0000   2000.0000     15.6191     99.3235
   869.5000   2000.0000   2000.0000     16.3682    100.2330
   869.7500   2000.0000   2000.0000     17.0120    101.1119
   870.0000   2000.0000   2000.0000     17.4719    102.5294
   870.2500   2000.0000   2000.0000     17.7456    103.5365
   870.5000   2000.0000   2000.0000     17.8752    105.2244
   870.7500   2000.0000   2000.0000     17.9054    106.4163
   871.0000   2000.0000   2000.0000     17.8643    107.9270
   871.2500   2000.0000   2000.0000     17.7678    108.4541
   871.5000   2000.0000   2000.0000     17.6329    108.3399
   871.7500   2000.0000   2000.0000     17.4850    107.9180
   872.0000   2000.0000   2000.0000     17.3526    107.5389
   872.2500   2000.0000   2000.0000     17.2551    107.7310
   872.5000   2000.0000   2000.0000     17.1939    108.5411
   872.7500   2000.0000   2000.0000     17.1534    109.1598
   873.0000   2000.0000   2000.0000     17.1103    109.8237
   873.2500   2000.0000   2000.0000     17.0477    109.9521
   873.5000   2000.0000   2000.0000     16.9626    109.6210
   873.7500   2000.0000   2000.0000     16.8651    109.2168
   874.0000   2000.0000   2000.0000     16.7707    108.9084
   874.2500   2000.0000   2000.0000     16.6923    109.1649
   874.5000   2000.0000   2000.0000     16.6352    110.1425
   874.7500   2000.0000   2000.0000     16.5967    110.8473
   875.0000   2000.0000   2000.0000     16.5686    111.3971
   875.2500   2000.0000   2000.0000     16.5406    111.3223
   875.5000   2000.0000   2000.0000     16.5022    110.8460
   875.7500   2000.0000   2000.0000     16.4426    110.5463
   876.0000   2000.0000   2000.0000     16.3508    110.1861
   876.2500   2000.0000   2000.0000     16.2207    109.7003
   876.5000   2000.0000   2000.0000     16.0569    107.9971
   876.7500   2000.0000   2000.0000     15.8776    106.3357
   877.0000   2000.0000   2000.0000     15.7117    104.3805
   877.2500   2000.0000   2000.0000     15.5924    104.3666
   877.5000   2000.0000   2000.0000     15.5481    106.8379
   877.7500   2000.0000   2000.0000     15.5946    109.6330
   878.0000   2000.0000   2000.0000     15.7302    113.8086
   878.2500   2000.0000   2000.0000     15.9376    115.5466
