~Version Information
VERS.                      2.0: CWLS Log ASCII Standard - VERSION 2.0
WRAP.                       NO: One line per depth step
~Well Information Block
STRT.FT               652.0000: 
STOP.FT              1880.5000: 
STEP.FT                 0.2500: 
NULL.                -999.2500: 
COMP.          Pioneer Natural Resources: COMPANY
WELL.          Corkscrew 33-12 Tr: WELL
FLD.           Purgatoire River: FIELD
LOC.           1870' FSL & 1706' FEL: LOCATION
PROV.                 Colorado: PROVINCE
CNTY.               Las Animas: COUNTRY
SRVC.                Patterson: SERVICE COMPANY
DATE.          Mon Mar 28 22:58:28 2005: LOG DATE
UWI.           05 071 08295 00: UNIQUE WELL ID
~Curve Information Block
DEPT.FT            0 000 00 00: Depth
SN.Ohm-m                      : IEL Short Normal
SP.mV                         : IEL Spontaneous Potential
DIR.Ohm-m                     : IEL Induction Resistivity
GR.GAPI                       : Gamma Ray
~Parameter Information Block
~A  Depth        SN          SP         DIR          GR     
# ...
  1121.0000     15.4603    -27.9955     13.9974    139.2019
  1121.2500     15.9478    -28.1029     14.2591    139.2847
  1121.5000     16.3084    -28.2059     14.4028    138.4881
  1121.7500     16.4641    -28.2684     14.4091    137.3918
  1122.0000     16.3921    -28.2665     14.2941    136.0693
  1122.2500     16.1682    -28.1970     14.0916    136.3445
  1122.5000     15.9382    -28.0759     13.8254    138.8407
  1122.7500     15.8037    -27.9323     13.5045    141.0869
  1123.0000     15.7258    -27.8011     13.1427    143.6068
  1123.2500     15.5787    -27.7164     12.7766    144.3481
  1123.5000     15.2891    -27.7017     12.4562    144.6179
  1123.7500     14.8732    -27.7625     12.2178    144.8802
  1124.0000     14.3761    -27.8885     12.0608    146.5171
  1124.2500     13.8487    -28.0653     11.9503    148.8358
  1124.5000     13.3365    -28.2851     11.8418    153.7086
  1124.7500     12.8562    -28.5470     11.7115    156.8088
  1125.0000     12.4136    -28.8499     11.5678    158.8916
  1125.2500     12.0415    -29.1862     11.4373    157.8456
  1125.5000     11.7884    -29.5435     11.3436    153.5311
  1125.7500     11.6780    -29.9124     11.2955    150.2247
  1126.0000     11.7062    -30.2922     11.2893    146.6935
  1126.2500     11.8646    -30.6894     11.3165    145.5414
  1126.5000     12.1552    -31.1108     11.3724    144.2770
  1126.7500     12.5825    -31.5560     11.4611    142.4960
  1127.0000     13.1470    -32.0141     11.5972    137.0896
  1127.2500     13.8617    -32.4646     11.8032    131.9345
  1127.5000     14.7538    -32.8819     12.1060    123.6937
  1127.7500     15.8225    -33.2427     12.5325    118.9376
  1128.0000     17.0030    -33.5306     13.1051    113.8127
  1128.2500     18.1819    -33.7374     13.8336    111.7272
  1128.5000     19.2748    -33.8639     14.7050    110.0241
  1128.7500     20.2791    -33.9233     15.6743    109.4015
  1129.0000     21.2028    -33.9416     16.6618    108.8551
  1129.2500     21.9706    -33.9497     17.5662    108.9224
  1129.5000     22.4753    -33.9652     18.2979    110.1835
  1129.7500     22.7265    -33.9794     18.8185    111.7552
  1130.0000     22.8856    -33.9643     19.1559    114.4798
  1130.2500     23.1170    -33.8950     19.3834    116.1195
  1130.5000     23.4370    -33.7658     19.5821    117.8955
  1130.7500     23.7129    -33.5899     19.8118    118.4224
  1131.0000     23.7823    -33.3904     20.0907    118.2149
  1131.2500     23.5857    -33.1967     20.3817    117.7851
  1131.5000     23.1996    -33.0422     20.5944    117.2226
  1131.7500     22.7486    -32.9524     20.6187    116.6237
  1132.0000     22.3134    -32.9284     20.3814    114.6232
  1132.2500     21.9319    -32.9394     19.8910    112.7739
  1132.5000     21.6350    -32.9384     19.2386    110.8254
  1132.7500     21.4439    -32.8895     18.5593    110.8263
  1133.0000     21.3783    -32.7864     17.9829    112.1757
  1133.2500     21.4919    -32.6523     17.6006    112.5810
  1133.5000     21.8308    -32.5227     17.4581    110.1841
  1133.7500     22.3436    -32.4255     17.5636    106.4925
  1134.0000     22.9034    -32.3703     17.8982    100.1006
  1134.2500     23.4181    -32.3515     18.4160     97.0383
  1134.5000     23.9012    -32.3623     19.0401     95.8073
  1134.7500     24.4546    -32.4058     19.6693     96.8788
  1135.0000     25.1810    -32.4954     20.2099     99.5781
  1135.2500     26.1211    -32.6437     20.6209    101.1818
  1135.5000     27.2613    -32.8484     20.9401    102.4403
  1135.7500     28.5321    -33.0830     21.2682    102.3683
  1136.0000     29.8025    -33.3018     21.7242    101.2064
  1136.2500     30.9377    -33.4589     22.3963    100.1393
  1136.5000     31.8759    -33.5323     23.3059     98.5254
  1136.7500     32.6955    -33.5371     24.3881     97.3103
  1137.0000     33.5942    -33.5168     25.4875     94.8928
  1137.2500     34.6905    -33.5181     26.3945     92.9609
  1137.5000     35.8428    -33.5641     26.9376     90.3072
  1137.7500     36.7357    -33.6415     27.0874     89.2274
  1138.0000     37.1316    -33.7104     26.9753     89.2031
  1138.2500     37.0326    -33.7308     26.7978     90.1851
  1138.5000     36.6572    -33.6869     26.7021     92.4854
  1138.7500     36.2714    -33.5928     26.7341     94.2294
  1139.0000     35.9802    -33.4788     26.8583     97.1622
  1139.2500     35.6767    -33.3756     27.0098     99.4352
  1139.5000     35.2462    -33.3088     27.1416    102.8725
  1139.7500     34.7417    -33.2978     27.2366    104.5294
  1140.0000     34.2897    -33.3481     27.2848    105.0751
  1140.2500     33.9471    -33.4411     27.2583    103.9809
  1140.5000     33.6889    -33.5386     27.1212    100.6003
  1140.7500     33.4548    -33.6030     26.8686     97.8501
  1141.0000     33.2217    -33.6151     26.5604     94.6663
  1141.2500     33.0581    -33.5757     26.3114     93.9878
  1141.5000     33.0791    -33.4969     26.2527     95.0238
  1141.7500     33.3430    -33.3938     26.4915     96.0528
  1142.0000     33.7924    -33.2794     27.0792     95.9495
  1142.2500     34.2762    -33.1641     27.9834     94.1039
  1142.5000     34.6486    -33.0561     29.0710     88.9857
  1142.7500     34.8603    -32.9618     30.1360     84.7667
  1143.0000     34.9694    -32.8846     30.9856     78.6554
  1143.2500     35.0938    -32.8248     31.5380     75.3651
  1143.5000     35.3350    -32.7813     31.8312     72.4371
  1143.7500     35.7344    -32.7565     31.9240     72.1928
  1144.0000     36.3023    -32.7521     31.7797     74.3925
  1144.2500     36.9905    -32.7587     31.2301     76.9743
  1144.5000     37.6199    -32.7533     30.0734     80.6834
  1144.7500     37.9686    -32.7146     28.2810     81.9638
  1145.0000     37.9373    -32.6391     26.1326     81.3219
  1145.2500     37.6009    -32.5431     24.1062     79.7953
  1145.5000     37.1760    -32.4510     22.6259     78.2423
  1145.7500     36.9297    -32.3797     21.9186     78.8974
  1146.0000     37.0068    -32.3291     22.0169     82.7545
  1146.2500     37.2994    -32.2835     22.7997     86.5895
  1146.5000     37.5342    -32.2217     24.0110     92.7917
  1146.7500     37.4998    -32.1276     25.2827     96.5372
  1147.0000     37.1771    -31.9969     26.2058    100.6435
  1147.2500     36.7039    -31.8351     26.4495    101.9271
  1147.5000     36.2542    -31.6533     25.8868    101.1729
  1147.7500     35.9366    -31.4646     24.6609     98.9279
  1148.0000     35.7625    -31.2819     23.1183     93.8036
  1148.2500     35.6603    -31.1147     21.6325     90.0455
  1148.5000     35.5295    -30.9610     20.4583     85.3625
  1148.7500     35.3474    -30.8051     19.7025     83.4729
  1149.0000     35.1969    -30.6277     19.3698     82.7819
  1149.2500     35.1525    -30.4201     19.4193     83.5823
  1149.5000     35.1942    -30.1910     19.8026     86.1595
  1149.7500     35.2425    -29.9592     20.4750     88.2932
  1150.0000     35.2533    -29.7417     21.3879     90.5322
  1150.2500     35.2727    -29.5467     22.4704     90.2965
  1150.5000     35.3829    -29.3759     23.6249     86.5848
  1150.7500     35.6169    -29.2341     24.7459     82.4642
  1151.0000     35.9502    -29.1380     25.7559     75.8691
  1151.2500     36.3320    -29.1148     26.6220     72.3033
  1151.5000     36.6988    -29.1863     27.3391     69.2224
  1151.7500     36.9807    -29.3522     27.9038     68.6976
  1152.0000     37.1229    -29.5852     28.3156     69.4026
  1152.2500     37.1116    -29.8399     28.6057     70.2317
  1152.5000     37.0085    -30.0660     28.8600     71.5555
  1152.7500     36.9376    -30.2218     29.1959     72.7424
  1153.0000     36.9876    -30.2859     29.6989     75.3288
  1153.2500     37.1409    -30.2642     30.3460     77.2009
  1153.5000     37.3207    -30.1844     30.9457     78.9321
  1153.7500     37.4887    -30.0796     31.1223     78.9049
  1154.0000     37.6945    -29.9695     30.4164     77.1565
  1154.2500     38.0402    -29.8503     28.5557     74.9865
