~Version Information
VERS.                      2.0: CWLS Log ASCII Standard - VERSION 2.0
WRAP.                       NO: One line per depth step
~Well Information Block
STRT.FT               318.1000: 
STOP.FT              2688.0000: 
STEP.FT                 0.1000: 
NULL.                -999.2500: 
COMP.          Petrogulf Corporation: COMPANY
WELL.            Montoya 1-24V: WELL
FLD.           Purgatorie River: FIELD
LOC.           605' FSL & 2557' FWL: LOCATION
CNTY.               Las Animas: COUNTY
SRVC.                         : SERVICE COMPANY
DATE.          Wed Oct 20 14:56:37 2004: LOG DATE
UWI.           05 071 08194 00: UNIQUE WELL ID
STAT.                 Colorado: STATE
~Curve Information Block
DEPT.FT            0 000 00 00: Depth
DCAL.in                       : CDL Caliper
RHOB.g/cc                     : CDL Bulk Density
RHOC.g/cc                     : CDL Density Correction
DPOR.pu                       : CDL Density Porosity
GR.GAPI                       : Gamma Ray
NPOR.pu                       : Neutron Porosity
~Parameter Information Block
~A  Depth       DCAL        RHOB        RHOC        DPOR         GR         NPOR    
# ...
  2209.3000      7.8912      2.5418      0.0497      6.5578     69.2566     26.6717
  2209.4000      7.8912      2.5481      0.1221      6.1783     71.5786     27.2840
  2209.5000      7.9042      2.5398      0.0418      6.6768     77.1525     28.1782
  2209.6000      7.9042      2.5172      0.0660      8.0488     82.0950     28.6060
  2209.7000      7.9042      2.4893      0.0188      9.7420     84.8215     28.3492
  2209.8000      7.9288      2.4816     -0.0207     10.2034     87.5160     28.0965
  2209.9000      7.9288      2.5072      0.0401      8.6572     90.9205     28.3691
  2210.0000      7.9716      2.5348      0.1256      6.9790     95.4316     28.6229
  2210.1000      7.9716      2.5370      0.1066      6.8496    102.4811     28.3345
  2210.2000      7.9716      2.5295      0.0520      7.3024    111.3802     27.7629
  2210.3000      7.9762      2.5342      0.0726      7.0182    117.5596     27.3337
  2210.4000      7.9762      2.5443      0.0807      6.4081    118.4883     27.4279
  2210.5000      7.9317      2.5440      0.0563      6.4269    115.1721     28.2487
  2210.6000      7.9317      2.5348      0.0762      6.9798    111.4243     29.4438
  2210.7000      7.9317      2.5366      0.0158      6.8731    109.5847     30.2061
  2210.8000      7.9291      2.5540      0.0874      5.8192    108.7596     30.1268
  2210.9000      7.9291      2.5611      0.0669      5.3881    108.3937     29.9619
  2211.0000      7.9882      2.5382      0.0739      6.7783    107.4882     30.5717
  2211.1000      7.9882      2.4890      0.0330      9.7550    106.1143     31.4226
  2211.2000      7.9882      2.4288      0.0243     13.4057    103.9195     31.6004
  2211.3000      7.9864      2.3704     -0.0366     16.9450     97.9225     31.4266
  2211.4000      7.9864      2.3041     -0.0305     20.9642     88.7179     31.4187
  2211.5000      7.9778      2.1906     -0.0245     27.8403     83.5366     31.0567
  2211.6000      7.9778      2.0118     -0.0797     38.6766     85.0340     30.1305
  2211.7000      7.9778      1.8162     -0.1324     50.5322     85.1730     29.7679
  2211.8000      8.0004      1.6733     -0.1449     59.1955     83.4769     30.7509
  2211.9000      8.0004      1.5966     -0.1025     63.8432     85.4911     32.2385
  2212.0000      8.0179      1.5519     -0.1213     66.5543     85.5930     32.9763
  2212.1000      8.0179      1.5214     -0.1123     68.3997     79.9955     32.8290
  2212.2000      8.0179      1.5162     -0.0296     68.7174     75.1682     32.6571
  2212.3000      8.0672      1.5335      0.1159     67.6686     74.9309     32.9172
  2212.4000      8.0672      1.5501      0.1223     66.6603     75.4387     33.2729
  2212.5000      8.0319      1.5633      0.1221     65.8593     71.9405     33.3801
  2212.6000      8.0319      1.5938      0.1327     64.0116     67.3204     33.1276
  2212.7000      8.0319      1.6591      0.1393     60.0535     66.5592     32.5579
  2212.8000      7.9846      1.7676      0.1375     53.4813     67.2284     32.0601
  2212.9000      7.9846      1.9066      0.1745     45.0534     66.3535     32.0308
  2213.0000      7.9871      2.0390      0.2272     37.0294     68.3656     32.2701
  2213.1000      7.9871      2.1450      0.2617     30.6089     76.2393     32.0027
  2213.2000      7.9871      2.2452      0.2554     24.5342     85.5111     31.0623
  2213.3000      7.9683      2.3649      0.2990     17.2797     93.6418     30.2388
  2213.4000      7.9683      2.4894      0.4130      9.7311    102.5485     29.8402
  2213.5000      8.0786      2.5789      0.4222      4.3104    111.4652     29.3556
  2213.6000      8.0786      2.6248      0.3640      1.5243    118.3183     28.7599
  2213.7000      8.0786      2.6507      0.3154     -0.0435    121.5145     28.6002
  2213.8000      8.2125      2.6679      0.3474     -1.0846    121.4927     28.6503
  2213.9000      8.2125      2.6599      0.3220     -0.5980    119.0765     28.5037
  2214.0000      8.0790      2.6131      0.1553      2.2334    112.8576     28.5033
  2214.1000      8.0790      2.5617     -0.0097      5.3492    103.5174     28.8100
  2214.2000      8.0790      2.5505      0.0671      6.0325     93.0889     29.1983
  2214.3000      7.9721      2.5720      0.0697      4.7286     85.3302     29.3397
  2214.4000      7.9721      2.5906      0.1233      3.5989     83.2840     29.0605
  2214.5000      7.9054      2.5823      0.1272      4.1032     87.6982     28.5575
  2214.6000      7.9054      2.5492      0.0789      6.1109     99.1742     28.1551
  2214.7000      7.9054      2.5148      0.0857      8.1931    113.5566     28.1359
  2214.8000      7.8873      2.4951      0.1021      9.3897    120.5101     28.3717
  2214.9000      7.8873      2.4904      0.1015      9.6715    117.6303     28.4322
  2215.0000      7.9416      2.5016      0.0784      8.9921    115.0611     27.9761
  2215.1000      7.9416      2.5204      0.0971      7.8544    117.9559     27.2488
  2215.2000      7.9416      2.5272      0.0635      7.4447    122.9556     26.8637
  2215.3000      7.9347      2.5206      0.0748      7.8399    126.5460     26.9418
  2215.4000      7.9347      2.5200      0.0762      7.8800    127.8592     27.2514
  2215.5000      7.9182      2.5365      0.1712      6.8776    127.3450     27.6246
  2215.6000      7.9182      2.5641      0.1596      5.2043    125.6704     27.9732
  2215.7000      7.9182      2.5881      0.2672      3.7539    124.1137     28.3137
  2215.8000      7.9051      2.5934      0.1808      3.4292    124.3750     28.6348
  2215.9000      7.9051      2.5848      0.1203      3.9532    125.2531     29.0600
  2216.0000      7.8919      2.5765      0.1349      4.4534    123.8527     29.7594
  2216.1000      7.8919      2.5678      0.1689      4.9839    119.8015     30.0124
  2216.2000      7.8919      2.5481      0.1571      6.1764    115.4612     29.1790
  2216.3000      7.8740      2.5178      0.1092      8.0140    115.2004     28.3009
  2216.4000      7.8740      2.4951      0.0576      9.3903    118.7110     28.4984
  2216.5000      7.9426      2.4933      0.0929      9.4980    118.8498     29.2818
  2216.6000      7.9426      2.5001      0.0590      9.0849    114.2679     29.6370
  2216.7000      7.9426      2.4937      0.0806      9.4707    112.0571     29.6131
  2216.8000      7.8864      2.4730      0.0449     10.7258    112.6838     29.4511
  2216.9000      7.8864      2.4585      0.0035     11.6080    112.6348     28.8055
  2217.0000      7.8893      2.4614     -0.0123     11.4289    114.7824     27.6364
  2217.1000      7.8893      2.4676      0.0516     11.0559    119.9315     26.5940
  2217.2000      7.8893      2.4608      0.0658     11.4670    125.7861     26.4582
  2217.3000      7.9597      2.4486      0.0486     12.2035    129.1681     27.3324
  2217.4000      7.9597      2.4372      0.0868     12.8941    126.4087     28.3444
  2217.5000      7.9876      2.4000      0.0996     15.1498    123.1111     28.5663
  2217.6000      7.9876      2.3110      0.0555     20.5444    129.4541     28.2718
  2217.7000      7.9876      2.1812     -0.0189     28.4106    140.6610     28.4263
  2217.8000      7.9951      2.0489     -0.0512     36.4278    146.9592     29.3785
  2217.9000      7.9951      1.9539     -0.0771     42.1854    150.0475     30.4248
  2218.0000      7.9543      1.9001      0.0035     45.4491    152.0496     30.7063
  2218.1000      7.9543      1.8504     -0.0239     48.4594    150.5643     30.4591
  2218.2000      7.9543      1.7914     -0.0142     52.0382    145.9367     30.3892
  2218.3000      7.9619      1.7736     -0.0753     53.1159    141.1421     30.6861
  2218.4000      7.9619      1.8516      0.0886     48.3885    138.0884     30.9216
  2218.5000      7.9969      1.9982      0.2852     39.5000    136.6015     30.8694
  2218.6000      7.9969      2.1362      0.3205     31.1403    136.2250     30.9019
  2218.7000      7.9969      2.2306      0.3155     25.4162    137.3820     30.9741
  2218.8000      8.1378      2.2948      0.3568     21.5264    138.7802     30.9448
