~Version Information
 VERS.                                  2.0 : CWLS LAS VERSION
 WRAP.                                   NO : WRAPING MODE
 SWARE .                 MController 2.5.0E : SOFTWARE VERSION
~Well Information
 WELL.                          Patten 22-2 : WELL
 COMP.           Pionneer Natural Resources : COMPANY
 FLD.                      Purgatoire River : FIELD
 LOC.                 SE/NW Sec 2 T35S R65W : LOCATION
 DATE.                             12/09/04 : DATE(S) LOGGED
 SRVC.                Blanco Geological LLC : SERVICE COMPANY
 STAT.                                   CO : STATE
 CNTY.                           Las Aminas : COUNTY
 CTRY.                                  USA : COUNTRY
 API.                          05-071-08168 : API NUMBER
 STRT.FT                             276.00 : START DEPTH
 STOP.FT                            1707.00 : STOP DEPTH
 STEP.FT                               1.00 : DEPTH INCREMENT
 NULL.                                -9999 : NULL VALUE
~Curve information
 DEPTH.FT                                   :
 ROP.MIN/FT                                 :
 GAS.UNITS                                  :
~ASCII Log data
# ...
      676.00        0.300          2.5 
      677.00        0.133          2.1 
      678.00        0.167          2.2 
      679.00        0.133          2.4 
      680.00        0.167          2.3 
      681.00        0.167          2.3 
      682.00        0.133          2.3 
      683.00        0.167          2.1 
      684.00        0.167          2.2 
      685.00        0.533          2.5 
      686.00        5.733          2.6 
      687.00        0.200          1.8 
      688.00        0.167          1.9 
      689.00        0.133          2.0 
      690.00        0.133          2.0 
      691.00        0.167          1.9 
      692.00        0.167          1.9 
      693.00        0.133          1.6 
      694.00        0.167          2.0 
      695.00        0.133          2.0 
      696.00        0.117          1.8 
      697.00        0.167          2.0 
      698.00        0.167          2.0 
      699.00        0.200          2.3 
      700.00        0.167          2.4 
      701.00        0.133          2.3 
      702.00        0.133          1.8 
      703.00        0.167          2.0 
      704.00        0.133          2.2 
      705.00        0.167          2.3 
      706.00        0.133          2.0 
      707.00        0.100          1.7 
      708.00        0.133          2.1 
      709.00        0.200          2.3 
      710.00        0.233          2.2 
      711.00        0.167          2.1 
      712.00        0.167          2.1 
      713.00        0.133          2.2 
      714.00        0.133          1.9 
      715.00        0.233          2.2 
      716.00        2.683          2.7 
      717.00        0.333          2.6 
      718.00        0.167          2.7 
      719.00        0.183          2.1 
      720.00        0.200          2.6 
      721.00        0.167          2.7 
      722.00        0.167          2.4 
      723.00        0.167          2.6 
      724.00        0.167          2.5 
      725.00        0.167          2.5 
      726.00        0.133          2.6 
      727.00        0.167          2.6 
      728.00        0.133          2.5 
      729.00        0.167          2.7 
      730.00        0.200          2.7 
      731.00        0.167          2.5 
      732.00        0.167          2.5 
      733.00        0.167          2.6 
      734.00        0.167          2.5 
      735.00        0.167          2.6 
      736.00        0.200          2.5 
      737.00        0.317          2.5 
      738.00        0.233          2.7 
      739.00        0.200          2.7 
      740.00        0.233          2.2 
      741.00        0.233          2.6 
      742.00        0.233          2.7 
      743.00        0.233          2.8 
      744.00        0.133          2.3 
      745.00        0.167          2.5 
      746.00        2.917          2.7 
      747.00        0.267          2.6 
      748.00        0.200          2.6 
      749.00        0.100          2.9 
      750.00        0.100          2.7 
      751.00        0.300          2.5 
      752.00        0.167          2.4 
      753.00        0.167          2.2 
      754.00        0.200          2.4 
      755.00        0.217          2.5 
      756.00        0.133          2.0 
      757.00        0.133          2.3 
      758.00        0.133          2.4 
      759.00        0.200          2.5 
      760.00        0.167          2.5 
      761.00        0.167          2.1 
      762.00        0.267          2.4 
      763.00        0.167          2.2 
      764.00        0.133          2.5 
      765.00        0.167          2.4 
      766.00        0.167          2.0 
      767.00        0.200          2.2 
      768.00        0.167          1.9 
      769.00        0.167          2.1 
      770.00        0.167          2.4 
      771.00        0.167          2.4 
      772.00        0.200          2.4 
      773.00        0.167          2.2 
      774.00        0.217          2.4 
      775.00        0.167          2.4 
      776.00        1.700          2.5 
      777.00        0.267          2.0 
      778.00        0.367          2.5 
      779.00        0.267          2.6 
      780.00        0.167          2.5 
      781.00        0.150          2.1 
      782.00        0.133          2.7 
      783.00        0.200          2.6 
      784.00        0.167          1.9 
      785.00        0.167          2.3 
      786.00        0.233          2.4 
      787.00        0.167          2.4 
      788.00        0.167          2.5 
      789.00        0.167          2.4 
      790.00        0.167          2.3 
      791.00        0.167          2.1 
      792.00        0.167          2.3 
      793.00        0.133          2.3 
      794.00        0.167          2.3 
      795.00        0.333          2.1 
      796.00        0.200          2.2 
      797.00        0.167          2.5 
      798.00        0.183          2.5 
      799.00        0.167          2.4 
      800.00        0.167          2.6 
      801.00        0.167          2.5 
      802.00        0.133          2.5 
      803.00        0.167          2.3 
      804.00        0.133          1.9 
      805.00        0.167          2.2 
      806.00        2.067          2.6 
      807.00        0.250          2.5 
      808.00        0.233          2.4 
      809.00        0.200          2.5 
      810.00        0.200          2.5 
      811.00        0.200          2.6 
      812.00        0.167          2.6 
      813.00        0.200          2.5 
      814.00        0.133          2.5 
      815.00        0.167          2.6 
      816.00        0.167          2.5 
      817.00        0.133          2.5 
      818.00        0.167          2.5 
      819.00        0.167          2.5 
      820.00        0.167          2.4 
      821.00        0.133          2.6 
      822.00        0.167          2.5 
      823.00        0.167          2.2 
      824.00        0.183          2.2 
      825.00        0.167          2.4 
      826.00        0.133          2.6 
      827.00        0.200          2.4 
      828.00        0.133          1.9 
      829.00        0.200          2.4 
      830.00        0.133          2.2 
      831.00        0.167          2.4 
      832.00        0.200          2.2 
      833.00        0.233          2.5 
      834.00        0.200          2.4 
      835.00        0.167          2.5 
      836.00        5.500          2.7 
      837.00        0.300          2.3 
      838.00        0.267          2.4 
      839.00        0.267          2.4 
      840.00        0.200          2.4 
      841.00        0.233          2.4 
      842.00        0.167          2.3 
      843.00        0.233          2.3 
      844.00        0.167          1.9 
      845.00        0.167          2.1 
      846.00        0.217          2.2 
      847.00        0.200          2.3 
      848.00        0.200          2.3 
      849.00        0.167          2.2 
      850.00        0.333          2.2 
      851.00        0.167         15.1 
      852.00        0.167         40.2 
      853.00        0.167         51.4 
      854.00        0.167         51.4 
      855.00        0.167         46.8 
      856.00        0.200         33.8 
      857.00        0.200         20.8 
      858.00        0.167         11.6 
      859.00        0.133          7.6 
      860.00        0.133          4.0 
      861.00        0.133          2.3 
      862.00        0.133          1.2 
      863.00        0.150          0.6 
      864.00        0.200          0.6 
      865.00        0.133          0.8 
      866.00        2.917          2.9 
      867.00        0.333          2.7 
      868.00        0.367          2.7 
      869.00        0.267          2.4 
      870.00        0.333          2.5 
      871.00        0.233          2.5 
      872.00        0.233          2.6 
      873.00        0.233          2.7 
      874.00        0.233          2.7 
      875.00        0.233          2.5 
