~Version Information
VERS.                      2.0: CWLS Log ASCII Standard - VERSION 2.0
WRAP.                       NO: One line per depth step
~Well Information Block
STRT.FT               706.1000: 
STOP.FT              2370.0000: 
STEP.FT                 0.1000: 
NULL.                -999.2500: 
COMP.          Petrogulf Corporation: COMPANY
WELL.             State 16-12V: WELL
FLD.           Purgatorie River: FIELD
LOC.           1992' FNL & 1237' FWL: LOCATION
CNTY.               Las Animas: COUNTY
SRVC.                         : SERVICE COMPANY
DATE.          Thu Aug 04 09:34:25 2005: LOG DATE
UWI.           05-071-08016-00: UNIQUE WELL ID
STAT.                 Colorado: STATE
~Curve Information Block
DEPT.FT            0 000 00 00: Depth
DCAL.in                       : CDL Caliper
DPOR.pu                       : CDL Density Porosity
GR.GAPI                       : Gamma Ray
NPOR.pu                       : Neutron Porosity
RHOB.g/cc                     : CDL Bulk Density
RHOC.g/cc                     : CDL Density Correction
~Parameter Information Block
~A  Depth       DCAL        DPOR         GR         NPOR        RHOB        RHOC    
# ...
   715.7000   -999.2500   -999.2500     95.8332     49.5722   -999.2500   -999.2500
   715.8000   -999.2500   -999.2500     95.4121     49.4118   -999.2500   -999.2500
   715.9000   -999.2500   -999.2500     92.5159     48.8171   -999.2500   -999.2500
   716.0000   -999.2500   -999.2500     90.2978     48.3731   -999.2500   -999.2500
   716.1000   -999.2500   -999.2500     91.2262     48.3285   -999.2500   -999.2500
   716.2000   -999.2500   -999.2500     95.7458     48.4535   -999.2500   -999.2500
   716.3000   -999.2500   -999.2500    102.7981     48.4201   -999.2500   -999.2500
   716.4000   -999.2500   -999.2500    109.6167     48.2990   -999.2500   -999.2500
   716.5000   -999.2500   -999.2500    111.1485     48.3778   -999.2500   -999.2500
   716.6000   -999.2500   -999.2500    106.8735     48.6331   -999.2500   -999.2500
   716.7000   -999.2500   -999.2500    102.0428     48.8704   -999.2500   -999.2500
   716.8000   -999.2500   -999.2500     99.6224     49.0181   -999.2500   -999.2500
   716.9000   -999.2500   -999.2500     99.4249     49.1068   -999.2500   -999.2500
   717.0000   -999.2500   -999.2500    100.0374     49.1381   -999.2500   -999.2500
   717.1000   -999.2500   -999.2500    100.2946     49.0199   -999.2500   -999.2500
   717.2000   -999.2500   -999.2500    100.8416     48.6982   -999.2500   -999.2500
   717.3000   -999.2500   -999.2500    101.2155     48.3835   -999.2500   -999.2500
   717.4000   -999.2500   -999.2500     99.2131     48.3870   -999.2500   -999.2500
   717.5000   -999.2500   -999.2500     96.2341     48.5326   -999.2500   -999.2500
   717.6000   -999.2500   -999.2500     95.0441     48.4284   -999.2500   -999.2500
   717.7000   -999.2500   -999.2500     94.9041     48.0867   -999.2500   -999.2500
   717.8000   -999.2500   -999.2500     96.1984     47.7530   -999.2500   -999.2500
   717.9000   -999.2500   -999.2500     99.7389     47.7304   -999.2500   -999.2500
   718.0000   -999.2500   -999.2500    103.4326     48.0131   -999.2500   -999.2500
   718.1000   -999.2500   -999.2500    105.2941     48.2009   -999.2500   -999.2500
   718.2000   -999.2500   -999.2500    104.9353     48.2673   -999.2500   -999.2500
   718.3000   -999.2500   -999.2500    104.4952     48.4367   -999.2500   -999.2500
   718.4000   -999.2500   -999.2500    106.3555     48.5437   -999.2500   -999.2500
   718.5000   -999.2500   -999.2500    109.3511     48.3822   -999.2500   -999.2500
   718.6000   -999.2500   -999.2500    110.7799     48.0728   -999.2500   -999.2500
   718.7000   -999.2500   -999.2500    110.0594     47.7863   -999.2500   -999.2500
   718.8000   -999.2500   -999.2500    108.4432     47.6240   -999.2500   -999.2500
   718.9000   -999.2500   -999.2500    105.0775     47.6836   -999.2500   -999.2500
   719.0000   -999.2500   -999.2500     99.2523     47.8502   -999.2500   -999.2500
   719.1000   -999.2500   -999.2500     96.3890     47.8642   -999.2500   -999.2500
   719.2000   -999.2500   -999.2500     99.1953     47.7815   -999.2500   -999.2500
   719.3000   -999.2500   -999.2500    103.4124     47.8482   -999.2500   -999.2500
   719.4000   -999.2500   -999.2500    105.2147     48.1065   -999.2500   -999.2500
   719.5000   -999.2500   -999.2500    104.6068     48.2485   -999.2500   -999.2500
   719.6000   -999.2500   -999.2500    104.4768     48.0588   -999.2500   -999.2500
   719.7000   -999.2500   -999.2500    107.1418     47.7450   -999.2500   -999.2500
   719.8000   -999.2500   -999.2500    110.2898     47.6274   -999.2500   -999.2500
   719.9000   -999.2500   -999.2500    111.3340     47.8159   -999.2500   -999.2500
   720.0000   -999.2500   -999.2500    111.3682     48.0582   -999.2500   -999.2500
   720.1000   -999.2500   -999.2500    111.1464     48.1152   -999.2500   -999.2500
   720.2000   -999.2500   -999.2500    110.1073     48.0843   -999.2500   -999.2500
   720.3000   -999.2500   -999.2500    108.8170     48.1358   -999.2500   -999.2500
   720.4000   -999.2500   -999.2500    108.9060     48.2837   -999.2500   -999.2500
   720.5000      8.2173   -999.2500    109.9767     48.3487   -999.2500   -999.2500
   720.6000      8.2173   -999.2500    109.9250     48.1206   -999.2500     -0.4647
   720.7000      8.2173   -999.2500    108.0217     47.7159   -999.2500     -0.4737
   720.8000      8.2163   -999.2500    106.4094     47.4973   -999.2500     -0.4407
   720.9000      8.2163   -999.2500    107.3924     47.5464   -999.2500     -0.3795
   721.0000      8.2115   -999.2500    109.1686     47.7602   -999.2500     -0.4089
   721.1000      8.2115     29.1352    107.9161     48.1550      2.1693     -0.4241
   721.2000      8.2115     29.8624    102.5012     48.4893      2.1573     -0.4189
   721.3000      8.2142     31.8962     94.9134     48.5265      2.1237     -0.4449
   721.4000      8.2142     35.4764     88.4958     48.3875      2.0646     -0.4552
   721.5000      8.2053     40.5546     85.2518     48.1486      1.9808     -0.4827
   721.6000      8.2053     46.9473     83.2692     47.9776      1.8754     -0.5694
   721.7000      8.2053     54.1016     80.8942     48.0994      1.7573     -0.5995
   721.8000      8.1643     60.6370     79.3465     48.3329      1.6495     -0.7117
   721.9000      8.1643     65.4378     78.0192     48.4282      1.5703     -0.6671
   722.0000      8.1599     68.9721     74.8654     48.4017      1.5120     -0.7245
   722.1000      8.1599     71.6738     70.5183     48.3904      1.4674     -0.7575
   722.2000      8.1599     73.1649     67.7271     48.3635      1.4428     -0.7784
   722.3000      8.1593     73.0783     68.6091     48.1322      1.4442     -0.7688
   722.4000      8.1593     71.3799     71.9188     47.8736      1.4722     -0.7862
   722.5000      8.1626     68.8078     74.0902     48.0197      1.5147     -0.7078
   722.6000      8.1626     66.1140     73.3830     48.7136      1.5591     -0.7562
   722.7000      8.1626     62.6207     71.2916     49.6439      1.6168     -0.7009
   722.8000      8.1590     57.8199     69.4153     50.3793      1.6960     -0.6937
   722.9000      8.1590     53.2489     67.0952     50.8872      1.7714     -0.6381
   723.0000      8.1575     50.6903     64.2295     51.5602      1.8136     -0.6940
   723.1000      8.1575     50.6510     62.0764     52.6163      1.8143     -0.7055
   723.2000      8.1575     54.5342     60.5214     53.7267      1.7502     -0.7206
   723.3000      8.1603     63.6532     58.0812     54.3345      1.5997     -0.8857
   723.4000      8.1603     75.8615     55.6017     54.2763      1.3983     -1.1201
   723.5000      8.1620     87.3904     55.2257     54.0965      1.2081     -1.1972
   723.6000      8.1620     95.5159     56.7433     53.9806      1.0740     -1.4164
   723.7000      8.1620     98.4562     58.2279     53.5994      1.0255     -1.6072
   723.8000      8.1569     95.9918     59.9610     53.0727      1.0661     -1.6014
   723.9000      8.1569     88.4523     62.5083     52.6091      1.1905     -1.5563
   724.0000      8.1811     75.1104     63.8272     52.1210      1.4107     -1.4329
   724.1000      8.1811     58.7345     64.4220     51.6204      1.6809     -0.8741
   724.2000      8.1811     47.3244     66.3557     51.2426      1.8691     -0.5617
   724.3000      8.1687     44.5444     67.8553     50.9494      1.9150     -0.5843
   724.4000      8.1687     46.2093     68.5599     50.5350      1.8875     -0.5364
   724.5000      8.1642     47.7211     71.1288     49.9546      1.8626     -0.5927
   724.6000      8.1642     47.6466     73.9952     49.3804      1.8638     -0.6554
   724.7000      8.1642     46.8025     73.1691     48.9048      1.8778     -0.6299
   724.8000      8.1640     47.3650     70.3577     48.5895      1.8685     -0.5614
   724.9000      8.1640     51.1059     68.8408     48.4978      1.8068     -0.6011
   725.0000      8.1558     57.8275     68.1359     48.6175      1.6958     -0.6539
   725.1000      8.1558     65.4884     67.7252     48.8117      1.5694     -0.7204
   725.2000      8.1558     71.8201     67.6074     48.9447      1.4650     -0.7446
