~Version Information
 VERS.                                  2.0 : CWLS LAS VERSION
 WRAP.                                   NO : WRAPING MODE
 SWARE .                 MController 2.5.0J : SOFTWARE VERSION
~Well Information
 WELL.                           Furu 6-23R : WELL
 COMP.                Petrogulf Corporation : COMPANY
 FLD.                       Purgatory River : FIELD
 LOC.                  NE/SW Sec6 T33S R67W : LOCATION
 DATE.                    6/19/06 - 6/21/06 : DATE(S) LOGGED
 SRVC.      Blanco Geological Services, LLC : SERVICE COMPANY
 STAT.                             Colorado : STATE
 CNTY.                           Las Animas : COUNTY
 CTRY.                                  USA : COUNTRY
 API.                       05-071-08266-00 : API NUMBER
 STRT.FT                             566.00 : START DEPTH
 STOP.FT                            2205.00 : STOP DEPTH
 STEP.FT                               1.00 : DEPTH INCREMENT
 NULL.                                -9999 : NULL VALUE
~Curve information
 DEPTH.FT                                   :
 ROP.MIN/FT                                 :
 GAS.UNITS                                  :
~ASCII Log data
# ...
      1566.0         0.70          2.6 
      1567.0         0.67          3.1 
      1568.0         0.85          3.1 
      1569.0         0.77          2.9 
      1570.0         0.80          2.8 
      1571.0         0.67          2.6 
      1572.0         0.72          2.6 
      1573.0         0.93          1.9 
      1574.0         0.70          2.0 
      1575.0         0.80          2.0 
      1576.0         5.57          2.6 
      1577.0         1.00          3.5 
      1578.0         1.08         34.1 
      1579.0         0.67         43.3 
      1580.0         1.07         29.3 
      1581.0         0.60         15.7 
      1582.0         0.67         11.0 
      1583.0         0.82          6.4 
      1584.0         0.60          4.7 
      1585.0         0.57          3.8 
      1586.0         0.57          3.7 
      1587.0         0.57          3.9 
      1588.0         0.40          4.0 
      1589.0         0.48          3.9 
      1590.0         0.80          3.8 
      1591.0         0.83          3.7 
      1592.0         0.73          3.6 
      1593.0         0.72          3.2 
      1594.0         0.80          3.2 
      1595.0         0.57          3.6 
      1596.0         0.50          3.7 
      1597.0         0.47          3.4 
      1598.0         0.98          3.8 
      1599.0         0.87          3.7 
      1600.0         0.90          4.0 
      1601.0         0.97          4.1 
      1602.0         0.85          4.5 
      1603.0         1.10          4.5 
      1604.0         0.50          4.4 
      1605.0         0.47          4.6 
      1606.0         5.50         13.0 
      1607.0         0.67         72.8 
      1608.0         0.73        245.0 
      1609.0         0.85        262.7 
      1610.0         1.13         61.0 
      1611.0         1.37         20.9 
      1612.0         1.05          9.1 
      1613.0         0.93          5.7 
      1614.0         0.90          4.0 
      1615.0         1.28          3.5 
      1616.0         0.57          3.4 
      1617.0         0.63          3.1 
      1618.0         0.57          3.2 
      1619.0         0.50          3.5 
      1620.0         0.53          3.2 
      1621.0         1.88          3.3 
      1622.0         0.87          2.7 
      1623.0         0.67          3.2 
      1624.0         0.85          2.9 
      1625.0         0.63          3.1 
      1626.0         0.63          3.1 
      1627.0         0.53          2.7 
      1628.0         0.33          2.9 
      1629.0         0.47          2.4 
      1630.0         0.62          2.8 
      1631.0         0.70          3.0 
      1632.0         0.83          2.7 
      1633.0         1.07          2.8 
      1634.0         0.75          3.2 
      1635.0         0.50          3.3 
      1636.0         6.07         46.9 
      1637.0         1.07        194.2 
      1638.0         1.33        438.4 
      1639.0         0.88         80.7 
      1640.0         0.97         15.4 
      1641.0         0.77          5.7 
      1642.0         0.63          3.2 
      1643.0         1.15          2.3 
      1644.0         0.50          1.6 
      1645.0         0.47          2.9 
      1646.0         0.57          5.7 
      1647.0         0.70         13.4 
      1648.0         0.50         13.9 
      1649.0         1.02         13.4 
      1650.0         0.93          9.3 
      1651.0         0.77          6.5 
      1652.0         0.70          5.1 
      1653.0         1.02          4.9 
      1654.0         0.67          3.4 
      1655.0         0.97          3.6 
      1656.0         0.80          3.5 
      1657.0         0.88          3.3 
      1658.0         1.00          3.2 
      1659.0         0.33          2.9 
      1660.0         1.00          3.0 
      1661.0         0.55          2.9 
      1662.0         0.73          2.8 
      1663.0         0.80          3.3 
      1664.0         0.60          3.4 
      1665.0         0.73          3.5 
      1666.0         4.93          3.6 
      1667.0         0.73          2.5 
      1668.0         0.60          3.9 
      1669.0         1.25        198.2 
      1670.0         1.03        201.9 
      1671.0         1.47         13.7 
      1672.0         0.88          2.4 
      1673.0         0.73          1.3 
      1674.0         0.90          2.2 
      1675.0         0.90          3.2 
      1676.0         1.58          3.3 
      1677.0         1.27          3.4 
      1678.0         1.12          3.2 
      1679.0         0.97          3.3 
      1680.0         1.23          3.5 
      1681.0         1.22          3.4 
      1682.0         1.30          3.5 
      1683.0         1.07          3.3 
      1684.0         1.18          3.2 
      1685.0         1.07          3.4 
      1686.0         0.50          3.3 
      1687.0         0.67          3.4 
      1688.0         1.02          3.4 
      1689.0         1.03          3.4 
      1690.0         1.40          3.4 
      1691.0         1.12          3.4 
      1692.0         1.10          3.3 
      1693.0         1.17          3.1 
      1694.0         0.58          3.3 
      1695.0         0.60          3.0 
      1696.0         4.75          3.4 
      1697.0         0.73         10.2 
      1698.0         1.15        118.9 
      1699.0         0.83        174.8 
      1700.0         0.93         73.8 
      1701.0         1.25          7.3 
      1702.0         1.03          0.9 
      1703.0         0.70          0.8 
      1704.0         0.60          1.7 
      1705.0         0.68          2.5 
      1706.0         0.87          3.3 
      1707.0         1.60          3.1 
      1708.0         1.55          3.4 
      1709.0         0.97          3.7 
      1710.0         0.73          3.5 
      1711.0         0.47          3.6 
      1712.0         0.58          2.9 
      1713.0         0.60          2.7 
      1714.0         0.57          3.1 
      1715.0         0.83          3.4 
      1716.0         1.18          3.3 
      1717.0         1.23          3.3 
      1718.0         1.03          2.7 
      1719.0         1.02          2.7 
      1720.0         0.77          2.6 
      1721.0         1.07          2.5 
      1722.0         1.10          2.4 
      1723.0         0.95          2.4 
      1724.0         0.47          2.1 
      1725.0         0.50          1.8 
      1726.0         5.90         42.3 
      1727.0         1.27        301.1 
      1728.0         1.55        288.3 
      1729.0         0.80         17.8 
      1730.0         0.77          9.4 
      1731.0         0.73          5.4 
      1732.0         0.88          3.0 
      1733.0         1.20          2.6 
      1734.0         0.83          2.7 
      1735.0         1.42          2.5 
      1736.0         1.27          2.9 
      1737.0         1.03          2.9 
      1738.0         0.88          2.6 
      1739.0         0.90          3.2 
      1740.0         0.87          3.1 
      1741.0         0.97          2.7 
      1742.0         1.15          3.6 
      1743.0         0.63          3.3 
      1744.0         0.70          3.0 
      1745.0         0.57          2.8 
      1746.0         0.47          2.9 
      1747.0         1.25          2.7 
      1748.0         1.47          2.6 
      1749.0         1.22          2.8 
      1750.0         1.07          2.7 
      1751.0         1.13          2.9 
      1752.0         1.08          2.7 
      1753.0         0.87          2.7 
      1754.0         0.57          1.9 
      1755.0         0.87          2.0 
      1756.0         5.87        901.8 
      1757.0         1.07         79.6 
      1758.0         0.92          3.9 
      1759.0         0.63          1.2 
      1760.0         0.80          1.6 
      1761.0         0.70          1.5 
      1762.0         0.73          0.2 
      1763.0         0.65         10.4 
      1764.0         0.67         11.5 
      1765.0         0.70         12.4 
