~Version Information
VERS.                      2.0: CWLS Log ASCII Standard - VERSION 2.0
WRAP.                       NO: One line per depth step
~Well Information Block
STRT.FT                -8.2500: 
STOP.FT               871.5000: 
STEP.FT                 0.2500: 
NULL.                -999.2500: 
COMP.          Pioneer Natural Resources: COMPANY
WELL.             Tomcat 32-10: WELL
FLD.           Purgatorie River: FIELD
LOC.           2286' FNL & 2463' FEL------: LOCATION
PROV.                       CO: PROVINCE
CNTY.               Las Animas: COUNTRY
SRVC.          Patterson Wireline: SERVICE COMPANY
DATE.          Mon Mar 28 09:03:25 2005: LOG DATE
UWI.           05 071 08301 00: UNIQUE WELL ID
~Curve Information Block
DEPT.FT            0 000 00 00: Depth
CCL.                          : Casing Collar Locator
TT3.usec                      : CBL 3' Travel Time
AMP3.mV                       : CBL 3' Amplitude
GR.GAPI                       : Gamma Ray
~Parameter Information Block
~A  Depth       CCL         TT3         AMP3         GR     
# ...
   661.7500      0.0000    764.0352      6.2856     68.7194
   662.0000      0.0000    769.9266      6.3281     67.3190
   662.2500      0.0000    773.0964      6.3679     65.6718
   662.5000      0.0000    773.6620      6.3861     63.9870
   662.7500      0.0000    772.7068      6.3803     62.6133
   663.0000      0.0000    769.1876      6.3675     62.0153
   663.2500      0.0000    760.2908      6.3627     62.4267
   663.5000      0.0000    745.4578      6.3647     63.5418
   663.7500      0.0000    728.2723      6.3690     64.7496
   664.0000      0.0000    713.6421      6.3781     65.6250
   664.2500      0.0000    704.0974      6.3933     66.1567
   664.5000      0.0000    699.0688      6.4041     66.5778
   664.7500      0.0000    696.5327      6.3955     66.9629
   665.0000      0.0000    694.6763      6.3592     66.9675
   665.2500      0.0000    692.7121      6.2923     66.1630
   665.5000      0.0000    691.1182      6.1970     64.6893
   665.7500      0.0000    691.2576      6.0907     63.3506
   666.0000      0.0000    694.4866      6.0014     62.9296
   666.2500      0.0000    701.4675      5.9400     63.4695
   666.5000      0.0000    712.0109      5.8898     64.2587
   666.7500      0.0000    725.0723      5.8320     64.5195
   667.0000      0.0000    738.8716      5.7694     64.2452
   667.2500      0.0000    751.5044      5.7136     64.5429
   667.5000      0.0000    761.6313      5.6611     67.0128
   667.7500      0.0000    768.5967      5.5957     72.4137
   668.0000      0.0000    772.0991      5.5038     79.7552
   668.2500      0.0000    772.5096      5.3808     86.6606
   668.5000      0.0000    772.4326      5.2295     90.5779
   668.7500      0.0000    776.9263      5.0673     89.9519
   669.0000      0.0000    789.3902      4.9376     84.9071
   669.2500      0.0000    806.6234      4.8910     77.2402
   669.5000      0.0000    820.1690      4.9387     69.5858
   669.7500      0.0000    823.7398      5.0337     64.1153
   670.0000     -2.0000    818.6143      5.1120     61.6444
   670.2500      0.0000    811.4764      5.1440     61.7296
   670.5000      0.0000    807.8452      5.1443     63.3412
   670.7500      0.0000    808.2955      5.1512     65.2674
   671.0000      0.0000    810.3579      5.2042     66.1441
   671.2500      0.0000    812.2388      5.3217     64.8128
   671.5000      0.0000    813.8518      5.4867     61.1759
   671.7500      0.0000    815.5375      5.6651     56.5554
   672.0000      0.0000    817.1153      5.8417     52.8308
   672.2500      0.0000    817.7778      6.0291     51.1507
   672.5000      0.0000    815.9726      6.2415     51.5350
   672.7500      0.0000    809.6377      6.4708     53.5680
   673.0000      0.0000    797.8698      6.6935     57.0901
   673.2500      0.0000    783.0870      6.8951     62.0574
   673.5000      0.0000    771.0076      7.0827     67.9903
   673.7500      0.0000    767.7689      7.2724     73.8774
   674.0000      0.0000    776.5295      7.4704     78.5289
   674.2500      0.0000    795.7188      7.6715     80.8318
   674.5000      0.0000    819.6177      7.8657     80.0020
   674.7500      0.0000    841.3417      8.0320     76.2393
   675.0000      0.0000    856.5670      8.1310     71.1359
   675.2500      0.0000    864.9880      8.1209     66.9136
   675.5000      0.0000    868.7490      7.9879     65.0729
   675.7500      0.0000    870.1216      7.7597     65.7780
   676.0000      0.0000    870.3173      7.4889     68.1764
   676.2500      0.0000    869.3063      7.2203     71.0451
   676.5000      0.0000    865.8590      6.9712     73.4312
   676.7500      0.0000    857.9990      6.7368     75.0488
   677.0000      0.0000    844.3721      6.5116     76.1053
   677.2500      0.0000    825.8359      6.3060     76.7751
   677.5000      0.0000    805.2913      6.1385     76.9925
   677.7500      0.0000    785.3846      6.0143     76.7535
   678.0000      0.0000    766.7727      5.9206     76.3162
   678.2500      0.0000    749.0096      5.8450     75.8927
   678.5000      0.0000    732.4999      5.7851     75.2825
   678.7500      0.0000    718.9874      5.7387     74.1191
   679.0000      0.0000    710.4789      5.6978     72.5385
   679.2500      0.0000    708.4117      5.6587     71.3511
   679.5000      0.0000    713.7890      5.6253     71.3462
   679.7500      0.0000    726.8000      5.5923     72.4025
   680.0000      0.0000    745.3292      5.5408     73.3594
   680.2500      0.0000    764.8644      5.4638     72.8838
   680.5000      0.0000    781.4689      5.3870     70.6099
   680.7500      0.0000    794.4748      5.3459     67.5157
   681.0000      0.0000    804.9358      5.3482     65.2201
   681.2500      0.0000    812.6364      5.3683     64.8698
   681.5000      0.0000    816.4951      5.3795     66.5594
   681.7500      0.0000    817.0605      5.3795     69.6389
   682.0000      0.0000    816.7354      5.3844     73.2519
   682.2500      0.0000    817.7228      5.4054     76.3964
   682.5000      0.0000    820.6614      5.4380     77.9536
   682.7500      0.0000    824.8583      5.4692     77.3787
   683.0000      0.0000    829.1138      5.4858     75.3803
   683.2500      0.0000    832.4349      5.4746     73.5984
   683.5000      0.0000    834.4001      5.4267     73.6878
   683.7500      0.0000    834.7948      5.3469     76.6772
   684.0000      0.0000    832.9131      5.2576     82.6478
   684.2500      0.0000    827.4774      5.1842     90.6630
   684.5000      0.0000    817.5859      5.1361     99.2441
   684.7500      0.0000    803.9759      5.1040    107.0780
   685.0000      0.0000    789.5189      5.0786    113.2427
   685.2500      0.0000    778.6355      5.0616    117.0076
   685.5000      0.0000    775.7789      5.0554    117.7605
   685.7500      0.0000    783.5629      5.0507    115.4877
   686.0000      0.0000    801.2590      5.0339    111.5331
   686.2500      0.0000    824.1177      5.0031    108.2235
   686.5000      0.0000    844.3528      4.9722    106.7520
   686.7500      0.0000    854.4222      4.9620    105.7211
   687.0000      0.0000    850.9118      4.9858    102.7354
   687.2500      0.0000    836.4374      5.0433     97.0963
   687.5000      0.0000    818.6910      5.1255     89.9546
   687.7500      0.0000    806.7095      5.2178     82.3838
   688.0000      0.0000    805.5767      5.3012     74.6906
   688.2500      0.0000    813.3515      5.3560     67.5824
   688.5000      0.0000    823.5895      5.3692     62.8152
   688.7500      0.0000    830.9955      5.3369     62.1970
   689.0000      0.0000    834.4331      5.2659     66.2137
   689.2500      0.0000    835.6240      5.1739     73.6425
   689.5000      0.0000    836.4594      5.0849     82.1544
   689.7500      0.0000    837.3286      5.0173     89.3020
   690.0000      0.0000    836.9604      4.9762     93.5050
   690.2500      0.0000    834.0173      4.9583     94.7913
   690.5000      0.0000    829.5486      4.9635     94.7746
   690.7500      0.0000    827.1179      4.9952     95.4582
   691.0000      0.0000    829.2551      5.0453     97.6067
   691.2500      0.0000    834.4205      5.0884    100.2432
   691.5000      0.0000    838.5596      5.1014    101.8067
   691.7500      0.0000    839.0021      5.0876    101.6398
   692.0000      0.0000    836.0858      5.0713    100.2424
   692.2500      0.0000    831.8224      5.0669     98.3969
   692.5000      0.0000    827.8990      5.0624     96.4540
   692.7500      0.0000    824.6598      5.0363     94.3603
   693.0000      0.0000    821.3765      4.9861     91.9735
   693.2500      0.0000    817.1914      4.9325     89.4565
   693.5000      0.0000    811.6708      4.9014     87.5377
   693.7500      0.0000    804.4201      4.9009     86.9921
   694.0000      0.0000    794.5175      4.9154     87.6135
   694.2500      0.0000    780.9993      4.9255     88.2224
   694.5000      0.0000    764.8542      4.9326     87.9132
   694.7500      0.0000    750.5515      4.9527     86.6895
   695.0000      0.0000    744.1446      4.9899     84.7284
