~Version Information
VERS.                      2.0: CWLS Log ASCII Standard - VERSION 2.0
WRAP.                       NO: One line per depth step
~Well Information Block
STRT.FT                -9.5000: 
STOP.FT              2893.0000: 
STEP.FT                 0.2500: 
NULL.                -999.2500: 
COMP.          Pioneer Natural Resources: COMPANY
WELL.          Old Yeller 31-32: WELL
FLD.           Purgatoire River: FIELD
LOC.           1832' FEL & 793' FNL----: LOCATION
STAT.                 Colorado: State
CNTY.               Las Animas: COUNTY
CTRY. USA : Country
SECT. 32 : Section
TOWN. 32S : Township
RANG. 67W : Range
SRVC.                         : SERVICE COMPANY
DATE.          Fri Sep 02 16:45:38 2005: LOG DATE
API. 05-071-08356                         : UNIQUE WELL ID
~Curve Information Block
DEPT.FT            0 000 00 00: Depth
CCL.                          : Casing Collar Locator
TT3.usec                      : CBL 3' Travel Time
AMP5.mV                       : CBL 5' Amplitude
GR.GAPI                       : Gamma Ray
~Parameter Information Block
~A  Depth       CCL         TT3         AMP5         GR     
# ...
  1330.5000      0.0000    630.4318      1.8668    100.6042
  1330.7500      0.0000    668.8453      1.8668     94.0336
  1331.0000      0.0000    703.0705      1.4316     87.6309
  1331.2500      0.0000    718.5923      1.1705     82.3895
  1331.5000      0.0000    713.2987      2.0409     79.4298
  1331.7500      0.0000    694.3702      1.6057     78.9861
  1332.0000      0.0000    670.8417      1.0834     79.9466
  1332.2500      0.0000    646.3689      1.8668     80.7871
  1332.5000      0.0000    619.6882      1.3446     80.9579
  1332.7500      0.0000    592.9211      1.0834     81.1063
  1333.0000      0.0000    575.4375      1.3446     82.1898
  1333.2500      0.0000    576.4084      1.9539     84.7057
  1333.5000      0.0000    596.6808      1.1705     88.5056
  1333.7500      0.0000    629.9211      0.3000     92.9738
  1334.0000      0.0000    667.6888      3.3466     97.5096
  1334.2500      0.0000    701.3241      0.9964    101.9958
  1334.5000      0.0000    723.3346      1.2575    106.6202
  1334.7500      0.0000    730.7452      1.9539    111.2762
  1335.0000      0.0000    726.4170      1.4316    115.5738
  1335.2500      0.0000    716.3539      1.5186    119.4846
  1335.5000      0.0000    706.4083      1.4316    123.5565
  1335.7500      0.0000    700.8842      1.7798    128.1604
  1336.0000      0.0000    701.7257      1.7798    132.6750
  1336.2500      0.0000    707.4891      1.1705    135.8523
  1336.5000      0.0000    714.1525      1.5186    137.1380
  1336.7500      0.0000    718.5416      1.7798    137.3245
  1337.0000      0.0000    721.1119      1.5186    137.8327
  1337.2500      0.0000    724.1543      1.6927    139.6133
  1337.5000      0.0000    727.5338      1.4316    142.6032
  1337.7500      0.0000    728.0510      1.4316    145.7532
  1338.0000      0.0000    723.7106      1.5186    147.5099
  1338.2500      0.0000    717.2287      1.7798    146.6344
  1338.5000      0.0000    713.8920      1.2575    142.9280
  1338.7500      0.0000    716.0912      1.7798    137.3876
  1339.0000      0.0000    720.3180      1.3446    131.7056
  1339.2500      0.0000    719.3355      1.1705    127.3592
  1339.5000      0.0000    707.8506      1.2575    124.8553
  1339.7500      0.0000    687.8620      1.4316    123.8684
  1340.0000      0.0000    668.5607      1.3446    124.0911
  1340.2500      0.0000    658.9391      1.8668    125.5690
  1340.5000      0.0000    660.2905      1.0834    128.1062
  1340.7500      0.0000    667.0912      1.6927    130.9461
  1341.0000      0.0000    673.7578      1.3446    133.3268
  1341.2500      0.0000    678.6354      1.3446    135.0382
  1341.5000      0.0000    682.8520      0.9964    136.3673
  1341.7500      0.0000    687.3994      1.4316    137.7656
  1342.0000      0.0000    691.1999      1.2575    139.5158
  1342.2500      0.0000    690.9474      1.8668    141.4011
  1342.5000      0.0000    683.3024      1.0834    142.7353
  1342.7500      0.0000    668.6490      1.3446    143.0071
  1343.0000      0.0000    652.9293      1.1705    142.4388
  1343.2500      0.0000    644.3481      0.9964    141.6365
  1343.5000      0.0000    646.8932      1.8668    140.7900
  1343.7500      0.0000    657.5131      0.9964    139.6138
  1344.0000      0.0000    670.0803      1.6057    138.0745
  1344.2500      0.0000    680.8317      1.6057    136.7869
  1344.5000      0.0000    689.1984      1.1705    136.4837
  1344.7500      0.0000    695.0861      1.4316    137.2858
  1345.0000      0.0000    697.4096      1.3446    138.6111
  1345.2500      0.0000    695.4133      1.4316    139.6658
  1345.5000      0.0000    690.2234      1.3446    139.8669
  1345.7500      0.0000    684.2794      1.6927    138.8799
  1346.0000      0.0000    679.2706      1.2575    136.6702
  1346.2500      0.0000    674.4996      1.3446    133.7817
  1346.5000      0.0000    667.6508      1.1705    131.2279
  1346.7500      0.0000    658.0737      1.6927    129.6042
  1347.0000      0.0000    649.3070      1.3446    128.4010
  1347.2500      0.0000    646.8441      1.3446    126.6420
  1347.5000      0.0000    652.6168      1.5186    124.2469
  1347.7500      0.0000    662.8521      1.6057    122.3696
  1348.0000      0.0000    671.9844      1.7798    122.2841
  1348.2500      0.0000    677.3137      1.0834    124.2363
  1348.5000      0.0000    679.4663      1.2575    127.3850
  1348.7500      0.0000    680.1145      1.2575    130.3973
  1349.0000      0.0000    680.3617      1.2575    131.9206
  1349.2500      0.0000    680.5896      1.1705    130.7895
  1349.5000      0.0000    680.8029      1.3446    126.1145
  1349.7500      0.0000    680.8764      1.8668    117.5360
  1350.0000      0.0000    680.7157      0.9964    105.8882
  1350.2500      0.0000    680.3349      2.0409     93.6472
  1350.5000      0.0000    679.8785      1.2575     84.1186
  1350.7500      0.0000    679.5285      1.4316     79.5637
  1351.0000      0.0000    679.3896      1.1705     79.8973
  1351.2500      0.0000    679.4526      1.2575     83.1901
  1351.5000      0.0000    679.6174      1.8668     87.4746
  1351.7500      0.0000    679.6974      1.4316     92.1617
  1352.0000      0.0000    679.1990      1.9539     97.8081
  1352.2500      0.0000    676.6966      1.8668    104.7302
  1352.5000      0.0000    668.8259      1.6057    112.1013
  1352.7500      0.0000    650.0841      1.0834    118.3959
  1353.0000      0.0000    615.6080      1.2575    122.5028
  1353.2500      0.0000    566.8397      1.4316    124.3651
  1353.5000      0.0000    514.6339      1.3446    124.7664
  1353.7500      0.0000    474.1041      1.9539    124.7239
  1354.0000      0.0000    454.7387      1.7798    125.0953
  1354.2500      0.0000    456.3815      1.6057    126.4861
  1354.5000      0.0000    474.2550      1.2575    129.1880
  1354.7500      0.0000    503.7733      1.2575    133.0623
  1355.0000      0.0000    537.4653      1.3446    137.4587
  1355.2500      0.0000    561.0255      1.1705    141.2698
  1355.5000      0.0000    560.4106      1.5186    143.3135
  1355.7500      0.0000    536.3497      1.0834    143.1084
  1356.0000      0.0000    508.4047      1.0834    141.3900
  1356.2500      0.0000    500.9402      1.8668    139.5444
  1356.5000      0.0000    524.2748      1.0834    138.3600
  1356.7500      0.0000    568.7538      1.3446    137.5898
  1357.0000      0.0000    615.0120      1.3446    136.7276
  1357.2500      0.0000    648.5601      1.1705    135.7296
  1357.5000      0.0000    665.7859      1.3446    134.8240
  1357.7500      0.0000    669.8725      1.0834    134.1867
  1358.0000      0.0000    664.6949      1.6927    134.1613
  1358.2500      0.0000    653.2524      1.3446    135.3795
  1358.5000      0.0000    639.3112      1.2575    138.2399
  1358.7500      0.0000    627.3171      1.4316    142.2265
  1359.0000      0.0000    619.8088      1.5186    145.9825
  1359.2500      0.0000    616.5164      0.9964    148.3108
  1359.5000      0.0000    616.1354      1.6927    149.0133
  1359.7500      0.0000    617.0826      1.0834    148.5973
  1360.0000      0.0000    616.9613      1.0834    147.4169
  1360.2500      0.0000    614.1030      1.2575    145.4378
  1360.5000      0.0000    610.0289      1.3446    142.7586
  1360.7500      0.0000    608.7026      1.0834    140.0470
  1361.0000      0.0000    613.0107      1.1705    138.1778
  1361.2500      0.0000    622.6136      1.1705    137.4543
  1361.5000      0.0000    634.8262      1.5186    137.4710
  1361.7500      0.0000    646.4311      1.1705    137.7390
  1362.0000      0.0000    654.3941      0.9093    138.0109
  1362.2500      0.0000    656.3672      1.2575    138.0305
  1362.5000      0.0000    652.3391      2.0409    137.6062
  1362.7500      0.0000    645.8695      1.0834    137.0744
  1363.0000      0.0000    641.3614      0.9093    137.1608
  1363.2500      0.0000    638.9184      1.0834    138.1469
  1363.5000      0.0000    633.7794      1.1705    139.3743
  1363.7500      0.0000    622.6608      1.3446    139.7631
