~Version Information
VERS.                      2.0: CWLS Log ASCII Standard - VERSION 2.0
WRAP.                       NO: One line per depth step
~Well Information Block
STRT.FT               298.0000: 
STOP.FT              1302.0000: 
STEP.FT                 0.1000: 
NULL.                -999.2500: 
COMP.          Pioneer Natural Resources: COMPANY
WELL.          Bouncer 41-27 Tr: WELL
FLD.           Purgatoire River: FIELD
LOC.           292' FNL & 222' FEL: LOCATION
PROV.                 Colorado: PROVINCE
CNTY.               Las Animas: COUNTRY
SRVC.                Patterson: SERVICE COMPANY
DATE.          Mon Feb 07 12:55:19 2005: LOG DATE
UWI.           05 071 08291 00: UNIQUE WELL ID
~Curve Information Block
DEPT.FT            0 000 00 00: Depth
DCAL.in                       : CDL Caliper
RHOB.g/cc                     : CDL Bulk Density
RHOC.g/cc                     : CDL Density Correction
DPOR.pu                       : CDL Density Porosity
GR.GAPI                       : Gamma Ray
NPOR.pu                       : Neutron Porosity
~Parameter Information Block
~A  Depth       DCAL        RHOB        RHOC        DPOR         GR         NPOR    
# ...
   432.4000      7.9255      2.5523      0.1326      5.9218    113.8582     29.5427
   432.5000      7.9281      2.5723      0.0948      4.7114    103.1886     28.7652
   432.6000      7.9281      2.6049      0.1500      2.7346     99.1601     27.9409
   432.7000      7.9281      2.6255      0.1537      1.4874    102.1012     27.2087
   432.8000      7.9381      2.6196      0.1216      1.8444    107.1348     26.8733
   432.9000      7.9381      2.5970      0.0997      3.2095    109.3241     27.2547
   433.0000      7.9423      2.5779      0.0900      4.3710    108.3687     28.1886
   433.1000      7.9423      2.5847      0.0751      3.9550    107.7147     29.1100
   433.2000      7.9423      2.6119      0.1886      2.3101    108.8759     29.4861
   433.3000      7.9441      2.6292      0.1412      1.2624    109.3561     29.3794
   433.4000      7.9441      2.6373      0.1182      0.7710    106.7203     29.0702
   433.5000      7.9255      2.6565      0.1666     -0.3927    104.7615     28.5572
   433.6000      7.9255      2.6797      0.1910     -1.8014    108.2274     28.0935
   433.7000      7.9255      2.6810      0.1685     -1.8794    113.7958     27.9569
   433.8000      7.9258      2.6554      0.0909     -0.3245    115.9150     27.9616
   433.9000      7.9258      2.6282      0.0538      1.3208    115.7800     27.7921
   434.0000      7.9332      2.6189      0.0646      1.8851    117.4544     27.4655
   434.1000      7.9332      2.6170      0.0844      2.0013    122.5489     27.3446
   434.2000      7.9332      2.6093      0.0546      2.4652    127.8913     27.6106
   434.3000      7.9537      2.6016      0.0753      2.9305    130.7943     28.1767
   434.4000      7.9537      2.5978      0.0787      3.1657    132.5105     28.9085
   434.5000      7.9666      2.5914      0.0656      3.5485    132.6297     29.6766
   434.6000      7.9666      2.5886      0.0467      3.7204    129.2854     30.2292
   434.7000      7.9666      2.5958      0.0968      3.2856    126.2803     30.4885
   434.8000      7.9538      2.5931      0.1028      3.4476    126.8852     30.4889
   434.9000      7.9538      2.5634      0.0375      5.2467    127.9796     30.1831
   435.0000      7.9614      2.5231     -0.0047      7.6902    129.0134     29.8285
   435.1000      7.9614      2.5046     -0.0051      8.8139    131.5915     29.6760
   435.2000      7.9614      2.5186      0.0334      7.9647    132.0040     29.7300
   435.3000      7.9615      2.5423      0.0599      6.5250    129.5490     29.7251
   435.4000      7.9615      2.5572      0.0428      5.6265    129.4408     29.5097
   435.5000      7.9559      2.5707      0.0509      4.8039    130.7817     29.4350
   435.6000      7.9559      2.5836      0.1283      4.0228    128.5950     29.7580
   435.7000      7.9559      2.5820      0.1055      4.1203    124.1117     30.1669
   435.8000      7.9560      2.5620      0.1015      5.3341    119.9759     30.4033
   435.9000      7.9560      2.5364      0.0597      6.8851    119.3999     30.5843
   436.0000      7.9597      2.5305      0.0329      7.2412    123.1536     30.5868
   436.1000      7.9597      2.5485      0.0493      6.1508    125.6738     30.1660
   436.2000      7.9597      2.5614      0.0848      5.3671    124.8977     29.5955
   436.3000      7.9635      2.5517      0.0341      5.9561    125.2910     29.2810
   436.4000      7.9635      2.5375     -0.0116      6.8205    125.9922     29.3744
   436.5000      7.9655      2.5409      0.0409      6.6132    123.0961     29.7586
   436.6000      7.9655      2.5556      0.0730      5.7217    119.9694     30.1247
   436.7000      7.9655      2.5749      0.0162      4.5528    120.3268     30.1746
   436.8000      7.9496      2.6030      0.1218      2.8466    119.6135     29.8332
   436.9000      7.9496      2.6191      0.1798      1.8721    113.4522     29.5079
   437.0000      7.9402      2.6096      0.1406      2.4456    105.7232     29.6746
   437.1000      7.9402      2.5970      0.1371      3.2148    102.2191     29.9827
   437.2000      7.9402      2.5899      0.1590      3.6406    102.0680     29.7486
   437.3000      7.9430      2.5785      0.0966      4.3332    101.4609     29.1002
   437.4000      7.9430      2.5704      0.1112      4.8220     99.2282     28.3923
   437.5000      7.9407      2.5820      0.1326      4.1205     95.5444     27.5153
   437.6000      7.9407      2.6172      0.1757      1.9906     91.8452     26.5343
   437.7000      7.9407      2.6637      0.2151     -0.8312     89.5494     25.6294
   437.8000      7.9563      2.6910      0.2769     -2.4848     87.4407     24.6631
   437.9000      7.9563      2.6727      0.2511     -1.3783     84.3236     23.5100
   438.0000      7.9118      2.6275      0.1530      1.3652     80.2934     22.3286
   438.1000      7.9118      2.5976      0.1058      3.1733     75.4604     21.3890
   438.2000      7.9118      2.5918      0.1463      3.5264     72.1298     20.8476
   438.3000      7.9277      2.5856      0.1076      3.9014     72.9492     20.7055
   438.4000      7.9277      2.5628      0.0974      5.2833     75.6681     20.6712
   438.5000      7.9334      2.5300      0.0826      7.2722     75.7038     20.3666
   438.6000      7.9334      2.5064      0.0117      8.7008     73.5247     19.9406
   438.7000      7.9334      2.5083      0.0215      8.5882     72.8771     19.7365
   438.8000      7.9547      2.5193      0.1132      7.9241     74.0298     19.7439
   438.9000      7.9547      2.5072      0.0817      8.6550     74.2350     19.8469
   439.0000      7.9661      2.4799      0.0002     10.3096     71.8801     19.9541
   439.1000      7.9661      2.4638      0.0366     11.2868     68.1423     20.1506
   439.2000      7.9661      2.4615      0.0565     11.4239     66.2888     20.5916
   439.3000      7.9380      2.4708      0.0499     10.8585     67.3340     21.1274
   439.4000      7.9380      2.5004      0.0585      9.0677     68.5605     21.6875
   439.5000      7.9192      2.5558      0.1075      5.7104     68.2814     22.6039
   439.6000      7.9192      2.6332      0.1364      1.0193     66.6893     24.0218
   439.7000      7.9192      2.7170      0.1632     -4.0611     64.9253     25.4567
   439.8000      7.9097      2.7826      0.2366     -8.0358     65.0211     26.2057
   439.9000      7.9097      2.8189      0.2332    -10.2343     66.2266     26.2719
   440.0000      7.9117      2.8309      0.2130    -10.9646     65.9458     26.2658
   440.1000      7.9117      2.8150      0.2067     -9.9993     64.3242     26.2155
   440.2000      7.9117      2.7706      0.1235     -7.3107     63.3718     25.6323
   440.3000      7.9221      2.7194      0.0445     -4.2038     64.3160     24.7726
   440.4000      7.9221      2.6777      0.0417     -1.6814     64.9475     24.2696
   440.5000      7.9627      2.6439      0.0210      0.3677     60.8339     24.2102
   440.6000      7.9627      2.6181      0.0265      1.9319     52.6496     24.3725
   440.7000      7.9627      2.5967      0.1092      3.2322     46.9077     24.4764
   440.8000      8.0075      2.5627      0.0671      5.2920     47.3248     24.2669
   440.9000      8.0075      2.5219      0.0320      7.7664     50.8360     23.6956
   441.0000      7.9420      2.5068      0.0417      8.6778     52.6016     22.9500
   441.1000      7.9420      2.5347      0.0278      6.9896     51.6654     22.2415
   441.2000      7.9420      2.5781      0.1184      4.3556     51.5716     21.6434
   441.3000      7.9362      2.5907      0.1236      3.5931     53.7428     21.2333
   441.4000      7.9362      2.5655      0.0694      5.1238     53.7108     21.1038
   441.5000      7.9297      2.5332      0.0686      7.0799     49.3887     21.0653
   441.6000      7.9297      2.5172      0.0692      8.0475     44.9812     21.0219
   441.7000      7.9297      2.5210      0.0722      7.8205     44.3928     21.1115
   441.8000      7.9547      2.5342      0.1077      7.0206     49.3678     21.1958
   441.9000      7.9547      2.5427      0.1057      6.5009     57.9718     21.2547
