~Version Information
VERS.                      2.0: CWLS Log ASCII Standard - VERSION 2.0
WRAP.                       NO: One line per depth step
~Well Information Block
STRT.FT               -19.0000: 
STOP.FT              1343.5000: 
STEP.FT                 0.5000: 
NULL.                -999.2500: 
COMP.          Evergreen Operating Corporation: COMPANY
WELL.            Trigger 13-35: WELL
FLD.           Purgatorie River: FIELD
LOC.           2245' FSL & 594' FWL: LOCATION
PROV.                 Colorado: PROVINCE
CNTY.               Las Animas: COUNTRY
SRVC.                         : SERVICE COMPANY
DATE.          Mon Jun 23 12:06:52 2003: LOG DATE
UWI.           05-071-07838-00: UNIQUE WELL ID
~Curve Information Block
DEPT.FT            0 000 00 00: Depth
TT3.usec                      : CBL 3' Travel Time
AMP3.mV                       : CBL 3' Amplitude
GR.GAPI                       : Gamma Ray
CCL.                          : Casing Collar Locator
~Parameter Information Block
~A  Depth       TT3         AMP3         GR         CCL     
# ...
   383.0000    777.1140      2.7103    148.6990      0.0000
   383.5000    763.0797      2.6918    138.8274      0.0000
   384.0000    723.4579      2.6284    129.2175      0.0000
   384.5000    719.6936      2.5561    127.8234      0.0000
   385.0000    753.8001      2.5450    129.3684      0.0000
   385.5000    774.5773      2.6136    134.3380      0.0000
   386.0000    777.3559      2.5879    143.3093      0.0000
   386.5000    777.4973      2.5371    145.5038      0.0000
   387.0000    776.4771      2.5779    136.8959      0.0000
   387.5000    766.1806      2.6109    129.0109      0.0000
   388.0000    751.1388      2.5637    121.8048      0.0000
   388.5000    766.4210      2.6032    113.8026      0.0000
   389.0000    774.0336      2.7189    115.6855      0.0000
   389.5000    767.6881      2.4410    117.9858      0.0000
   390.0000    793.4113      1.8626    106.7636      0.0000
   390.5000    887.8352      1.5977     96.6154      0.0000
   391.0000    908.4493      1.5093     99.3184      5.0000
   391.5000    875.3737      1.4537    108.2622      4.4083
   392.0000    882.2712      1.5685    120.8032      0.0000
   392.5000    831.2242      1.7552    130.8394      0.0000
   393.0000    781.9935      2.0541    133.4100      0.0000
   393.5000    764.0898      2.4726    134.3151      0.0000
   394.0000    734.3646      2.7202    135.1439      0.0000
   394.5000    708.1922      2.6530    130.5407      0.0000
   395.0000    718.6668      2.6355    120.1621      0.0000
   395.5000    761.2223      2.7496    109.0529      0.0000
   396.0000    775.5584      2.6951    101.4499      0.0000
   396.5000    777.4725      2.6563    109.1500      0.0000
   397.0000    777.7142      2.6721    129.4626      0.0000
   397.5000    777.3781      2.5257    138.2649      0.0000
   398.0000    776.6145      2.4735    135.8365      0.0000
   398.5000    776.7156      2.5002    137.5721      0.0000
   399.0000    776.8959      2.4295    133.8233      0.0000
   399.5000    776.8904      2.3658    121.7358      0.0000
   400.0000    776.8456      2.4498    115.7376      0.0000
   400.5000    778.3208      2.4968    121.9900      0.0000
   401.0000    787.2753      2.4060    132.3098      0.0000
   401.5000    789.5267      2.3703    141.1423      0.0000
   402.0000    773.8593      2.5278    146.0097      0.0000
   402.5000    772.9230      2.4880    134.6831      0.0000
   403.0000    774.1477      2.4592    108.2439      0.0000
   403.5000    770.9189      2.5176     88.0965      0.0000
   404.0000    759.8370      2.5008     76.8197      0.0000
   404.5000    760.0392      2.4390     67.7076      0.0000
   405.0000    769.6721      2.4250     65.5869      0.0000
   405.5000    770.1633      2.4895     68.2147      0.0000
   406.0000    774.2003      2.5421     67.4462      0.0000
   406.5000    775.6130      2.5332     65.0361      0.0000
   407.0000    770.7549      2.5446     63.5204      0.0000
   407.5000    756.0806      2.5158     64.8682      0.0000
   408.0000    746.3282      2.4091     68.0237      0.0000
   408.5000    744.1417      2.3735     69.5969      0.0000
   409.0000    743.2418      2.3921     70.7530      0.0000
   409.5000    742.7006      2.3753     70.2820      0.0000
   410.0000    743.1124      2.3686     67.2233      0.0000
   410.5000    752.4124      2.3660     64.0538      0.0000
   411.0000    764.6373      2.3640     61.7118      0.0000
   411.5000    764.2582      2.3530     59.3089      0.0000
   412.0000    768.5886      2.3596     57.5732      0.0000
   412.5000    771.4081      2.4245     53.6651      0.0000
   413.0000    771.1008      2.4739     46.9979      0.0000
   413.5000    771.1428      2.4847     45.8257      0.0000
   414.0000    772.1498      2.4776     51.3397      0.0000
   414.5000    773.5234      2.5088     63.9165      0.0000
   415.0000    774.6696      2.5440     84.5624      0.0000
   415.5000    775.4854      2.6307    104.2896      0.0000
   416.0000    774.9104      2.7108    119.1009      0.0000
   416.5000    774.1990      2.7638    131.3518      0.0000
   417.0000    774.6302      2.8227    134.0984      0.0000
   417.5000    775.0791      2.8314    134.4216      0.0000
   418.0000    769.0250      2.8005    129.3372      0.0000
   418.5000    752.1989      2.7773    120.1711      0.0000
   419.0000    741.1069      2.8115    124.7277      0.0000
   419.5000    739.0838      2.8443    130.0667      0.0000
   420.0000    749.0519      2.8310    124.8953      0.0000
   420.5000    734.8421      2.8222    118.5302      0.0000
   421.0000    721.7247      2.7299    117.0067      0.0000
   421.5000    731.1027      2.6089    122.0468      0.0000
   422.0000    758.3015      2.5846    128.7022      0.0000
   422.5000    764.3462      2.6135    129.8733      0.0000
   423.0000    768.4906      2.6558    122.8880      0.0000
   423.5000    739.6259      2.6118    115.4023      0.0000
   424.0000    686.3882      2.4833    111.5299      0.0000
   424.5000    657.2438      2.4488    112.3966      0.0000
   425.0000    641.6074      2.5288    116.6307      0.0000
   425.5000    627.0547      2.5379    123.1870      0.0000
   426.0000    618.5210      2.5539    138.2894      0.0000
   426.5000    631.4730      2.5947    151.9465      0.0000
   427.0000    650.8575      2.6854    150.0871      0.0000
   427.5000    650.4579      2.6884    140.4015      0.0000
   428.0000    657.7750      2.5700    136.9393      0.0000
   428.5000    668.4388      2.5627    143.6480      0.0000
   429.0000    668.6550      2.7077    145.8796      0.0000
   429.5000    661.8940      2.8007    140.2329      0.0000
   430.0000    666.8397      2.7522    137.7837      0.0000
   430.5000    731.1979      2.6762    134.6007      0.0000
   431.0000    791.2132      2.6633    127.4069      0.0000
   431.5000    802.5862      2.7362    116.9374      0.0000
   432.0000    784.2313      2.7478    103.7100      0.0000
   432.5000    772.5276      2.6461     98.7489      0.0000
   433.0000    774.5308      2.4018     99.8814      0.0000
   433.5000    793.3019      1.9303     99.5745      0.0000
   434.0000    784.8257      1.6665     98.6842     -4.1583
   434.5000    768.9915      1.6340    100.3414      5.0000
   435.0000    783.1102      1.5948    111.2389      0.0000
   435.5000    784.0525      1.6226    123.2777      0.0000
   436.0000    774.6904      1.9969    126.2865      0.0000
   436.5000    773.0505      2.5198    125.8072      0.0000
   437.0000    776.9821      2.8391    130.3067      0.0000
   437.5000    783.5256      2.8875    132.3642      0.0000
   438.0000    784.6391      2.8795    128.1011      0.0000
   438.5000    788.2936      2.8260    124.7615      0.0000
   439.0000    784.9533      2.7743    122.9309      0.0000
   439.5000    789.6845      2.8102    122.4866      0.0000
   440.0000    788.6112      2.9113    118.6251      0.0000
   440.5000    779.6444      2.9990    112.5393      0.0000
   441.0000    782.5292      3.0452    112.6439      0.0000
   441.5000    776.2504      3.0576    114.1681      0.0000
   442.0000    773.5136      3.0959    105.6022      0.0000
   442.5000    774.1741      3.1584     98.1170      0.0000
   443.0000    773.6561      3.2189    105.5347      0.0000
   443.5000    774.1696      3.1093    116.4159      0.0000
   444.0000    784.2726      2.9123    120.8407      0.0000
   444.5000    812.6101      2.7746    120.7190      0.0000
   445.0000    817.8488      2.5133    116.6796      0.0000
   445.5000    812.4935      2.2853    103.6165      0.0000
   446.0000    812.7249      2.2035     84.1808      0.0000
   446.5000    791.6862      2.3191     75.8399      0.0000
   447.0000    777.6220      2.3317     91.8432      0.0000
   447.5000    778.8796      2.2665    124.9548      0.0000
   448.0000    793.0100      2.2156    145.7897      0.0000
   448.5000    799.0406      2.2006    148.0383      0.0000
   449.0000    786.9387      2.2995    147.2765      0.0000
   449.5000    781.9694      2.4382    143.7173      0.0000
