~Version Information
VERS.                      2.0: CWLS Log ASCII Standard - VERSION 2.0
WRAP.                       NO: One line per depth step
~Well Information Block
STRT.FT               704.0000: 
STOP.FT              2530.0000: 
STEP.FT                 0.2500: 
NULL.                -999.2500: 
COMP.          Pioneer Natural Resources: COMPANY
WELL.          Aztec Federal 41-15: WELL
FLD.           Purgatorie River: FIELD
LOC.           706' FNL & 1253' FEL: LOCATION
CNTY.               Las Animas: COUNTY
SRVC.          Superior Well Services: SERVICE COMPANY
DATE.          Tue Mar 18 09-04-19 2008: LOG DATE
UWI.           05-071-08342-00: UNIQUE WELL ID
STAT.                       CO: STATE
~Curve Information Block
DEPT.FT            0 000 00 00: Depth
DIR.Ohm-m                     : IEL Induction Resistivity
SN.Ohm-m                      : IEL Short Normal
SP.mV                         : IEL Spontaneous Potential
GR.GAPI                       : Gamma Ray
~Parameter Information Block
~A  Depth       DIR          SN          SP          GR     
# ...
  2379.0000     13.2784     17.2724    207.1750    122.7273
  2379.2500     13.3522     16.9017    207.6655    128.0934
  2379.5000     13.4039     16.5303    207.9407    129.2900
  2379.7500     13.4833     16.3725    207.9828    128.8883
  2380.0000     13.5368     16.2226    207.7915    128.3178
  2380.2500     13.6154     16.1734    207.3831    128.3971
  2380.5000     13.6657     16.1460    206.7880    129.1403
  2380.7500     13.7374     16.1218    206.0484    130.5080
  2381.0000     13.7840     16.0504    205.2146    131.0191
  2381.2500     13.8581     16.0176    204.3419    130.5586
  2381.5000     13.9178     16.1213    203.4863    129.4963
  2381.7500     14.0433     16.3566    202.7016    127.5812
  2382.0000     14.1641     16.9569    202.0359    126.5999
  2382.2500     14.4143     17.4483    201.5293    125.7626
  2382.5000     14.6225     18.1294    201.2121    125.3786
  2382.7500     14.9657     18.4349    201.1032    124.7548
  2383.0000     15.1876     18.5447    201.2101    124.6164
  2383.2500     15.4619     18.3856    201.5286    126.0827
  2383.5000     15.5839     17.9356    202.0428    128.6038
  2383.7500     15.6560     17.6002    202.7267    133.5603
  2384.0000     15.6296     17.1711    203.5448    136.2131
  2384.2500     15.4917     16.9740    204.4547    137.8573
  2384.5000     15.3480     16.8200    205.4090    138.0475
  2384.7500     15.0820     16.7799    206.3587    139.0560
  2385.0000     14.8861     16.7560    207.2562    140.5398
  2385.2500     14.5867     16.7524    208.0582    142.5606
  2385.5000     14.3942     16.7533    208.7290    142.8372
  2385.7500     14.1349     16.7424    209.2421    141.4286
  2386.0000     13.9927     16.6929    209.5816    139.6939
  2386.2500     13.8430     16.6545    209.7426    136.3894
  2386.5000     13.7922     16.6589    209.7308    133.7763
  2386.7500     13.7926     16.7427    209.5604    129.4951
  2387.0000     13.8425     17.0186    209.2535    126.7482
  2387.2500     13.9872     17.2929    208.8373    123.3665
  2387.5000     14.1291     17.7900    208.3429    121.6885
  2387.7500     14.4121     18.1434    207.8029    119.6227
  2388.0000     14.6498     18.0474    207.2501    118.1255
  2388.2500     15.4558     18.8466    206.7154    115.2218
  2388.5000     16.0659     19.6724    206.2259    112.9404
  2388.7500     16.6669     20.4174    205.8030    109.7249
  2389.0000     17.2100     20.9797    205.4599    108.1219
  2389.2500     17.6515     21.2737    205.2006    106.4391
  2389.5000     17.9714     21.3468    205.0183    105.3829
  2389.7500     18.1816     21.3666    204.8960    103.7528
  2390.0000     18.3216     21.5549    204.8079    103.2082
  2390.2500     18.4440     22.0930    204.7227    104.0601
  2390.5000     18.5974     22.9788    204.6076    105.3332
  2390.7500     18.8141     23.8861    204.4330    106.6925
  2391.0000     19.1048     24.4579    204.1769    106.9187
  2391.2500     19.4615     24.7993    203.8284    107.2875
  2391.5000     19.8633     25.2287    203.3893    107.9986
  2391.7500     20.2851     25.7178    202.8734    108.3051
  2392.0000     20.7060     26.1967    202.3047    106.3417
  2392.2500     21.1182     26.7684    201.7132     98.9023
  2392.5000     21.5312     27.4799    201.1304     92.1454
  2392.7500     21.9644     28.5259    200.5850     83.2590
  2393.0000     22.4281     29.8606    200.0988     79.9259
  2393.2500     22.9035     30.9765    199.6850     79.2137
  2393.5000     23.3384     31.5957    199.3470     80.6657
  2393.7500     23.6638     31.7524    199.0794     83.8193
  2394.0000     23.8240     31.5640    198.8698     85.7328
  2394.2500     23.8025     31.1602    198.7021     87.1575
  2394.5000     23.6311     30.6131    198.5588     86.6067
  2394.7500     23.3784     30.0606    198.4243     83.5545
  2395.0000     23.1244     29.6280    198.2863     80.8235
  2395.2500     22.9317     29.3709    198.1375     77.4581
  2395.5000     22.8269     29.2780    197.9756     76.2141
  2395.7500     22.7988     29.1835    197.8032     75.4563
  2396.0000     22.8126     29.0101    197.6264     75.2226
  2396.2500     22.8297     28.7232    197.4541     75.0699
  2396.5000     22.8218     28.3676    197.2963     75.3378
  2396.7500     22.7741     28.1036    197.1636     76.5932
  2397.0000     22.6821     27.8367    197.0655     77.7772
  2397.2500     22.5490     27.4256    197.0110     79.0641
  2397.5000     22.3837     26.9344    197.0076     79.0699
  2397.7500     22.2001     26.5104    197.0615     77.9502
  2398.0000     22.0147     26.2529    197.1782     77.2586
  2398.2500     21.8418     26.0435    197.3615     78.0466
  2398.5000     21.6882     25.6919    197.6138     80.3567
  2398.7500     21.5505     25.1325    197.9354     86.0385
  2399.0000     21.4206     24.4211    198.3237     90.2894
  2399.2500     21.2972     23.7307    198.7734     95.1828
  2399.5000     21.1970     23.2710    199.2758     96.5785
  2399.7500     21.1537     23.2786    199.8202     95.9232
  2400.0000     21.2031     23.9588    200.3943     94.5031
  2400.2500     21.3640     25.1057    200.9863     92.5985
  2400.5000     21.6274     26.1764    201.5867     91.9661
  2400.7500     21.9590     26.8930    202.1891     91.7111
  2401.0000     22.3109     27.2635    202.7915     91.5442
  2401.2500     22.6352     27.3544    203.3957     90.6950
  2401.5000     22.8940     27.2792    204.0065     89.6693
  2401.7500     23.0666     27.1724    204.6292     87.8258
  2402.0000     23.1533     27.0789    205.2680     86.7599
  2402.2500     23.1705     27.1048    205.9231     85.9243
  2402.5000     23.1395     27.2948    206.5894     86.0707
  2402.7500     23.0774     27.4498    207.2559     87.6056
  2403.0000     22.9978     27.4657    207.9056     89.5405
  2403.2500     22.9159     27.3360    208.5172     93.1931
  2403.5000     22.8468     27.1790    209.0670     95.3169
  2403.7500     22.7986     27.0527    209.5315     96.7220
  2404.0000     22.7699     26.8849    209.8907     96.2763
  2404.2500     22.7563     26.6570    210.1297     94.1577
  2404.5000     22.7599     26.5066    210.2416     92.3143
  2404.7500     22.7922     26.5880    210.2284     89.7675
  2405.0000     22.8677     26.8274    210.1016     88.6843
  2405.2500     22.9947     27.0870    209.8814     88.2379
  2405.5000     23.1678     27.3328    209.5957     88.2419
  2405.7500     23.3703     27.5625    209.2769     87.2896
  2406.0000     23.5797     27.8062    208.9595     85.6098
  2406.2500     23.7733     28.0545    208.6767     82.2067
  2406.5000     23.9292     28.2667    208.4566     80.1667
  2406.7500     24.0286     28.3728    208.3202     78.4533
  2407.0000     24.0594     28.3480    208.2795     78.2523
  2407.2500     24.0216     28.2487    208.3375     78.6735
  2407.5000     23.9276     28.1046    208.4885     78.9517
  2407.7500     23.7991     27.9166    208.7209     79.0001
  2408.0000     23.6610     27.6845    209.0195     78.8783
  2408.2500     23.5298     27.4081    209.3685     78.8801
  2408.5000     23.4014     27.0437    209.7541     79.2610
  2408.7500     23.2503     26.5368    210.1658     80.5597
  2409.0000     23.0462     25.8845    210.5979     81.7191
  2409.2500     22.7788     25.1723    211.0484     83.3289
  2409.5000     22.4710     24.4655    211.5183     84.0468
  2409.7500     22.1691     23.8664    212.0099     84.1790
  2410.0000     21.9198     23.6204    212.5255     83.3688
  2410.2500     21.7492     23.6928    213.0652     80.7415
  2410.5000     21.6543     23.8419    213.6268     78.4261
  2410.7500     21.6099     23.9197    214.2049     74.9993
  2411.0000     21.5853     23.8884    214.7914     73.0675
  2411.2500     21.5600     23.7867    215.3763     70.9906
  2411.5000     21.5270     23.6150    215.9482     70.3402
  2411.7500     21.4840     23.3586    216.4962     70.5825
  2412.0000     21.4258     23.1497    217.0100     71.3767
  2412.2500     21.3437     23.0424    217.4811     73.0931
