~Version Information
VERS.                      2.0: CWLS Log ASCII Standard - VERSION 2.0
WRAP.                       NO: One line per depth step
~Well Information Block
STRT.FT               650.0000: 
STOP.FT              1080.5000: 
STEP.FT                 0.1000: 
NULL.                -999.2500: 
COMP.          Pioneer Natural Resources: COMPANY
WELL.            Galileo 21-11: WELL
FLD.           Purgatoire River: FIELD
LOC.           407' FNL & 2394' FWL: LOCATION
PROV.                 Colorado: PROVINCE
CNTY.               Las Animas: COUNTRY
SRVC.                Patterson: SERVICE COMPANY
DATE.          Mon Apr 11 16:20:08 2005: LOG DATE
UWI.           05 071 08353 00: UNIQUE WELL ID
~Curve Information Block
DEPT.FT            0 000 00 00: Depth
DCAL.in                       : CDL Caliper
RHOB.g/cc                     : CDL Bulk Density
RHOC.g/cc                     : CDL Density Correction
DPOR.pu                       : CDL Density Porosity
GR.GAPI                       : Gamma Ray
NPOR.pu                       : Neutron Porosity
~Parameter Information Block
~A  Depth       DCAL        RHOB        RHOC        DPOR         GR         NPOR    
# ...
  1034.0000      7.8433      2.5715      0.1463      4.7560    100.2210     20.3529
  1034.1000      7.8433      2.5587      0.1447      5.5351    104.2021     20.2939
  1034.2000      7.8433      2.5395      0.1160      6.6950    109.9546     20.4814
  1034.3000      7.8422      2.5138      0.0988      8.2539    115.3025     20.6143
  1034.4000      7.8422      2.4876      0.0789      9.8453    121.0417     20.8571
  1034.5000      7.8474      2.4649      0.0417     11.2210    123.1478     21.1579
  1034.6000      7.8474      2.4591     -0.0132     11.5680    120.4355     21.5545
  1034.7000      7.8474      2.4828      0.0208     10.1304    117.9936     22.2082
  1034.8000      7.8418      2.5101      0.1144      8.4766    118.1717     22.5919
  1034.9000      7.8418      2.5060      0.0807      8.7290    117.2182     22.4461
  1035.0000      7.8464      2.4830      0.0775     10.1226    111.4702     22.3527
  1035.1000      7.8464      2.4706      0.0324     10.8731    105.5482     22.4421
  1035.2000      7.8464      2.4694      0.0423     10.9443    107.5539     22.1906
  1035.3000      7.8641      2.4694      0.0406     10.9441    113.2418     21.7578
  1035.4000      7.8641      2.4697      0.0441     10.9270    114.0512     21.8901
  1035.5000      7.8448      2.4621      0.0846     11.3900    110.6684     22.6758
  1035.6000      7.8448      2.4342      0.0311     13.0760    108.3446     23.6527
  1035.7000      7.8448      2.3983      0.0198     15.2569    109.9236     24.2786
  1035.8000      7.8407      2.3768      0.0111     16.5563    111.8858     24.1486
  1035.9000      7.8407      2.3691      0.0402     17.0247    113.0711     23.4758
  1036.0000      7.8414      2.3689     -0.0028     17.0365    115.6761     22.7685
  1036.1000      7.8414      2.3840      0.0191     16.1234    117.0460     22.2600
  1036.2000      7.8414      2.4034      0.0406     14.9433    117.4416     21.9626
  1036.3000      7.8421      2.4081      0.0162     14.6613    118.7968     21.8344
  1036.4000      7.8421      2.4058      0.0006     14.8019    118.1651     21.8227
  1036.5000      7.8441      2.4111      0.0324     14.4793    114.1281     21.9275
  1036.6000      7.8441      2.4197      0.0426     13.9571    107.2550     22.1205
  1036.7000      7.8441      2.4229      0.0471     13.7661    102.8114     22.1787
  1036.8000      7.8486      2.4213      0.0673     13.8630    106.1013     21.9921
  1036.9000      7.8486      2.4206      0.0356     13.9043    110.5074     21.8755
  1037.0000      7.8429      2.4296      0.0134     13.3558    110.0055     22.1160
  1037.1000      7.8429      2.4447      0.0847     12.4420    109.4795     22.3412
  1037.2000      7.8429      2.4447      0.0784     12.4418    111.1152     22.4203
  1037.3000      7.8422      2.4259      0.0420     13.5814    112.8775     22.6904
  1037.4000      7.8422      2.4060      0.0115     14.7849    115.3238     22.8850
  1037.5000      7.8432      2.3914      0.0384     15.6747    116.4940     22.5045
  1037.6000      7.8432      2.3802      0.0024     16.3535    113.3823     21.5983
  1037.7000      7.8432      2.3798      0.0116     16.3770    107.6883     21.0492
  1037.8000      7.8422      2.3934      0.0004     15.5517    103.6602     21.2684
  1037.9000      7.8422      2.4117      0.0502     14.4399    102.0975     21.6669
  1038.0000      7.8423      2.4219      0.0590     13.8245    102.1620     22.0185
  1038.1000      7.8423      2.4187      0.0608     14.0172    105.0340     22.0776
  1038.2000      7.8423      2.4065      0.0701     14.7558    110.3939     21.4667
  1038.3000      7.8416      2.3966      0.0183     15.3601    114.5150     20.5702
  1038.4000      7.8416      2.3951      0.0470     15.4513    115.3559     19.8474
  1038.5000      7.8414      2.3982      0.0521     15.2606    112.4814     19.7697
  1038.6000      7.8414      2.4040      0.0639     14.9121    107.2323     20.6179
  1038.7000      7.8414      2.4086      0.1090     14.6321    107.3551     21.7345
  1038.8000      7.8408      2.4119      0.0737     14.4331    118.4831     22.5324
  1038.9000      7.8408      2.4284      0.0369     13.4307    131.3181     23.0511
  1039.0000      7.8421      2.4605      0.0890     11.4840    134.5739     23.3889
  1039.1000      7.8421      2.4854      0.0776      9.9764    131.9219     23.5240
  1039.2000      7.8421      2.4896      0.0455      9.7240    130.1058     23.4707
  1039.3000      7.8410      2.4813      0.0722     10.2220    126.5370     23.3621
  1039.4000      7.8410      2.4798      0.0145     10.3150    120.0083     23.6584
  1039.5000      7.8400      2.4991      0.0776      9.1450    115.5797     24.3295
  1039.6000      7.8400      2.5265      0.0980      7.4864    112.7601     24.6024
  1039.7000      7.8400      2.5436      0.0341      6.4492    110.2434     24.2815
  1039.8000      7.8425      2.5483      0.0651      6.1654    113.3446     24.0794
  1039.9000      7.8425      2.5399      0.0400      6.6755    123.4711     24.6486
  1040.0000      7.8396      2.5250      0.0392      7.5781    134.2025     25.6096
  1040.1000      7.8396      2.5186     -0.0031      7.9628    139.8977     26.0278
  1040.2000      7.8396      2.5157      0.0591      8.1422    139.4940     25.9670
  1040.3000      7.8436      2.4995      0.0214      9.1194    134.5850     26.2728
  1040.4000      7.8436      2.4761      0.0265     10.5367    129.2064     26.8126
  1040.5000      7.8419      2.4571     -0.0219     11.6931    125.4851     26.6277
  1040.6000      7.8419      2.4487     -0.0376     12.2014    121.9066     25.5021
  1040.7000      7.8419      2.4554      0.0008     11.7945    118.2569     24.2258
  1040.8000      7.8418      2.4680      0.0370     11.0326    116.9057     23.3753
  1040.9000      7.8418      2.4719      0.0648     10.7939    117.9759     22.9511
  1041.0000      7.8407      2.4646      0.0951     11.2373    120.5535     22.9142
  1041.1000      7.8407      2.4587      0.0482     11.5961    126.0134     23.1377
  1041.2000      7.8407      2.4672      0.0776     11.0803    133.0981     23.4757
  1041.3000      7.8409      2.4775      0.1246     10.4531    135.5589     23.7588
  1041.4000      7.8409      2.4720      0.0988     10.7901    129.6024     23.6282
  1041.5000      7.8408      2.4663      0.0404     11.1362    120.3743     23.0902
  1041.6000      7.8408      2.4798      0.0669     10.3171    117.3311     22.8473
  1041.7000      7.8408      2.4990      0.1010      9.1545    123.0719     23.2497
  1041.8000      7.8403      2.5063      0.0849      8.7077    129.3126     23.8380
  1041.9000      7.8403      2.5051      0.0704      8.7848    130.9078     24.2643
  1042.0000      7.8418      2.5021      0.0640      8.9649    132.5694     24.5130
  1042.1000      7.8418      2.4996      0.0685      9.1154    138.6301     24.5814
  1042.2000      7.8418      2.4987      0.0714      9.1678    143.5041     24.6984
  1042.3000      7.8421      2.4983      0.0607      9.1913    138.1719     24.9699
  1042.4000      7.8421      2.5007      0.0511      9.0494    125.9017     25.0380
  1042.5000      7.8429      2.5112      0.0653      8.4133    117.5241     24.7033
  1042.6000      7.8429      2.5250      0.1073      7.5762    115.3896     24.3991
  1042.7000      7.8429      2.5282      0.0763      7.3790    116.5672     24.7175
  1042.8000      7.8426      2.5214      0.0773      7.7915    120.2949     25.3158
  1042.9000      7.8426      2.5192      0.0933      7.9287    123.8243     25.3930
  1043.0000      7.8426      2.5222      0.1136      7.7456    122.8220     25.1542
  1043.1000      7.8426      2.5227      0.0791      7.7166    120.4988     25.0145
  1043.2000      7.8426      2.5265      0.0883      7.4864    124.9994     24.8565
  1043.3000      7.8433      2.5413      0.1273      6.5886    134.0742     24.8486
  1043.4000      7.8433      2.5634      0.1226      5.2477    140.6713     25.3739
  1043.5000      7.8427      2.5847      0.1467      3.9555    146.9713     26.2701
