~Version Information
VERS.                      2.0: CWLS Log ASCII Standard - VERSION 2.0
WRAP.                       NO: One line per depth step
~Well Information Block
STRT.FT               500.0000: 
STOP.FT              2732.5000: 
STEP.FT                 0.1000: 
NULL.                -999.2500: 
COMP.          Pioneer Natural Resources: COMPANY
WELL.          Dude Canyon 22-32: WELL
FLD.           Purgatoire River: FIELD
LOC.           1662' FNL & 2446' FWL----: LOCATION
PROV.                 Colorado: PROVINCE
CNTY.               Las Animas: COUNTRY
SRVC.                Patterson: SERVICE COMPANY
DATE.          Thu Mar 10 07:06:34 2005: LOG DATE
UWI.           05 071 08257 00: UNIQUE WELL ID
~Curve Information Block
DEPT.FT            0 000 00 00: Depth
GR.GAPI                       : Gamma Ray
DCAL.in                       : CDL Caliper
DPOR.pu                       : CDL Density Porosity
NPOR.pu                       : Neutron Porosity
RHOB.g/cc                     : CDL Bulk Density
RHOC.g/cc                     : CDL Density Correction
~Parameter Information Block
~A  Depth        GR         DCAL        DPOR        NPOR        RHOB        RHOC    
# ...
  1834.4000    146.7659      8.0767      1.5859     21.5855      2.6238      0.0860
  1834.5000    135.9435      8.0719      0.9020     21.5359      2.6351      0.0464
  1834.6000    125.4833      8.0719      0.7679     21.2433      2.6373      0.0629
  1834.7000    119.6086      8.0719      1.3896     21.2387      2.6271      0.0111
  1834.8000    112.8726      8.0683      2.0093     21.6900      2.6168      0.0165
  1834.9000    105.8850      8.0683      2.2337     22.5643      2.6131      0.0227
  1835.0000    104.3120      8.0671      2.2652     23.4983      2.6126      0.0461
  1835.1000    111.1569      8.0671      2.1230     24.1116      2.6150      0.0074
  1835.2000    122.9183      8.0671      1.9168     24.4644      2.6184      0.0610
  1835.3000    130.2764      8.0702      1.8756     24.5680      2.6191      0.0333
  1835.4000    128.1278      8.0702      1.5904     24.5327      2.6238      0.0183
  1835.5000    122.1972      8.0744      1.2995     24.0359      2.6286      0.0504
  1835.6000    115.7329      8.0744      1.9495     22.7390      2.6178      0.0423
  1835.7000    111.8831      8.0744      3.2937     21.9417      2.5957      0.0117
  1835.8000    112.1898      8.0768      4.3651     22.3924      2.5780      0.0066
  1835.9000    109.5602      8.0768      4.8037     23.1219      2.5707     -0.0254
  1836.0000    105.4247      8.0766      4.6920     23.5958      2.5726      0.0178
  1836.1000    109.9713      8.0766      4.5108     23.7813      2.5756      0.0173
  1836.2000    122.8711      8.0766      4.4290     23.5850      2.5769     -0.0008
  1836.3000    136.9620      8.0759      3.5027     23.1172      2.5922     -0.0372
  1836.4000    143.5900      8.0759      1.8042     22.6384      2.6202      0.0554
  1836.5000    134.9684      8.0768      1.0062     22.4902      2.6334      0.0427
  1836.6000    123.8553      8.0768      1.4704     22.8221      2.6257      0.0206
  1836.7000    126.1160      8.0768      2.2351     23.4229      2.6131      0.0299
  1836.8000    132.5762      8.0793      2.9491     23.9024      2.6013      0.0594
  1836.9000    128.4248      8.0793      3.8028     23.9468      2.5873      0.0045
  1837.0000    117.8697      8.0801      5.0970     23.7205      2.5659      0.0440
  1837.1000    115.0409      8.0801      7.0916     23.6127      2.5330     -0.0241
  1837.2000    117.5453      8.0801      8.8838     23.5416      2.5034     -0.0145
  1837.3000    115.4048      8.0751      9.2039     23.3407      2.4981     -0.0016
  1837.4000    111.2924      8.0751      8.1006     23.1418      2.5163      0.0189
  1837.5000    107.2174      8.0692      6.3141     23.0881      2.5458      0.0116
  1837.6000     98.7613      8.0692      4.3866     23.0245      2.5776      0.0777
  1837.7000     97.1480      8.0692      2.7609     22.7330      2.6044      0.0594
  1837.8000    111.2201      8.0733      1.8111     22.1930      2.6201      0.1417
  1837.9000    129.5281      8.0733      1.9296     21.6369      2.6182      0.1243
  1838.0000    140.9396      8.0873      2.9791     21.7350      2.6008      0.1018
  1838.1000    138.0497      8.0873      4.2949     22.5331      2.5791      0.0478
  1838.2000    126.3982      8.0873      5.1895     23.0743      2.5644      0.0368
  1838.3000    120.4249      8.1014      5.3998     23.2115      2.5609      0.0185
  1838.4000    119.6156      8.1014      5.1854     23.7290      2.5644      0.0317
  1838.5000    117.3667      8.1075      4.9165     24.7438      2.5689      0.0148
  1838.6000    114.3219      8.1075      4.8316     25.6343      2.5703      0.0306
  1838.7000    114.8902      8.1075      5.2071     25.7390      2.5641      0.0111
  1838.8000    121.1644      8.1086      5.8747     25.0370      2.5531      0.0427
  1838.9000    133.9699      8.1086      5.8691     24.2759      2.5532      0.0069
  1839.0000    148.3836      8.1088      4.6231     23.9354      2.5737     -0.0169
  1839.1000    151.3552      8.1088      3.1316     23.9772      2.5983      0.0616
  1839.2000    142.7599      8.1088      2.3610     24.3166      2.6110     -0.0070
  1839.3000    133.9702      8.1073      2.1836     24.5990      2.6140      0.0562
  1839.4000    130.6081      8.1073      2.7028     24.7108      2.6054      0.0147
  1839.5000    127.4935      8.1040      3.7558     25.1998      2.5880      0.0255
  1839.6000    123.9814      8.1040      4.9264     25.8981      2.5687      0.0229
  1839.7000    126.0396      8.1040      6.1875     26.3038      2.5479      0.0184
  1839.8000    126.2010      8.1008      7.3191     26.6931      2.5292     -0.0009
  1839.9000    122.8456      8.1008      7.9080     27.0515      2.5195     -0.0115
  1840.0000    128.8254      8.1002      7.8005     27.2670      2.5213      0.0120
  1840.1000    142.4908      8.1002      7.0517     27.7039      2.5336      0.0334
  1840.2000    151.5031      8.1002      6.4975     28.1352      2.5428      0.0660
  1840.3000    149.7187      8.1074      7.3744     28.1373      2.5283      0.0371
  1840.4000    142.1857      8.1074      9.3044     28.1315      2.4965      0.0066
  1840.5000    143.4222      8.1270     10.8145     28.4469      2.4716     -0.0039
  1840.6000    158.3800      8.1270     11.4137     28.8724      2.4617      0.0547
  1840.7000    177.4009      8.1270     11.1132     29.3215      2.4666      0.0521
  1840.8000    190.7575      8.1485      9.7840     29.6964      2.4886      0.0697
  1840.9000    202.3888      8.1485      8.3340     29.8346      2.5125      0.0955
  1841.0000    211.2361      8.1516      7.5942     29.8113      2.5247      0.0735
  1841.1000    208.7488      8.1516      6.7592     29.5014      2.5385      0.1220
  1841.2000    193.6993      8.1516      5.8051     29.1250      2.5542      0.1883
  1841.3000    173.7673      8.1423      6.2864     29.2417      2.5463      0.1763
  1841.4000    161.9527      8.1423      8.6653     29.8030      2.5070      0.1364
  1841.5000    158.2224      8.1393     11.5870     30.3023      2.4588      0.1262
  1841.6000    157.6018      8.1393     13.5959     30.4801      2.4257      0.0898
  1841.7000    169.0210      8.1393     14.8249     30.4766      2.4054      0.0817
  1841.8000    187.0274      8.1586     16.0797     30.5189      2.3847      0.0320
  1841.9000    190.9133      8.1586     16.6148     30.6067      2.3759     -0.0017
  1842.0000    180.4611      8.2492     15.3399     30.1557      2.3969      0.0397
  1842.1000    163.6318      8.2492     13.0823     29.1142      2.4341      0.0986
  1842.2000    149.3102      8.2492     11.1991     28.5945      2.4652      0.1475
  1842.3000    147.7792      8.4433      9.7784     28.8296      2.4887      0.1651
  1842.4000    157.7797      8.4433      8.7226     28.8453      2.5061      0.2587
  1842.5000    170.4388      8.6181      8.4032     28.0224      2.5113      0.2497
  1842.6000    176.9756      8.6181      8.3034     26.4664      2.5130      0.2029
  1842.7000    175.1851      8.6181      7.2826     24.8554      2.5298      0.1623
  1842.8000    167.2667      8.5577      5.2117     23.7442      2.5640      0.1615
  1842.9000    155.8489      8.5577      3.0385     22.7900      2.5999      0.1630
  1843.0000    154.6777      8.2908      2.1052     21.5599      2.6153      0.1875
  1843.1000    162.9823      8.2908      3.0136     20.5741      2.6003      0.0894
  1843.2000    156.7449      8.2908      4.6016     20.1554      2.5741      0.0763
  1843.3000    135.3213      8.1055      5.4652     19.8824      2.5598      0.0562
  1843.4000    118.8114      8.1055      5.1922     19.6639      2.5643     -0.0039
  1843.5000    113.4070      8.0601      4.2181     19.3978      2.5804      0.0383
  1843.6000    113.4973      8.0601      3.5903     18.7289      2.5908      0.0233
  1843.7000    115.1852      8.0601      3.5596     18.1350      2.5913      0.0116
  1843.8000    113.6926      8.0549      3.0178     18.2824      2.6002     -0.0445
  1843.9000    110.5774      8.0549      1.4921     19.0153      2.6254      0.0465
