~Version Information
VERS.                      2.0: CWLS Log ASCII Standard - VERSION 2.0
WRAP.                       NO: One line per depth step
~Well Information Block
STRT.FT               671.6000: 
STOP.FT              1890.7000: 
STEP.FT                 0.1000: 
NULL.                -999.2500: 
COMP.          Petrogulf Corporation: COMPANY
WELL.             State 16-14R: WELL
FLD.           Purgatorie River: FIELD
LOC.           598' FSL & 682' FWL: LOCATION
CNTY.               Las Animas: COUNTY
SRVC.                         : SERVICE COMPANY
DATE.          Fri Nov 05 07:21:30 2004: LOG DATE
UWI.           05 071 08034 00: UNIQUE WELL ID
STAT.                 Colorado: STATE
~Curve Information Block
DEPT.FT            0 000 00 00: Depth
DCAL.in                       : CDL Caliper
RHOB.g/cc                     : CDL Bulk Density
RHOC.g/cc                     : CDL Density Correction
DPOR.pu                       : CDL Density Porosity
GR.GAPI                       : Gamma Ray
NPOR.pu                       : Neutron Porosity
~Parameter Information Block
~A  Depth       DCAL        RHOB        RHOC        DPOR         GR         NPOR    
# ...
  1871.6000      7.8412      2.5676      0.0611      4.9940   -999.2500     22.5474
  1871.7000      7.8412      2.5601      0.0726      5.4511   -999.2500     23.1278
  1871.8000      7.8405      2.5528      0.0382      5.8922   -999.2500     24.0131
  1871.9000      7.8405      2.5611      0.0560      5.3900   -999.2500     24.6159
  1872.0000      7.8902      2.5886      0.0862      3.7210   -999.2500     24.8439
  1872.1000      7.8902      2.6129      0.1163      2.2500   -999.2500     24.8369
  1872.2000      7.8902      2.6114      0.1001      2.3407   -999.2500     24.8736
  1872.3000      7.8772      2.5830      0.0847      4.0619   -999.2500     25.2529
  1872.4000      7.8772      2.5445      0.0912      6.3931   -999.2500     25.7562
  1872.5000      7.8705      2.5243      0.0149      7.6185   -999.2500     25.7266
  1872.6000      7.8705      2.5335      0.0848      7.0631   -999.2500     25.0977
  1872.7000      7.8705      2.5454      0.1231      6.3411   -999.2500     24.5186
  1872.8000      7.8924      2.5351      0.0776      6.9655   -999.2500     24.5147
  1872.9000      7.8924      2.5149      0.0519      8.1893   -999.2500     24.8842
  1873.0000      7.8633      2.5070      0.0752      8.6686   -999.2500     24.7695
  1873.1000      7.8633      2.5122      0.0684      8.3499   -999.2500     24.0517
  1873.2000      7.8633      2.5255      0.0972      7.5459   -999.2500     23.6877
  1873.3000      7.8246      2.5421      0.1324      6.5420   -999.2500     24.3459
  1873.4000      7.8246      2.5466      0.1749      6.2653   -999.2500     25.6111
  1873.5000      7.7921      2.5355      0.1356      6.9379   -999.2500     26.6887
  1873.6000      7.7921      2.5253      0.1609      7.5550   -999.2500     27.0708
  1873.7000      7.7921      2.5241      0.0914      7.6314   -999.2500     26.8221
  1873.8000      7.8511      2.5270      0.0811      7.4561   -999.2500     26.4767
  1873.9000      7.8511      2.5275      0.0966      7.4233   -999.2500     26.2144
  1874.0000      7.8439      2.5274      0.0386      7.4313   -999.2500     26.1186
  1874.1000      7.8439      2.5419      0.0225      6.5492   -999.2500     26.1336
  1874.2000      7.8439      2.5738      0.0907      4.6209   -999.2500     26.0653
  1874.3000      7.8444      2.5959      0.1645      3.2810   -999.2500     26.3309
  1874.4000      7.8444      2.5905      0.1833      3.6082   -999.2500     26.9618
  1874.5000      7.8722      2.5659      0.1762      5.0981   -999.2500     26.9769
  1874.6000      7.8722      2.5346      0.1059      6.9912   -999.2500     26.1011
  1874.7000      7.8722      2.5109      0.0418      8.4281   -999.2500     25.6088
  1874.8000      7.8359      2.5020      0.0854      8.9675   -999.2500     25.9561
  1874.9000      7.8359      2.4943      0.0558      9.4393   -999.2500     26.2646
  1875.0000      7.8299      2.4632      0.0882     11.3203   -999.2500     26.2253
  1875.1000      7.8299      2.3873      0.0742     15.9203   -999.2500     26.2090
  1875.2000      7.8299      2.2677      0.0150     23.1691   -999.2500     26.5266
  1875.3000      7.8340      2.1341     -0.0578     31.2696   -999.2500     27.0175
  1875.4000      7.8340      2.0130     -0.0787     38.6056   -999.2500     27.2179
  1875.5000      7.8353      1.9027     -0.0496     45.2937   -999.2500     26.9974
  1875.6000      7.8353      1.8011     -0.1151     51.4462   -999.2500     26.7359
  1875.7000      7.8353      1.7355     -0.0896     55.4258   -999.2500     27.2112
  1875.8000      7.8192      1.7302     -0.0180     55.7455   -999.2500     28.7687
  1875.9000      7.8192      1.7748      0.1115     53.0415   -999.2500     31.4964
  1876.0000      7.8402      1.8406      0.1707     49.0564   -999.2500     36.1341
  1876.1000      7.8402      1.9158      0.1979     44.4983   -999.2500     41.9503
  1876.2000      7.8402      2.0149      0.1454     38.4925   -999.2500     46.0428
  1876.3000      7.8413      2.1496      0.2385     30.3243   -999.2500     47.5782
  1876.4000      7.8413      2.2953      0.2939     21.4985   -999.2500     47.8867
  1876.5000      7.8201      2.4067      0.2922     14.7444   -999.2500     47.9196
  1876.6000      7.8201      2.4665      0.2421     11.1206   -999.2500     47.9214
  1876.7000      7.8201      2.5017      0.1488      8.9878   -999.2500   -999.2500
  1876.8000      7.8303      2.5410      0.1347      6.6037   -999.2500   -999.2500
  1876.9000      7.8303      2.5752      0.1857      4.5364   -999.2500   -999.2500
  1877.0000      7.8599      2.5832      0.1398      4.0470   -999.2500   -999.2500
  1877.1000      7.8599      2.5746      0.0920      4.5707   -999.2500   -999.2500
  1877.2000      7.8599      2.5641      0.0942      5.2067   -999.2500   -999.2500
  1877.3000      7.8199      2.5457      0.0993      6.3193   -999.2500   -999.2500
  1877.4000      7.8199      2.5216      0.0286      7.7847   -999.2500   -999.2500
  1877.5000      7.8181      2.5038      0.0806      8.8621   -999.2500   -999.2500
  1877.6000      7.8181      2.4923      0.0523      9.5554   -999.2500   -999.2500
  1877.7000      7.8181      2.4858      0.0504      9.9544   -999.2500   -999.2500
  1877.8000      7.8297      2.4850      0.0438      9.9985   -999.2500   -999.2500
  1877.9000      7.8297      2.4884      0.0264      9.7942   -999.2500   -999.2500
  1878.0000      7.8402      2.4923      0.0433      9.5548   -999.2500   -999.2500
  1878.1000      7.8402      2.4945      0.0380      9.4232   -999.2500   -999.2500
  1878.2000      7.8402      2.4924      0.0290      9.5530   -999.2500   -999.2500
  1878.3000      7.8659      2.4876      0.0351      9.8414   -999.2500   -999.2500
  1878.4000      7.8659      2.4936      0.0299      9.4812   -999.2500   -999.2500
  1878.5000      7.8205      2.5152      0.0867      8.1679   -999.2500   -999.2500
  1878.6000      7.8205      2.5366      0.1122      6.8706   -999.2500   -999.2500
  1878.7000      7.8205      2.5529      0.0403      5.8864   -999.2500   -999.2500
  1878.8000      7.8046      2.5713      0.0839      4.7706   -999.2500   -999.2500
  1878.9000      7.8046      2.5801      0.0898      4.2377   -999.2500   -999.2500
  1879.0000      7.8079      2.5702      0.1068      4.8372   -999.2500   -999.2500
  1879.1000      7.8079      2.5611      0.0558      5.3867   -999.2500   -999.2500
  1879.2000      7.8079      2.5698      0.0846      4.8606   -999.2500   -999.2500
  1879.3000      7.8526      2.5865      0.0882      3.8490   -999.2500   -999.2500
  1879.4000      7.8526      2.5953      0.0798      3.3158   -999.2500   -999.2500
  1879.5000      7.8382      2.5947      0.0909      3.3530   -999.2500   -999.2500
  1879.6000      7.8382      2.5946      0.0938      3.3587   -999.2500   -999.2500
  1879.7000      7.8382      2.5980      0.1184      3.1535   -999.2500   -999.2500
  1879.8000      7.8201      2.5960      0.1092      3.2708   -999.2500   -999.2500
  1879.9000      7.8201      2.5864      0.1053      3.8535   -999.2500   -999.2500
  1880.0000      7.8157      2.5754      0.0856      4.5222   -999.2500   -999.2500
  1880.1000      7.8157      2.5630      0.1420      5.2727   -999.2500   -999.2500
  1880.2000      7.8157      2.5489      0.0450      6.1253   -999.2500   -999.2500
  1880.3000      7.8098      2.5471      0.0473      6.2375   -999.2500   -999.2500
  1880.4000      7.8098      2.5596      0.0850      5.4781   -999.2500   -999.2500
  1880.5000      7.7985      2.5735      0.0454      4.6385   -999.2500   -999.2500
  1880.6000      7.7985      2.5826      0.0707      4.0838   -999.2500   -999.2500
  1880.7000      7.7985      2.5846      0.1059      3.9612   -999.2500   -999.2500
  1880.8000      7.8651      2.5839      0.0650      4.0042   -999.2500   -999.2500
  1880.9000      7.8651      2.5881      0.0887      3.7501   -999.2500   -999.2500
  1881.0000      7.8513      2.5924      0.1016      3.4932   -999.2500   -999.2500
  1881.1000      7.8513      2.5885      0.0589      3.7274   -999.2500   -999.2500
