~Version Information
VERS.                      2.0: CWLS Log ASCII Standard - VERSION 2.0
WRAP.                       NO: One line per depth step
~Well Information Block
STRT.FT               906.0000: 
STOP.FT              1960.5000: 
STEP.FT                 0.2500: 
NULL.                -999.2500: 
COMP.          Petrogulf Corporation: COMPANY
WELL.            Torcom 17-33R: WELL
FLD.           Purgatorie River: FIELD
LOC.           1483' FSL & 1804' FEL: LOCATION
PROV.                 Colorado: PROVINCE
CNTY.               Las Animas: COUNTRY
SRVC.                Patterson: SERVICE COMPANY
DATE.          Thu Aug 18 08:33:01 2005: LOG DATE
UWI.                071 08069 : UNIQUE WELL ID
~Curve Information Block
DEPT.FT            0 000 00 00: Depth
SP.mV                         : DIL Spontaneous Potential
RILD.Ohm-m                    : DIL Deep Resistivity
RILM.Ohm-m                    : DIL Medium Resistivity
RLL3.Ohm-m                    : DIL Shallow Resistivity
GR.GAPI                       : Gamma Ray
~Parameter Information Block
~A  Depth        SP         RILD        RILM        RLL3         GR     
# ...
  1102.0000    118.1687     16.8247     17.5170     19.6853    144.8620
  1102.2500    118.4407     16.0632     17.1439     23.8071    147.5606
  1102.5000    118.5281     15.9839     17.1844     21.9846    148.6465
  1102.7500    118.7514     15.6109     17.1171     22.0841    141.3219
  1103.0000    119.0011     15.0562     17.4727     21.6052    140.0218
  1103.2500    119.1734     14.8063     17.8273     24.2467    139.3577
  1103.5000    119.0364     14.8051     17.9921     26.7008    134.4616
  1103.7500    118.7993     14.4855     17.7833     26.7494    148.5900
  1104.0000    118.4445     14.2452     17.3083     25.3747    144.3638
  1104.2500    117.8823     14.1582     16.7776     21.7834    151.1933
  1104.5000    117.1361     14.0917     16.2782     21.3153    152.0803
  1104.7500    116.0428     13.9491     15.6321     20.6050    147.6613
  1105.0000    115.8847     13.7603     14.9202     18.7965    149.6630
  1105.2500    115.7201     13.4504     14.3917     17.3739    147.8917
  1105.5000    114.9457     13.0953     13.9406     16.5892    154.3927
  1105.7500    113.7732     12.8560     13.4563     15.1962    148.6732
  1106.0000    112.4929     12.5516     13.1435     16.8878    147.4554
  1106.2500    110.5635     12.0827     12.7183     15.6075    151.0958
  1106.5000    108.8415     11.7940     12.4263     18.2849    144.7364
  1106.7500    107.8362     11.5456     12.3132     16.4078    128.4812
  1107.0000    107.3338     11.3226     12.0839     16.3422    129.4928
  1107.2500    108.2269     11.2682     11.8647     18.0627    122.1573
  1107.5000    110.5967     11.1462     11.6388     21.1050    131.0432
  1107.7500    111.0216     11.1185     11.2966     19.5603    132.8972
  1108.0000    111.1039     11.1508     11.1444     15.9173    151.8529
  1108.2500    111.4312     11.3416     11.0880     14.4971    150.2251
  1108.5000    111.2788     11.3870     11.2265     14.3101    146.5975
  1108.7500    110.8595     11.7545     11.4507     15.8514    144.2664
  1109.0000    110.2748     11.9893     11.8012     16.5851    140.8974
  1109.2500    109.5279     12.3033     12.1712     17.1403    153.6973
  1109.5000    108.4652     12.7099     12.6414     18.0395    160.9017
  1109.7500    106.7490     13.0473     13.1258     17.5939    146.7596
  1110.0000    104.6427     13.6051     13.6512     19.2831    148.7346
  1110.2500    102.2855     14.3707     14.2374     19.8208    146.9581
  1110.5000    100.0039     15.0585     14.7778     20.6321    141.8773
  1110.7500     97.1042     16.0401     15.7352     19.4810    140.4795
  1111.0000     94.6860     16.9785     16.8215     19.5658    124.6796
  1111.2500     93.9577     17.9711     18.2618     22.2084    118.5450
  1111.5000     92.6634     19.2231     19.9328     24.6280    119.9110
  1111.7500     91.8923     20.5029     21.3592     28.6459    123.9817
  1112.0000     90.6368     21.5913     23.6421     35.3663    120.5824
  1112.2500     89.1522     23.1491     25.5131     41.1932    124.3224
  1112.5000     87.8309     24.8416     28.2262     43.0046    120.5685
  1112.7500     86.4685     27.0295     29.9814     45.1480    124.0854
  1113.0000     86.0679     28.2797     30.6063     45.5679    131.1476
  1113.2500     87.1467     30.0102     33.2240     47.6357    135.3531
  1113.5000     86.4115     31.5119     34.3804     48.6827    126.4686
  1113.7500     86.8090     33.1406     34.6036     46.4264    129.7493
  1114.0000     86.7025     33.8669     35.3447     41.7367    127.2707
  1114.2500     85.6026     34.6405     36.1354     39.2385    123.9302
  1114.5000     83.8370     36.8166     36.5177     37.0022    130.5386
  1114.7500     82.2313     37.7513     38.2003     39.3968    136.5165
  1115.0000     81.2574     40.2310     38.6895     41.7633    130.5344
  1115.2500     81.3044     41.3593     39.8691     43.7971    117.7684
  1115.5000     81.5223     43.3515     39.1080     43.3573    123.7723
  1115.7500     81.6810     43.4649     40.9288     43.6294    121.6552
  1116.0000     81.1878     45.1301     41.6889     42.5996    116.9467
  1116.2500     80.9953     43.9534     42.6522     43.1394    109.1663
  1116.5000     81.8105     45.3761     44.4888     48.1382    105.8862
  1116.7500     82.6742     44.6302     47.8012     59.9486     99.9234
  1117.0000     84.3134     46.2300     50.0863     74.4155    102.8799
  1117.2500     86.2598     47.1316     51.1131     78.8746    108.1517
  1117.5000     88.6222     49.2918     53.1360     79.6971    110.1959
  1117.7500     92.0584     52.7940     53.9197     75.2806    112.8105
  1118.0000     93.3915     56.3740     56.7485     67.9145    120.6305
  1118.2500     93.8624     57.5533     55.9217     66.5119    113.0830
  1118.5000     94.3037     59.3372     57.0724     65.6172    113.7282
  1118.7500     94.9664     61.3253     58.7598     61.5493    114.4882
  1119.0000     95.6702     60.5849     58.6766     58.9689    100.4982
  1119.2500     96.2285     64.1540     59.9081     62.0516    105.2841
  1119.5000     97.8899     67.8027     61.1474     60.3749    108.5095
  1119.7500     98.2344     65.8840     60.1575     62.4490    101.3862
  1120.0000     98.5252     68.8826     60.5895     65.9790     90.3980
  1120.2500     99.2033     69.0057     65.1900     75.3633     81.1945
  1120.5000    101.0413     73.0847     66.2989     85.7493     71.3429
  1120.7500    101.6007     70.9085     70.6903     98.0429     61.3524
  1121.0000    101.6928     73.3850     75.2239    116.8962     61.2766
  1121.2500    102.2947     72.6611     73.1369    125.2255     61.7139
  1121.5000    103.3553     74.4070     78.5264    120.6918     69.4442
  1121.7500    104.5336     78.3318     74.2604    116.2011     70.4410
  1122.0000    104.3334     85.4259     76.0416    108.6607     66.4934
  1122.2500    103.7909     93.6034     74.2327     98.1979     59.6936
  1122.5000    102.7583    100.3364     77.9496     99.6432     62.3226
  1122.7500    101.7543    109.2685     80.5201    106.2026     65.1479
  1123.0000    100.6067    113.8680     80.7219    103.1549     69.4477
  1123.2500     97.7787    121.8705     79.5853     88.8349     64.0765
  1123.5000     94.5080    138.4410     87.7572     72.0447     53.7829
  1123.7500     92.0552    144.6522     93.6776     75.8608     47.0211
  1124.0000     88.9539    147.6459     99.9067    105.8876     32.5932
  1124.2500     87.0458    144.4682    111.1971    146.7583     28.0706
  1124.5000     84.4977    173.9449    127.8716    165.9288     30.5260
  1124.7500     82.5064    182.7828    138.2200    167.8249     30.5226
  1125.0000     81.2093    189.4487    133.2878    162.7498     26.1604
  1125.2500     82.0855    198.8852    135.8685    163.3865     30.8292
  1125.5000     84.5274    214.6568    160.8326    166.2090     30.4812
  1125.7500     86.4011    280.4977    160.6952    164.9932     31.9268
  1126.0000     86.9473    291.3382    157.5207    153.8779     27.8626
  1126.2500     87.3904    298.4241    162.1873    140.4944     29.3673
  1126.5000     87.9152    290.9151    174.3595    144.8850     23.6158
  1126.7500     89.0636    293.2750    191.5000    176.0888     23.9094
  1127.0000     91.4962    246.9441    250.5369    230.2999     33.0944
  1127.2500     97.7904    170.5082    273.3252    313.8039     37.5849
  1127.5000    100.6494    137.6597    219.8258    421.9732     44.1610
  1127.7500    104.3871     99.2701    226.2072    507.1889     40.4915
  1128.0000    107.5980     83.8213    194.2304    524.8094     49.0100
  1128.2500    111.0907     64.0740    133.9417    480.7344     50.4119
  1128.5000    115.2691     52.6662     96.0922    390.9990     67.0346
  1128.7500    120.0160     42.7194     65.2330    274.8510     84.0950
  1129.0000    125.1607     36.0879     48.1202    174.3229    114.2599
  1129.2500    129.7157     33.3313     35.6299     91.2830    128.9838
  1129.5000    133.9058     28.6707     28.0141     44.3951    133.4669
  1129.7500    137.6686     26.3721     23.3752     29.1675    142.4565
