~Version Information
VERS.                      2.0: CWLS Log ASCII Standard - VERSION 2.0
WRAP.                       NO: One line per depth step
~Well Information Block
STRT.FT               780.0000: 
STOP.FT              2866.2000: 
STEP.FT                 0.1000: 
NULL.                -999.2500: 
COMP.          Pioneer Natural Resources: COMPANY
WELL.            Sebring 42-29: WELL
FLD.           Purgatoire River: FIELD
LOC.           1751' FNL & 584' FEL--: LOCATION
PROV.                 Colorado: PROVINCE
CNTY.               Las Animas: COUNTRY
SRVC.                Patterson: SERVICE COMPANY
DATE.          Mon Aug 15 07:11:37 2005: LOG DATE
UWI.           05 071 08293 00: UNIQUE WELL ID
~Curve Information Block
DEPT.FT            0 000 00 00: Depth
DCAL.in                       : CDL Caliper
RHOB.g/cc                     : CDL Bulk Density
RHOC.g/cc                     : CDL Density Correction
DPOR.pu                       : CDL Density Porosity
NPOR.pu                       : Neutron Porosity
GR.GAPI                       : Gamma Ray
~Parameter Information Block
~A  Depth       DCAL        RHOB        RHOC        DPOR        NPOR         GR     
# ...
   914.4000      8.2438      2.5959      0.0081      3.2816     27.9869    102.5696
   914.5000      8.2424      2.6117      0.0416      2.3194     28.2325    100.1802
   914.6000      8.2424      2.6134      0.0268      2.2186     28.5403     96.7077
   914.7000      8.2424      2.6029     -0.0069      2.8528     28.7770     97.2108
   914.8000      8.2409      2.5968      0.0093      3.2260     28.8190     99.7646
   914.9000      8.2409      2.5964      0.0242      3.2486     28.9106    102.3593
   915.0000      8.2394      2.5905     -0.0188      3.6032     28.9564    104.1725
   915.1000      8.2394      2.5650      0.0301      5.1517     28.7533    103.5234
   915.2000      8.2394      2.5152     -0.0008      8.1678     28.6288    102.2173
   915.3000      8.2372      2.4710     -0.0570     10.8492     28.7176    104.2546
   915.4000      8.2372      2.4613     -0.0253     11.4354     28.5847    108.6786
   915.5000      8.2367      2.4725     -0.0152     10.7581     28.0499    110.9272
   915.6000      8.2367      2.4832     -0.0107     10.1080     27.1936    111.7217
   915.7000      8.2367      2.4966     -0.0193      9.2951     26.1084    114.1844
   915.8000      8.2386      2.5192      0.0222      7.9290     25.1718    117.2003
   915.9000      8.2386      2.5427      0.0551      6.5001     24.6251    117.2559
   916.0000      8.2409      2.5586      0.0657      5.5373     24.2518    115.9824
   916.1000      8.2409      2.5667      0.0619      5.0463     23.8859    116.4733
   916.2000      8.2409      2.5663      0.1103      5.0737     23.7460    118.5949
   916.3000      8.2410      2.5638      0.0484      5.2241     24.0673    120.8919
   916.4000      8.2410      2.5772      0.0630      4.4116     24.9081    118.1140
   916.5000      8.2392      2.6015      0.0920      2.9398     26.0568    108.2940
   916.6000      8.2392      2.6115      0.1097      2.3331     27.2276     98.6946
   916.7000      8.2392      2.6034      0.0764      2.8221     28.2500     94.5921
   916.8000      8.2381      2.5915      0.0849      3.5446     29.0341     96.4061
   916.9000      8.2381      2.5795      0.0461      4.2718     29.6355    105.9943
   917.0000      8.2411      2.5707     -0.0021      4.8057     29.9541    117.9194
   917.1000      8.2411      2.5796     -0.0006      4.2660     29.7410    122.5987
   917.2000      8.2411      2.5991      0.0890      3.0878     29.3061    122.8860
   917.3000      8.2513      2.5962      0.0400      3.2591     29.1549    127.2239
   917.4000      8.2513      2.5692     -0.0399      4.8966     29.3018    136.5798
   917.5000      8.2631      2.5502     -0.0529      6.0511     29.4083    146.7758
   917.6000      8.2631      2.5493     -0.0156      6.1004     29.1249    154.2182
   917.7000      8.2631      2.5436      0.0290      6.4461     28.4542    156.4496
   917.8000      8.2694      2.5218      0.0197      7.7714     27.5954    155.8091
   917.9000      8.2694      2.4943      0.0499      9.4391     26.7722    156.2399
   918.0000      8.2753      2.4656      0.0335     11.1739     26.2210    156.9242
   918.1000      8.2753      2.4462     -0.0364     12.3526     26.0525    156.9323
   918.2000      8.2753      2.4484     -0.0031     12.2169     26.1450    157.6683
   918.3000      8.2843      2.4569      0.0483     11.7043     26.0756    159.8717
   918.4000      8.2843      2.4524      0.0421     11.9734     25.6788    162.6921
   918.5000      8.2902      2.4410      0.0121     12.6659     25.2492    162.0288
   918.6000      8.2902      2.4282      0.0130     13.4426     24.7551    155.5547
   918.7000      8.2902      2.4056      0.0408     14.8143     23.9766    147.7392
   918.8000      8.2914      2.3752      0.0175     16.6531     23.2185    143.1178
   918.9000      8.2914      2.3585     -0.0027     17.6637     22.6820    141.3751
   919.0000      8.2938      2.3637      0.0475     17.3540     21.9455    142.5033
   919.1000      8.2938      2.3730      0.0535     16.7872     21.0631    147.9612
   919.2000      8.2938      2.3771      0.0094     16.5401     20.8408    155.4096
   919.3000      8.3005      2.3824      0.0483     16.2174     21.4067    157.6815
   919.4000      8.3005      2.3827      0.0660     16.1990     22.0111    151.4774
   919.5000      8.3075      2.3608      0.0574     17.5271     22.3605    141.9967
   919.6000      8.3075      2.3096      0.0423     20.6321     22.7029    136.1017
   919.7000      8.3075      2.2407      0.0394     24.8072     23.2692    135.4192
   919.8000      8.3122      2.1762      0.0148     28.7176     24.0858    136.4690
   919.9000      8.3122      2.1248      0.0863     31.8300     24.8566    138.4415
   920.0000      8.3150      2.0760      0.0729     34.7865     25.2789    142.8055
   920.1000      8.3150      2.0198      0.0490     38.1933     25.2364    145.6041
   920.2000      8.3150      1.9641     -0.0506     41.5704     24.9282    142.2704
   920.3000      8.3145      1.9334     -0.0783     43.4280     24.6876    137.6248
   920.4000      8.3145      1.9400     -0.0192     43.0276     24.5075    135.4966
   920.5000      8.3133      1.9677      0.0401     41.3517     24.0610    130.3100
   920.6000      8.3133      1.9912      0.0881     39.9251     23.1248    120.7517
   920.7000      8.3133      1.9986      0.1045     39.4803     21.7130    115.4720
   920.8000      8.3140      1.9918      0.1204     39.8900     19.8262    118.9507
   920.9000      8.3140      1.9693      0.1111     41.2521     17.3398    125.5491
   921.0000      8.3154      1.9248      0.0775     43.9517     14.4955    127.0352
   921.1000      8.3154      1.8629      0.0266     47.7015     11.8725    122.7774
   921.2000      8.3154      1.7888     -0.0694     52.1917      9.5804    117.9775
   921.3000      8.3245      1.6759     -0.0496     59.0335      7.7318    114.9497
   921.4000      8.3245      1.4722     -0.0935     71.3789      6.7280    112.7462
   921.5000      8.3783      1.1820     -0.2458     88.9707      6.6570    111.5869
   921.6000      8.3783      0.9297     -0.3208    104.2632      7.4261    115.2213
   921.7000      8.3783      0.8781     -0.1939    107.3868      9.1200    121.8793
   921.8000      8.5243      1.0725      0.1221     95.6067     11.9152    124.3381
   921.9000      8.5243      1.4117      0.3940     75.0471     15.4869    122.1331
   922.0000      8.6713      1.7630      0.5763     53.7606     19.0110    120.4099
   922.1000      8.6713      2.0507      0.6892     36.3223     22.3852    123.5852
   922.2000      8.6713      2.2583      0.7146     23.7374     25.5371    131.9479
   922.3000      8.6205      2.4156      0.6355     14.2062     27.8809    138.1667
   922.4000      8.6205      2.5634      0.6517      5.2464     29.2529    136.4072
   922.5000      8.4177      2.6955      0.6448     -2.7571     29.7781    129.8904
   922.6000      8.4177      2.7716      0.5714     -7.3718     29.4676    125.6077
   922.7000      8.4177      2.7695      0.4036     -7.2419     28.6691    129.3843
   922.8000      8.2835      2.7055      0.1920     -3.3651     27.9577    138.8962
   922.9000      8.2835      2.6332      0.0469      1.0187     27.6172    143.4391
   923.0000      8.2473      2.5987      0.0260      3.1073     27.8616    139.7332
   923.1000      8.2473      2.6034      0.0883      2.8257     28.7179    137.6873
   923.2000      8.2473      2.6269      0.0634      1.4007     29.5094    142.3744
   923.3000      8.2411      2.6504      0.0992     -0.0242     29.5957    145.7200
   923.4000      8.2411      2.6540      0.0772     -0.2402     29.2130    140.3615
   923.5000      8.2401      2.6357      0.0622      0.8646     29.0004    128.8677
   923.6000      8.2401      2.6129      0.0419      2.2476     29.3136    120.1399
   923.7000      8.2401      2.6006      0.0003      2.9959     29.7966    120.0928
   923.8000      8.2386      2.6085     -0.0087      2.5150     29.8592    124.4315
   923.9000      8.2386      2.6242      0.0236      1.5608     29.5406    124.9375
