~Version Information
VERS.                      2.0: CWLS Log ASCII Standard - VERSION 2.0
WRAP.                       NO: One line per depth step
~Well Information Block
STRT.FT               748.2500: 
STOP.FT              2498.5000: 
STEP.FT                 0.2500: 
NULL.                -999.2500: 
COMP.          Petrogulf Corporation: COMPANY
WELL.           Montoya 13-41V: WELL
FLD.           Purgatorie River: FIELD
LOC.           449' FNL & 891' FEL: LOCATION
CNTY.               Las Animas: COUNTY
SRVC.                         : SERVICE COMPANY
DATE.          Tue Aug 17 13:22:31 2004: LOG DATE
UWI.           05 071 08021 00: UNIQUE WELL ID
STAT.                 Colorado: STATE
~Curve Information Block
DEPT.FT            0 000 00 00: Depth
SP.mV                         : DIL Spontaneous Potential
RILD.Ohm-m                    : DIL Deep Resistivity
RILM.Ohm-m                    : DIL Medium Resistivity
RLL3.Ohm-m                    : DIL Shallow Resistivity
GR.GAPI                       : Gamma Ray
~Parameter Information Block
~A  Depth        SP         RILD        RILM        RLL3         GR     
# ...
  1000.2500     27.7919     24.6626     30.9511     51.1329    139.7847
  1000.5000     27.5068     25.0036     31.2935     51.3449    137.3951
  1000.7500     27.1408     25.3377     31.6531     52.0627    135.4271
  1001.0000     26.8174     25.5657     32.0019     54.0965    130.8694
  1001.2500     26.5737     25.6315     32.2790     57.2452    126.6227
  1001.5000     26.3709     25.5365     32.4019     60.2044    120.3097
  1001.7500     26.1323     25.3186     32.2901     61.2524    118.0946
  1002.0000     25.7952     25.0183     31.8949     59.2536    120.4267
  1002.2500     25.3433     24.6627     31.2198     54.2868    125.9570
  1002.5000     24.8169     24.2733     30.3211     47.5097    138.2104
  1002.7500     24.2981     23.8810     29.2904     40.4549    147.1094
  1003.0000     23.8857     23.5323     28.2286     34.3064    158.5488
  1003.2500     23.6647     23.2769     27.2257     29.5916    164.0086
  1003.5000     23.6833     23.1469     26.3513     26.3182    169.1681
  1003.7500     23.9384     23.1451     25.6531     24.2948    171.0378
  1004.0000     24.3810     23.2471     25.1615     23.3700    171.2000
  1004.2500     24.9383     23.4161     24.8934     23.4965    168.8748
  1004.5000     25.5440     23.6193     24.8557     24.6854    161.5891
  1004.7500     26.1662     23.8313     25.0460     26.9534    155.2140
  1005.0000     26.8085     24.0272     25.4502     30.3128    145.6249
  1005.2500     27.4819     24.1720     26.0396     34.7761    139.8263
  1005.5000     28.1709     24.2264     26.7647     40.3123    131.8953
  1005.7500     28.8081     24.1604     27.5516     46.7455    127.1402
  1006.0000     29.2752     23.9687     28.3018     53.6716    121.6613
  1006.2500     29.4334     23.6643     28.8990     60.4907    119.6191
  1006.5000     29.1621     23.2630     29.2291     66.5466    118.6765
  1006.7500     28.3902     22.7733     29.2055     71.2373    118.5922
  1007.0000     27.1168     22.2006     28.7947     73.9963    117.8672
  1007.2500     25.4085     21.5627     28.0272     74.2337    117.0495
  1007.5000     23.3964     20.8954     26.9872     71.4428    117.2052
  1007.7500     21.2562     20.2433     25.7886     65.5233    119.4856
  1008.0000     19.1912     19.6403     24.5459     57.0914    126.6047
  1008.2500     17.4000     19.0993     23.3533     47.4644    132.9314
  1008.5000     16.0514     18.6123     22.2735     38.2378    142.7073
  1008.7500     15.2568     18.1637     21.3385     30.7068    148.4006
  1009.0000     15.0581     17.7422     20.5539     25.4847    154.1631
  1009.2500     15.4242     17.3471     19.9068     22.4912    155.4647
  1009.5000     16.2554     16.9863     19.3734     21.2177    153.8730
  1009.7500     17.3922     16.6728     18.9263     21.0470    151.6532
  1010.0000     18.6328     16.4228     18.5421     21.4628    148.9812
  1010.2500     19.7672     16.2577     18.2065     22.1056    148.1360
  1010.5000     20.6210     16.2037     17.9178     22.7334    147.2049
  1010.7500     21.1034     16.2883     17.6883     23.1663    146.0276
  1011.0000     21.2291     16.5306     17.5410     23.2806    143.8025
  1011.2500     21.1029     16.9325     17.5075     23.0696    143.0892
  1011.5000     20.8737     17.4735     17.6241     22.7668    144.1615
  1011.7500     20.6759     18.1128     17.9304     23.0167    145.5933
  1012.0000     20.5905     18.8032     18.4690     25.0926    146.3628
  1012.2500     20.6473     19.5126     19.2872     31.1278    144.7230
  1012.5000     20.8557     20.2410     20.4394     44.2249    137.7294
  1012.7500     21.2397     21.0253     21.9884     68.2025    129.6487
  1013.0000     21.8536     21.9290     24.0078    106.7511    112.6724
  1013.2500     22.7649     23.0261     26.5809    162.0628     99.0494
  1013.5000     24.0161     24.3858     29.7965    233.4862     77.5772
  1013.7500     25.5948     26.0618     33.7404    316.9604     63.9149
  1014.0000     27.4256     28.0814     38.4800    405.5919     46.0944
  1014.2500     29.3880     30.4298     44.0444    491.1350     36.6581
  1014.5000     31.3448     33.0283     50.3998    565.9186     26.7433
  1014.7500     33.1585     35.7199     57.4192    625.2415     22.9547
  1015.0000     34.6982     38.2874     64.8504    669.5129     21.1511
  1015.2500     35.8286     40.5304     72.2838    704.8870     22.1942
  1015.5000     36.4101     42.3526     79.1369    740.3175     26.0140
  1015.7500     36.3254     43.7974     84.7078    780.7307     29.0673
  1016.0000     35.5208     44.9845     88.3287    819.7054     32.8524
  1016.2500     34.0463     45.9990     89.5870    837.9003     34.6277
  1016.5000     32.0729     46.8156     88.5039    811.5267     37.5193
  1016.7500     29.8665     47.2936     85.5123    727.5400     41.1397
  1017.0000     27.7276     47.2407     81.2565    594.7114     51.7330
  1017.2500     25.9189     46.5139     76.3537    441.0815     62.8644
  1017.5000     24.6008     45.0960     71.2580    299.3052     84.0670
  1017.7500     23.8073     43.1247     66.2279    191.3266     98.9356
  1018.0000     23.4545     40.8407     61.3890    122.5450    118.2050
  1018.2500     23.3951     38.5056     56.7972     86.0536    127.6302
  1018.5000     23.4825     36.3239     52.4958     70.5004    136.3193
  1018.7500     23.6325     34.4046     48.5368     65.7338    138.9246
  1019.0000     23.8494     32.7664     44.9758     64.8256    139.2979
  1019.2500     24.2115     31.3703     41.8595     63.9145    138.3124
  1019.5000     24.8151     30.1613     39.2077     61.4265    137.0939
  1019.7500     25.7062     29.0991     37.0102     57.3098    137.0542
  1020.0000     26.8341     28.1641     35.2278     52.2560    137.8120
  1020.2500     28.0527     27.3425     33.7991     47.1546    138.6294
  1020.5000     29.1704     26.6073     32.6493     42.6200    140.8470
  1020.7500     30.0309     25.9169     31.6971     38.8755    143.4140
  1021.0000     30.5678     25.2341     30.8631     35.8786    148.8462
  1021.2500     30.8270     24.5531     30.0770     33.5130    153.1319
  1021.5000     30.9336     23.9088     29.2836     31.7014    159.9119
  1021.7500     31.0411     23.3598     28.4483     30.4127    164.2787
  1022.0000     31.2872     22.9574     27.5586     29.6148    169.7145
  1022.2500     31.7797     22.7231     26.6231     29.2223    172.1816
  1022.5000     32.5998     22.6417     25.6650     29.0686    174.3127
  1022.7500     33.8071     22.6712     24.7155     28.9225    175.2843
  1023.0000     35.4154     22.7610     23.8066     28.5614    177.1481
  1023.2500     37.3630     22.8690     22.9667     27.8730    178.8759
  1023.5000     39.4877     22.9718     22.2173     26.9131    181.5862
  1023.7500     41.5374     23.0633     21.5731     25.8730    182.8099
  1024.0000     43.2252     23.1428     21.0407     24.9734    183.1169
  1024.2500     44.3030     23.2046     20.6201     24.3587    182.5208
  1024.5000     44.6188     23.2310     20.3044     24.0556    181.3925
  1024.7500     44.1429     23.2002     20.0799     24.0088    180.9130
  1025.0000     42.9522     23.1025     19.9272     24.1528    180.5147
  1025.2500     41.2046     22.9528     19.8214     24.4660    179.8653
  1025.5000     39.1018     22.7836     19.7344     24.9697    176.8321
  1025.7500     36.8691     22.6194     19.6376     25.6754    172.9244
  1026.0000     34.7331     22.4481     19.5053     26.5235    165.0753
  1026.2500     32.8970     22.2077     19.3189     27.3658    160.0160
  1026.5000     31.5036     21.8069     19.0699     28.0113    155.3670
  1026.7500     30.6025     21.1730     18.7612     28.3067    154.7479
  1027.0000     30.1384     20.3016     18.4059     28.2011    156.2311
  1027.2500     29.9661     19.2708     18.0226     27.7577    157.6275
  1027.5000     29.8952     18.2091     17.6308     27.1136    159.1439
  1027.7500     29.7421     17.2433     17.2466     26.4154    159.7094
  1028.0000     29.3746     16.4599     16.8802     25.7576    160.1579
