~Version Information
VERS.                      2.0: CWLS Log ASCII Standard - VERSION 2.0
WRAP.                       NO: One line per depth step
~Well Information Block
STRT.FT               500.0000: 
STOP.FT              2732.5000: 
STEP.FT                 0.2500: 
NULL.                -999.2500: 
COMP.          Pioneer Natural Resources: COMPANY
WELL.          Dude Canyon 22-32: WELL
FLD.           Purgatoire River: FIELD
LOC.           1662' FNL & 2446' FWL----: LOCATION
PROV.                 Colorado: PROVINCE
CNTY.               Las Animas: COUNTRY
SRVC.                Patterson: SERVICE COMPANY
DATE.          Thu Mar 10 07:15:42 2005: LOG DATE
UWI.           05 071 08257 00: UNIQUE WELL ID
~Curve Information Block
DEPT.FT            0 000 00 00: Depth
DIR.Ohm-m                     : IEL Induction Resistivity
GR.GAPI                       : Gamma Ray
SN.Ohm-m                      : IEL Short Normal
SP.mV                         : IEL Spontaneous Potential
~Parameter Information Block
~A  Depth       DIR          GR          SN          SP     
# ...
   634.0000     18.9492    148.3811   2000.0000   2000.0000
   634.2500     19.4138    146.7187   2000.0000   2000.0000
   634.5000     19.9165    143.6048   2000.0000   2000.0000
   634.7500     20.4421    141.3755   2000.0000   2000.0000
   635.0000     20.9615    138.0559   2000.0000   2000.0000
   635.2500     21.4433    135.6972   2000.0000   2000.0000
   635.5000     21.8696    131.6358   2000.0000   2000.0000
   635.7500     22.2409    128.8131   2000.0000   2000.0000
   636.0000     22.5681    125.5940   2000.0000   2000.0000
   636.2500     22.8599    124.8359   2000.0000   2000.0000
   636.5000     23.1181    126.0740   2000.0000   2000.0000
   636.7500     23.3449    127.9598   2000.0000   2000.0000
   637.0000     23.5557    130.8081   2000.0000   2000.0000
   637.2500     23.7826    131.9305   2000.0000   2000.0000
   637.5000     24.0651    132.1012   2000.0000   2000.0000
   637.7500     24.4313    131.5978   2000.0000   2000.0000
   638.0000     24.8787    130.7792   2000.0000   2000.0000
   638.2500     25.3625    130.2922   2000.0000   2000.0000
   638.5000     25.7999    128.9991   2000.0000   2000.0000
   638.7500     26.0917    127.3255   2000.0000   2000.0000
   639.0000     26.1543    123.6102   2000.0000   2000.0000
   639.2500     25.9432    120.8484   2000.0000   2000.0000
   639.5000     25.4633    117.5892   2000.0000   2000.0000
   639.7500     24.7635    116.8059   2000.0000   2000.0000
   640.0000     23.9235    118.9791   2000.0000   2000.0000
   640.2500     23.0317    123.1117   2000.0000   2000.0000
   640.5000     22.1630    132.7656   2000.0000   2000.0000
   640.7500     21.3647    140.0734   2000.0000   2000.0000
   641.0000     20.6541    148.7094   2000.0000   2000.0000
   641.2500     20.0292    151.1748   2000.0000   2000.0000
   641.5000     19.4834    149.3842   2000.0000   2000.0000
   641.7500     19.0172    145.6408   2000.0000   2000.0000
   642.0000     18.6400    138.9731   2000.0000   2000.0000
   642.2500     18.3635    135.1051   2000.0000   2000.0000
   642.5000     18.1961    131.2994   2000.0000   2000.0000
   642.7500     18.1398    130.2417   2000.0000   2000.0000
   643.0000     18.1891    130.4937   2000.0000   2000.0000
   643.2500     18.3274    131.4754   2000.0000   2000.0000
   643.5000     18.5262    133.5936   2000.0000   2000.0000
   643.7500     18.7512    135.2760   2000.0000   2000.0000
   644.0000     18.9744    137.9193   2000.0000   2000.0000
   644.2500     19.1841    139.4338   2000.0000   2000.0000
   644.5000     19.3864    140.6740   2000.0000   2000.0000
   644.7500     19.5987    140.5443   2000.0000   2000.0000
   645.0000     19.8449    138.7516   2000.0000   2000.0000
   645.2500     20.1497    136.5950   2000.0000   2000.0000
   645.5000     20.5325    132.4342   2000.0000   2000.0000
   645.7500     20.9971    129.4282   2000.0000   2000.0000
   646.0000     21.5215    125.0857   2000.0000   2000.0000
   646.2500     22.0570    122.5059   2000.0000   2000.0000
   646.5000     22.5374    119.5009   2000.0000   2000.0000
   646.7500     22.8968    118.3633   2000.0000   2000.0000
   647.0000     23.0870    118.3811   2000.0000   2000.0000
   647.2500     23.0878    119.6350   2000.0000   2000.0000
   647.5000     22.9076    123.2596   2000.0000   2000.0000
   647.7500     22.5763    126.7318   2000.0000   2000.0000
   648.0000     22.1324    133.5202   2000.0000   2000.0000
   648.2500     21.6129    139.1160   2000.0000   2000.0000
   648.5000     21.0494    148.5985   2000.0000   2000.0000
   648.7500     20.4704    154.8207   2000.0000   2000.0000
   649.0000     19.9030    162.1447   2000.0000   2000.0000
   649.2500     19.3719    164.9409   2000.0000   2000.0000
   649.5000     18.8954    166.1393   2000.0000   2000.0000
   649.7500     18.4824    165.7003   2000.0000   2000.0000
   650.0000     18.1304    164.5454   2000.0000   2000.0000
   650.2500     17.8265    163.7838   2000.0000   2000.0000
   650.5000     17.5498    162.6010   2000.0000   2000.0000
   650.7500     17.2777    161.7960   2000.0000   2000.0000
   651.0000     16.9934    161.0597   2000.0000   2000.0000
   651.2500     16.6918    161.2836   2000.0000   2000.0000
   651.5000     16.3796    163.0199   2000.0000   2000.0000
   651.7500     16.0696    164.8757   2000.0000   2000.0000
   652.0000     15.7750    167.4960   2000.0000   2000.0000
   652.2500     15.5046    168.2156   2000.0000   2000.0000
   652.5000     15.2605    166.8571   2000.0000   2000.0000
   652.7500     15.0402    164.6169   2000.0000   2000.0000
   653.0000     14.8425    160.8022   2000.0000   2000.0000
   653.2500     14.6732    158.7829   2000.0000   2000.0000
   653.5000     14.5482    157.0270   2000.0000   2000.0000
   653.7500     14.4883    156.5817   2000.0000   2000.0000
   654.0000     14.5107    156.5803   2000.0000   2000.0000
   654.2500     14.6220    156.6304   2000.0000   2000.0000
   654.5000     14.8159    155.6747   2000.0000   2000.0000
   654.7500     15.0752    153.6288   2000.0000   2000.0000
   655.0000     15.3762    147.7067   2000.0000   2000.0000
   655.2500     15.6944    141.9653   2000.0000   2000.0000
   655.5000     16.0091    132.0364   2000.0000   2000.0000
   655.7500     16.3084    125.9472   2000.0000   2000.0000
   656.0000     16.5901    120.1126   2000.0000   2000.0000
   656.2500     16.8599    119.1991   2000.0000   2000.0000
   656.5000     17.1266    121.7792   2000.0000   2000.0000
   656.7500     17.3967    125.0148   2000.0000   2000.0000
   657.0000     17.6731    129.9086   2000.0000   2000.0000
   657.2500     17.9544    132.2916   2000.0000   2000.0000
   657.5000     18.2355    134.1720   2000.0000   2000.0000
   657.7500     18.5067    134.6023   2000.0000   2000.0000
   658.0000     18.7547    134.8154   2000.0000   2000.0000
   658.2500     18.9684    135.0785   2000.0000   2000.0000
   658.5000     19.1468    135.8835   2000.0000   2000.0000
   658.7500     19.3066    136.3469   2000.0000   2000.0000
   659.0000     19.4826    135.8107   2000.0000   2000.0000
   659.2500     19.7230    134.2808   2000.0000   2000.0000
   659.5000     20.0803    130.8435   2000.0000   2000.0000
   659.7500     20.6018    128.5403   2000.0000   2000.0000
   660.0000     21.3209    125.9055   2000.0000   2000.0000
   660.2500     22.2476    124.6379   2000.0000   2000.0000
   660.5000     23.3616    122.6325   2000.0000   2000.0000
   660.7500     24.6125    120.5573   2000.0000   2000.0000
   661.0000     25.9369    115.5548   2000.0000   2000.0000
   661.2500     27.2853    111.0756   2000.0000   2000.0000
   661.5000     28.6425    103.7897   2000.0000   2000.0000
   661.7500     30.0185     99.3015   2000.0000   2000.0000
   662.0000     31.4118     93.8013   2000.0000   2000.0000
   662.2500     32.7772     91.0837   2000.0000   2000.0000
   662.5000     34.0258     88.7123   2000.0000   2000.0000
   662.7500     35.0583     88.4982   2000.0000   2000.0000
   663.0000     35.7974     90.3326   2000.0000   2000.0000
   663.2500     36.1908     92.6777   2000.0000   2000.0000
   663.5000     36.1966     96.7707   2000.0000   2000.0000
   663.7500     35.7938     99.2674   2000.0000   2000.0000
   664.0000     35.0205    102.4758   2000.0000   2000.0000
   664.2500     33.9921    104.6801   2000.0000   2000.0000
   664.5000     32.8632    108.8084   2000.0000   2000.0000
   664.7500     31.7636    112.0383   2000.0000   2000.0000
   665.0000     30.7607    116.7415   2000.0000   2000.0000
   665.2500     29.8656    119.3385   2000.0000   2000.0000
   665.5000     29.0605    122.2817   2000.0000   2000.0000
   665.7500     28.3239    123.7380   2000.0000   2000.0000
   666.0000     27.6436    125.3271   2000.0000   2000.0000
   666.2500     27.0181    126.0390   2000.0000   2000.0000
   666.5000     26.4518    126.6598   2000.0000   2000.0000
   666.7500     25.9516    126.7339   2000.0000   2000.0000
   667.0000     25.5289    126.0722   2000.0000   2000.0000
   667.2500     25.2041    125.0053   2000.0000   2000.0000
