~Version Information
VERS.                      2.0: CWLS Log ASCII Standard - VERSION 2.0
WRAP.                       NO: One line per depth step
~Well Information Block
STRT.FT                -4.2500: 
STOP.FT              2218.5000: 
STEP.FT                 0.2500: 
NULL.                -999.2500: 
COMP.          Pioneer Natural Resources: COMPANY
WELL.             Warrior 32-1: WELL
FLD.           Purgatorie River: FIELD
LOC.           2624' FNL & 2392' FEL--: LOCATION
PROV.                       CO: PROVINCE
CNTY.               Las Animas: COUNTRY
SRVC.                         : SERVICE COMPANY
DATE.          Tue Oct 12 10:54:12 2004: LOG DATE
UWI.           005 071 08176 : UNIQUE WELL ID
~Curve Information Block
DEPT.FT            0 000 00 00: Depth
GR.GAPI                       : Gamma Ray
CCL.                          : Casing Collar Locator
TT3.usec                      : CBL 3' Travel Time
AMP3.mV                       : CBL 3' Amplitude
~Parameter Information Block
~A  Depth        GR         CCL         TT3         AMP3    
# ...
   431.2500    169.2050      0.0000    764.3225      7.8176
   431.5000    168.1926      0.0000    760.7194      7.7260
   431.7500    165.5471      0.0000    756.5353      7.5781
   432.0000    162.1819      0.0000    753.8287      7.3767
   432.2500    158.0206      0.0000    754.6310      7.1280
   432.5000    152.2860      0.0000    759.5060      6.8155
   432.7500    144.7914      0.0000    767.8221      6.4199
   433.0000    136.4995      0.0000    779.2736      5.9793
   433.2500    128.5966      0.0000    794.1903      5.6044
   433.5000    121.3929      0.0000    812.0225      5.3937
   433.7500    114.3852      0.0000    830.2028      5.3384
   434.0000    107.0817      0.0000    844.8715      5.3517
   434.2500     99.4246      0.0000    852.7327      5.3786
   434.5000     91.8389      0.0000    853.0150      5.4279
   434.7500     85.5175      0.0000    848.1802      5.5104
   435.0000     82.3891      2.0000    841.9873      5.5924
   435.2500     83.8959      0.0000    836.7367      5.6194
   435.5000     89.5220      0.0000    832.7173      5.5726
   435.7500     96.8677      0.0000    828.8087      5.5074
   436.0000    103.3284      0.0000    822.6752      5.5295
   436.2500    107.8531      0.0000    812.3643      5.7033
   436.5000    111.4558      0.0000    798.8790      5.9857
   436.7500    116.1761      0.0000    785.9180      6.2798
   437.0000    123.1609      0.0000    776.6390      6.5308
   437.2500    131.4619      0.0000    771.5824      6.7283
   437.5000    138.7425      0.0000    769.4418      6.8511
   437.7500    142.9951      0.0000    768.7219      6.8763
   438.0000    143.6583      0.0000    768.5264      6.8301
   438.2500    141.7794      0.0000    768.4997      6.7814
   438.5000    139.3828      0.0000    768.5341      6.7824
   438.7500    137.8671      0.0000    768.5806      6.8339
   439.0000    136.6838      0.0000    768.6104      6.9038
   439.2500    134.1027      0.0000    768.6196      6.9592
   439.5000    129.3071      0.0000    768.6262      6.9808
   439.7500    123.4191      0.0000    768.6466      6.9611
   440.0000    118.7422      0.0000    768.6774      6.9016
   440.2500    117.2196      0.0000    768.6996      6.8174
   440.5000    119.1938      0.0000    768.6909      6.7449
   440.7500    123.2793      0.0000    768.6362      6.7325
   441.0000    127.4896      0.0000    768.5377      6.8114
   441.2500    130.4807      0.0000    768.4213      6.9696
   441.5000    131.8000      0.0000    768.3231      7.1555
   441.7500    131.5049      0.0000    768.2588      7.3054
   442.0000    129.9680      0.0000    768.2086      7.3767
   442.2500    127.9198      0.0000    768.1323      7.3695
   442.5000    126.3737      0.0000    767.9980      7.3261
   442.7500    126.1646      0.0000    767.7985      7.3003
   443.0000    127.3916      0.0000    767.5505      7.3208
   443.2500    129.4458      0.0000    767.2861      7.3815
   443.5000    131.5043      0.0000    767.0389      7.4611
   443.7500    132.6875      0.0000    766.8294      7.5466
   444.0000    132.2228      0.0000    766.6661      7.6374
   444.2500    130.2392      0.0000    766.5598      7.7354
   444.5000    128.0000      0.0000    766.5258      7.8321
   444.7500    126.4810      0.0000    766.5634      7.9067
   445.0000    125.1883      0.0000    766.6433      7.9410
   445.2500    123.2573      0.0000    766.7280      7.9366
   445.5000    121.1985      0.0000    766.7991      7.9137
   445.7500    120.5355      0.0000    766.8602      7.8888
   446.0000    121.8689      0.0000    766.9119      7.8572
   446.2500    124.0227      0.0000    766.9322      7.8045
   446.5000    125.2229      0.0000    766.8835      7.7359
   446.7500    124.8467      0.0000    766.7421      7.6892
   447.0000    123.8051      0.0000    766.5233      7.7104
   447.2500    123.4190      0.0000    766.2805      7.8169
   447.5000    124.2825      0.0000    766.0738      7.9827
   447.7500    125.9200      0.0000    765.9315      8.1668
   448.0000    126.9407      0.0000    765.8501      8.3569
   448.2500    125.7726      0.0000    765.8270      8.5785
   448.5000    121.8708      0.0000    765.8725      8.8525
   448.7500    116.1908      0.0000    765.9835      9.1561
   449.0000    110.4155      0.0000    766.1235      9.4366
   449.2500    105.9587      0.0000    766.2429      9.6481
   449.5000    103.7008      0.0000    766.3184      9.7615
   449.7500    104.1288      0.0000    766.3661      9.7683
   450.0000    107.0578      0.0000    766.4120      9.7025
   450.2500    111.1977      0.0000    766.4558      9.6407
   450.5000    114.8142      0.0000    766.4766      9.6502
   450.7500    117.3638      0.0000    766.4702      9.7448
   451.0000    119.9230      0.0000    766.4611      9.8942
   451.2500    123.5210      0.0000    766.4696     10.0556
   451.5000    127.6059      0.0000    766.4882     10.1891
   451.7500    130.5950      0.0000    766.4952     10.2664
   452.0000    131.4371      0.0000    766.4791     10.2823
   452.2500    130.4349      0.0000    766.4417     10.2484
   452.5000    128.9478      0.0000    766.3931     10.1720
   452.7500    128.3057      0.0000    766.3560     10.0507
   453.0000    128.6902      0.0000    766.3599      9.8941
   453.2500    129.2502      0.0000    766.4090      9.7402
   453.5000    129.4199      0.0000    766.4615      9.6393
   453.7500    129.5504      0.0000    766.4603      9.6240
   454.0000    130.0635      0.0000    766.3887      9.6978
   454.2500    130.6409      0.0000    766.2863      9.8442
   454.5000    130.6606      0.0000    766.2123     10.0346
   454.7500    130.0922      0.0000    766.2101     10.2290
   455.0000    129.7062      0.0000    766.3141     10.3858
   455.2500    130.4534      0.0000    766.5922     10.4883
   455.5000    132.5380      0.0000    767.2085     10.5604
   455.7500    134.9293      0.0000    768.4883     10.6435
   456.0000    135.8860      0.0000    770.8846     10.7537
   456.2500    134.1644      0.0000    774.6000     10.8718
   456.5000    129.8327      0.0000    778.9193     10.9701
   456.7500    124.1750      0.0000    782.0752     11.0360
   457.0000    119.1595      0.0000    782.3807     11.0714
   457.2500    116.8790      0.0000    779.7211     11.0863
   457.5000    118.7076      0.0000    775.6276     11.0959
   457.7500    124.1684      0.0000    771.8593     11.1103
   458.0000    130.5332      0.0000    769.2206     11.1189
   458.2500    134.3026      0.0000    767.6228     11.0897
   458.5000    133.9229      0.0000    766.7495     10.9831
   458.7500    131.0882      0.0000    766.4319     10.7745
   459.0000    128.8754      0.0000    766.5886     10.4791
   459.2500    128.4075      0.0000    767.0593     10.1631
   459.5000    127.7821      0.0000    767.6002      9.9115
   459.7500    124.5107      0.0000    768.0196      9.7679
   460.0000    118.3419      0.0000    768.2974      9.7084
   460.2500    111.0499      0.0000    768.6107      9.6775
   460.5000    104.2382      0.0000    769.3120      9.6444
   460.7500     98.5566      0.0000    770.7698      9.6165
   461.0000     94.7624      0.0000    772.9586      9.6081
   461.2500     94.1313      0.0000    775.0945      9.6125
   461.5000     97.3421      0.0000    775.9695      9.6085
   461.7500    103.4865      0.0000    774.9672      9.5875
   462.0000    110.5218      0.0000    772.6406      9.5598
   462.2500    116.7610      0.0000    770.1375      9.5377
   462.5000    121.8555      0.0000    768.2629      9.5193
   462.7500    126.1098      0.0000    767.2030      9.4931
   463.0000    129.1781      0.0000    766.8095      9.4610
   463.2500    130.1036      0.0000    766.8522      9.4522
   463.5000    128.4636      0.0000    767.0818      9.5086
   463.7500    124.8568      0.0000    767.2643      9.6479
   464.0000    120.4733      0.0000    767.2440      9.8407
   464.2500    116.5280      0.0000    766.9835     10.0258
   464.5000    113.7160      0.0000    766.5618     10.1507
