~Version Information
VERS.                      2.0: CWLS Log ASCII Standard - VERSION 2.0
WRAP.                       NO: One line per depth step
~Well Information Block
STRT.FT                -7.5000: 
STOP.FT               872.5000: 
STEP.FT                 0.5000: 
NULL.                -999.2500: 
COMP.          Pioneer Natural Resources: COMPANY
WELL.          New Mexico 21-5: WELL
FLD.           Purgatorie River: FIELD
LOC.           175' FNL & 1700' FWL: LOCATION
PROV.                 Colorado: PROVINCE
CNTY.               Las Animas: COUNTRY
SRVC.          Patterson Wireline: SERVICE COMPANY
DATE.          Fri Dec 17 09:32:01 2004: LOG DATE
UWI.           05-071-08234-00: UNIQUE WELL ID
~Curve Information Block
DEPT.FT            0 000 00 00: Depth
CCL.                          : Casing Collar Locator
TT3.usec                      : CBL 3' Travel Time
AMP3.mV                       : CBL 3' Amplitude
GR.GAPI                       : Gamma Ray
~Parameter Information Block
~A  Depth       CCL         TT3         AMP3         GR     
# ...
   662.5000      0.0000    432.3126      5.5252    118.4716
   663.0000      0.0000    404.7018      5.5641    103.8657
   663.5000      0.0000    395.6628      5.8666    100.4538
   664.0000      0.0000    394.9299      6.1821    105.1989
   664.5000      0.0000    395.8333      6.1457    107.1431
   665.0000      0.0000    396.5155      6.1391    103.3637
   665.5000      0.0000    397.2347      6.6816     97.6745
   666.0000      0.0000    399.1218      7.3731     86.9552
   666.5000      0.0000    410.1902      7.6591     76.4884
   667.0000      0.0000    460.8208      7.4818     73.5798
   667.5000      0.0000    547.9203      7.0841     76.2529
   668.0000      0.0000    580.9774      6.6992     77.5022
   668.5000      0.0000    589.2111      6.3874     68.3933
   669.0000      0.0000    650.9405      5.9749     55.3248
   669.5000      0.0000    714.2704      5.2615     54.0981
   670.0000      0.0000    754.4330      4.6959     61.3148
   670.5000      0.0000    761.0741      4.7873     66.2220
   671.0000      0.0000    740.8652      5.0433     70.9375
   671.5000      0.0000    727.9976      5.2138     79.0391
   672.0000      0.0000    726.5115      5.5235     84.1478
   672.5000      0.0000    714.7192      5.7732     82.9571
   673.0000      0.0000    688.7101      5.8322     84.8191
   673.5000      0.0000    675.3565      6.0114     83.9282
   674.0000      0.0000    674.3460      6.2928     75.7601
   674.5000      0.0000    680.4619      6.4894     69.3881
   675.0000      0.0000    687.7025      6.5523     66.4671
   675.5000      0.0000    677.8063      6.4723     65.1288
   676.0000      0.0000    668.5457      6.1684     63.1747
   676.5000      0.0000    683.3032      5.7116     64.4335
   677.0000      0.0000    695.9077      5.3036     64.9906
   677.5000      0.0000    694.7230      4.9935     57.2764
   678.0000      0.0000    693.7585      4.8115     52.8641
   678.5000      0.0000    696.1772      4.6797     54.1432
   679.0000      0.0000    696.2758      4.5471     54.8809
   679.5000      0.0000    694.9388      4.5664     57.2492
   680.0000      0.0000    693.7825      4.7258     56.9682
   680.5000      0.0000    694.3937      4.8732     48.9232
   681.0000      0.0000    698.7325      4.8540     39.8350
   681.5000      0.0000    703.7569      4.6441     36.9681
   682.0000      0.0000    705.5320      4.5473     37.4244
   682.5000      0.0000    702.6287      4.9617     39.0926
   683.0000      0.0000    693.9780      5.9996     44.9063
   683.5000      0.0000    661.7368      7.5517     54.9592
   684.0000      0.0000    566.1833      9.3462     65.7646
   684.5000      0.0000    445.0263     10.7764     70.2682
   685.0000      0.0000    393.4350     11.2230     65.4961
   685.5000      0.0000    453.7202     10.6656     58.6822
   686.0000      0.0000    593.0785      9.6012     52.1992
   686.5000      0.0000    685.8569      8.6781     48.3575
   687.0000      0.0000    704.5056      8.2434     46.7767
   687.5000      0.0000    701.4265      8.1831     43.7166
   688.0000      0.0000    673.7667      8.1972     41.6349
   688.5000      0.0000    591.6357      7.9898     41.3899
   689.0000      0.0000    527.1326      7.4190     36.8798
   689.5000      0.0000    578.5840      6.6006     35.0969
   690.0000      0.0000    665.7758      6.0639     50.7566
   690.5000      0.0000    716.1791      6.1845     85.7348
   691.0000      0.0000    745.0283      6.5870    125.1656
   691.5000      0.0000    750.3908      6.5996    152.3313
   692.0000      0.0000    755.1064      6.2201    160.4557
   692.5000      0.0000    777.4610      6.0775    153.2472
   693.0000      0.0000    789.9918      6.1547    148.2594
   693.5000      0.0000    783.7303      6.1316    151.0610
   694.0000      0.0000    772.7595      6.2822    150.9969
   694.5000      0.0000    776.6982      6.6367    144.7500
   695.0000      0.0000    799.8835      6.7451    141.5008
   695.5000      0.0000    821.1742      6.7455    140.6632
   696.0000      0.0000    820.8188      6.9466    139.0523
   696.5000      0.0000    814.1192      7.0384    139.9061
   697.0000      0.0000    815.4355      7.0402    135.5961
   697.5000      0.0000    816.5615      7.3373    122.6274
   698.0000      0.0000    815.4261      7.6475    107.8002
   698.5000      0.0000    803.9128      7.6140     96.0210
   699.0000      0.0000    779.9508      7.6064     83.6795
   699.5000      0.0000    762.7150      7.7216     68.8962
   700.0000      0.0000    743.1852      7.4990     60.0554
   700.5000      0.0000    706.5876      7.1136     56.6493
   701.0000      0.0000    676.9304      6.9747     51.0893
   701.5000      0.0000    669.1775      6.8414     40.2662
   702.0000      0.0000    702.7956      6.8120     34.2573
   702.5000      0.0000    761.1312      6.9409     43.9956
   703.0000      0.0000    792.6642      6.8157     63.3047
   703.5000      0.0000    798.2684      6.6661     72.6860
   704.0000      0.0000    797.7201      6.5482     68.0651
   704.5000      0.0000    796.7868      6.2473     63.4361
   705.0000      0.0000    795.6108      6.0191     64.3403
   705.5000      0.0000    794.3074      5.8217     67.2790
   706.0000      0.0000    793.4151      5.6821     62.1175
   706.5000      0.0000    790.2263      5.6838     48.3699
   707.0000      0.0000    773.0020      5.6142     38.1090
   707.5000      0.0000    739.0303      5.5620     33.9165
   708.0000      0.0000    724.9435      5.6618     31.8761
   708.5000      0.0000    759.9875      5.7628     33.5452
   709.0000      0.0000    808.1984      5.9867     38.0382
   709.5000      0.0000    817.8019      6.3237     41.0640
   710.0000      0.0000    788.0970      6.2715     49.3079
   710.5000      0.0000    765.5676      6.0248     63.7496
   711.0000      0.0000    785.7606      5.9727     75.1298
   711.5000      0.0000    813.5468      5.5887     88.8028
   712.0000      0.0000    819.2055      4.8643    106.8026
   712.5000      0.0000    809.7767      4.3287    117.8970
   713.0000      0.0000    815.9825      3.7252    115.7229
   713.5000      0.0000    830.6290      3.0740     99.4335
   714.0000      0.0000    837.8398      2.7228     84.8778
   714.5000      0.0000    838.9596      2.5966     77.1025
   715.0000      0.0000    817.9975      2.7113     69.7527
   715.5000      0.0000    794.2754      3.2871     70.9456
   716.0000      0.0000    781.1971      4.3179     81.9682
   716.5000      0.0000    762.8666      5.7122     95.2624
   717.0000      0.0000    746.5833      7.5642    101.7295
   717.5000      0.0000    741.4303      9.5855    107.9975
   718.0000      0.0000    749.0483     10.7141    113.1440
   718.5000      0.0000    756.6599     10.3578    103.0665
   719.0000      0.0000    766.3662      9.1071     86.9302
   719.5000      0.0000    787.8207      8.0410     80.9062
   720.0000      0.0000    794.1469      7.4454     81.2735
   720.5000      0.0000    785.7461      7.1699     81.8059
   721.0000      0.0000    780.1389      6.9956     84.0092
   721.5000      0.0000    760.9467      6.7686     89.9552
   722.0000      0.0000    720.9160      6.5399     91.9745
   722.5000      0.0000    698.0188      6.3467     91.7976
   723.0000      0.0000    718.6517      6.2795     93.8421
   723.5000      0.0000    742.0121      6.1827     93.1049
   724.0000      0.0000    732.3057      6.0800     89.5081
   724.5000      0.0000    724.7771      6.0006     85.4816
   725.0000      0.0000    739.0946      5.9873     82.9798
   725.5000      0.0000    772.2509      6.0393     81.5810
   726.0000      0.0000    801.8342      6.1180     83.9661
   726.5000      0.0000    803.6449      6.1323     87.8099
   727.0000      0.0000    790.7788      6.0115     90.9608
   727.5000      0.0000    779.6409      5.7940     93.9845
   728.0000      0.0000    776.4426      5.7042     91.8059
   728.5000      0.0000    784.9136      5.8907     86.3514
   729.0000      0.0000    793.5961      6.1993     77.4742
