~Version Information
VERS.                      2.0: CWLS Log ASCII Standard - VERSION 2.0
WRAP.                       NO: One line per depth step
~Well Information Block
STRT.FT                -2.5000: 
STOP.FT              2329.5000: 
STEP.FT                 0.2500: 
NULL.                -999.2500: 
COMP.          Pioneer Natural Resources: COMPANY
WELL.              Whinny 42-2: WELL
FLD.           Purgatorie River: FIELD
LOC.           1836' FNL & 466' FEL--: LOCATION
PROV.                       CO: PROVINCE
CNTY.               Las Animas: COUNTRY
SRVC.          Patterson Wireline: SERVICE COMPANY
DATE.          Mon Aug 29 13:18:04 2005: LOG DATE
UWI.           05 071 08406 00: UNIQUE WELL ID
~Curve Information Block
DEPT.FT            0 000 00 00: Depth
CCL.                          : Casing Collar Locator
TT3.usec                      : CBL 3' Travel Time
AMP3.mV                       : CBL 3' Amplitude
GR.GAPI                       : Gamma Ray
~Parameter Information Block
~A  Depth       CCL         TT3         AMP3         GR     
# ...
   165.0000      0.0000    718.3583      5.8337     83.0974
   165.2500      0.0000    716.4633      5.5001     85.0953
   165.5000      0.0000    731.3971      5.1569     86.0351
   165.7500      0.0000    770.6728      4.9265     84.8275
   166.0000      0.0000    831.4230      4.8562     81.3320
   166.2500      0.0000    897.0432      4.9089     76.7048
   166.5000      0.0000    944.5029      5.0145     72.7664
   166.7500      0.0000    961.1808      5.1196     70.8840
   167.0000     -2.0000    954.8041      5.2041     71.4607
   167.2500      0.0000    942.1845      5.2709     74.1519
   167.5000      0.0000    928.7129      5.3264     78.1710
   167.7500      0.0000    903.3038      5.3711     82.4619
   168.0000      0.0000    853.8343      5.4091     85.9417
   168.2500      0.0000    784.0093      5.4681     87.8253
   168.5000      0.0000    713.8024      5.5947     87.7738
   168.7500      0.0000    664.5608      5.8102     85.8147
   169.0000      0.0000    644.5356      6.0730     82.3310
   169.2500      0.0000    647.1922      6.3050     78.1948
   169.5000      0.0000    659.3491      6.4541     74.5837
   169.7500      0.0000    669.5069      6.5199     72.2958
   170.0000      0.0000    671.8925      6.5290     71.2530
   170.2500      0.0000    666.6743      6.5053     70.8136
   170.5000      0.0000    658.0714      6.4654     70.4072
   170.7500      0.0000    651.6733      6.4247     69.7952
   171.0000      0.0000    651.5834      6.3948     69.0038
   171.2500      0.0000    658.2264      6.3762     68.3176
   171.5000      0.0000    668.8676      6.3607     68.0955
   171.7500      0.0000    680.1057      6.3428     68.2115
   172.0000      0.0000    689.4270      6.3263     67.8563
   172.2500      0.0000    694.9309      6.3161     66.2900
   172.5000      0.0000    695.5207      6.3099     63.6364
   172.7500      0.0000    691.9377      6.2993     60.6646
   173.0000      0.0000    686.6570      6.2773     57.9252
   173.2500      0.0000    682.0679      6.2450     55.3416
   173.5000      0.0000    678.9229      6.2102     52.6178
   173.7500      0.0000    676.3971      6.1811     49.8943
   174.0000      0.0000    673.2248      6.1596     47.8667
   174.2500      0.0000    668.9968      6.1417     47.2148
   174.5000      0.0000    664.8463      6.1241     47.9090
   174.7500      0.0000    662.6246      6.1094     49.0572
   175.0000      0.0000    662.7818      6.1051     49.4800
   175.2500      0.0000    663.2933      6.1169     48.6728
   175.5000      0.0000    661.3439      6.1446     47.2583
   175.7500      0.0000    655.9445      6.1838     46.3796
   176.0000      0.0000    648.3873      6.2283     46.6456
   176.2500      0.0000    640.5673      6.2731     47.7974
   176.5000      0.0000    634.0364      6.3153     49.3432
   176.7500      0.0000    630.9047      6.3550     51.2354
   177.0000      0.0000    633.9098      6.3930     53.7452
   177.2500      0.0000    643.6506      6.4278     56.9434
   177.5000      0.0000    655.7934      6.4563     60.8677
   177.7500      0.0000    662.7514      6.4774     66.1875
   178.0000      0.0000    659.4361      6.4941     73.7615
   178.2500      0.0000    647.1805      6.5111     82.9377
   178.5000      0.0000    631.8708      6.5313     90.9086
   178.7500      0.0000    619.0889      6.5549     94.5163
   179.0000      0.0000    611.2970      6.5798     92.6446
   179.2500      0.0000    608.4155      6.6025     86.7831
   179.5000      0.0000    609.5856      6.6211     79.6467
   179.7500      0.0000    613.8260      6.6385     73.3786
   180.0000      0.0000    619.4332      6.6600     68.6518
   180.2500      0.0000    623.8482      6.6894     65.1446
   180.5000      0.0000    625.2366      6.7230     62.6229
   180.7500      0.0000    624.3527      6.7499     61.2572
   181.0000      0.0000    623.9622      6.7576     61.0336
   181.2500      0.0000    626.0054      6.7399     61.4406
   181.5000      0.0000    629.8157      6.7023     61.7383
   181.7500      0.0000    633.2720      6.6607     61.1381
   182.0000      0.0000    634.8986      6.6299     58.9563
   182.2500      0.0000    634.5577      6.6108     55.1711
   182.5000      0.0000    633.2559      6.5917     50.8323
   182.7500      0.0000    633.0790      6.5631     47.5402
   183.0000      0.0000    636.4072      6.5292     46.3349
   183.2500      0.0000    644.1349      6.5061     47.0681
   183.5000      0.0000    654.6013      6.5088     48.6791
   183.7500      0.0000    664.3939      6.5402     49.9845
   184.0000      0.0000    670.4221      6.5882     50.4304
   184.2500      0.0000    671.9085      6.6343     50.3524
   184.5000      0.0000    670.5494      6.6673     50.4573
   184.7500      0.0000    668.3786      6.6899     50.9419
   185.0000      0.0000    665.7773      6.7107     51.2184
   185.2500      0.0000    661.9280      6.7308     50.5938
   185.5000      0.0000    656.4319      6.7415     49.1138
   185.7500      0.0000    649.8375      6.7376     47.5973
   186.0000      0.0000    643.1720      6.7264     46.8865
   186.2500      0.0000    637.4899      6.7192     47.2477
   186.5000      0.0000    633.4976      6.7144     48.3173
   186.7500      0.0000    631.2365      6.6955     49.1997
   187.0000      0.0000    630.1833      6.6475     48.8185
   187.2500      0.0000    629.6613      6.5737     46.8282
   187.5000      0.0000    629.1112      6.4946     44.2507
   187.7500      0.0000    628.1705      6.4320     42.7463
   188.0000      0.0000    626.8036      6.3957     43.1237
   188.2500      0.0000    625.4610      6.3839     44.7972
   188.5000      0.0000    624.8646      6.3902     46.6831
   188.7500      0.0000    625.3894      6.4073     48.2867
   189.0000      0.0000    626.7076      6.4254     49.6767
   189.2500      0.0000    628.1808      6.4329     50.5941
   189.5000      0.0000    629.5052      6.4222     50.1120
   189.7500      0.0000    630.8334      6.3969     47.5091
   190.0000      0.0000    632.3108      6.3715     43.3296
   190.2500      0.0000    633.6169      6.3627     39.3227
   190.5000      0.0000    634.1017      6.3777     37.2879
   190.7500      0.0000    633.4475      6.4095     37.9271
   191.0000      0.0000    632.0667      6.4439     40.5072
   191.2500      0.0000    630.7318      6.4692     43.3823
   191.5000      0.0000    629.9686      6.4795     45.0790
   191.7500      0.0000    629.9376      6.4744     45.2921
   192.0000      0.0000    630.7430      6.4598     44.9180
   192.2500      0.0000    632.5638      6.4513     45.0284
   192.5000      0.0000    635.2562      6.4711     45.8445
   192.7500      0.0000    637.8625      6.5341     46.6492
   193.0000      0.0000    638.9394      6.6321     46.3987
   193.2500      0.0000    637.7689      6.7343     44.3904
   193.5000      0.0000    635.0874      6.8090     40.7568
   193.7500      0.0000    632.3573      6.8466     36.6004
   194.0000      0.0000    630.5311      6.8633     33.5210
   194.2500      0.0000    629.6696      6.8834     32.8008
   194.5000      0.0000    629.3885      6.9197     34.8301
   194.7500      0.0000    629.3297      6.9671     38.9891
   195.0000      0.0000    629.3077      7.0126     43.8841
   195.2500      0.0000    629.2670      7.0481     47.8610
   195.5000      0.0000    629.2150      7.0751     49.6299
   195.7500      0.0000    629.1710      7.0953     48.7823
   196.0000      0.0000    629.1503      7.1015     46.0557
   196.2500      0.0000    629.1611      7.0812     43.0820
   196.5000      0.0000    629.2040      7.0317     41.4417
   196.7500      0.0000    629.2674      6.9686     41.6586
   197.0000      0.0000    629.3317      6.9176     43.1195
   197.2500      0.0000    629.3829      6.8988     44.8771
   197.5000      0.0000    629.4205      6.9152     46.3258
   197.7500      0.0000    629.4562      6.9541     47.2230
   198.0000      0.0000    629.5027      6.9985     47.5800
   198.2500      0.0000    629.5648      7.0400     47.8142
