~Version Information
 VERS.                                  2.0 : CWLS LAS VERSION
 WRAP.                                   NO : WRAPING MODE
 SWARE .                 MController 2.5.0J : SOFTWARE VERSION
~Well Information
 WELL.              Cock-A-Doodle-Doo 44-27 : WELL
 COMP.      Pioneer Natural Resources, Inc. : COMPANY
 FLD.                      Purgatoire River : FIELD
 LOC.                SE/SE Sec.27 T32S R67W : LOCATION
 DATE.                              6/30/05 : DATE(S) LOGGED
 SRVC.       BLANCO Geological Services LLC : SERVICE COMPANY
 STAT.                                   CO : STATE
 CNTY.                           Las Animas : COUNTY
 CTRY.                                  USA : COUNTRY
 API.                             071 08429 : API NUMBER
 STRT.FT                             394.00 : START DEPTH
 STOP.FT                            2540.00 : STOP DEPTH
 STEP.FT                               1.00 : DEPTH INCREMENT
 NULL.                                -9999 : NULL VALUE
~Curve information
 DEPTH.FT                                   :
 ROP.MIN/FT                                 :
 GAS.UNITS                                  :
~ASCII Log data
# ...
      2194.0         0.30        551.4 
      2195.0         0.23        517.0 
      2196.0         0.27        497.8 
      2197.0         0.27        476.6 
      2198.0         0.30        455.3 
      2199.0         0.30        440.0 
      2200.0         0.32        227.5 
      2201.0         0.27        228.1 
      2202.0         0.30        228.0 
      2203.0         0.33        222.8 
      2204.0         0.23        213.8 
      2205.0         0.27        208.9 
      2206.0         0.27        205.8 
      2207.0         0.27        203.3 
      2208.0         0.27        198.0 
      2209.0         0.27        191.0 
      2210.0         0.33        186.1 
      2211.0         0.27        183.9 
      2212.0         0.32        183.0 
      2213.0         0.30        184.7 
      2214.0         0.30        186.2 
      2215.0         0.23        186.2 
      2216.0         5.90       1298.6 
      2217.0         0.63        821.2 
      2218.0         0.40        623.8 
      2219.0         0.23        538.2 
      2220.0         0.20        501.5 
      2221.0         0.23        474.5 
      2222.0         0.23        452.6 
      2223.0         0.23        443.2 
      2224.0         0.20        440.0 
      2225.0         0.23        232.2 
      2226.0         0.20        230.9 
      2227.0         0.17        229.1 
      2228.0         0.15        226.5 
      2229.0         0.17        223.9 
      2230.0         0.17        219.9 
      2231.0         0.20        214.0 
      2232.0         0.20        204.2 
      2233.0         0.17        192.9 
      2234.0         0.17        184.5 
      2235.0         0.17        180.8 
      2236.0         0.20        191.2 
      2237.0         0.20        204.1 
      2238.0         0.20        210.3 
      2239.0         0.20        210.5 
      2240.0         0.20        211.9 
      2241.0         0.23        218.9 
      2242.0         0.23        221.7 
      2243.0         0.27        221.5 
      2244.0         0.27        221.8 
      2245.0         0.25        223.3 
      2246.0         1.80        224.5 
      2247.0         0.33        171.9 
      2248.0         0.37        225.8 
      2249.0         0.37        291.8 
      2250.0         0.35        364.8 
      2251.0         0.43        412.6 
      2252.0         0.20        412.9 
      2253.0         0.40        404.5 
      2254.0         0.33        356.8 
      2255.0         0.30        282.6 
      2256.0         0.33        237.5 
      2257.0         0.27        221.7 
      2258.0         0.27        226.9 
      2259.0         0.30        229.8 
      2260.0         0.27        229.4 
      2261.0         0.25        225.9 
      2262.0         0.20        221.0 
      2263.0         0.23        216.8 
      2264.0         0.37        211.7 
      2265.0         0.33        205.8 
      2266.0         0.23        202.2 
      2267.0         0.23        198.7 
      2268.0         0.20        192.5 
      2269.0         0.27        186.7 
      2270.0         0.23        188.4 
      2271.0         0.27        193.2 
      2272.0         0.23        195.8 
      2273.0         0.27        195.9 
      2274.0         0.25        195.1 
      2275.0         0.23        195.1 
      2276.0         2.93        214.9 
      2277.0         0.52        256.6 
      2278.0         0.50        400.4 
      2279.0         0.37        462.5 
      2280.0         0.17        465.0 
      2281.0         0.13        461.8 
      2282.0         0.27        450.5 
      2283.0         0.27        415.6 
      2284.0         0.27        373.5 
      2285.0         0.23        321.5 
      2286.0         0.20        288.7 
      2287.0         0.23        278.3 
      2288.0         0.35        271.7 
      2289.0         0.30        261.3 
      2290.0         0.27        249.8 
      2291.0         0.30        239.7 
      2292.0         0.27        229.9 
      2293.0         0.20        225.0 
      2294.0         0.23        223.0 
      2295.0         0.27        220.2 
      2296.0         0.20        214.6 
      2297.0         0.20        207.1 
      2298.0         0.30        199.5 
      2299.0         0.23        197.5 
      2300.0         0.30        196.6 
      2301.0         0.35        194.9 
      2302.0         0.27        198.6 
      2303.0         0.30        199.9 
      2304.0         0.23        200.1 
      2305.0         0.33        200.0 
      2306.0         1.33        201.2 
      2307.0         0.33        130.5 
      2308.0         0.27        139.4 
      2309.0         0.32        169.5 
      2310.0         0.57        292.0 
      2311.0         0.40        388.3 
      2312.0         0.33        414.8 
      2313.0         0.50        414.0 
      2314.0         0.20        368.5 
      2315.0         0.20        345.6 
      2316.0         0.17        321.0 
      2317.0         0.23        301.0 
      2318.0         0.27        277.1 
      2319.0         0.23        264.2 
      2320.0         0.25        255.9 
      2321.0         0.27        247.2 
      2322.0         0.30        237.1 
      2323.0         0.30        225.2 
      2324.0         0.17        213.9 
      2325.0         0.40        208.6 
      2326.0         0.40        200.6 
      2327.0         0.40        192.9 
      2328.0         0.37        188.2 
      2329.0         0.37        191.9 
      2330.0         0.35        196.4 
      2331.0         0.30        198.0 
      2332.0         0.33        198.3 
      2333.0         0.33        196.7 
      2334.0         0.30        193.9 
      2335.0         0.47        191.1 
      2336.0         1.75        194.4 
      2337.0         0.33        133.3 
      2338.0         0.57        226.5 
      2339.0         0.27        300.8 
      2340.0         0.30        378.4 
      2341.0         0.30        419.9 
      2342.0         0.23        424.1 
      2343.0         0.17        419.0 
      2344.0         0.27        405.8 
      2345.0         0.23        379.0 
      2346.0         0.23        357.8 
      2347.0         0.25        334.5 
      2348.0         0.27        312.8 
      2349.0         0.23        296.3 
      2350.0         0.23        282.3 
      2351.0         0.13        269.7 
      2352.0         0.20        263.7 
      2353.0         0.30        255.1 
      2354.0         0.33        243.3 
      2355.0         0.30        226.1 
      2356.0         0.23        217.3 
      2357.0         0.27        216.4 
      2358.0         0.23        219.0 
      2359.0         0.20        221.5 
      2360.0         0.20        223.7 
      2361.0         0.15        224.6 
      2362.0         0.27        225.3 
      2363.0         0.23        225.0 
      2364.0         0.23        223.0 
      2365.0         0.27        218.7 
      2366.0         2.62        218.5 
      2367.0         0.97        318.7 
      2368.0         0.57        463.7 
      2369.0         0.47       1086.0 
      2370.0         0.47       1131.5 
      2371.0         0.47       1103.6 
      2372.0         0.45        947.6 
      2373.0         0.30        783.8 
      2374.0         0.17        688.5 
      2375.0         0.20        648.7 
      2376.0         0.23        607.3 
      2377.0         0.30        561.8 
      2378.0         0.23        503.5 
      2379.0         0.27        451.0 
      2380.0         0.20        440.0 
      2381.0         0.23        206.4 
      2382.0         0.27        203.7 
      2383.0         0.23        198.6 
      2384.0         0.23        191.7 
      2385.0         0.22        184.0 
      2386.0         0.20        180.1 
      2387.0         0.20        179.6 
      2388.0         0.20        179.8 
      2389.0         0.23        180.8 
      2390.0         0.23        184.5 
      2391.0         0.27        192.6 
      2392.0         0.27        202.0 
      2393.0         0.20        208.8 
