~Version Information
VERS.                      2.0: CWLS Log ASCII Standard - VERSION 2.0
WRAP.                       NO: One line per depth step
~Well Information Block
STRT.FT               955.2500: 
STOP.FT              2226.0000: 
STEP.FT                 0.2500: 
NULL.                -999.2500: 
COMP.          Petrogulf Corporation: COMPANY
WELL.             Burson 8-13R: WELL
FLD.           Purgatorie River: FIELD
LOC.           1045' FNL & 2189' FEL: LOCATION
CNTY.               Las Animas: COUNTY
SRVC.                         : SERVICE COMPANY
DATE.          Fri Apr 30 04:52:15 2004: LOG DATE
UWI.           05 071 08039 00: UNIQUE WELL ID
STAT.                 Colorado: STATE
~Curve Information Block
DEPT.FT            0 000 00 00: Depth
SP.mV                         : DIL Spontaneous Potential
RILD.Ohm-m                    : DIL Deep Resistivity
RILM.Ohm-m                    : DIL Medium Resistivity
RLL3.Ohm-m                    : DIL Shallow Resistivity
~Parameter Information Block
~A  Depth        SP         RILD        RILM        RLL3    
# ...
  1625.2500    122.2738     19.0524     22.9971     47.7995
  1625.5000    122.2758     19.0053     22.9249     48.1944
  1625.7500    122.2802     19.0201     22.6991     48.2252
  1626.0000    122.2900     19.1380     22.4318     48.1932
  1626.2500    122.2995     19.3774     22.2383     48.3086
  1626.5000    122.2974     19.7198     22.2113     48.6457
  1626.7500    122.2780     20.1172     22.4117     49.2193
  1627.0000    122.2493     20.5148     22.8634     50.0963
  1627.2500    122.2273     20.8719     23.5444     51.3842
  1627.5000    122.2236     21.1681     24.3786     53.0463
  1627.7500    122.2404     21.3965     25.2394     54.7225
  1628.0000    122.2774     21.5569     25.9821     55.8343
  1628.2500    122.3366     21.6562     26.4997     56.0129
  1628.5000    122.4195     21.7102     26.7712     55.4830
  1628.7500    122.5201     21.7404     26.8652     54.9792
  1629.0000    122.6259     21.7664     26.8954     55.2395
  1629.2500    122.7261     21.7993     26.9606     56.5172
  1629.5000    122.8174     21.8397     27.0988     58.4477
  1629.7500    122.9027     21.8801     27.2712     60.2682
  1630.0000    122.9870     21.9091     27.3839     61.2146
  1630.2500    123.0770     21.9176     27.3495     60.8946
  1630.5000    123.1820     21.9068     27.1570     59.4646
  1630.7500    123.3111     21.8977     26.8873     57.5040
  1631.0000    123.4631     21.9262     26.6604     55.6679
  1631.2500    123.6188     22.0186     26.5654     54.3763
  1631.5000    123.7446     22.1613     26.6277     53.7683
  1631.7500    123.8058     22.2906     26.8166     53.8521
  1632.0000    123.7802     22.3250     27.0721     54.5824
  1632.2500    123.6634     22.2221     27.3332     55.7666
  1632.5000    123.4657     22.0121     27.5561     57.0083
  1632.7500    123.2079     21.7755     27.7165     57.8760
  1633.0000    122.9154     21.5893     27.7982     58.1681
  1633.2500    122.6172     21.4894     27.7885     57.9911
  1633.5000    122.3468     21.4674     27.6881     57.5801
  1633.7500    122.1402     21.4912     27.5260     57.0883
  1634.0000    122.0227     21.5305     27.3533     56.5625
  1634.2500    121.9920     21.5722     27.2189     56.0536
  1634.5000    122.0148     21.6217     27.1461     55.6709
  1634.7500    122.0436     21.6924     27.1260     55.5338
  1635.0000    122.0419     21.7963     27.1252     55.7189
  1635.2500    122.0000     21.9379     27.1028     56.2431
  1635.5000    121.9307     22.1127     27.0263     57.0522
  1635.7500    121.8536     22.3082     26.8829     58.0125
  1636.0000    121.7813     22.5082     26.6780     58.9382
  1636.2500    121.7167     22.7007     26.4313     59.6459
  1636.5000    121.6557     22.8851     26.1754     60.0189
  1636.7500    121.5912     23.0725     25.9532     60.0814
  1637.0000    121.5164     23.2765     25.8041     60.0542
  1637.2500    121.4285     23.4955     25.7433     60.3080
  1637.5000    121.3303     23.6988     25.7522     61.1814
  1637.7500    121.2319     23.8355     25.7887     62.7496
  1638.0000    121.1504     23.8695     25.8096     64.7048
  1638.2500    121.1040     23.8163     25.7926     66.4532
  1638.5000    121.1012     23.7381     25.7486     67.3949
  1638.7500    121.1327     23.6918     25.7188     67.2292
  1639.0000    121.1744     23.6728     25.7551     66.0837
  1639.2500    121.2022     23.6005     25.8879     64.3944
  1639.5000    121.2068     23.3602     26.0950     62.7207
  1639.7500    121.1971     22.8690     26.2857     61.7128
  1640.0000    121.1905     22.1161     26.3106     62.1388
  1640.2500    121.1994     21.1538     25.9981     64.6360
  1640.5000    121.2232     20.0627     25.2103     69.0804
  1640.7500    121.2526     18.9259     23.9080     73.9625
  1641.0000    121.2824     17.8164     22.1853     76.4647
  1641.2500    121.3241     16.7899     20.2405     73.6843
  1641.5000    121.4017     15.8783     18.2953     64.5167
  1641.7500    121.5321     15.0880     16.5215     50.7452
  1642.0000    121.7048     14.4029     15.0119     36.1542
  1642.2500    121.8821     13.7912     13.7886     24.2525
  1642.5000    122.0149     13.2167     12.8257     16.5602
  1642.7500    122.0608     12.6506     12.0725     12.6438
  1643.0000    121.9958     12.0807     11.4723     11.2348
  1643.2500    121.8244     11.5123     10.9758     11.1504
  1643.5000    121.5808     10.9621     10.5459     11.5719
  1643.7500    121.3196     10.4507     10.1577     12.0065
  1644.0000    121.0950      9.9960      9.7962     12.2328
  1644.2500    120.9394      9.6102      9.4561     12.2286
  1644.5000    120.8519      9.2979      9.1408     12.0468
  1644.7500    120.8031      9.0554      8.8594     11.7187
  1645.0000    120.7551      8.8731      8.6218     11.2539
  1645.2500    120.6836      8.7377      8.4338     10.6903
  1645.5000    120.5904      8.6360      8.2946     10.1073
  1645.7500    120.4996      8.5564      8.1976      9.5967
  1646.0000    120.4411      8.4904      8.1329      9.2353
  1646.2500    120.4342      8.4316      8.0895      9.0758
  1646.5000    120.4800      8.3752      8.0567      9.1370
  1646.7500    120.5657      8.3168      8.0253      9.3845
  1647.0000    120.6707      8.2528      7.9901      9.7258
  1647.2500    120.7718      8.1826      7.9532     10.0405
  1647.5000    120.8471      8.1094      7.9239     10.2316
  1647.7500    120.8822      8.0407      7.9142     10.2626
  1648.0000    120.8748      7.9842      7.9331     10.1623
  1648.2500    120.8353      7.9461      7.9832     10.0116
  1648.5000    120.7820      7.9291      8.0613      9.9229
  1648.7500    120.7307      7.9327      8.1609     10.0086
  1649.0000    120.6834      7.9530      8.2739     10.3339
  1649.2500    120.6294      7.9841      8.3921     10.8773
  1649.5000    120.5597      8.0200      8.5062     11.5299
  1649.7500    120.4792      8.0571      8.6064     12.1333
  1650.0000    120.4027      8.0954      8.6839     12.5266
  1650.2500    120.3415      8.1363      8.7350     12.5864
  1650.5000    120.2963      8.1792      8.7638     12.2768
  1650.7500    120.2599      8.2180      8.7815     11.7204
  1651.0000    120.2234      8.2424      8.8012     11.2390
  1651.2500    120.1808      8.2433      8.8296     11.2440
  1651.5000    120.1272      8.2209      8.8630     11.9392
  1651.7500    120.0583      8.1881      8.8885     13.0519
  1652.0000    119.9708      8.1656      8.8908     13.9352
  1652.2500    119.8667      8.1727      8.8635     14.0488
  1652.5000    119.7564      8.2194      8.8161     13.3698
  1652.7500    119.6582      8.3060      8.7730     12.3368
  1653.0000    119.5916      8.4260      8.7642     11.4643
  1653.2500    119.5677      8.5711      8.8158     11.0409
  1653.5000    119.5828      8.7344      8.9431     11.1086
  1653.7500    119.6221      8.9118      9.1508     11.6128
  1654.0000    119.6704      9.1035      9.4352     12.5256
  1654.2500    119.7237      9.3148      9.7888     13.8325
  1654.5000    119.7910      9.5569     10.2041     15.4464
  1654.7500    119.8868      9.8426     10.6768     17.2038
  1655.0000    120.0183     10.1809     11.2062     18.9871
  1655.2500    120.1771     10.5704     11.7892     20.8242
  1655.5000    120.3383     10.9964     12.4129     22.8182
  1655.7500    120.4695     11.4358     13.0517     24.9658
  1656.0000    120.5483     11.8661     13.6757     27.0616
  1656.2500    120.5757     12.2742     14.2647     28.8062
  1656.5000    120.5739     12.6561     14.8135     30.0460
  1656.7500    120.5699     13.0103     15.3221     30.9248
  1657.0000    120.5796     13.3300     15.7786     31.7571
  1657.2500    120.6039     13.6030     16.1543     32.6736
  1657.5000    120.6368     13.8171     16.4151     33.3783
  1657.7500    120.6728     13.9695     16.5416     33.3186
  1658.0000    120.7094     14.0700     16.5390     32.1429
  1658.2500    120.7456     14.1339     16.4341     29.9679
  1658.5000    120.7806     14.1684     16.2635     27.1931
