~Version Information
VERS.                      2.0: CWLS Log ASCII Standard - VERSION 2.0
WRAP.                       NO: One line per depth step
~Well Information Block
STRT.FT               954.0000: 
STOP.FT              2517.0000: 
STEP.FT                 0.2500: 
NULL.                -999.2500: 
COMP.          Petrogulf Corporation: COMPANY
WELL.             Royal 8-33 V: WELL
FLD.           Purgatoire River: FIELD
LOC.           2365' FSL & 2336' FEL: LOCATION
PROV.                 Colorado: PROVINCE
CNTY.               Las Animas: COUNTRY
SRVC.                Patterson: SERVICE COMPANY
DATE.          Fri Dec 05 04:39:41 2003: LOG DATE
UWI.                          : UNIQUE WELL ID
~Curve Information Block
DEPT.FT            0 000 00 00: Depth
SP.mV                         : DIL Spontaneous Potential
RILD.Ohm-m                    : DIL Deep Resistivity
RILM.Ohm-m                    : DIL Medium Resistivity
RLL3.Ohm-m                    : DIL Shallow Resistivity
GR.GAPI                       : Gamma Ray
~Parameter Information Block
~A  Depth        SP         RILD        RILM        RLL3         GR     
# ...
  1794.0000   -121.6581     38.4298     45.0443     53.0644     80.0839
  1794.2500   -121.7449     39.0963     45.9920     49.0690     81.4103
  1794.5000   -121.4699     40.0163     46.9998     47.4466     84.8295
  1794.7500   -120.8171     41.2123     48.0000     48.2283     87.3179
  1795.0000   -119.8991     42.6538     48.9944     50.8295     90.1606
  1795.2500   -118.9147     44.2233     50.1033     54.6269     91.0131
  1795.5000   -118.0922     45.7264     51.5714     59.3786     90.6128
  1795.7500   -117.6272     46.9725     53.7055     65.0392     89.4258
  1796.0000   -117.6224     47.8672     56.7553     71.0167     86.5638
  1796.2500   -118.0551     48.4043     60.7758     75.8179     84.0203
  1796.5000   -118.7965     48.5524     65.5268     77.9380     79.5806
  1796.7500   -119.6786     48.1666     70.4802     77.3544     76.5158
  1797.0000   -120.5705     47.0483     74.9548     75.8874     72.0118
  1797.2500   -121.4215     45.1150     78.2075     75.7938     68.9054
  1797.5000   -122.2475     42.4879     79.3016     78.0533     63.7212
  1797.7500   -123.0745     39.4093     77.0425     82.0228     59.9530
  1798.0000   -123.8871     36.1184     70.6646     86.2878     54.3431
  1798.2500   -124.6285     32.8199     60.9689     89.2788     51.0308
  1798.5000   -125.2512     29.7075     50.1930     89.1734     47.4809
  1798.7500   -125.7648     26.9492     40.4396     84.0881     46.6255
  1799.0000   -126.2362     24.6362     32.6797     73.2952     48.7156
  1799.2500   -126.7530     22.7570     26.9547     58.4560     52.9144
  1799.5000   -127.3918     21.2199     22.9151     43.1644     63.7637
  1799.7500   -128.1987     19.9031     20.1459     30.8142     73.6405
  1800.0000   -129.1686     18.7045     18.2838     22.7886     90.4942
  1800.2500   -130.2303     17.5709     17.0436     18.4642    101.3655
  1800.5000   -131.2641     16.4973     16.2199     16.4328    114.1731
  1800.7500   -132.1502     15.5045     15.6811     15.5415    119.3916
  1801.0000   -132.8165     14.6120     15.3476     15.2001    122.3531
  1801.2500   -133.2606     13.8252     15.1592     15.2593    121.9003
  1801.5000   -133.5422     13.1390     15.0481     15.8021    119.3487
  1801.7500   -133.7567     12.5489     14.9392     16.9119    117.2600
  1802.0000   -133.9908     12.0558     14.7695     18.4313    114.3040
  1802.2500   -134.2736     11.6610     14.5056     19.8600    112.5906
  1802.5000   -134.5571     11.3590     14.1468     20.5667    110.9438
  1802.7500   -134.7445     11.1353     13.7193     20.2063    111.0917
  1803.0000   -134.7371     10.9725     13.2705     18.9477    113.8054
  1803.2500   -134.4687     10.8562     12.8589     17.3003    116.7524
  1803.5000   -133.9226     10.7770     12.5341     15.7656    120.7682
  1803.7500   -133.1325     10.7279     12.3194     14.6286    122.1220
  1804.0000   -132.1722     10.6997     12.2066     13.9403    122.0211
  1804.2500   -131.1442     10.6796     12.1651     13.5970    121.3423
  1804.5000   -130.1747     10.6511     12.1598     13.4548    121.1025
  1804.7500   -129.4035     10.5982     12.1651     13.4285    122.0582
  1805.0000   -128.9509     10.5105     12.1715     13.5176    125.2750
  1805.2500   -128.8709     10.3872     12.1807     13.7527    128.2374
  1805.5000   -129.1234     10.2367     12.1948     14.1261    132.7070
  1805.7500   -129.5904     10.0721     12.2049     14.5704    134.8518
  1806.0000   -130.1291      9.9072     12.1904     14.9916    135.8161
  1806.2500   -130.6245      9.7573     12.1271     15.3134    135.0585
  1806.5000   -131.0159      9.6404     11.9989     15.4894    133.1800
  1806.7500   -131.2895      9.5774     11.8052     15.4843    132.3322
  1807.0000   -131.4537      9.5877     11.5648     15.2553    132.0676
  1807.2500   -131.5202      9.6837     11.3175     14.7697    132.0207
  1807.5000   -131.4988      9.8673     11.1195     14.0587    131.2040
  1807.7500   -131.4004     10.1292     11.0302     13.2558    130.3081
  1808.0000   -131.2441     10.4496     11.0982     12.5669    129.3326
  1808.2500   -131.0609     10.8018     11.3538     12.2041    128.8933
  1808.5000   -130.8873     11.1570     11.8120     12.3793    127.2326
  1808.7500   -130.7460     11.4892     12.4775     13.3894    124.8046
  1809.0000   -130.6256     11.7774     13.3456     15.6968    119.1177
  1809.2500   -130.4692     12.0064     14.3909     19.8355    114.0400
  1809.5000   -130.1839     12.1677     15.5456     26.0492    104.3483
  1809.7500   -129.6741     12.2608     16.6831     33.8010     96.8534
  1810.0000   -128.8882     12.2923     17.6279     41.5604     86.0924
  1810.2500   -127.8610     12.2675     18.2095     47.2363     80.6276
  1810.5000   -126.7366     12.1822     18.3327     49.1247     76.1772
  1810.7500   -125.7497     12.0261     18.0170     46.7380     75.6491
  1811.0000   -125.1524     11.8030     17.3786     40.9558     78.0141
  1811.2500   -125.1091     11.5512     16.5764     33.5021     81.3556
  1811.5000   -125.6198     11.3363     15.7571     26.1751     88.0130
  1811.7500   -126.5164     11.2162     15.0234     20.2449     92.7312
  1812.0000   -127.5198     11.2085     14.4300     16.2166     99.0440
  1812.2500   -128.3387     11.2827     13.9964     13.9437    102.3936
  1812.5000   -128.7786     11.3796     13.7231     12.9339    105.9891
  1812.7500   -128.8065     11.4450     13.6031     12.6602    107.4567
  1813.0000   -128.5367     11.4524     13.6289     12.7836    108.3048
  1813.2500   -128.1576     11.3980     13.7928     13.2569    107.9935
  1813.5000   -127.8475     11.2814     14.0756     14.2892    106.3826
  1813.7500   -127.7049     11.0948     14.4227     16.1764    104.7489
  1814.0000   -127.7098     10.8289     14.7149     19.0629    101.8310
  1814.2500   -127.7390     10.4898     14.7735     22.7104     99.6581
  1814.5000   -127.6386     10.1114     14.4487     26.3562     95.9084
  1814.7500   -127.3054      9.7522     13.7491     28.8324     93.0932
  1815.0000   -126.7135      9.4732     12.8580     29.1009     89.3266
  1815.2500   -125.8811      9.3128     11.9914     26.9538     88.1433
  1815.5000   -124.8347      9.2781     11.2684     23.2356     89.6511
  1815.7500   -123.6233      9.3554     10.7000     19.2823     92.7463
  1816.0000   -122.3556      9.5335     10.2556     16.1071     99.2281
  1816.2500   -121.2035      9.8205      9.9280     14.0536    103.9827
  1816.5000   -120.3518     10.2358      9.7473     12.9967    110.9181
  1816.7500   -119.9293     10.7793      9.7452     12.6644    115.1163
  1817.0000   -119.9794     11.3929      9.9104     12.7888    120.3014
  1817.2500   -120.4903     11.9481     10.1700     13.1396    122.7871
  1817.5000   -121.4336     12.2992     10.4116     13.5552    125.1599
  1817.7500   -122.7550     12.3881     10.5442     13.9584    126.3223
  1818.0000   -124.3377     12.2911     10.5554     14.3049    128.4886
  1818.2500   -126.0049     12.1439     10.5096     14.5271    130.3661
  1818.5000   -127.5734     12.0425     10.5005     14.5928    132.8106
  1818.7500   -128.9141     12.0195     10.6062     14.7233    133.2336
  1819.0000   -129.9779     12.0884     10.8748     15.6944    130.8560
  1819.2500   -130.7892     12.2902     11.3409     18.9675    126.9897
  1819.5000   -131.4263     12.6966     12.0673     26.2465    117.7407
  1819.7500   -131.9908     13.3662     13.1954     38.1316    109.4356
  1820.0000   -132.5682     14.2746     14.9813     52.4069     94.7232
  1820.2500   -133.1901     15.2463     17.7979     63.8533     84.6777
  1820.5000   -133.8294     15.9575     22.0692     67.0974     72.5770
  1820.7500   -134.4222     16.1101     28.0061     60.7007     68.4379
  1821.0000   -134.8837     15.6776     35.0267     48.3021     69.7320
  1821.2500   -135.1128     14.9223     41.3398     35.5224     75.0770
  1821.5000   -135.0274     14.1632     44.7954     26.0944     87.2427
  1821.7500   -134.6301     13.5955     44.4815     20.7181     96.5062
