~Version Information
VERS.                      2.0: CWLS Log ASCII Standard - VERSION 2.0
WRAP.                       NO: One line per depth step
~Well Information Block
STRT.FT               460.0000: 
STOP.FT               961.2000: 
STEP.FT                 0.1000: 
NULL.                -999.2500: 
COMP.          Pioneer Natural Resources: COMPANY
WELL.                Pug 33-19: WELL
FLD.           Purgatoire River: FIELD
LOC.           1381' FSL & 2140' FEL: LOCATION
PROV.                 Colorado: PROVINCE
CNTY.               Las Animas: COUNTRY
SRVC.                Patterson: SERVICE COMPANY
DATE.          Wed Dec 15 07:19:20 2004: LOG DATE
UWI.           05 071 08193 00: UNIQUE WELL ID
~Curve Information Block
DEPT.FT            0 000 00 00: Depth
DCAL.in                       : CDL Caliper
RHOB.g/cc                     : CDL Bulk Density
RHOC.g/cc                     : CDL Density Correction
DPOR.pu                       : CDL Density Porosity
NPOR.pu                       : Neutron Porosity
GR.GAPI                       : Gamma Ray
~Parameter Information Block
~A  Depth       DCAL        RHOB        RHOC        DPOR        NPOR         GR     
# ...
   652.0000      7.9145      2.5370      0.0640      6.8506     20.0793     94.9131
   652.1000      7.9145      2.5508      0.0816      6.0129     19.9131     90.8445
   652.2000      7.9145      2.5608      0.0619      5.4063     20.5056     88.1639
   652.3000      7.9137      2.5654      0.0863      5.1247     21.3880     89.1838
   652.4000      7.9137      2.5634      0.0842      5.2466     21.8011     89.9740
   652.5000      7.9144      2.5522      0.0626      5.9288     21.7547     90.1538
   652.6000      7.9144      2.5331      0.0582      7.0858     21.4313     95.5375
   652.7000      7.9144      2.5157      0.0459      8.1395     20.9307    104.6653
   652.8000      7.9157      2.5136      0.0591      8.2665     20.4650    107.9622
   652.9000      7.9157      2.5284      0.0544      7.3725     20.1721    103.7449
   653.0000      7.9161      2.5488      0.0826      6.1311     20.2458     97.8301
   653.1000      7.9161      2.5606      0.0999      5.4199     20.5314     91.1546
   653.2000      7.9161      2.5583      0.0874      5.5599     20.4714     85.9106
   653.3000      7.9147      2.5486      0.0864      6.1431     20.1723     86.7241
   653.4000      7.9147      2.5366      0.0922      6.8714     19.9809     90.9777
   653.5000      7.9138      2.5202      0.0771      7.8653     19.8670     92.6667
   653.6000      7.9138      2.5022      0.0338      8.9552     19.9298     91.7121
   653.7000      7.9138      2.4925      0.0387      9.5477     20.1594     92.3475
   653.8000      7.9144      2.4958      0.0152      9.3474     20.6145     94.4917
   653.9000      7.9144      2.5118      0.0475      8.3771     21.5865     98.1556
   654.0000      7.9150      2.5298      0.0767      7.2861     22.6283    104.6032
   654.1000      7.9150      2.5322      0.0826      7.1422     22.8409    109.3850
   654.2000      7.9150      2.5171      0.0460      8.0552     22.3505    109.3045
   654.3000      7.9171      2.4952      0.0674      9.3822     22.0479    107.6366
   654.4000      7.9171      2.4734      0.0406     10.7012     22.3749    109.6200
   654.5000      7.9198      2.4548      0.0144     11.8331     22.8760    113.8506
   654.6000      7.9198      2.4420      0.0184     12.6046     22.8897    115.0918
   654.7000      7.9198      2.4427      0.0188     12.5629     22.4331    114.1993
   654.8000      7.9199      2.4660      0.0119     11.1502     21.7513    112.3095
   654.9000      7.9199      2.5029      0.0925      8.9123     21.0607    107.5500
   655.0000      7.9188      2.5306      0.0810      7.2382     20.5933     96.8279
   655.1000      7.9188      2.5445      0.0907      6.3967     20.4232     84.6779
   655.2000      7.9188      2.5544      0.0885      5.7957     20.3478     79.6440
   655.3000      7.9164      2.5656      0.1042      5.1180     20.3407     78.2412
   655.4000      7.9164      2.5755      0.1079      4.5181     20.4231     74.7797
   655.5000      7.9135      2.5759      0.1008      4.4925     20.3779     72.5047
   655.6000      7.9135      2.5672      0.0729      5.0207     20.5171     76.7888
   655.7000      7.9135      2.5624      0.0524      5.3089     21.1706     85.2707
   655.8000      7.9125      2.5650      0.0497      5.1495     21.8619     88.9192
   655.9000      7.9125      2.5603      0.0958      5.4376     22.2286     86.0110
   656.0000      7.9146      2.5366      0.0706      6.8752     22.3652     84.8585
   656.1000      7.9146      2.5071      0.0252      8.6582     22.5227     90.0811
   656.2000      7.9146      2.4927      0.0206      9.5330     22.6896     95.0785
   656.3000      7.9173      2.4911      0.0473      9.6311     22.4489     94.0126
   656.4000      7.9173      2.4880      0.0319      9.8175     21.8718     92.3372
   656.5000      7.9173      2.4884      0.0363      9.7916     21.4670     97.0069
   656.6000      7.9173      2.5105      0.0518      8.4520     21.6149    106.5922
   656.7000      7.9173      2.5502      0.0775      6.0475     22.4545    114.9225
   656.8000      7.9160      2.5787      0.1131      4.3221     23.2964    117.6063
   656.9000      7.9160      2.5789      0.0953      4.3092     23.2243    113.7444
   657.0000      7.9134      2.5658      0.0409      5.1015     22.8396    106.2852
   657.1000      7.9134      2.5574      0.0649      5.6102     23.0161     99.4100
   657.2000      7.9134      2.5514      0.0588      5.9776     23.5891     94.4291
   657.3000      7.9105      2.5457      0.0322      6.3223     24.2352     90.6963
   657.4000      7.9105      2.5402      0.1007      6.6526     24.7486     89.9837
   657.5000      7.9111      2.5253      0.0862      7.5587     24.8461     94.8575
   657.6000      7.9111      2.5043      0.0144      8.8296     24.9503    103.3009
   657.7000      7.9111      2.4909      0.0490      9.6394     25.8241    112.3510
   657.8000      7.9144      2.4784      0.0369     10.3989     27.0586    117.7616
   657.9000      7.9144      2.4501      0.0540     12.1152     27.9042    115.3303
   658.0000      7.9217      2.4069      0.0367     14.7342     28.5768    109.0888
   658.1000      7.9217      2.3648      0.0316     17.2873     29.1957    109.5034
   658.2000      7.9217      2.3316      0.0314     19.2958     29.3497    117.0011
   658.3000      7.9345      2.3056      0.0043     20.8708     28.9015    121.8235
   658.4000      7.9345      2.2941     -0.0032     21.5718     28.0691    120.4553
   658.5000      7.9466      2.3073      0.0093     20.7696     27.6031    115.3703
   658.6000      7.9466      2.3329      0.0689     19.2161     27.9115    112.0420
   658.7000      7.9466      2.3470      0.0844     18.3651     28.3232    113.1805
   658.8000      7.9604      2.3496      0.0665     18.2050     28.3153    113.5792
   658.9000      7.9604      2.3600      0.0800     17.5763     28.2091    111.0098
   659.0000      7.9705      2.3861      0.1075     15.9930     28.1811    110.4892
   659.1000      7.9705      2.4165      0.1325     14.1510     27.9518    114.8920
   659.2000      7.9705      2.4370      0.1059     12.9112     27.3602    118.0406
   659.3000      7.9589      2.4440      0.0929     12.4825     26.5463    118.3298
   659.4000      7.9589      2.4397      0.0449     12.7465     25.7905    122.8993
   659.5000      7.9328      2.4263      0.0214     13.5601     25.6863    127.5518
   659.6000      7.9328      2.4132     -0.0087     14.3501     26.4994    124.1375
   659.7000      7.9328      2.4126      0.0045     14.3886     27.4706    120.1807
   659.8000      7.9100      2.4197      0.0589     13.9576     27.8951    122.6471
   659.9000      7.9100      2.4211      0.0319     13.8752     28.1056    126.0599
   660.0000      7.8938      2.4183      0.0090     14.0440     28.2933    126.0201
   660.1000      7.8938      2.4187      0.0467     14.0164     28.3094    125.5116
   660.2000      7.8938      2.4176      0.0341     14.0844     28.4195    126.5103
   660.3000      7.8856      2.4082      0.0583     14.6555     28.8102    122.2607
   660.4000      7.8856      2.3926      0.0327     15.5970     29.3004    111.0637
   660.5000      7.8834      2.3801      0.0331     16.3572     29.4389    104.1361
   660.6000      7.8834      2.3781      0.0360     16.4777     29.0324    105.9836
   660.7000      7.8834      2.3811      0.0437     16.2998     28.6281    109.7432
   660.8000      7.8844      2.3785      0.0480     16.4526     28.5289    112.5456
   660.9000      7.8844      2.3729      0.0405     16.7955     28.7073    116.6149
   661.0000      7.8853      2.3709      0.0501     16.9156     29.1177    120.6476
   661.1000      7.8853      2.3761      0.0333     16.5977     29.3435    123.7613
   661.2000      7.8853      2.3890      0.0201     15.8197     28.7863    126.5136
   661.3000      7.8840      2.4051      0.0673     14.8397     27.7588    127.0802
   661.4000      7.8840      2.4230      0.0496     13.7548     27.1926    127.3851
   661.5000      7.8828      2.4439      0.0942     12.4889     27.0639    127.6386
