~Version Information
VERS.                      2.0: CWLS Log ASCII Standard - VERSION 2.0
WRAP.                       NO: One line per depth step
~Well Information Block
STRT.FT                 3.5000: 
STOP.FT              1971.5000: 
STEP.FT                 0.2500: 
NULL.                -999.2500: 
COMP.          Evergreen Operating Corporation: COMPANY
WELL.          McCullough 34-32 Tr: WELL
FLD.           Purgatorie River: FIELD
LOC.           394' FSL & 2077' FEL: LOCATION
PROV.                 Colorado: PROVINCE
CNTY.               Las Animas: COUNTRY
SRVC.                         : SERVICE COMPANY
DATE.          Fri Sep 24 11:00:22 2004: LOG DATE
UWI.           05 071 08157 00: UNIQUE WELL ID
~Curve Information Block
DEPT.FT            0 000 00 00: Depth
GR.GAPI                       : Gamma Ray
CCL.                          : Casing Collar Locator
TT3.usec                      : CBL 3' Travel Time
AMP3.mV                       : CBL 3' Amplitude
~Parameter Information Block
~A  Depth        GR         CCL         TT3         AMP3    
# ...
   640.0000    122.3768      0.0000    717.7397      9.0575
   640.2500    128.1786      0.0000    722.0816      9.0313
   640.5000    135.6966      0.0000    725.9484      8.9853
   640.7500    142.7182      0.0000    726.5735      8.9001
   641.0000    146.4051      0.0000    723.5950      8.7474
   641.2500    145.2591      0.0000    719.3937      8.5223
   641.5000    140.3395      0.0000    716.4628      8.2737
   641.7500    134.6146      0.0000    715.3961      8.0821
   642.0000    131.0381      0.0000    714.9691      8.0015
   642.2500    130.9984      0.0000    713.3357      8.0214
   642.5000    133.9956      0.0000    709.5198      8.0838
   642.7500    138.0592      0.0000    704.1201      8.1372
   643.0000    140.6227      0.0000    698.2672      8.1758
   643.2500    140.0800      0.0000    692.0139      8.2205
   643.5000    137.0972      0.0000    684.3110      8.2681
   643.7500    134.0020      0.0000    674.6027      8.2715
   644.0000    132.5628      0.0000    664.0236      8.1853
   644.2500    132.6246      0.0000    654.8035      8.0356
   644.5000    132.9468      0.0000    648.6826      7.9318
   644.7500    132.8209      0.0000    646.1167      7.9828
   645.0000    132.4679      0.0000    646.6900      8.2025
   645.2500    132.3170      0.0000    649.6573      8.5070
   645.5000    132.5896      0.0000    654.0991      8.7870
   645.7500    133.5109      0.0000    659.3752      8.9632
   646.0000    135.3931      0.0000    665.9131      8.9817
   646.2500    138.2504      0.0000    674.8351      8.7973
   646.5000    141.4612      0.0000    685.9553      8.3894
   646.7500    144.0151      0.0000    696.4836      7.7932
   647.0000    145.1344      0.0000    702.7206      7.0982
   647.2500    144.4847      0.0000    703.3474      6.4084
   647.5000    141.6964      0.0000    700.7465      5.7977
   647.7500    136.1355      0.0000    699.0075      5.2904
   648.0000    127.6535      0.0000    700.9191      4.8717
   648.2500    117.3013      0.0000    706.7036      4.5242
   648.5000    106.8921      0.0000    714.9656      4.2494
   648.7500     98.1071      0.0000    724.2971      4.0502
   649.0000     92.1026      0.0000    733.7835      3.9153
   649.2500     89.3720      0.0000    742.4790      3.8417
   649.5000     89.5585      0.0000    749.3477      3.8535
   649.7500     91.6787      0.0000    753.9802      3.9847
   650.0000     94.7429      0.0000    756.8037      4.2582
   650.2500     98.0765     -3.0000    758.1112      4.6817
   650.5000    101.1886      0.0000    757.2662      5.2339
   650.7500    103.6357      0.0000    753.6251      5.8538
   651.0000    105.1230      0.0000    748.3276      6.4685
   651.2500    105.8946      0.0000    744.3757      7.0322
   651.5000    106.9429      0.0000    744.3349      7.5210
   651.7500    109.4183      0.0000    748.2079      7.9103
   652.0000    113.7612      0.0000    753.8996      8.1884
   652.2500    119.8341      0.0000    759.1226      8.3741
   652.5000    127.6289      0.0000    762.3196      8.4923
   652.7500    136.9897      0.0000    762.2082      8.5465
   653.0000    146.5513      0.0000    757.2390      8.5327
   653.2500    153.6816      0.0000    746.1973      8.4681
   653.5000    155.9780      0.0000    729.9360      8.3991
   653.7500    152.9258      0.0000    712.5463      8.3777
   654.0000    146.2421      0.0000    699.8981      8.4276
   654.2500    138.7646      0.0000    696.1230      8.5296
   654.5000    132.7692      0.0000    701.2682      8.6397
   654.7500    128.7217      0.0000    712.1365      8.7211
   655.0000    125.2037      0.0000    724.7965      8.7570
   655.2500    120.2711      0.0000    736.1724      8.7388
   655.5000    113.2650      0.0000    744.3192      8.6529
   655.7500    105.2520      0.0000    748.4357      8.4777
   656.0000     97.6273      0.0000    748.6244      8.1859
   656.2500     90.6886      0.0000    745.2921      7.7504
   656.5000     83.8784      0.0000    739.3206      7.1696
   656.7500     77.2355      0.0000    733.0681      6.4989
   657.0000     72.1430      0.0000    730.1176      5.8401
   657.2500     70.3455      0.0000    732.6839      5.2829
   657.5000     72.1764      0.0000    739.1566      4.8561
   657.7500     75.8688      0.0000    745.0974      4.5347
   658.0000     78.7071      0.0000    747.0368      4.2787
   658.2500     78.9217      0.0000    745.0650      4.0636
   658.5000     76.8105      0.0000    741.9070      3.8913
   658.7500     74.5002      0.0000    740.1702      3.7836
   659.0000     74.6389      0.0000    740.3765      3.7649
   659.2500     78.7468      0.0000    740.7296      3.8461
   659.5000     86.3680      0.0000    738.5417      4.0246
   659.7500     95.7895      0.0000    732.9013      4.2908
   660.0000    105.5518      0.0000    726.5704      4.6271
   660.2500    114.9994      0.0000    724.4963      5.0001
   660.5000    123.5696      0.0000    729.6087      5.3677
   660.7500    130.2953      0.0000    740.1813      5.7021
   661.0000    134.3565      0.0000    751.5042      6.0038
   661.2500    135.8383      0.0000    759.6453      6.2910
   661.5000    135.8062      0.0000    763.4612      6.5809
   661.7500    135.7892      0.0000    763.9509      6.8764
   662.0000    137.0130      0.0000    762.6995      7.1654
   662.2500    139.6359      0.0000    760.6466      7.4343
   662.5000    142.4927      0.0000    757.4458      7.6869
   662.7500    143.7939      0.0000    751.8601      7.9403
   663.0000    142.4895      0.0000    743.1859      8.1991
   663.2500    139.3796      0.0000    732.2904      8.4448
   663.5000    136.9931      0.0000    721.1396      8.6545
   663.7500    137.7851      0.0000    711.7125      8.8253
   664.0000    141.7700      0.0000    705.5881      8.9775
   664.2500    146.0285      0.0000    703.9633      9.1378
   664.5000    147.0761      0.0000    707.2643      9.3112
   664.7500    143.6057      0.0000    714.3047      9.4702
   665.0000    136.8351      0.0000    721.8788      9.5768
   665.2500    129.0655      0.0000    725.8809      9.6167
   665.5000    122.5222      0.0000    723.8246      9.6043
   665.7500    118.7364      0.0000    716.6564      9.5623
   666.0000    118.1261      0.0000    707.8819      9.5048
   666.2500    120.0562      0.0000    700.8750      9.4378
   666.5000    123.1997      0.0000    697.2118      9.3705
   666.7500    125.7333      0.0000    697.2360      9.3296
   667.0000    125.8902      0.0000    701.3453      9.3566
   667.2500    123.1157      0.0000    710.0280      9.4736
   667.5000    118.4604      0.0000    722.4956      9.6433
   667.7500    113.4691      0.0000    735.7411      9.7738
   668.0000    108.9208      0.0000    745.8163      9.7743
   668.2500    104.6738      0.0000    750.5252      9.6213
   668.5000    100.2245      0.0000    750.7863      9.3774
   668.7500     95.1717      0.0000    749.2959      9.1421
   669.0000     89.4376      0.0000    748.0182      8.9746
   669.2500     83.2993      0.0000    746.7537      8.8565
   669.5000     77.2286      0.0000    743.6631      8.7245
   669.7500     71.7909      0.0000    737.0883      8.5357
   670.0000     67.7903      0.0000    727.2452      8.3100
   670.2500     66.2512      0.0000    716.4697      8.1229
   670.5000     67.9732      0.0000    707.8434      8.0553
   670.7500     72.8983      0.0000    703.3870      8.1335
   671.0000     79.6681      0.0000    703.1500      8.3107
   671.2500     85.7408      0.0000    705.6417      8.5126
   671.5000     88.4654      0.0000    709.1810      8.6892
   671.7500     86.6025      0.0000    713.1010      8.8172
   672.0000     80.8738      0.0000    717.5245      8.8776
   672.2500     73.0794      0.0000    722.0258      8.8534
   672.5000     65.0365      0.0000    725.3270      8.7420
   672.7500     58.3922      0.0000    726.6221      8.5664
   673.0000     54.6018      0.0000    726.4409      8.3742
   673.2500     54.2127      0.0000    725.7551      8.2171
