~Version Information
VERS.                      2.0: CWLS Log ASCII Standard - VERSION 2.0
WRAP.                       NO: One line per depth step
~Well Information Block
STRT.FT               -11.0000: 
STOP.FT              1896.2500: 
STEP.FT                 0.2500: 
NULL.                -999.2500: 
COMP.          Pioneer Natural Resources: COMPANY
WELL.            Summers 21-19: WELL
FLD.           Purgatoire River: FIELD
LOC.           900' FNL & 1950' FWL--: LOCATION
PROV.                 Colorado: PROVINCE
CNTY.               Las Animas: COUNTRY
SRVC.                Patterson: SERVICE COMPANY
DATE.          Thu Oct 20 15:06:00 2005: LOG DATE
UWI.           05 071 08315 00: UNIQUE WELL ID
~Curve Information Block
DEPT.FT            0 000 00 00: Depth
GR.GAPI                       : Gamma Ray
CCL.                          : Casing Collar Locator
TT3.usec                      : CBL 3' Travel Time
AMP3.mV                       : CBL 3' Amplitude
~Parameter Information Block
~A  Depth        GR         CCL         TT3         AMP3    
# ...
  1731.0000     82.8672      0.0000    738.8185     14.7826
  1731.2500     85.4537      0.0000    738.4886     14.5497
  1731.5000     87.4711      0.0000    738.4510     14.3870
  1731.7500     88.4980      0.0000    738.4445     14.1916
  1732.0000     88.7918      0.0000    738.3677     13.8635
  1732.2500     88.5297      0.0000    738.3074     13.3038
  1732.5000     87.3976      0.0000    738.5945     12.4422
  1732.7500     85.0884      0.0000    739.8917     11.3071
  1733.0000     81.9539      0.0000    743.2388     10.0555
  1733.2500     78.9419      0.0000    749.7131      8.8924
  1733.5000     76.9250      0.0000    759.3709      7.9637
  1733.7500     76.0783      0.0000    770.0637      7.3389
  1734.0000     75.7473      0.0000    777.6990      7.0387
  1734.2500     74.9571      0.0000    778.5612      7.0151
  1734.5000     73.3019      0.0000    771.4102      7.1370
  1734.7500     71.3705      2.0000    756.9344      7.2588
  1735.0000     70.1333      0.0000    735.6066      7.3101
  1735.2500     69.9750      0.0000    707.4857      7.3409
  1735.5000     70.4465      0.0000    674.9160      7.5079
  1735.7500     70.8172      0.0000    644.7238      7.9832
  1736.0000     70.6200      0.0000    625.5431      8.8052
  1736.2500     69.7243      0.0000    621.0704      9.8252
  1736.5000     68.2173      0.0000    626.5578     10.8450
  1736.7500     66.4266      0.0000    633.1503     11.7734
  1737.0000     64.9302      0.0000    634.5391     12.6026
  1737.2500     64.3162      0.0000    629.2238     13.2928
  1737.5000     64.8278      0.0000    619.5468     13.7602
  1737.7500     66.1536      0.0000    610.2751     13.9582
  1738.0000     67.5286      0.0000    606.0162     13.9207
  1738.2500     68.2225      0.0000    608.2461     13.7292
  1738.5000     68.1441      0.0000    615.1895     13.4717
  1738.7500     67.8135      0.0000    624.8696     13.2324
  1739.0000     67.6749      0.0000    637.2930     13.0836
  1739.2500     67.8658      0.0000    653.1500     13.0624
  1739.5000     68.8436      0.0000    671.2683     13.1517
  1739.7500     71.6371      0.0000    688.4276     13.2954
  1740.0000     76.8712      0.0000    701.2210     13.4367
  1740.2500     83.6446      0.0000    707.6455     13.5480
  1740.5000     89.8306      0.0000    707.9396     13.6321
  1740.7500     93.7192      0.0000    704.8143     13.7006
  1741.0000     95.2738      0.0000    701.9788     13.7512
  1741.2500     95.7431      0.0000    701.3682     13.7624
  1741.5000     96.3044      0.0000    702.0649     13.6949
  1741.7500     97.2447      0.0000    702.1296     13.4895
  1742.0000     98.1596      0.0000    700.6888     13.0817
  1742.2500     98.3744      0.0000    697.8028     12.4484
  1742.5000     97.0585      0.0000    693.2493     11.6459
  1742.7500     93.3967      0.0000    686.9785     10.7914
  1743.0000     87.0655      0.0000    680.7814     10.0053
  1743.2500     78.5772      0.0000    677.6841      9.3742
  1743.5000     69.2202      0.0000    678.8469      8.9543
  1743.7500     60.7361      0.0000    682.5182      8.7787
  1744.0000     54.7289      0.0000    686.8477      8.8410
  1744.2500     51.9121      0.0000    692.3973      9.0807
  1744.5000     51.8357      0.0000    700.8990      9.4030
  1744.7500     53.4006      0.0000    712.4903      9.7277
  1745.0000     55.6155      0.0000    724.9541     10.0315
  1745.2500     57.9787      0.0000    734.3920     10.3570
  1745.5000     60.3392      0.0000    735.7306     10.7891
  1745.7500     62.4830      0.0000    724.4706     11.4167
  1746.0000     63.9596      0.0000    700.0875     12.2949
  1746.2500     64.3972      0.0000    666.2337     13.4216
  1746.5000     63.8952      0.0000    626.2810     14.7246
  1746.7500     62.9210      0.0000    582.1033     16.0611
  1747.0000     61.8069      0.0000    539.5365     17.2435
  1747.2500     60.4764      0.0000    509.9954     18.1094
  1747.5000     58.7745      0.0000    501.6253     18.5967
  1747.7500     57.0471      0.0000    511.1331     18.7563
  1748.0000     56.0768      0.0000    527.7693     18.6963
  1748.2500     56.2065      0.0000    543.2997     18.5223
  1748.5000     56.8264      0.0000    555.1910     18.3151
  1748.7500     57.0144      0.0000    562.9256     18.1276
  1749.0000     56.4074      0.0000    566.7722     17.9737
  1749.2500     55.2189      0.0000    570.3839     17.8206
  1749.5000     53.7988      0.0000    579.8937     17.6109
  1749.7500     52.6178      0.0000    598.1941     17.3048
  1750.0000     52.4417      0.0000    621.9169     16.9058
  1750.2500     53.8759      0.0000    644.4341     16.4526
  1750.5000     56.5312      0.0000    660.2416     15.9908
  1750.7500     59.0572      0.0000    666.7241     15.5541
  1751.0000     60.2745      0.0000    663.9260     15.1671
  1751.2500     60.1059      0.0000    653.7773     14.8571
  1751.5000     59.3276      0.0000    638.9580     14.6545
  1751.7500     58.7198      0.0000    621.7560     14.5767
  1752.0000     58.5891      0.0000    604.3489     14.6058
  1752.2500     58.8013      0.0000    590.8614     14.6856
  1752.5000     59.0312      0.0000    588.1653     14.7484
  1752.7500     59.0202      0.0000    602.0352     14.7543
  1753.0000     58.6579      0.0000    630.9554     14.7085
  1753.2500     57.9750      0.0000    664.8853     14.6442
  1753.5000     57.3120      0.0000    691.2296     14.5950
  1753.7500     57.3676      0.0000    702.1586     14.5806
  1754.0000     58.6718      0.0000    697.5999     14.6065
  1754.2500     60.9995      0.0000    683.9672     14.6660
  1754.5000     63.6263      0.0000    670.6340     14.7426
  1754.7500     66.0567      0.0000    665.5658     14.8149
  1755.0000     68.0702      0.0000    671.9957     14.8678
  1755.2500     69.2450      0.0000    687.5502     14.8994
  1755.5000     69.0888      0.0000    706.0129     14.9186
  1755.7500     67.6869      0.0000    721.1658     14.9342
  1756.0000     65.7919      0.0000    730.1971     14.9481
  1756.2500     64.2689      0.0000    733.9406     14.9550
  1756.5000     63.7394      0.0000    734.6660     14.9431
  1756.7500     64.5602      0.0000    734.1971     14.8952
  1757.0000     66.6129      0.0000    733.4573     14.7927
  1757.2500     68.9509      0.0000    732.8033     14.6259
  1757.5000     70.0751      0.0000    732.3154     14.4067
  1757.7500     69.0359      0.0000    731.9977     14.1682
  1758.0000     66.3332      0.0000    731.8383     13.9482
  1758.2500     63.5030      0.0000    731.8442     13.7637
  1758.5000     61.7966      0.0000    732.0156     13.5990
  1758.7500     61.3663      0.0000    732.3260     13.4193
  1759.0000     61.6162      0.0000    732.7366     13.1976
  1759.2500     62.0862      0.0000    733.2062     12.9300
  1759.5000     62.8756      0.0000    733.6866     12.6281
  1759.7500     64.2652      0.0000    734.1415     12.3080
  1760.0000     66.1121      0.0000    734.5799     11.9908
  1760.2500     67.7820      0.0000    735.0359     11.7078
  1760.5000     68.7178      0.0000    735.4854     11.4922
  1760.7500     68.9354      0.0000    735.8034     11.3622
  1761.0000     68.8611      0.0000    735.8322     11.3130
  1761.2500     68.8283      0.0000    735.5068     11.3229
  1761.5000     68.9052      0.0000    734.8433     11.3624
  1761.7500     68.9546      0.0000    733.7350     11.4004
  1762.0000     68.5550      0.0000    731.7110     11.4121
  1762.2500     67.1415      0.0000    728.1088     11.3893
  1762.5000     64.6969      0.0000    722.9852     11.3467
  1762.7500     62.1956      0.0000    718.0239     11.3184
  1763.0000     60.9599      0.0000    715.7850     11.3369
  1763.2500     61.4699      0.0000    717.2328     11.4045
  1763.5000     62.9206      0.0000    720.3393     11.4790
  1763.7500     64.0061      0.0000    721.9076     11.4930
  1764.0000     64.1914      0.0000    720.6484     11.3923
  1764.2500     64.2205      0.0000    718.0660     11.1637
