~Version Information
VERS.                      2.0: CWLS Log ASCII Standard - VERSION 2.0
WRAP.                       NO: One line per depth step
~Well Information Block
STRT.FT                -6.2500: 
STOP.FT              2316.0000: 
STEP.FT                 0.2500: 
NULL.                -999.2500: 
COMP.          Pioneer Natural Resources: COMPANY
WELL.             Trimax 44-23: WELL
FLD.           Purgatorie River: FIELD
LOC.           527' FSL & 1064' FEL------: LOCATION
PROV.                       CO: PROVINCE
CNTY.               Las Animas: COUNTRY
SRVC.          Patterson Wireline: SERVICE COMPANY
DATE.          Sat Mar 19 11:18:53 2005: LOG DATE
UWI.           05 071 08326 00: UNIQUE WELL ID
~Curve Information Block
DEPT.FT            0 000 00 00: Depth
CCL.                          : Casing Collar Locator
TT3.usec                      : CBL 3' Travel Time
AMP3.mV                       : CBL 3' Amplitude
GR.GAPI                       : Gamma Ray
~Parameter Information Block
~A  Depth       CCL         TT3         AMP3         GR     
# ...
  1970.2500      0.0000    808.5155      7.1698    114.3683
  1970.5000      0.0000    803.0240      7.4410    113.7099
  1970.7500      0.0000    791.9079      7.5983    113.7139
  1971.0000      0.0000    774.0118      7.4951    114.9909
  1971.2500      0.0000    751.4561      7.1263    116.6562
  1971.5000      0.0000    730.2469      6.6125    116.4542
  1971.7500      0.0000    717.5665      6.0821    112.1245
  1972.0000      0.0000    717.0414      5.5883    102.8769
  1972.2500      0.0000    725.5292      5.1217     89.9299
  1972.5000      0.0000    734.6191      4.6665     76.0128
  1972.7500      0.0000    736.5778      4.2410     64.1857
  1973.0000      0.0000    729.7746      3.8913     56.4816
  1973.2500      0.0000    718.9576      3.6537     53.0998
  1973.5000      0.0000    711.4624      3.5302     52.7268
  1973.7500      0.0000    713.0366      3.4963     53.8184
  1974.0000      0.0000    724.4348      3.5163     55.8055
  1974.2500      0.0000    739.8079      3.5603     59.0305
  1974.5000      0.0000    749.6407      3.6328     63.5562
  1974.7500      0.0000    747.3896      3.7871     68.3980
  1975.0000      0.0000    733.9936      4.0884     72.2802
  1975.2500      0.0000    716.4873      4.5616     74.9806
  1975.5000      0.0000    703.3287      5.1830     77.4714
  1975.7500      0.0000    700.7742      5.9033     80.5760
  1976.0000      0.0000    711.2560      6.6490     83.8294
  1976.2500      0.0000    732.6396      7.3151     86.0473
  1976.5000      0.0000    758.6995      7.7984     86.8762
  1976.7500      0.0000    782.0087      8.0507     87.3696
  1977.0000      0.0000    797.8239      8.0898     88.9524
  1977.2500      0.0000    805.6114      7.9727     91.9643
  1977.5000      0.0000    807.4199      7.7732     95.2825
  1977.7500      0.0000    805.6898      7.5649     97.3894
  1978.0000      0.0000    802.3502      7.3871     97.7860
  1978.2500      0.0000    798.5758      7.2251     97.2797
  1978.5000      0.0000    794.3405      7.0504     96.9803
  1978.7500      0.0000    788.4223      6.8825     97.2312
  1979.0000      0.0000    779.6363      6.7858     97.4365
  1979.2500      0.0000    768.4236      6.7997     96.6398
  1979.5000      0.0000    757.2108      6.8795     94.3613
  1979.7500      0.0000    748.8949      6.9152     91.0942
  1980.0000      0.0000    745.0046      6.8206     88.0117
  1980.2500      0.0000    745.6907      6.6149     86.2791
  1980.5000      0.0000    751.0845      6.4191     86.7087
  1980.7500      0.0000    761.3654      6.3541     89.7067
  1981.0000      0.0000    775.1661      6.4298     94.9823
  1981.2500      0.0000    789.0610      6.5443    101.1798
  1981.5000      0.0000    799.4589      6.5990    106.1558
  1981.7500      0.0000    804.5646      6.5879    108.1341
  1982.0000      0.0000    804.5046      6.5567    106.9781
  1982.2500      0.0000    800.8063      6.5101    104.3429
  1982.5000      0.0000    796.3346      6.4154    102.2407
  1982.7500      0.0000    794.4478      6.2879    101.3070
  1983.0000      0.0000    796.7684      6.2194    100.5089
  1983.2500      0.0000    801.9016      6.2922     98.4207
  1983.5000      0.0000    806.9819      6.4858     94.6161
  1983.7500      0.0000    810.0475      6.6974     89.9892
  1984.0000      0.0000    810.5231      6.8489     86.0802
  1984.2500      0.0000    807.9151      6.9459     84.2478
  1984.5000      0.0000    800.9168      7.0211     85.1933
  1984.7500      0.0000    788.4623      7.0587     88.7645
  1985.0000      0.0000    772.2308      7.0036     94.0224
  1985.2500      0.0000    757.8334      6.8145     99.5641
  1985.5000      0.0000    752.1058      6.4859    103.7301
  1985.7500      0.0000    757.9545      6.0641    104.7050
  1986.0000      0.0000    771.7104      5.6674    101.2798
  1986.2500      0.0000    785.7646      5.4326     94.2510
  1986.5000      0.0000    793.7935      5.4017     86.6373
  1986.7500      0.0000    793.8818      5.4991     81.7660
  1987.0000      0.0000    788.1901      5.6299     81.1622
  1987.2500      0.0000    781.0278      5.7572     84.2062
  1987.5000      0.0000    776.4671      5.8999     89.0588
  1987.7500      0.0000    775.5326      6.1112     93.7319
  1988.0000      0.0000    775.2255      6.4438     96.9775
  1988.2500      0.0000    771.7984      6.8689     98.5960
  1988.5000      0.0000    765.1446      7.2409     98.9661
  1988.7500      0.0000    758.7615      7.4146     98.5343
  1989.0000      0.0000    756.2542      7.3892     97.7601
  1989.2500      0.0000    759.4057      7.2796     97.1423
  1989.5000      0.0000    768.2466      7.1702     97.1458
  1989.7500      0.0000    780.7063      7.0569     98.1093
  1990.0000      0.0000    792.6678      6.9092    100.0844
  1990.2500      0.0000    799.8643      6.7330    102.7010
  1990.5000      0.0000    799.8488      6.5704    105.2449
  1990.7500      0.0000    792.5054      6.4507    106.9753
  1991.0000      0.0000    779.7822      6.3575    107.4956
  1991.2500      0.0000    764.7852      6.2610    106.9941
  1991.5000      0.0000    749.8595      6.1722    106.2399
  1991.7500      0.0000    735.5159      6.1241    106.2430
  1992.0000      0.0000    721.8954      6.1072    107.6364
  1992.2500      0.0000    710.3019      6.0767    110.1946
  1992.5000      0.0000    702.0695      6.0279    113.0003
  1992.7500      0.0000    696.8180      6.0116    115.0934
  1993.0000      0.0000    693.0680      6.0606    115.8706
  1993.2500      0.0000    690.0054      6.1427    115.1439
  1993.5000      0.0000    687.8227      6.1983    113.2723
  1993.7500      0.0000    686.9376      6.2012    111.1860
  1994.0000      0.0000    687.7723      6.1820    109.9178
  1994.2500      0.0000    691.2178      6.2043    109.9796
  1994.5000      0.0000    698.5707      6.3088    111.0978
  1994.7500      0.0000    710.4617      6.4668    112.2821
  1995.0000      0.0000    725.7247      6.6037    112.4076
  1995.2500      0.0000    741.5559      6.6764    111.3990
  1995.5000      0.0000    754.9561      6.7065    110.7631
  1995.7500      0.0000    764.2968      6.7295    112.2902
  1996.0000      0.0000    770.0369      6.7439    116.1902
  1996.2500      0.0000    774.0441      6.7366    120.7731
  1996.5000      0.0000    777.7275      6.7239    123.6705
  1996.7500      0.0000    780.8320      6.7343    123.2412
  1997.0000      0.0000    782.3558      6.7686    119.4905
  1997.2500      0.0000    782.1467      6.8047    114.1550
  1997.5000      0.0000    781.0812      6.8242    109.5198
  1997.7500      0.0000    780.1258      6.8204    106.7403
  1998.0000      0.0000    779.6937      6.7924    105.3320
  1998.2500      0.0000    779.6693      6.7428    104.2618
  1998.5000      0.0000    779.6656      6.6761    103.2658
  1998.7500      0.0000    779.2368      6.6083    102.9434
  1999.0000      0.0000    777.8543      6.5768    103.8026
  1999.2500      0.0000    774.6897      6.6086    105.6274
  1999.5000      0.0000    768.6025      6.6674    107.8417
  1999.7500      0.0000    758.7362      6.6681    110.0888
  2000.0000      0.0000    745.5213      6.5722    112.1992
  2000.2500      0.0000    731.1268      6.4446    113.7822
  2000.5000      0.0000    718.4708      6.3870    114.1541
  2000.7500      0.0000    709.2746      6.4315    112.7866
  2001.0000      0.0000    703.0953      6.5275    109.8673
  2001.2500      0.0000    698.4531      6.6150    106.5039
  2001.5000      0.0000    694.5937      6.6735    104.1752
  2001.7500      0.0000    691.9108      6.7073    103.5284
  2002.0000      0.0000    691.2848      6.7263    103.6391
  2002.2500      0.0000    693.6378      6.7465    102.7681
  2002.5000      0.0000    699.7032      6.7776    100.0104
  2002.7500      0.0000    709.4166      6.8028     96.1873
  2003.0000      0.0000    721.2776      6.7971     93.2238
  2003.2500      0.0000    732.5113      6.7658     92.7506
  2003.5000      0.0000    739.9755      6.7397     95.0934
