~Version Information
VERS.                      2.0: CWLS Log ASCII Standard - VERSION 2.0
WRAP.                       NO: One line per depth step
~Well Information Block
STRT.FT               450.0000: 
STOP.FT              1642.0000: 
STEP.FT                 0.1000: 
NULL.                -999.2500: 
COMP.          Pioneer Natural Resources: COMPANY
WELL.           Buckhorn 12-21: WELL
FLD.           Purgatoire River: FIELD
LOC.           2450' FNL & 608' FWL: LOCATION
PROV.                 Colorado: PROVINCE
CNTY.               Las Animas: COUNTRY
SRVC.                Patterson: SERVICE COMPANY
DATE.          Wed Dec 01 15:08:21 2004: LOG DATE
UWI.           05 071 08129 00: UNIQUE WELL ID
~Curve Information Block
DEPT.FT            0 000 00 00: Depth
NPOR.pu                       : Neutron Porosity
CCL.                          : Casing Collar Locator
GR.GAPI                       : Gamma Ray
~Parameter Information Block
~A  Depth       NPOR        CCL          GR     
# ...
  1535.5000     31.8374      0.0000    163.2708
  1535.6000     31.8374      0.0000    163.2708
  1535.7000     31.8374      0.0000    163.2708
  1535.8000     31.9796      0.0000    156.2485
  1535.9000     31.9796      0.0000    156.2485
  1536.0000     31.8052      0.0000    146.8417
  1536.1000     31.8052      0.0000    146.8417
  1536.2000     31.8052      0.0000    146.8417
  1536.3000     31.2242      0.0000    137.8114
  1536.4000     31.2242      0.0000    137.8114
  1536.5000     30.2619      0.0000    131.0557
  1536.6000     30.2619      0.0000    131.0557
  1536.7000     30.2619      0.0000    131.0557
  1536.8000     29.1023      0.0000    126.7633
  1536.9000     29.1023      0.0000    126.7633
  1537.0000     27.9521      0.0000    124.3689
  1537.1000     27.9521      0.0000    124.3689
  1537.2000     27.9521      0.0000    124.3689
  1537.3000     26.8814      0.0000    123.4079
  1537.4000     26.8814      0.0000    123.4079
  1537.5000     25.8497      0.0000    123.4376
  1537.6000     25.8497      0.0000    123.4376
  1537.7000     25.8497      0.0000    123.4376
  1537.8000     24.8553      0.0000    123.6736
  1537.9000     24.8553      0.0000    123.6736
  1538.0000     23.9963      0.0000    123.0861
  1538.1000     23.9963      0.0000    123.0861
  1538.2000     23.9963      0.0000    123.0861
  1538.3000     23.3993      0.0000    120.9473
  1538.4000     23.3993      0.0000    120.9473
  1538.5000     23.1194      0.0000    117.1504
  1538.6000     23.1194      0.0000    117.1504
  1538.7000     23.1194      0.0000    117.1504
  1538.8000     23.0981      0.0000    112.0316
  1538.9000     23.0981      0.0000    112.0316
  1539.0000     23.2030      0.0000    106.1356
  1539.1000     23.2030      0.0000    106.1356
  1539.2000     23.2030      0.0000    106.1356
  1539.3000     23.3151      0.0000    100.1719
  1539.4000     23.3151      0.0000    100.1719
  1539.5000     23.3820      0.0000     94.8488
  1539.6000     23.3820      0.0000     94.8488
  1539.7000     23.3820      0.0000     94.8488
  1539.8000     23.3979      0.0000     90.6479
  1539.9000     23.3979      0.0000     90.6479
  1540.0000     23.3641      0.0000     87.8774
  1540.1000     23.3641      0.0000     87.8774
  1540.2000     23.3641      0.0000     87.8774
  1540.3000     23.2849      0.0000     86.5934
  1540.4000     23.2849      0.0000     86.5934
  1540.5000     23.1915      0.0000     86.1369
  1540.6000     23.1915      0.0000     86.1369
  1540.7000     23.1915      0.0000     86.1369
  1540.8000     23.1413      0.0000     85.2295
  1540.9000     23.1413      0.0000     85.2295
  1541.0000     23.1667      0.0000     83.0846
  1541.1000     23.1667      0.0000     83.0846
  1541.2000     23.1667      0.0000     83.0846
  1541.3000     23.2181      0.0000     80.2630
  1541.4000     23.2181      0.0000     80.2630
  1541.5000     23.1867      0.0000     78.2752
  1541.6000     23.1867      0.0000     78.2752
  1541.7000     23.1867      0.0000     78.2752
  1541.8000     23.0133      0.0000     78.4829
  1541.9000     23.0133      0.0000     78.4829
  1542.0000     22.7745      0.0000     81.2782
  1542.1000     22.7745      0.0000     81.2782
  1542.2000     22.7745      0.0000     81.2782
  1542.3000     22.6319      0.0000     85.8531
  1542.4000     22.6319      0.0000     85.8531
  1542.5000     22.6692      0.0000     90.4449
  1542.6000     22.6692      0.0000     90.4449
  1542.7000     22.6692      0.0000     90.4449
  1542.8000     22.7902      0.0000     92.9688
  1542.9000     22.7902      0.0000     92.9688
  1543.0000     22.8071      0.0000     91.9401
  1543.1000     22.8071      0.0000     91.9401
  1543.2000     22.8071      0.0000     91.9401
  1543.3000     22.6222      0.0000     87.3592
  1543.4000     22.6222      0.0000     87.3592
  1543.5000     22.3074      0.0000     80.9018
  1543.6000     22.3074      0.0000     80.9018
  1543.7000     22.3074      0.0000     80.9018
  1543.8000     22.0246      0.0000     75.1234
  1543.9000     22.0246      0.0000     75.1234
  1544.0000     21.8981      0.0000     72.2459
  1544.1000     21.8981      0.0000     72.2459
  1544.2000     21.8981      0.0000     72.2459
  1544.3000     21.9214      0.0000     73.2785
  1544.4000     21.9214      0.0000     73.2785
  1544.5000     21.9466      0.0000     77.6949
  1544.6000     21.9466      0.0000     77.6949
  1544.7000     21.9466      0.0000     77.6949
  1544.8000     21.7836      0.0000     83.7784
  1544.9000     21.7836      0.0000     83.7784
  1545.0000     21.3610      0.0000     89.5404
  1545.1000     21.3610      0.0000     89.5404
  1545.2000     21.3610      0.0000     89.5404
  1545.3000     20.7961      0.0000     93.5237
  1545.4000     20.7961      0.0000     93.5237
  1545.5000     20.3090      0.0000     95.0497
  1545.6000     20.3090      0.0000     95.0497
  1545.7000     20.3090      0.0000     95.0497
  1545.8000     20.0881      0.0000     94.3942
  1545.9000     20.0881      0.0000     94.3942
  1546.0000     20.2192      0.0000     93.1227
  1546.1000     20.2192      0.0000     93.1227
  1546.2000     20.2192      0.0000     93.1227
  1546.3000     20.6664      0.0000     93.7523
  1546.4000     20.6664      0.0000     93.7523
  1546.5000     21.3015      0.0000     98.3195
  1546.6000     21.3015      0.0000     98.3195
  1546.7000     21.3015      0.0000     98.3195
  1546.8000     22.0021      0.0000    107.0301
  1546.9000     22.0021      0.0000    107.0301
  1547.0000     22.7488      0.0000    118.2766
  1547.1000     22.7488      0.0000    118.2766
  1547.2000     22.7488      0.0000    118.2766
  1547.3000     23.5952      0.0000    129.8363
  1547.4000     23.5952      0.0000    129.8363
  1547.5000     24.5508      0.0000    139.9106
  1547.6000     24.5508      0.0000    139.9106
  1547.7000     24.5508      0.0000    139.9106
  1547.8000     25.5257      0.0000    147.2090
  1547.9000     25.5257      0.0000    147.2090
  1548.0000     26.3662      0.0000    150.7269
  1548.1000     26.3662      0.0000    150.7269
  1548.2000     26.3662      0.0000    150.7269
  1548.3000     26.9202      0.0000    150.1749
  1548.4000     26.9202      0.0000    150.1749
  1548.5000     27.1023      0.0000    146.5268
  1548.6000     27.1023      0.0000    146.5268
  1548.7000     27.1023      0.0000    146.5268
  1548.8000     26.9327      0.0000    141.4978
  1548.9000     26.9327      0.0000    141.4978
  1549.0000     26.4918      0.0000    136.2774
  1549.1000     26.4918      0.0000    136.2774
  1549.2000     26.4918      0.0000    136.2774
  1549.3000     25.8146      0.0000    131.0027
  1549.4000     25.8146      0.0000    131.0027
  1549.5000     24.8598      0.0000    125.2709
  1549.6000     24.8598      0.0000    125.2709
  1549.7000     24.8598      0.0000    125.2709
  1549.8000     23.6146      0.0000    118.7229
  1549.9000     23.6146      0.0000    118.7229
  1550.0000     22.2190      0.0000    111.3469
  1550.1000     22.2190      0.0000    111.3469
  1550.2000     22.2190      0.0000    111.3469
  1550.3000     20.9638      0.0000    103.7694
  1550.4000     20.9638      0.0000    103.7694
  1550.5000     20.1585      0.0000     97.3184
  1550.6000     20.1585      0.0000     97.3184
  1550.7000     20.1585      0.0000     97.3184
  1550.8000     19.9715      0.0000     93.4713
  1550.9000     19.9715      0.0000     93.4713
  1551.0000     20.3416      0.0000     92.9852
  1551.1000     20.3416      0.0000     92.9852
  1551.2000     20.3416      0.0000     92.9852
  1551.3000     21.0226      0.0000     95.5628
  1551.4000     21.0226      0.0000     95.5628
  1551.5000     21.7697      0.0000    100.3562
  1551.6000     21.7697      0.0000    100.3562
  1551.7000     21.7697      0.0000    100.3562
  1551.8000     22.5310      0.0000    106.6024
  1551.9000     22.5310      0.0000    106.6024
  1552.0000     23.4379      0.0000    113.6228
  1552.1000     23.4379      0.0000    113.6228
