~Version Information
VERS.                      2.0: CWLS Log ASCII Standard - VERSION 2.0
WRAP.                       NO: One line per depth step
~Well Information Block
STRT.FT                -8.5000: 
STOP.FT              1968.0000: 
STEP.FT                 0.2500: 
NULL.                -999.2500: 
COMP.          Pioneer Natural Resources: COMPANY
WELL.           Firehawk 34-26: WELL
FLD.           Purgatorie River: FIELD
LOC.           1196' FSL & 1595' FEL--: LOCATION
STAT.                       CO: State
CNTY.               Las Animas: COUNTY
CTRY. USA : Country
SECT. 26 : Section
TOWN. 32S : Township
RANG. 66W : Range 
SRVC.          Patterson Wireline: SERVICE COMPANY
DATE.          Tue Oct 25 14:45:07 2005: LOG DATE
API.           05 071 08389 00: UNIQUE WELL ID
~Curve Information Block
DEPT.FT            0 000 00 00: Depth
CCL.                          : Casing Collar Locator
TT3.usec                      : CBL 3' Travel Time
AMP3.mV                       : CBL 3' Amplitude
GR.GAPI                       : Gamma Ray
~Parameter Information Block
~A  Depth       CCL         TT3         AMP3         GR     
# ...
   896.0000      0.0000    733.8117      4.4967    111.9524
   896.2500      0.0000    734.3086      4.4325    112.8851
   896.5000      0.0000    734.5961      4.3734    112.0735
   896.7500      0.0000    734.8159      4.3236    110.8870
   897.0000      0.0000    735.0206      4.2700    109.4607
   897.2500      0.0000    735.3577      4.1948    107.3457
   897.5000      0.0000    736.2921      4.0989    104.6534
   897.7500      0.0000    738.5711      4.0133    102.2845
   898.0000      0.0000    742.5969      3.9767    101.2164
   898.2500      0.0000    747.4252      3.9975    101.3837
   898.5000      0.0000    750.5555      4.0451    101.2428
   898.7500      0.0000    749.3471      4.0794     99.1396
   899.0000      0.0000    742.9189      4.0879     95.4325
   899.2500      0.0000    732.5527      4.0933     92.5420
   899.5000      0.0000    720.5778      4.1323     92.4692
   899.7500      0.0000    709.2712      4.2290     94.9892
   900.0000      0.0000    700.3026      4.3837     98.7680
   900.2500      0.0000    694.2401      4.5796    103.4400
   900.5000      0.0000    690.1360      4.7939    109.7412
   900.7500      0.0000    685.4232      5.0049    118.0364
   901.0000      0.0000    676.1334      5.1978    127.4389
   901.2500      0.0000    658.0401      5.3640    136.0746
   901.5000      0.0000    629.3663      5.4950    141.7486
   901.7500      0.0000    593.4766      5.5818    143.0650
   902.0000      0.0000    558.2800      5.6228    140.6183
   902.2500      0.0000    532.0217      5.6278    136.8398
   902.5000      0.0000    519.5576      5.6111    134.4450
   902.7500      0.0000    522.3565      5.5833    135.1095
   903.0000      0.0000    540.2870      5.5496    138.9086
   903.2500      0.0000    571.4163      5.5123    143.9074
   903.5000      0.0000    609.9023      5.4745    146.4225
   903.7500      0.0000    645.9164      5.4439    143.1792
   904.0000      0.0000    669.6517      5.4317    134.2318
   904.2500      0.0000    676.0820      5.4440    123.5398
   904.5000      0.0000    666.0721      5.4754    116.2563
   904.7500      0.0000    644.2528      5.5122    115.1683
   905.0000      0.0000    617.0062      5.5396    119.2716
   905.2500      0.0000    591.4827      5.5464    125.2305
   905.5000      0.0000    574.5345      5.5266    130.0857
   905.7500      0.0000    571.0962      5.4814    132.8906
   906.0000      0.0000    582.1465      5.4217    134.2677
   906.2500      0.0000    602.9731      5.3684    135.0562
   906.5000      0.0000    623.9083      5.3453    135.7776
   906.7500      0.0000    635.1563      5.3673    137.0129
   907.0000      0.0000    633.0699      5.4286    139.2288
   907.2500      0.0000    622.4374      5.5025    141.5863
   907.5000      0.0000    612.2477      5.5584    141.7525
   907.7500      0.0000    608.4196      5.5840    138.1270
   908.0000      0.0000    609.7398      5.5925    131.9374
   908.2500      0.0000    610.5105      5.6046    126.1611
   908.5000      0.0000    607.2569      5.6262    122.7091
   908.7500      0.0000    602.9413      5.6478    121.2759
   909.0000      0.0000    604.9998      5.6653    120.2628
   909.2500      0.0000    619.7451      5.6880    118.0728
   909.5000      0.0000    647.7148      5.7240    114.1055
   909.7500      0.0000    682.7047      5.7650    109.2178
   910.0000      0.0000    715.2732      5.7921    105.0282
   910.2500      0.0000    738.2449      5.7956    102.6755
   910.5000      0.0000    749.3367      5.7855    102.4403
   910.7500      0.0000    749.0116      5.7796    104.2732
   911.0000      0.0000    737.1311      5.7829    108.1022
   911.2500      0.0000    712.8192      5.7805    113.5843
   911.5000      0.0000    677.5221      5.7563    119.7958
   911.7500      0.0000    637.1447      5.7148    125.3972
   912.0000      0.0000    600.1047      5.6801    129.5627
   912.2500      0.0000    573.2010      5.6714    132.9809
   912.5000      0.0000    559.6343      5.6853    137.2656
   912.7500      0.0000    560.1168      5.7039    142.8063
   913.0000      0.0000    574.0059      5.7134    147.7374
   913.2500      0.0000    598.3829      5.7120    149.6982
   913.5000      0.0000    627.0694      5.7024    148.1879
   913.7500      0.0000    652.6051      5.6836    144.6214
   914.0000      0.0000    670.2130      5.6495    140.6160
   914.2500      0.0000    679.6755      5.5973    136.9702
   914.5000      0.0000    683.6597      5.5344    133.8498
   914.7500      0.0000    684.9142      5.4778    131.2354
   915.0000      0.0000    684.7495      5.4447    129.5413
   915.2500      0.0000    682.8568      5.4448    130.1880
   915.5000      0.0000    677.8207      5.4750    134.6350
   915.7500      0.0000    668.3547      5.5172    142.1967
   916.0000      0.0000    655.1538      5.5449    149.6097
   916.2500      0.0000    641.6337      5.5375    153.5686
   916.5000      0.0000    631.7645      5.4884    153.4337
   916.7500      0.0000    626.4811      5.4029    151.2888
   917.0000      0.0000    622.7876      5.2937    149.8285
   917.2500      0.0000    616.7347      5.1797    150.2759
   917.5000      0.0000    606.6985      5.0830    151.7560
   917.7500      0.0000    594.3134      5.0273    152.2722
   918.0000      0.0000    584.0161      5.0343    150.4060
   918.2500      0.0000    581.6428      5.1105    146.4007
   918.5000      0.0000    591.0043      5.2367    141.8525
   918.7500      0.0000    610.5886      5.3753    138.4176
   919.0000      0.0000    634.5133      5.4924    136.6698
   919.2500      0.0000    656.9744      5.5706    135.9688
   919.5000      0.0000    675.3976      5.6096    135.2098
   919.7500      0.0000    690.0344      5.6239    133.6784
   920.0000      0.0000    701.5446      5.6365    131.3110
   920.2500      0.0000    709.1850      5.6667    128.3354
   920.5000      0.0000    711.3354      5.7167    124.7265
   920.7500      0.0000    707.7108      5.7717    120.1135
   921.0000      0.0000    700.8455      5.8109    114.5207
   921.2500      0.0000    695.7878      5.8238    109.1246
   921.5000      0.0000    698.3064      5.8156    105.6983
   921.7500      0.0000    711.4639      5.7985    105.0446
   922.0000      0.0000    732.0206      5.7762    106.3405
   922.2500      0.0000    751.0981      5.7442    107.9990
   922.5000      0.0000    760.5387      5.7045    108.8326
   922.7500      0.0000    759.0495      5.6690    108.6206
   923.0000      0.0000    751.4247      5.6465    108.0751
   923.2500      0.0000    742.3037      5.6323    108.2476
   923.5000      0.0000    731.9647      5.6187    109.6147
   923.7500      0.0000    717.9634      5.6082    111.7290
   924.0000      0.0000    699.6594      5.6098    113.7318
   924.2500      0.0000    680.4329      5.6239    114.9293
   924.5000      0.0000    665.0767      5.6374    114.8483
   924.7500      0.0000    654.9829      5.6357    113.2179
   925.0000      0.0000    646.8677      5.6151    110.4108
   925.2500      0.0000    636.9410      5.5875    107.8219
   925.5000      0.0000    625.0446      5.5716    107.0461
   925.7500      0.0000    613.6142      5.5767    108.2583
   926.0000      0.0000    603.9498      5.5942    109.9836
   926.2500      0.0000    595.0346      5.6047    110.8458
   926.5000      0.0000    585.4896      5.5927    110.8608
   926.7500      0.0000    575.4879      5.5542    110.6141
   927.0000      0.0000    566.5634      5.4948    109.9000
   927.2500      0.0000    560.0657      5.4242    107.9350
   927.5000      0.0000    556.1751      5.3502    104.8283
   927.7500      0.0000    554.1957      5.2748    102.3242
   928.0000      0.0000    553.3627      5.1960    102.6527
   928.2500      0.0000    553.2264      5.1134    106.6606
   928.5000      0.0000    553.5801      5.0280    113.0771
   928.7500      0.0000    554.3349      4.9391    119.3949
   929.0000      0.0000    555.5740      4.8450    123.6231
   929.2500      0.0000    557.7208      4.7503    125.7051
