~Version Information
VERS.                      2.0: CWLS Log ASCII Standard - VERSION 2.0
WRAP.                       NO: One line per depth step
~Well Information Block
STRT.FT               250.0000: 
STOP.FT               894.7500: 
STEP.FT                 0.2500: 
NULL.                -999.2500: 
COMP.          Pioneer Natural Resources: COMPANY
WELL.          Santisteven 13-22: WELL
FLD.           Purgatoire River: FIELD
LOC.           1861' FSL & 992' FWL----: LOCATION
PROV.                 Colorado: PROVINCE
CNTY.               Las Animas: COUNTRY
SRVC.                Patterson: SERVICE COMPANY
DATE.          Sat Apr 02 14:49:07 2005: LOG DATE
UWI.           05 071 08337 00: UNIQUE WELL ID
~Curve Information Block
DEPT.FT            0 000 00 00: Depth
SN.Ohm-m                      : IEL Short Normal
SP.mV                         : IEL Spontaneous Potential
DIR.Ohm-m                     : IEL Induction Resistivity
GR.GAPI                       : Gamma Ray
~Parameter Information Block
~A  Depth        SN          SP         DIR          GR     
# ...
   853.0000     25.6514     26.2177     20.3715     93.1505
   853.2500     25.3149     26.2203     20.0914     91.7661
   853.5000     25.0299     26.2238     19.7267     92.1091
   853.7500     24.8424     26.2269     19.3364     94.0120
   854.0000     24.7529     26.2286     18.9762     98.0936
   854.2500     24.7055     26.2284     18.6750    100.5434
   854.5000     24.6149     26.2261     18.4258    102.5587
   854.7500     24.4133     26.2217     18.1930    102.6801
   855.0000     24.0833     26.2160     17.9302    101.3333
   855.2500     23.6565     26.2097     17.6019     99.5722
   855.5000     23.1903     26.2040     17.1995     96.1122
   855.7500     22.7457     26.1995     16.7468     93.9077
   856.0000     22.3764     26.1969     16.2922     92.0758
   856.2500     22.1208     26.1963     15.8928     92.1991
   856.5000     21.9894     26.1974     15.5959     93.9962
   856.7500     21.9589     26.1998     15.4287     95.7584
   857.0000     21.9823     26.2028     15.3969     98.4547
   857.2500     22.0138     26.2060     15.4873     99.8979
   857.5000     22.0326     26.2090     15.6704    100.9167
   857.7500     22.0524     26.2117     15.9051    100.5505
   858.0000     22.1126     26.2143     16.1502     98.2507
   858.2500     22.2611     26.2170     16.3819     95.7316
   858.5000     22.5342     26.2200     16.6068     91.4061
   858.7500     22.9396     26.2236     16.8580     88.8432
   859.0000     23.4462     26.2275     17.1742     86.2026
   859.2500     23.9878     26.2316     17.5753     85.2807
   859.5000     24.4833     26.2353     18.0492     84.9446
   859.7500     24.8697     26.2380     18.5539     85.3400
   860.0000     25.1275     26.2394     19.0333     86.8107
   860.2500     25.2793     26.2392     19.4402     88.3008
   860.5000     25.3624     26.2374     19.7540     91.0995
   860.7500     25.3988     26.2344     19.9849     93.2577
   861.0000     25.3867     26.2305     20.1618     96.7341
   861.2500     25.3159     26.2262     20.3150     98.7876
   861.5000     25.1911     26.2216     20.4647     99.9094
   861.7500     25.0441     26.2171     20.6204     98.0256
   862.0000     24.9274     26.2128     20.7876     88.7952
   862.2500     24.8910     26.2089     20.9723     77.5518
   862.5000     24.9558     26.2056     21.1783     54.6698
   862.7500     25.0968     26.2033     21.3943     38.3787
   863.0000     25.2492     26.2021     21.5828     18.2391
   863.2500     25.3362     26.2022     21.6858      9.5007
   863.5000     25.3065     26.2034     21.6532      2.7757
   863.7500     25.1574     26.2054     21.4768      1.0249
   864.0000     24.9311     26.2075     21.2006      0.1740
   864.2500     24.6831     26.2092     20.8976      0.0431
   864.5000     24.4467     26.2099     20.6320      0.0024
   864.7500     24.2172     26.2095     20.4321   -999.2500
   865.0000     23.9683     26.2082     20.2890   -999.2500
   865.2500     23.6847     26.2063     20.1741   -999.2500
   865.5000     23.3847     26.2046     20.0626   -999.2500
   865.7500     23.1205     26.2038     19.9471   -999.2500
   866.0000     22.9579     26.2046     19.8418   -999.2500
   866.2500     22.9466     26.2070     19.7787   -999.2500
   866.5000     23.0941     26.2109     19.8015   -999.2500
   866.7500     23.3592     26.2157     19.9542   -999.2500
   867.0000     23.6688     26.2208     20.2616   -999.2500
   867.2500     23.9453     26.2252     20.7092   -999.2500
   867.5000     24.1305     26.2284     21.2323   -999.2500
   867.7500     24.1985     26.2297     21.7290   -999.2500
   868.0000     24.1577     26.2290     22.0978   -999.2500
   868.2500     24.0412     26.2264     22.2817   -999.2500
   868.5000     23.8912     26.2222     22.2860   -999.2500
   868.7500     23.7420     26.2169     22.1605   -999.2500
   869.0000     23.6075     26.2108     21.9652   -999.2500
   869.2500     23.4828     26.2046     21.7473   -999.2500
   869.5000     23.3576     26.1984     21.5339   -999.2500
   869.7500     23.2296     26.1927     21.3338   -999.2500
   870.0000     23.1038     26.1878     21.1394   -999.2500
   870.2500     22.9813     26.1838     20.9311   -999.2500
   870.5000     22.8522     26.1811     20.6854   -999.2500
   870.7500     22.7019     26.1798     20.3891   -999.2500
   871.0000     22.5268     26.1798     20.0520   -999.2500
   871.2500     22.3446     26.1810     19.7107   -999.2500
   871.5000     22.1862     26.1831     19.4182   -999.2500
   871.7500     22.0723     26.1856     19.2268   -999.2500
   872.0000     21.9986     26.1881     19.1704   -999.2500
   872.2500     21.9409     26.1901     19.2549   -999.2500
   872.5000     21.8729     26.1915     19.4575   -999.2500
   872.7500     21.7800     26.1919     19.7314   -999.2500
   873.0000     21.6637     26.1914     20.0150   -999.2500
   873.2500     21.5397     26.1900     20.2440   -999.2500
   873.5000     21.4335     26.1880     20.3681   -999.2500
   873.7500     21.3718     26.1856     20.3684   -999.2500
   874.0000     21.3696     26.1833     20.2654   -999.2500
   874.2500     21.4223     26.1815     20.1080   -999.2500
   874.5000     21.5109     26.1805     19.9515   -999.2500
   874.7500     21.6198     26.1804     19.8381   -999.2500
   875.0000     21.7528     26.1810     19.7924   -999.2500
   875.2500     21.9286     26.1819     19.8274   -999.2500
   875.5000     22.1586     26.1826     19.9497   -999.2500
   875.7500     22.4292     26.1825     20.1575   -999.2500
   876.0000     22.7073     26.1812     20.4339   -999.2500
   876.2500     22.9595     26.1786     20.7445   -999.2500
   876.5000     23.1641     26.1749     21.0454   -999.2500
   876.7500     23.3094     26.1706     21.2977   -999.2500
   877.0000     23.3968     26.1662     21.4813   -999.2500
   877.2500     23.4568     26.1623     21.6013   -999.2500
   877.5000     23.5554     26.1591     21.6881   -999.2500
   877.7500     23.7630     26.1567     21.7878   -999.2500
   878.0000     24.1002     26.1548     21.9383   -999.2500
   878.2500     24.5093     26.1529     22.1390   -999.2500
   878.5000     24.8775     26.1505     22.3309   -999.2500
   878.7500     25.0923     26.1471     22.4125   -999.2500
   879.0000     25.0945     26.1426     22.2933   -999.2500
   879.2500     24.9053     26.1374     21.9545   -999.2500
   879.5000     24.6222     26.1322     21.4667   -999.2500
   879.7500     24.3812     26.1279     20.9562   -999.2500
   880.0000     24.2958     26.1252     20.5510   -999.2500
   880.2500     24.4021     26.1245     20.3417   -999.2500
   880.5000     24.6442     26.1257     20.3632   -999.2500
   880.7500     24.9128     26.1283     20.5957   -999.2500
   881.0000     25.1096     26.1314     20.9790   -999.2500
   881.2500     25.1934     26.1340     21.4391   -999.2500
   881.5000     25.1877     26.1352     21.9199   -999.2500
   881.7500     25.1572     26.1345     23.1004   -999.2500
   882.0000     25.1693     26.1317     23.6366   -999.2500
   882.2500     25.2557     26.1270     24.2179   -999.2500
   882.5000     25.3915     26.1211     24.8305   -999.2500
   882.7500     25.5057     26.1149     25.4055   -999.2500
   883.0000     25.5190     26.1093     25.8387   -999.2500
   883.2500     25.3815     26.1053     26.0421   -999.2500
   883.5000     25.0839     26.1036     25.9787   -999.2500
   883.7500     24.6429     26.1044     25.6738   -999.2500
   884.0000     24.0844     26.1077     25.2248   -999.2500
   884.2500     23.4419     26.1130     24.8402   -999.2500
   884.5000     22.7617     26.1200     24.8979   -999.2500
   884.7500     22.0988     26.1277     26.0348   -999.2500
   885.0000     21.5011     26.1357     29.4258   -999.2500
   885.2500     20.9946     26.1434     35.7811   -999.2500
   885.5000     20.5820     26.1506     56.7114   -999.2500
   885.7500     20.2478     26.1570    160.9434   -999.2500
   886.0000     19.9683     26.1619 100000.0000   -999.2500
   886.2500     19.7227     26.1648 100000.0000   -999.2500
