~Version Information
VERS.                      2.0: CWLS Log ASCII Standard - VERSION 2.0
WRAP.                       NO: One line per depth step
~Well Information Block
STRT.FT               275.0000: 
STOP.FT              1682.2000: 
STEP.FT                 0.1000: 
NULL.                -999.2500: 
COMP.          Pioneer Natural Resources: COMPANY
WELL.               Elmo 14-21: WELL
FLD.           Purgatoire River: FIELD
LOC.           623' FSL & 450' FWL----: LOCATION
PROV.                 Colorado: PROVINCE
CNTY.               Las Animas: COUNTRY
SRVC.                Patterson: SERVICE COMPANY
DATE.          Wed May 18 08:17:30 2005: LOG DATE
UWI.           05 071 08360 00: UNIQUE WELL ID
~Curve Information Block
DEPT.FT            0 000 00 00: Depth
DCAL.in                       : CDL Caliper
RHOB.g/cc                     : CDL Bulk Density
RHOC.g/cc                     : CDL Density Correction
DPOR.pu                       : CDL Density Porosity
NPOR.pu                       : Neutron Porosity
GR.GAPI                       : Gamma Ray
~Parameter Information Block
~A  Depth       DCAL        RHOB        RHOC        DPOR        NPOR         GR     
# ...
  1187.0000      8.0951      2.5335      0.0652      7.0581     28.1902    105.2820
  1187.1000      8.0951      2.5367      0.0522      6.8669     28.0798    103.2625
  1187.2000      8.0951      2.5342      0.0348      7.0195     28.0166    100.9871
  1187.3000      8.0955      2.5272      0.0564      7.4450     27.7099    101.6144
  1187.4000      8.0955      2.5164      0.0150      8.0960     26.9079    102.3708
  1187.5000      8.0943      2.5060      0.0451      8.7268     26.0999    100.9767
  1187.6000      8.0943      2.5056      0.0021      8.7509     25.7657     99.1913
  1187.7000      8.0943      2.5283     -0.0108      7.3741     25.9680     98.0170
  1187.8000      8.0936      2.5662      0.0814      5.0767     26.5695     97.2830
  1187.9000      8.0936      2.5916      0.0800      3.5374     27.2591     97.8194
  1188.0000      8.0931      2.5934      0.0696      3.4315     27.4101     99.9142
  1188.1000      8.0931      2.5807      0.0486      4.2008     27.0388    103.3416
  1188.2000      8.0931      2.5581      0.0884      5.5697     26.6923    109.1337
  1188.3000      8.0920      2.5291      0.0449      7.3290     26.2105    115.1745
  1188.4000      8.0920      2.5137     -0.0244      8.2593     25.3707    117.3086
  1188.5000      8.0929      2.5230      0.0364      7.6965     24.6431    114.1101
  1188.6000      8.0929      2.5414      0.0407      6.5788     24.5255    109.1258
  1188.7000      8.0929      2.5564      0.0467      5.6721     24.9326    105.1596
  1188.8000      8.0939      2.5623      0.0598      5.3128     25.2986    104.7727
  1188.9000      8.0939      2.5546      0.0389      5.7824     25.3884    109.6681
  1189.0000      8.0926      2.5377      0.0485      6.8085     25.3775    114.4441
  1189.1000      8.0926      2.5217      0.0542      7.7741     25.5025    111.6846
  1189.2000      8.0926      2.5173      0.0390      8.0409     25.9449    100.8684
  1189.3000      8.0905      2.5295      0.0227      7.3004     26.2606     89.4823
  1189.4000      8.0905      2.5526      0.0637      5.9046     25.6622     83.4819
  1189.5000      8.0911      2.5738      0.0664      4.6163     24.5083     83.1868
  1189.6000      8.0911      2.5872      0.0517      3.8063     23.7913     85.0969
  1189.7000      8.0911      2.5909      0.0981      3.5827     23.6896     83.7503
  1189.8000      8.0953      2.5850      0.0416      3.9409     23.7124     77.4347
  1189.9000      8.0953      2.5809      0.0527      4.1857     23.2246     71.6943
  1190.0000      8.0970      2.5885      0.0324      3.7272     22.0452     70.0837
  1190.1000      8.0970      2.5938      0.0710      3.4045     20.9879     68.3639
  1190.2000      8.0970      2.5731      0.0378      4.6618     20.6651     64.1841
  1190.3000      8.0962      2.5376      0.0206      6.8094     20.5419     58.2619
  1190.4000      8.0962      2.5192      0.0441      7.9302     19.8592     53.3134
  1190.5000      8.0965      2.5209      0.0472      7.8214     18.8103     51.4231
  1190.6000      8.0965      2.5271      0.0407      7.4496     18.1097     50.6962
  1190.7000      8.0965      2.5251      0.0525      7.5699     18.0390     51.0249
  1190.8000      8.0958      2.5145      0.0040      8.2103     18.3969     52.0644
  1190.9000      8.0958      2.5053      0.0426      8.7727     19.0904     50.2374
  1191.0000      8.0932      2.4996      0.0685      9.1142     19.9574     46.5150
  1191.1000      8.0932      2.4969      0.0391      9.2762     20.4281     44.6806
  1191.2000      8.0932      2.4984      0.0421      9.1888     20.1875     45.0839
  1191.3000      8.0903      2.4940      0.0307      9.4539     19.6973     46.1723
  1191.4000      8.0903      2.4781      0.0434     10.4173     19.5634     47.3622
  1191.5000      8.0896      2.4656     -0.0032     11.1765     19.9087     47.8054
  1191.6000      8.0896      2.4690      0.0496     10.9678     20.2599     46.6746
  1191.7000      8.0896      2.4802      0.0442     10.2888     20.2780     45.7400
  1191.8000      8.0919      2.4930      0.0252      9.5178     20.5650     45.6541
  1191.9000      8.0919      2.5055      0.0953      8.7554     21.5215     45.1528
  1192.0000      8.0945      2.5109      0.0792      8.4279     22.5884     45.9190
  1192.1000      8.0945      2.5114      0.0568      8.4006     23.0258     48.6501
  1192.2000      8.0945      2.5129      0.0541      8.3070     22.8004     50.3968
  1192.3000      8.0954      2.5183      0.0517      7.9848     22.5856     50.7223
  1192.4000      8.0954      2.5323      0.0326      7.1341     22.7324     49.4742
  1192.5000      8.0949      2.5514      0.0829      5.9771     23.0827     47.7604
  1192.6000      8.0949      2.5631      0.0995      5.2651     23.5839     47.6565
  1192.7000      8.0949      2.5685      0.0715      4.9422     24.0586     46.2642
  1192.8000      8.0947      2.5769      0.0783      4.4280     23.9766     41.3735
  1192.9000      8.0947      2.5884      0.0888      3.7303     23.2120     36.4006
  1193.0000      8.0952      2.6005      0.0766      3.0022     22.5069     34.6249
  1193.1000      8.0952      2.6128      0.1085      2.2557     22.7760     35.3686
  1193.2000      8.0952      2.6226      0.0804      1.6634     23.8211     38.2536
  1193.3000      8.0953      2.6341      0.0561      0.9647     24.7986     43.9656
  1193.4000      8.0953      2.6537      0.1195     -0.2230     25.3726     50.6756
  1193.5000      8.0955      2.6722      0.1231     -1.3439     25.7825     54.6737
  1193.6000      8.0955      2.6732      0.1157     -1.4069     26.0920     53.3453
  1193.7000      8.0955      2.6502      0.0812     -0.0146     26.1581     48.1782
  1193.8000      8.0954      2.6176      0.0505      1.9619     26.4958     45.2963
  1193.9000      8.0954      2.6028      0.0099      2.8608     27.4280     49.0462
  1194.0000      8.0949      2.6106      0.0474      2.3870     28.1389     55.2658
  1194.1000      8.0949      2.6169      0.0306      2.0058     27.7834     58.6233
  1194.2000      8.0949      2.6100     -0.0049      2.4226     26.9117     60.5488
  1194.3000      8.0947      2.5984      0.0090      3.1263     26.6178     65.3329
  1194.4000      8.0947      2.5862      0.0374      3.8655     26.9440     76.7300
  1194.5000      8.0937      2.5757      0.0332      4.5031     27.4974     94.6535
  1194.6000      8.0937      2.5709      0.0325      4.7943     28.1130    112.5976
  1194.7000      8.0937      2.5668      0.0433      5.0402     28.7568    119.7130
  1194.8000      8.0919      2.5559      0.0506      5.7022     29.5931    113.7588
  1194.9000      8.0919      2.5423      0.0563      6.5299     30.1852    109.7338
  1195.0000      8.0904      2.5306      0.0351      7.2343     29.7626    117.3784
  1195.1000      8.0904      2.5155      0.0529      8.1518     28.6878    128.4487
  1195.2000      8.0904      2.4955      0.0181      9.3607     27.7470    134.4645
  1195.3000      8.0895      2.4869      0.0245      9.8825     27.3068    136.2821
  1195.4000      8.0895      2.5073     -0.0128      8.6474     27.4484    135.3402
  1195.5000      8.0911      2.5498      0.0655      6.0742     28.0427    132.1128
  1195.6000      8.0911      2.5827      0.0805      4.0815     28.6583    128.9101
  1195.7000      8.0911      2.5877      0.0712      3.7728     28.6700    125.1802
  1195.8000      8.0921      2.5767      0.0804      4.4418     28.0607    119.4331
  1195.9000      8.0921      2.5679      0.0413      4.9758     27.5809    115.5853
  1196.0000      8.0915      2.5681      0.0657      4.9623     27.6477    116.8576
  1196.1000      8.0915      2.5724      0.0515      4.7031     28.0221    117.7350
  1196.2000      8.0915      2.5704      0.0918      4.8228     28.1459    114.4926
  1196.3000      8.0914      2.5529      0.0712      5.8839     27.8764    110.9266
  1196.4000      8.0914      2.5269      0.0516      7.4625     27.7554    109.9868
  1196.5000      8.0938      2.5137      0.0128      8.2625     27.8826    112.7888
