~Version Information
VERS.                      2.0: CWLS Log ASCII Standard - VERSION 2.0
WRAP.                       NO: One line per depth step
~Well Information Block
STRT.FT               647.0000: 
STOP.FT              1167.5000: 
STEP.FT                 0.2500: 
NULL.                -999.2500: 
COMP.          Pioneer Natural Resources: COMPANY
WELL.             Linda T 32-3: WELL
FLD.           Purgatoire River: FIELD
LOC.           1350' FNL & 2290' FEL: LOCATION
PROV.                 Colorado: PROVINCE
CNTY.               Las Animas: COUNTRY
SRVC.                Patterson: SERVICE COMPANY
DATE.          Sat Feb 05 06:41:02 2005: LOG DATE
UWI.           05 071 08215 00: UNIQUE WELL ID
~Curve Information Block
DEPT.FT            0 000 00 00: Depth
SN.Ohm-m                      : IEL Short Normal
SP.mV                         : IEL Spontaneous Potential
DIR.Ohm-m                     : IEL Induction Resistivity
GR.GAPI                       : Gamma Ray
~Parameter Information Block
~A  Depth        SN          SP         DIR          GR     
# ...
   680.5000     11.1983     -8.3132      9.5293    136.4308
   680.7500     11.1457     -8.4135      9.4890    136.5441
   681.0000     10.8346     -8.6648      9.4824    137.1954
   681.2500     10.4776     -9.0383      9.5136    138.1988
   681.5000     10.3576     -9.4811      9.5810    140.1476
   681.7500     10.5225     -9.9299      9.6772    141.1095
   682.0000     10.8281    -10.3297      9.7917    141.0779
   682.2500     11.0862    -10.6446      9.9136    140.0789
   682.5000     11.1718    -10.8530     10.0354    138.1890
   682.7500     11.1128    -10.9360     10.1564    137.2798
   683.0000     11.0957    -10.8760     10.2827    136.2357
   683.2500     11.3536    -10.6725     10.4231    135.0524
   683.5000     12.0110    -10.3577     10.5853    131.7954
   683.7500     12.9709     -9.9937     10.7753    128.9504
   684.0000     14.0277     -9.6514     10.9995    124.9605
   684.2500     14.9616     -9.3877     11.2617    122.9929
   684.5000     15.5224     -9.2312     11.5552    120.8555
   684.7500     15.6905     -9.1780     11.8548    119.5291
   685.0000     15.7403     -9.1988     12.1194    117.4939
   685.2500     15.8533     -9.2541     12.3062    116.4600
   685.5000     15.9723     -9.3127     12.3902    115.9887
   685.7500     15.9862     -9.3625     12.3740    116.4793
   686.0000     15.8449     -9.4097     12.2796    118.5382
   686.2500     15.5567     -9.4698     12.1300    121.0112
   686.5000     15.1597     -9.5588     11.9346    126.4118
   686.7500     14.6764     -9.6870     11.6913    130.5554
   687.0000     14.0887     -9.8514     11.3997    135.6997
   687.2500     13.3648    -10.0309     11.0708    137.4487
   687.5000     12.5190    -10.1904     10.7227    137.2835
   687.7500     11.6539    -10.2952     10.3706    135.9845
   688.0000     10.9205    -10.3271     10.0231    133.8388
   688.2500     10.4214    -10.2930      9.6875    132.9053
   688.5000     10.1568    -10.2204      9.3748    132.6031
   688.7500     10.0358    -10.1445      9.0977    133.1738
   689.0000      9.9402    -10.0929      8.8653    135.3308
   689.2500      9.8106    -10.0768      8.6805    137.5895
   689.5000      9.6629    -10.0904      8.5420    141.5539
   689.7500      9.5327    -10.1160      8.4474    144.0968
   690.0000      9.4372    -10.1303      8.3934    147.5815
   690.2500      9.3763    -10.1098      8.3764    149.9818
   690.5000      9.3394    -10.0367      8.3935    153.8686
   690.7500      9.3082     -9.9052      8.4419    156.0943
   691.0000      9.2707     -9.7274      8.5185    157.4722
   691.2500      9.2255     -9.5347      8.6176    156.8585
   691.5000      9.1750     -9.3711      8.7312    154.6879
   691.7500      9.1407     -9.2793      8.8512    153.1213
   692.0000      9.1904     -9.2817      8.9715    150.7519
   692.2500      9.4057     -9.3675      9.0879    148.8214
   692.5000      9.7992     -9.4949      9.1973    145.1178
   692.7500     10.2803     -9.6106      9.2980    142.2912
   693.0000     10.7059     -9.6783      9.3915    138.2900
   693.2500     10.9768     -9.6939      9.4833    136.5513
   693.5000     11.0982     -9.6782      9.5813    136.9479
   693.7500     11.1520     -9.6570      9.6929    139.6599
   694.0000     11.2161     -9.6464      9.8244    146.1289
   694.2500     11.3116     -9.6531      9.9809    150.3580
   694.5000     11.4118     -9.6840     10.1672    153.9834
   694.7500     11.4969     -9.7536     10.3878    154.0220
   695.0000     11.5980     -9.8819     10.6466    151.0479
   695.2500     11.7755    -10.0830     10.9472    147.8250
   695.5000     12.0699    -10.3531     11.2926    142.7444
   695.7500     12.4951    -10.6671     11.6832    139.8898
   696.0000     13.0444    -10.9859     12.1165    136.3774
   696.2500     13.6925    -11.2689     12.5880    134.0017
   696.5000     14.4282    -11.4864     13.0950    129.9460
   696.7500     15.2771    -11.6300     13.6387    127.2416
   697.0000     16.2697    -11.7153     14.2231    123.7340
   697.2500     17.4183    -11.7771     14.8548    121.6041
   697.5000     18.7297    -11.8585     15.5474    118.0653
   697.7500     20.2017    -11.9934     16.3302    115.3443
   698.0000     21.8071    -12.1875     17.2481    111.1450
   698.2500     23.4804    -12.4094     18.3475    108.7091
   698.5000     25.1305    -12.6033     19.6501    106.1914
   698.7500     26.7414    -12.7176     21.1308    105.2764
   699.0000     28.4333    -12.7265     22.7145    104.2892
   699.2500     30.3035    -12.6346     24.3018    103.1180
   699.5000     32.2736    -12.4688     25.8173     99.3569
   699.7500     34.2001    -12.2677     27.2452     95.2682
   700.0000     36.0536    -12.0719     28.6245     87.4025
   700.2500     37.9168    -11.9137     30.0083     81.6802
   700.5000     39.8545    -11.8069     31.4313     73.3165
   700.7500     41.8325    -11.7444     32.9047     68.2049
   701.0000     43.7547    -11.7110     34.4214     61.5243
   701.2500     45.5291    -11.7004     35.9530     57.7661
   701.5000     47.0620    -11.7197     37.4472     53.0227
   701.7500     48.2566    -11.7758     38.8392     50.3023
   702.0000     49.0727    -11.8626     40.0565     46.5604
   702.2500     49.5556    -11.9627     41.0031     44.0678
   702.5000     49.8065    -12.0623     41.5620     40.1034
   702.7500     49.9224    -12.1644     41.6606     37.4371
   703.0000     49.9349    -12.2898     41.3518     34.0219
   703.2500     49.8150    -12.4650     40.8000     32.4910
   703.5000     49.5238    -12.7027     40.1683     31.5979
   703.7500     49.0253    -12.9871     39.5177     31.9691
   704.0000     48.2809    -13.2764     38.8009     33.9655
   704.2500     47.2844    -13.5203     37.9319     36.1078
   704.5000     46.0863    -13.6795     36.8652     39.6687
   704.7500     44.7661    -13.7335     35.6300     41.3946
   705.0000     43.3965    -13.6834     34.3116     41.4980
   705.2500     42.0340    -13.5536     33.0101     39.6371
   705.5000     40.7142    -13.3893     31.8126     35.3539
   705.7500     39.4376    -13.2426     30.7866     33.2027
   706.0000     38.1739    -13.1513     29.9762     33.8763
   706.2500     36.8888    -13.1246     29.3905     37.7243
   706.5000     35.5826    -13.1465     28.9900     48.1962
   706.7500     34.3221    -13.1849     28.6977     57.4693
   707.0000     33.2258    -13.2003     28.4394     73.0665
   707.2500     32.3983    -13.1538     28.1918     83.3898
   707.5000     31.8610    -13.0203     27.9937     96.1963
   707.7500     31.5379    -12.7999     27.9113    101.5014
   708.0000     31.3437    -12.5190     27.9894    103.4903
   708.2500     31.2930    -12.2203     28.2292    101.2521
   708.5000     31.4768    -11.9433     28.6048     94.1463
   708.7500     31.9491    -11.7041     29.0981     87.6513
   709.0000     32.6964    -11.4860     29.7200     76.0518
   709.2500     33.6764    -11.2475     30.4948     67.6450
   709.5000     34.8138    -10.9463     31.4224     55.4230
   709.7500     35.9875    -10.5622     32.4563     48.2474
   710.0000     37.0763    -10.1038     33.5265     39.4604
   710.2500     38.0154     -9.5971     34.5861     34.9224
   710.5000     38.8016     -9.0698     35.6341     29.9486
   710.7500     39.4682     -8.5432     36.6865     27.6622
   711.0000     40.0425     -8.0316     37.7226     25.1641
   711.2500     40.5139     -7.5438     38.6550     23.7372
   711.5000     40.8683     -7.0870     39.3430     21.7070
   711.7500     41.1190     -6.6711     39.6427     20.5694
   712.0000     41.2575     -6.3082     39.4628     19.6326
   712.2500     41.2294     -6.0082     38.7845     19.7594
   712.5000     40.9823     -5.7725     37.6335     21.4150
   712.7500     40.4828     -5.5908     36.0404     23.6248
   713.0000     39.7006     -5.4397     34.0390     28.5341
   713.2500     38.6076     -5.2917     31.7085     32.6696
   713.5000     37.1612     -5.1334     29.2034     39.8180
   713.7500     35.2979     -4.9743     26.7244     45.2636
