~Version Information
VERS.                      2.0: CWLS Log ASCII Standard - VERSION 2.0
WRAP.                       NO: One line per depth step
~Well Information Block
STRT.FT                -8.2500: 
STOP.FT              1119.7500: 
STEP.FT                 0.2500: 
NULL.                -999.2500: 
COMP.          Pioneer Natural Resources: COMPANY
WELL.             Linda T 32-3: WELL
FLD.           Purgatorie River: FIELD
LOC.           1350' FNL & 2290' FEL------: LOCATION
PROV.                       CO: PROVINCE
CNTY.               Las Animas: COUNTRY
SRVC.                         : SERVICE COMPANY
DATE.          Thu Feb 10 08:20:40 2005: LOG DATE
UWI.          005 071 08215   : UNIQUE WELL ID
~Curve Information Block
DEPT.FT            0 000 00 00: Depth
CCL.                          : Casing Collar Locator
TT3.usec                      : CBL 3' Travel Time
AMP3.mV                       : CBL 3' Amplitude
GR.GAPI                       : Gamma Ray
~Parameter Information Block
~A  Depth       CCL         TT3         AMP3         GR     
# ...
   795.7500      0.0000    736.0082      7.0195     53.4683
   796.0000      0.0000    738.4605      7.0801     56.3512
   796.2500      0.0000    740.5751      7.0925     59.9907
   796.5000      0.0000    742.1025      7.0383     62.6535
   796.7500      0.0000    742.7734      6.9438     63.4602
   797.0000      0.0000    741.9951      6.8553     63.3086
   797.2500      0.0000    739.0242      6.7971     64.1323
   797.5000      0.0000    733.9205      6.7533     67.2704
   797.7500      0.0000    727.9465      6.6830     72.3118
   798.0000      0.0000    722.8953      6.5619     77.1691
   798.2500      0.0000    720.2978      6.4134     79.4415
   798.5000      0.0000    720.6830      6.2970     78.3693
   798.7500      0.0000    722.9067      6.2612     75.7648
   799.0000      0.0000    724.6632      6.3079     74.6390
   799.2500      0.0000    724.2917      6.3975     76.7672
   799.5000      0.0000    722.0500      6.4796     81.8781
   799.7500      0.0000    719.6735      6.5170     88.7428
   800.0000      0.0000    719.0630      6.4960     96.2087
   800.2500      0.0000    721.1021      6.4311    103.2612
   800.5000      0.0000    725.0053      6.3592    108.7609
   800.7500      0.0000    728.6620      6.3173    111.6399
   801.0000      0.0000    729.9333      6.3181    111.7456
   801.2500      0.0000    727.9407      6.3425    110.4236
   801.5000      0.0000    723.4677      6.3544    109.6426
   801.7500      0.0000    718.3108      6.3245    110.3874
   802.0000      0.0000    714.0208      6.2548    112.2425
   802.2500      0.0000    711.2109      6.1822    114.1860
   802.5000      0.0000    710.1331      6.1471    115.2100
   802.7500      0.0000    711.3635      6.1498    114.7725
   803.0000      0.0000    715.2137      6.1434    113.4724
   803.2500      0.0000    720.7413      6.0835    112.7380
   803.5000      0.0000    726.0429      5.9834    113.0121
   803.7500      0.0000    729.5594      5.9070    112.7814
   804.0000      0.0000    730.8055      5.9071    110.3269
   804.2500      0.0000    730.0592      5.9786    106.0457
   804.5000      0.0000    727.9142      6.0751    102.2899
   804.7500      0.0000    725.2169      6.1566    101.1921
   805.0000      0.0000    722.9407      6.2149    103.1526
   805.2500      0.0000    721.7568      6.2645    106.9373
   805.5000      0.0000    721.8165      6.3211    110.5464
   805.7500      0.0000    722.8929      6.3835    112.0547
   806.0000      0.0000    724.2844      6.4257    110.3044
   806.2500      0.0000    724.6166      6.4125    105.5805
   806.5000      0.0000    722.4149      6.3339     99.9118
   806.7500      0.0000    717.2953      6.2256     96.2185
   807.0000      0.0000    710.4798      6.1474     96.2350
   807.2500      0.0000    703.9590      6.1438     98.8933
   807.5000      0.0000    699.1469      6.2214    101.0322
   807.7500      0.0000    696.2914      6.3491     99.8433
   808.0000      0.0000    694.8503      6.4741     94.7511
   808.2500      0.0000    694.1372      6.5452     87.6254
   808.5000      0.0000    693.7595      6.5422     81.5273
   808.7500      0.0000    693.7918      6.4952     78.7011
   809.0000      0.0000    694.6804      6.4662     79.3519
   809.2500      0.0000    696.8187      6.4932     82.1944
   809.5000      0.0000    699.9490      6.5527     85.7138
   809.7500      0.0000    702.8803      6.5814     88.7075
   810.0000      0.0000    704.0701      6.5381     90.3853
   810.2500      0.0000    702.8471      6.4435     90.6640
   810.5000      0.0000    700.0921      6.3639     90.2186
   810.7500      0.0000    697.6237      6.3537     89.9005
   811.0000      0.0000    697.1348      6.4059     89.9690
   811.2500      0.0000    699.6416      6.4562     89.8363
   811.5000      0.0000    705.1702      6.4377     88.6880
   811.7500      0.0000    712.3585      6.3338     86.4547
   812.0000      0.0000    718.7189      6.1814     83.8490
   812.2500      0.0000    721.9239      6.0274     81.4513
   812.5000      0.0000    720.9964      5.8907     79.5413
   812.7500      0.0000    716.4188      5.7708     78.8673
   813.0000      0.0000    709.4580      5.6751     80.3073
   813.2500      0.0000    700.8570      5.6121     83.3340
   813.5000      0.0000    689.4026      5.5615     85.9209
   813.7500      0.0000    672.4875      5.4756     86.4121
   814.0000      0.0000    650.0289      5.3205     84.8093
   814.2500      0.0000    628.3739      5.1136     82.2786
   814.5000      0.0000    618.2810      4.9181     80.1459
   814.7500      0.0000    626.5859      4.8009     79.2149
   815.0000      0.0000    649.5421      4.7904     79.2699
   815.2500      0.0000    675.3752      4.8697     79.2186
   815.5000      0.0000    693.6118      4.9979     78.2147
   815.7500     -2.0000    701.7534      5.1369     76.7069
   816.0000     -2.0000    704.1282      5.2788     76.0976
   816.2500      0.0000    706.2838      5.4670     77.3310
   816.5000      0.0000    710.7456      5.7667     79.9766
   816.7500      0.0000    716.4167      6.1791     82.6084
   817.0000      0.0000    720.4690      6.5907     83.8956
   817.2500      0.0000    720.6630      6.8545     83.4503
   817.5000      0.0000    716.7621      6.9300     82.0418
   817.7500      0.0000    710.5226      6.9107     81.1164
   818.0000      0.0000    704.5062      6.9095     81.6850
   818.2500      0.0000    700.5915      6.9528     83.2888
   818.5000      0.0000    699.3648      6.9862     84.1677
   818.7500      0.0000    700.5414      6.9491     82.7595
   819.0000      0.0000    703.5287      6.8279     79.0603
   819.2500      0.0000    707.5845      6.6544     74.4071
   819.5000      0.0000    712.0126      6.4765     69.9705
   819.7500      0.0000    716.7595      6.3336     65.7112
   820.0000      0.0000    722.7272      6.2475     60.9487
   820.2500      0.0000    730.9307      6.2192     55.7263
   820.5000      0.0000    740.8340      6.2263     51.1713
   820.7500      0.0000    749.5822      6.2254     48.4535
   821.0000      0.0000    753.4366      6.1744     47.8319
   821.2500      0.0000    750.4162      6.0708     48.9660
   821.5000      0.0000    741.7775      5.9634     51.7007
   821.7500      0.0000    731.2791      5.9119     55.8784
   822.0000      0.0000    723.0070      5.9349     60.4803
   822.2500      0.0000    719.1802      6.0055     63.8495
   822.5000      0.0000    719.3560      6.0847     65.2574
   822.7500      0.0000    721.5671      6.1452     65.8011
   823.0000      0.0000    723.9730      6.1732     67.2611
   823.2500      0.0000    725.2237      6.1719     70.3499
   823.5000      0.0000    724.1299      6.1675     74.2648
   823.7500      0.0000    720.2743      6.2077     77.5090
   824.0000      0.0000    714.9067      6.3423     78.8763
   824.2500      0.0000    710.2206      6.5890     78.2124
   824.5000      0.0000    707.3585      6.9036     76.6468
   824.7500      0.0000    705.5764      7.1903     75.7457
   825.0000      0.0000    703.5038      7.3546     76.1071
   825.2500      0.0000    700.7350      7.3511     76.8686
   825.5000      0.0000    698.0290      7.1919     76.8945
   825.7500      0.0000    696.5646      6.9293     76.5629
   826.0000      0.0000    697.5121      6.6346     77.8925
   826.2500      0.0000    701.9825      6.3675     82.3032
   826.5000      0.0000    710.4411      6.1482     88.6070
   826.7500      0.0000    721.5106      5.9656     93.9336
   827.0000      0.0000    731.7056      5.8174     96.5134
   827.2500      0.0000    737.4176      5.7220     97.0105
   827.5000      0.0000    737.6390      5.6861     97.2598
   827.7500      0.0000    734.4488      5.6852     98.2592
   828.0000      0.0000    730.8828      5.6911     99.4743
   828.2500      0.0000    728.8044      5.7007     99.7511
   828.5000      0.0000    728.6285      5.7247     98.6331
   828.7500      0.0000    730.2938      5.7585     96.7831
   829.0000      0.0000    733.9307      5.7808     95.2603
