~Version Information
VERS.                      2.0: CWLS Log ASCII Standard - VERSION 2.0
WRAP.                       NO: One line per depth step
~Well Information Block
STRT.FT               742.5000: 
STOP.FT              2463.5000: 
STEP.FT                 0.2500: 
NULL.                -999.2500: 
COMP.          Petrogulf Corporation: COMPANY
WELL.           Montoya 12-44V: WELL
FLD.           Purgatorie River: FIELD
LOC.           698' FSL & 599' FEL: LOCATION
CNTY.               Las Animas: COUNTY
SRVC.                         : SERVICE COMPANY
DATE.          Sun Aug 08 06:43:17 2004: LOG DATE
UWI.           05 071 08094 00: UNIQUE WELL ID
STAT.                 Colorado: STATE
~Curve Information Block
DEPT.FT            0 000 00 00: Depth
SN.Ohm-m                      : IEL Short Normal
SP.mV                         : IEL Spontaneous Potential
DIR.Ohm-m                     : IEL Induction Resistivity
GR.GAPI                       : Gamma Ray
~Parameter Information Block
~A  Depth        SN          SP         DIR          GR     
# ...
  1178.0000    110.9703    -48.7784     92.9097     53.6250
  1178.2500    114.9929    -47.6263     96.0439     51.8819
  1178.5000    119.1478    -46.4413     97.4563     51.1233
  1178.7500    123.5449    -45.2267     98.8066     51.4659
  1179.0000    128.2346    -44.0012    100.9010     51.8336
  1179.2500    133.1490    -42.8021    102.7445     51.3536
  1179.5000    138.0523    -41.6773    101.7664     49.5013
  1179.7500    142.5110    -40.6795     95.8973     47.8734
  1180.0000    145.9014    -39.8436     86.0750     45.3660
  1180.2500    147.4673    -39.1742     75.4240     43.8107
  1180.5000    146.4439    -38.6370     66.4474     42.0057
  1180.7500    142.2290    -38.1601     59.9062     41.4704
  1181.0000    134.5493    -37.6498     55.3278     42.0915
  1181.2500    123.5696    -37.0158     51.6841     43.4816
  1181.5000    109.9214    -36.1973     47.9572     46.7740
  1181.7500     94.6452    -35.1874     43.6581     49.7113
  1182.0000     79.0366    -34.0449     38.9914     55.8945
  1182.2500     64.4010    -32.8918     34.5090     62.0307
  1182.5000     51.7759    -31.8911     30.6743     75.2524
  1182.7500     41.7275    -31.2069     27.6889     86.3294
  1183.0000     34.3087    -30.9616     25.5235    103.8423
  1183.2500     29.1795    -31.1997     23.9972    114.3092
  1183.5000     25.8114    -31.8748     22.8586    125.8982
  1183.7500     23.6789    -32.8610     21.8791    130.3808
  1184.0000     22.3724    -33.9852     20.9324    132.8889
  1184.2500     21.6213    -35.0712     20.0099    132.7641
  1184.5000     21.2523    -35.9798     19.1582    131.7339
  1184.7500     21.1318    -36.6298     18.4086    131.0387
  1185.0000     21.1331    -37.0008     17.7565    129.7025
  1185.2500     21.1415    -37.1162     17.1874    128.0880
  1185.5000     21.0770    -37.0275     16.7093    124.0351
  1185.7500     20.9082    -36.7925     16.3534    120.4442
  1186.0000     20.6424    -36.4592     16.1410    114.8761
  1186.2500     20.3029    -36.0694     16.0482    111.8838
  1186.5000     19.9103    -35.6472     16.0001    109.4377
  1186.7500     19.4811    -35.2054     15.9028    109.2059
  1187.0000     19.0356    -34.7468     15.6913    110.3148
  1187.2500     18.6011    -34.2711     15.3593    111.5611
  1187.5000     18.2031    -33.7831     14.9523    113.7604
  1187.7500     17.8527    -33.3033     14.5364    115.5300
  1188.0000     17.5437    -32.8611     14.1680    119.2455
  1188.2500     17.2609    -32.4997     13.8730    122.6310
  1188.5000     16.9910    -32.2560     13.6429    128.0300
  1188.7500     16.7277    -32.1419     13.4467    130.4201
  1189.0000     16.4719    -32.1332     13.2586    130.1716
  1189.2500     16.2288    -32.1571     13.0822    127.5791
  1189.5000     16.0033    -32.1055     12.9518    122.3054
  1189.7500     15.7974    -31.8544     12.9080    119.3031
  1190.0000     15.6120    -31.2949     12.9672    116.8916
  1190.2500     15.4569    -30.3646     13.1077    116.8498
  1190.5000     15.3583    -29.0710     13.2803    118.8787
  1190.7500     15.3529    -27.5006     13.4344    121.1861
  1191.0000     15.4646    -25.8066     13.5366    124.9567
  1191.2500     15.6786    -24.1798     13.5720    127.1027
  1191.5000     15.9348    -22.8124     13.5373    129.3319
  1191.7500     16.1514    -21.8592     13.4392    130.1043
  1192.0000     16.2639    -21.4192     13.2958    129.9524
  1192.2500     16.2512    -21.5246     13.1290    128.8379
  1192.5000     16.1315    -22.1484     12.9565    126.1322
  1192.7500     15.9363    -23.2190     12.7930    124.3903
  1193.0000     15.6854    -24.6466     12.6567    123.0840
  1193.2500     15.3809    -26.3301     12.5660    123.2969
  1193.5000     15.0212    -28.1718     12.5220    124.6102
  1193.7500     14.6194    -30.0762     12.4926    125.3651
  1194.0000     14.2132    -31.9513     12.4187    125.1801
  1194.2500     13.8591    -33.7067     12.2448    124.3011
  1194.5000     13.6126    -35.2558     11.9507    123.3576
  1194.7500     13.5057    -36.5330     11.5611    123.6929
  1195.0000     13.5324    -37.5037     11.1273    125.2537
  1195.2500     13.6502    -38.1817     10.7017    126.0851
  1195.5000     13.7963    -38.6316     10.3195    125.4543
  1195.7500     13.9087    -38.9620      9.9930    123.1385
  1196.0000     13.9408    -39.3019      9.7182    116.2533
  1196.2500     13.8638    -39.7707      9.4892    109.6028
  1196.5000     13.6634    -40.4464      9.3088     98.5659
  1196.7500     13.3382    -41.3452      9.1862     92.6377
  1197.0000     12.9007    -42.4188      9.1267     89.5413
  1197.2500     12.3779    -43.5690      9.1225     92.2963
  1197.5000     11.8081    -44.6767      9.1493    102.5051
  1197.7500     11.2344    -45.6248      9.1703    111.5377
  1198.0000     10.6972    -46.3304      9.1485    124.6731
  1198.2500     10.2310    -46.7423      9.0646    131.3311
  1198.5000      9.8662    -46.8419      8.9285    136.9637
  1198.7500      9.6360    -46.6272      8.7763    138.4139
  1199.0000      9.5809    -46.1067      8.6527    139.1227
  1199.2500      9.7411    -45.2946      8.5933    139.4140
  1199.5000     10.1335    -44.2217      8.6142    139.8871
  1199.7500     10.7269    -42.9421      8.7090    140.2547
  1200.0000     11.4327    -41.5420      8.8518    141.2654
  1200.2500     12.1257    -40.1361      9.0073    142.3610
  1200.5000     12.6846    -38.8533      9.1463    143.9771
  1200.7500     13.0299    -37.8141      9.2532    144.3636
  1201.0000     13.1360    -37.1047      9.3196    143.3349
  1201.2500     13.0140    -36.7536      9.3337    141.8145
  1201.5000     12.6830    -36.7270      9.2839    139.0485
  1201.7500     12.1545    -36.9381      9.1761    137.0950
  1202.0000     11.4429    -37.2715      9.0400    133.8943
  1202.2500     10.5920    -37.6226      8.9124    131.6178
  1202.5000      9.6933    -37.9258      8.8129    128.7877
  1202.7500      8.8774    -38.1696      8.7361    127.9855
  1203.0000      8.2806    -38.3834      8.6624    129.0751
  1203.2500      8.0032    -38.6094      8.5761    131.1960
  1203.5000      8.0782    -38.8706      8.4731    135.7473
  1203.7500      8.4597    -39.1457      8.3569    139.2824
  1204.0000      9.0349    -39.3741      8.2316    144.7750
  1204.2500      9.6583    -39.4781      8.1013    148.2378
  1204.5000     10.1944    -39.3962      7.9727    152.4788
  1204.7500     10.5494    -39.1089      7.8536    154.2841
  1205.0000     10.6804    -38.6503      7.7464    154.9411
  1205.2500     10.5876    -38.0989      7.6458    153.8139
  1205.5000     10.3041    -37.5464      7.5431    149.6876
  1205.7500      9.8861    -37.0788      7.4354    145.5054
  1206.0000      9.3991    -36.7531      7.3296    138.0681
  1206.2500      8.8996    -36.5947      7.2392    133.3361
  1206.5000      8.4282    -36.6067      7.1795    128.6136
  1206.7500      8.0207    -36.7763      7.1638    127.8634
  1207.0000      7.7256    -37.0852      7.1990    130.2597
  1207.2500      7.6006    -37.5069      7.2824    133.4387
  1207.5000      7.6834    -38.0028      7.4004    138.8242
  1207.7500      7.9587    -38.5135      7.5329    141.8488
  1208.0000      8.3506    -38.9684      7.6630    144.5286
  1208.2500      8.7509    -39.2920      7.7835    145.3219
  1208.5000      9.0650    -39.4243      7.8980    146.6568
  1208.7500      9.2466    -39.3337      8.0147    148.2954
  1209.0000      9.3015    -39.0250      8.1349    150.9198
  1209.2500      9.2692    -38.5340      8.2432    151.4936
  1209.5000      9.2003    -37.9118      8.3096    149.5304
  1209.7500      9.1419    -37.2013      8.3068    147.0388
  1210.0000      9.1297    -36.4191      8.2360    143.8062
  1210.2500      9.1824    -35.5536      8.1333    142.8154
  1210.5000      9.3008    -34.5753      8.0520    142.9389
  1210.7500      9.4724    -33.4657      8.0331    143.6929
  1211.0000      9.6787    -32.2492      8.0890    145.6498
  1211.2500      9.8988    -31.0097      8.2043    147.6044
