~Version Information
VERS.                      2.0: CWLS Log ASCII Standard - VERSION 2.0
WRAP.                       NO: One line per depth step
~Well Information Block
STRT.FT                15.0000: 
STOP.FT              2265.2500: 
STEP.FT                 0.2500: 
NULL.                -999.2500: 
COMP.          Pioneer Natural Resources: COMPANY
WELL.             Vector 33-23: WELL
FLD.           Purgatoire River: FIELD
LOC.           1988' FSL & 1560' FEL: LOCATION
PROV.                 Colorado: PROVINCE
CNTY.               Las Animas: COUNTRY
SRVC.                Patterson: SERVICE COMPANY
DATE.          Fri Apr 01 13:14:24 2005: LOG DATE
UWI.           05 071 08336 00: UNIQUE WELL ID
~Curve Information Block
DEPT.FT            0 000 00 00: Depth
GR.GAPI                       : Gamma Ray
CCL.                          : Casing Collar Locator
TT3.usec                      : CBL 3' Travel Time
AMP3.mV                       : CBL 3' Amplitude
AMP5.mV                       : CBL 5' Amplitude
~Parameter Information Block
~A  Depth        GR         CCL         TT3         AMP3        AMP5    
# ...
  2227.0000     75.8652      0.0000    994.3175      6.9640      0.6275
  2227.2500     73.8749      0.0000   1020.5174      6.6553      0.5613
  2227.5000     71.7456      0.0000   1036.4630      6.2769      0.4935
  2227.7500     70.5763      0.0000   1045.4491      5.9144      0.4457
  2228.0000     70.8360      0.0000   1055.0021      5.6092      0.4236
  2228.2500     71.9271      0.0000   1073.9520      5.3505      0.4163
  2228.5000     72.6804      0.0000   1109.6125      5.1350      0.4102
  2228.7500     72.2641      0.0000   1162.3594      4.9803      0.3991
  2229.0000     70.6713      0.0000   1221.5680      4.8837      0.3852
  2229.2500     68.5869      0.0000   1269.4252      4.8227      0.3748
  2229.5000     67.0056      0.0000   1290.4668      4.8013      0.3733
  2229.7500     66.8517      0.0000   1278.1423      4.8812      0.3818
  2230.0000     68.5185      0.0000   1234.9994      5.1554      0.3968
  2230.2500     71.3715      0.0000   1171.0908      5.6674      0.4153
  2230.5000     73.7915      0.0000   1103.9749      6.3265      0.4401
  2230.7500     74.2396      0.0000   1056.5236      6.9315      0.4832
  2231.0000     72.6425      0.0000   1047.3845      7.3347      0.5613
  2231.2500     70.6238      0.0000   1079.3746      7.5694      0.6836
  2231.5000     70.1421      0.0000   1137.8333      7.7809      0.8370
  2231.7500     71.7773      0.0000   1199.4779      8.0728      0.9892
  2232.0000     74.1674      0.0000   1243.3591      8.4608      1.1165
  2232.2500     75.0850      0.0000   1260.2034      8.9372      1.2260
  2232.5000     73.3162      0.0000   1256.7648      9.5325      1.3433
  2232.7500     69.6332      0.0000   1247.7349     10.3131      1.4839
  2233.0000     65.8842      0.0000   1238.8529     11.3361      1.6412
  2233.2500     63.3108      0.0000   1220.7391     12.6048      1.7944
  2233.5000     61.9172      0.0000   1184.5786     14.0533      1.9196
  2233.7500     61.2123      0.0000   1141.7777     15.5647      1.9958
  2234.0000     61.0827      0.0000   1120.8480     17.0062      2.0122
  2234.2500     61.7979      0.0000   1141.8036     18.2477      1.9760
  2234.5000     63.4019      0.0000   1196.8702     19.1359      1.9110
  2234.7500     65.3720      0.0000   1258.3497     19.4586      1.8449
  2235.0000     66.9494      0.0000   1300.6599     19.0172      1.7919
  2235.2500     67.7451      0.0000   1311.1392     17.8191      1.7486
  2235.5000     67.9771      0.0000   1286.0114     16.1825      1.7034
  2235.7500     68.1143      0.0000   1227.8815     14.5647      1.6484
  2236.0000     68.3113      0.0000   1151.9391     13.2500      1.5833
  2236.2500     68.2994      0.0000   1085.0797     12.2341      1.5118
  2236.5000     67.8366      0.0000   1045.3947     11.3863      1.4360
  2236.7500     67.0162      0.0000   1023.0352     10.6424      1.3536
  2237.0000     66.1624      0.0000    993.0746     10.0301      1.2598
  2237.2500     65.8592      0.0000    948.5303      9.5807      1.1536
  2237.5000     66.9854      0.0000    909.1859      9.2660      1.0429
  2237.7500     70.0189      0.0000    895.4025      9.0074      0.9419
  2238.0000     74.1363      0.0000    903.3027      8.7293      0.8627
  2238.2500     77.5220      0.0000    911.9469      8.4110      0.8089
  2238.5000     78.8400      0.0000    909.8837      8.1009      0.7768
  2238.7500     78.3125      0.0000    906.1098      7.8841      0.7602
  2239.0000     77.3508      0.0000    914.4014      7.8339      0.7552
  2239.2500     77.2998      0.0000    934.9927      7.9798      0.7593
  2239.5000     78.5868      0.0000    954.5055      8.3007      0.7682
  2239.7500     80.8223      0.0000    956.5253      8.7361      0.7738
  2240.0000     83.3849      0.0000    931.5013      9.2009      0.7702
  2240.2500     85.8762      0.0000    885.7170      9.5941      0.7604
  2240.5000     88.2764      0.0000    842.9177      9.8114      0.7539
  2240.7500     90.7581      0.0000    829.5371      9.7854      0.7584
  2241.0000     93.1444      0.0000    853.8068      9.5399      0.7740
  2241.2500     94.5007      0.0000    901.1032      9.1995      0.7965
  2241.5000     93.5731      0.0000    952.0648      8.9270      0.8217
  2241.7500     89.9568      0.0000   1003.2513      8.8389      0.8482
  2242.0000     84.8036      0.0000   1063.9573      8.9632      0.8780
  2242.2500     80.1328      0.0000   1133.7017      9.2562      0.9151
  2242.5000     77.4372      0.0000   1193.7695      9.6471      0.9606
  2242.7500     76.9804      0.0000   1226.3014     10.0771      1.0099
  2243.0000     78.0142      0.0000   1234.8590     10.5169      1.0556
  2243.2500     79.2619      0.0000   1239.7949     10.9663      1.0918
  2243.5000     79.4084      0.0000   1255.6693     11.4482      1.1148
  2243.7500     77.7239      0.0000   1277.6324     11.9927      1.1208
  2244.0000     74.5887      0.0000   1289.9431     12.6052      1.1064
  2244.2500     71.3896      0.0000   1283.9283     13.2263      1.0723
  2244.5000     69.6307      0.0000   1266.1495     13.7183      1.0247
  2244.7500     69.8451      0.0000   1249.8687     13.9110      0.9727
  2245.0000     71.2194      0.0000   1240.1628     13.6904      0.9237
  2245.2500     72.3231      0.0000   1230.6338     13.0624      0.8817
  2245.5000     72.2841      0.0000   1216.1793     12.1354      0.8489
  2245.7500     71.3391      0.0000   1203.8585     11.0473      0.8277
  2246.0000     70.4937      0.0000   1206.6689      9.9123      0.8182
  2246.2500     70.8087      0.0000   1229.5627      8.8222      0.8128
  2246.5000     72.6997      0.0000   1265.0704      7.8698      0.7998
  2246.7500     75.5722      0.0000   1300.3204      7.1444      0.7721
  2247.0000     78.3220      0.0000   1325.9856      6.6934      0.7329
  2247.2500     80.3944      0.0000   1339.4757      6.4908      0.6923
  2247.5000     81.9893      0.0000   1341.8729      6.4543      0.6586
  2247.7500     83.0710      0.0000   1332.9558      6.4996      0.6327
  2248.0000     82.8410      0.0000   1310.2704      6.5806      0.6090
  2248.2500     80.6804      0.0000   1274.3345      6.6894      0.5818
  2248.5000     77.2208      0.0000   1234.1577      6.8352      0.5506
  2248.7500     74.0954      0.0000   1202.4532      7.0281      0.5192
  2249.0000     72.6513      0.0000   1181.8719      7.2712      0.4898
  2249.2500     72.9377      0.0000   1159.9556      7.5520      0.4587
  2249.5000     73.8778      0.0000   1121.2152      7.8247      0.4174
  2249.7500     74.3985      0.0000   1059.9723      7.9903      0.3608
  2250.0000     74.2709      0.0000    977.8488      7.8934      0.2948
  2250.2500     73.8252      0.0000    872.7266      7.3617      0.2339
  2250.5000     73.2397      0.0000    736.2054      6.2987      0.1903
  2250.7500     72.4550      0.0000    566.1205      4.7949      0.1663
  2251.0000     71.5016      0.0000    381.3381      3.1531      0.1560
  2251.2500     70.4948      0.0000    217.2992      1.7455      0.1526
  2251.5000     69.4188      0.0000    102.0328      0.7968      0.1517
  2251.7500     68.3100      0.0000     38.7627      0.2953      0.1515
  2252.0000     67.6189      0.0000     11.7668      0.0878   -999.2500
  2252.2500     67.9638      0.0000      2.8269      0.0207   -999.2500
  2252.5000     69.4054      0.0000      0.5311      0.0038   -999.2500
  2252.7500     71.2781      0.0000      0.0737      0.0005   -999.2500
  2253.0000     72.8014      0.0000   -999.2500   -999.2500   -999.2500
  2253.2500     73.7238      0.0000   -999.2500   -999.2500   -999.2500
  2253.5000     74.4135      0.0000   -999.2500   -999.2500   -999.2500
  2253.7500     75.4229      0.0000   -999.2500   -999.2500   -999.2500
  2254.0000     76.9268      0.0000   -999.2500   -999.2500   -999.2500
  2254.2500     78.6341      0.0000   -999.2500   -999.2500   -999.2500
  2254.5000     80.2212      0.0000   -999.2500   -999.2500   -999.2500
  2254.7500     81.6150      0.0000   -999.2500   -999.2500   -999.2500
