~Version Information
 VERS.                      2.0: CWLS Log ASCII Standard - VERSION 2.0
 WRAP.                       NO: One line per depth step
 ~Well Information Block
 STRT.FT                -8.0000: 
 STOP.FT              2581.0000: 
 STEP.FT                 0.2500: 
 NULL.                -999.2500: 
 COMP.          Petrogulf Corporation: COMPANY
 WELL.               YWAM 7-23V: WELL
 FLD.           Purgatorie River: FIELD
 LOC.           230' FSL & 225' FWL: LOCATION
 CNTY.               Las Animas: COUNTY
 SRVC.                         : SERVICE COMPANY
 DATE.          Mon Nov 22 10:51:24 2004: LOG DATE
 UWI.           05-071-08227-00: UNIQUE WELL ID
 STAT.                 Colorado: STATE
 PROV.                         :Province
 ~Curve Information Block
 DEPT.FT            0 000 00 00: Depth
 TT3.usec                      : CBL 3' Travel Time
 AMP3.mV                       : CBL 3' Amplitude
 GR.GAPI                       : Gamma Ray
 CCL.                          : Casing Collar Locator
 ~Parameter Information Block
 ~A  Depth       TT3         AMP3         GR         CCL     
# ...
  2370.5000    725.8392      1.2876    115.3883      0.0000
  2370.7500    721.4374      1.3203    117.8876      0.0000
  2371.0000    719.3887      1.3355    118.7464      0.0000
  2371.2500    718.6946      1.3345    118.9754      0.0000
  2371.5000    718.6391      1.3261    119.5949      0.0000
  2371.7500    718.8622      1.3184    121.8788      0.0000
  2372.0000    719.1745      1.3138    126.8527      0.0000
  2372.2500    719.4587      1.3103    134.2858      0.0000
  2372.5000    719.6700      1.3049    142.3123      0.0000
  2372.7500    719.8344      1.2956    148.4369      0.0000
  2373.0000    719.9785      1.2809    151.3362      0.0000
  2373.2500    720.0518      1.2607    151.8599      0.0000
  2373.5000    719.9577      1.2375    152.2010      0.0000
  2373.7500    719.6955      1.2149    153.9983      0.0000
  2374.0000    719.4095      1.1937    157.1138      0.0000
  2374.2500    719.2290      1.1723    159.9796      0.0000
  2374.5000    719.1142      1.1502    160.9188      0.0000
  2374.7500    718.9485      1.1316    159.1247      0.0000
  2375.0000    718.7270      1.1233    154.7003      0.0000
  2375.2500    718.5416      1.1307    148.2910      0.0000
  2375.5000    718.3932      1.1560    140.6616      0.0000
  2375.7500    718.1406      1.2024    132.2221      0.0000
  2376.0000    717.6910      1.2764    123.1126      0.0000
  2376.2500    717.1469      1.3836    114.0080      0.0000
  2376.5000    716.6431      1.5194    106.4786      0.0000
  2376.7500    716.0616      1.6664    102.0564      0.0000
  2377.0000    715.0503      1.8026    100.7909      0.0000
  2377.2500    713.3898      1.9121    100.8007      0.0000
  2377.5000    711.2460      1.9877     99.4072      0.0000
  2377.7500    708.9589      2.0294     95.0535      0.0000
  2378.0000    706.6595      2.0394     88.4783      0.0000
  2378.2500    704.2342      2.0197     82.1047      0.0000
  2378.5000    701.6572      1.9728     78.0636      0.0000
  2378.7500    699.1751      1.9047     76.5461      0.0000
  2379.0000    697.0574      1.8255     75.9346      0.0000
  2379.2500    695.1055      1.7475     74.5159      0.0000
  2379.5000    692.2303      1.6819     72.0424      0.0000
  2379.7500    686.1382      1.6361     69.5605      0.0000
  2380.0000    673.4639      1.6114     67.9253      0.0000
  2380.2500    651.2901      1.6063     66.8963      0.0000
  2380.5000    620.0828      1.6265     65.6588      0.0000
  2380.7500    585.3675      1.6904     63.6955      0.0000
  2381.0000    555.1748      1.8186     61.0889      0.0000
  2381.2500    534.9252      2.0144     58.4734      0.0000
  2381.5000    525.0226      2.2589     56.8432      0.0000
  2381.7500    522.9401      2.5289     56.9912     -5.0000
  2382.0000    526.4443      2.8245     58.8687      0.0000
  2382.2500    534.1747      3.1820     61.5305      0.0000
  2382.5000    543.6948      3.6500     63.6687      0.0000
  2382.7500    550.7032      4.2268     64.2415      0.0000
  2383.0000    552.0330      4.8120     62.8998      0.0000
  2383.2500    549.0637      5.2458     60.1194      0.0000
  2383.5000    546.0317      5.4234     56.9477      0.0000
  2383.7500    544.9827      5.3692     54.4443      0.0000
  2384.0000    544.2607      5.1919     53.0636      0.0000
  2384.2500    541.5032      4.9903     52.4837      0.0000
  2384.5000    536.2210      4.8095     52.2677      0.0000
  2384.7500    529.4054      4.6555     52.6499      0.0000
  2385.0000    521.8155      4.5216     54.1723      0.0000
  2385.2500    513.2717      4.4039     56.4577      0.0000
  2385.5000    503.5670      4.3096     57.9783      0.0000
  2385.7500    493.5865      4.2543     57.5610      0.0000
  2386.0000    485.0603      4.2490     55.8791      0.0000
  2386.2500    479.1612      4.2875     54.9271      0.0000
  2386.5000    475.7064      4.3459     55.9608      0.0000
  2386.7500    473.6479      4.3943     58.3272      0.0000
  2387.0000    471.9839      4.4093     60.4231      0.0000
  2387.2500    470.1988      4.3804     61.2850      0.0000
  2387.5000    468.1751      4.3161     60.8834      0.0000
  2387.7500    465.9678      4.2404     59.4798      0.0000
  2388.0000    463.6778      4.1769     57.4897      0.0000
  2388.2500    461.4283      4.1340     55.7575      0.0000
  2388.5000    459.3585      4.1036     55.2253      0.0000
  2388.7500    457.5713      4.0709     56.1077      0.0000
  2389.0000    456.0872      4.0226     57.6595      0.0000
  2389.2500    454.8738      3.9540     58.9363      0.0000
  2389.5000    453.9320      3.8707     59.7186      0.0000
  2389.7500    453.3148      3.7851     60.5287      0.0000
  2390.0000    453.0284      3.7083     61.6615      0.0000
  2390.2500    452.9290      3.6431     62.4130      0.0000
  2390.5000    452.7554      3.5802     61.6456      0.0000
  2390.7500    452.2779      3.5024     59.1702      0.0000
  2391.0000    451.4237      3.3958     56.1820      0.0000
  2391.2500    450.2868      3.2621     54.1309      0.0000
  2391.5000    449.0530      3.1178     53.3745      0.0000
  2391.7500    447.9335      2.9821     53.0903      0.0000
  2392.0000    447.3388      2.8641     52.4329      0.0000
  2392.2500    448.4545      2.7636     51.6521      0.0000
  2392.5000    454.0945      2.6809     51.9131      0.0000
  2392.7500    468.8616      2.6218     53.9369      0.0000
  2393.0000    496.9993      2.5931     56.9893      0.0000
  2393.2500    538.0571      2.5969     59.4186      0.0000
  2393.5000    584.4748      2.6316     60.1254      0.0000
  2393.7500    625.4270      2.6999     59.4165      0.0000
  2394.0000    654.5594      2.8141     58.5655      0.0000
  2394.2500    673.6911      2.9945     58.6284      0.0000
  2394.5000    688.6944      3.2592     59.5229      0.0000
  2394.7500    702.1792      3.6141     60.1930      0.0000
  2395.0000    710.3207      4.0441     59.8076      0.0000
  2395.2500    705.8468      4.5105     58.7135      0.0000
  2395.5000    682.9305      4.9583     57.9631      0.0000
  2395.7500    640.2253      5.3320     58.0917      0.0000
  2396.0000    582.6887      5.5843     58.8034      0.0000
  2396.2500    522.3232      5.6764     59.6499      0.0000
  2396.5000    474.9612      5.5799     60.3921      0.0000
  2396.7500    453.7385      5.2897     60.7385      0.0000
  2397.0000    464.8457      4.8359     60.3562      0.0000
  2397.2500    507.3136      4.2788     59.3109      0.0000
  2397.5000    572.9012      3.6905     58.1833      0.0000
  2397.7500    646.0830      3.1353     57.7078      0.0000
  2398.0000    709.2018      2.6569     58.4175      0.0000
  2398.2500    751.4828      2.2721     60.4339      0.0000
  2398.5000    773.1306      1.9739     63.3091      0.0000
  2398.7500    781.0905      1.7450     66.1625      0.0000
  2399.0000    782.5013      1.5724     68.2465      0.0000
  2399.2500    781.5718      1.4493     69.3705      0.0000
  2399.5000    779.7950      1.3667     69.6960      0.0000
  2399.7500    776.9885      1.3106     69.2907      0.0000
  2400.0000    772.0883      1.2668     68.1374      0.0000
  2400.2500    764.0430      1.2289     66.5562      0.0000
  2400.5000    752.9517      1.1991     65.3133      0.0000
  2400.7500    740.6827      1.1816     65.0260      0.0000
  2401.0000    730.0077      1.1772     65.5701      0.0000
  2401.2500    722.8151      1.1827     66.3690      0.0000
  2401.5000    719.1106      1.1949     67.2260      0.0000
  2401.7500    717.5789      1.2120     68.4256      0.0000
  2402.0000    716.8115      1.2329     69.9206      0.0000
  2402.2500    716.0432      1.2538     70.9749      0.0000
  2402.5000    715.1322      1.2649     70.9689      0.0000
  2402.7500    714.1880      1.2542     70.2058      0.0000
  2403.0000    713.0737      1.2174     69.5134      0.0000
  2403.2500    710.9103      1.1650     69.1363      0.0000
  2403.5000    705.7619      1.1171     68.3553      0.0000
  2403.7500    695.4169      1.0865     66.3031      0.0000
