~Version Information
VERS.                      2.0: CWLS Log ASCII Standard - VERSION 2.0
WRAP.                       NO: One line per depth step
~Well Information Block
STRT.FT                -8.2500: 
STOP.FT              2239.2500: 
STEP.FT                 0.2500: 
NULL.                -999.2500: 
COMP.          Pioneer Natural Resources: COMPANY
WELL.            Moo Moo 31-36: WELL
FLD.           Purgatorie River: FIELD
LOC.           612' FNL & 2326' FEL--: LOCATION
PROV.                       CO: PROVINCE
CNTY.               Las Animas: COUNTRY
SRVC.          Patterson Wireline: SERVICE COMPANY
DATE.          Thu Jun 23 10:04:07 2005: LOG DATE
UWI.           05 071 08395 00: UNIQUE WELL ID
~Curve Information Block
DEPT.FT            0 000 00 00: Depth
CCL.                          : Casing Collar Locator
TT3.usec                      : CBL 3' Travel Time
AMP3.mV                       : CBL 3' Amplitude
GR.GAPI                       : Gamma Ray
~Parameter Information Block
~A  Depth       CCL         TT3         AMP3         GR     
# ...
   594.7500      0.0000    860.2565      6.0791    133.7042
   595.0000      0.0000    862.3807      6.0269    135.3584
   595.2500      0.0000    861.4941      5.9451    133.7994
   595.5000      0.0000    856.0981      5.8504    128.2294
   595.7500      0.0000    845.7154      5.7619    119.3980
   596.0000      0.0000    831.4106      5.6872    108.6859
   596.2500      0.0000    815.1326      5.6463     97.7058
   596.5000      0.0000    798.0594      5.6884     88.7211
   596.7500      0.0000    781.2426      5.8500     84.2576
   597.0000      0.0000    768.9120      6.1032     85.4708
   597.2500      0.0000    768.5437      6.3679     90.9980
   597.5000      0.0000    784.6042      6.5715     97.7091
   597.7500      0.0000    812.5742      6.6902    102.7269
   598.0000      0.0000    840.8672      6.7483    104.9063
   598.2500      0.0000    858.9616      6.7942    104.6857
   598.5000      0.0000    863.7726      6.8643    103.0789
   598.7500      0.0000    859.2451      6.9588    101.1597
   599.0000      0.0000    850.9324      7.0513    100.1207
   599.2500      0.0000    841.4875      7.1184    100.9964
   599.5000      0.0000    830.9354      7.1536    103.9623
   599.7500      0.0000    819.3878      7.1529    108.0891
   600.0000      0.0000    808.0044      7.0964    112.0713
   600.2500      0.0000    798.1978      6.9445    115.2451
   600.5000      0.0000    791.0321      6.6538    117.9524
   600.7500      0.0000    787.1577      6.2123    121.1036
   601.0000      0.0000    786.8265      5.6834    125.3289
   601.2500      0.0000    790.1711      5.2025    130.1993
   601.5000      0.0000    797.2419      4.8942    134.1289
   601.7500      0.0000    807.1299      4.7808    135.2492
   602.0000      0.0000    816.7855      4.7881    132.5346
   602.2500      0.0000    821.4503      4.8286    126.3723
   602.5000      0.0000    817.9810      4.8580    118.6516
   602.7500      0.0000    808.7849      4.8697    112.3674
   603.0000      0.0000    801.2034      4.8765    110.1799
   603.2500     -2.0000    801.5942      4.8939    112.5938
   603.5000      0.0000    810.1334      4.9211    117.8144
   603.7500      0.0000    821.0933      4.9457    123.4529
   604.0000      0.0000    827.0356      4.9761    127.9176
   604.2500      0.0000    823.4666      5.0490    130.5975
   604.5000      0.0000    811.5901      5.1887    131.7563
   604.7500      0.0000    797.2056      5.3868    132.1999
   605.0000      0.0000    786.2642      5.6162    132.4265
   605.2500      0.0000    781.1938      5.8364    132.1095
   605.5000      0.0000    780.8748      6.0016    130.4299
   605.7500      0.0000    783.1064      6.1046    126.6376
   606.0000      0.0000    786.6773      6.1888    120.4354
   606.2500      0.0000    791.4537      6.2816    112.2909
   606.5000      0.0000    797.1165      6.3457    103.5830
   606.7500      0.0000    802.5415      6.3348     96.1539
   607.0000      0.0000    806.5794      6.2710     91.1615
   607.2500      0.0000    808.9623      6.2332     88.1370
   607.5000      0.0000    810.1885      6.2739     85.3817
   607.7500      0.0000    810.8419      6.3663     81.4428
   608.0000      0.0000    811.2107      6.4376     76.1916
   608.2500      0.0000    811.3625      6.4485     70.8032
   608.5000      0.0000    811.3311      6.4209     67.1048
   608.7500      0.0000    811.2039      6.3830     66.6377
   609.0000      0.0000    811.1094      6.3217     69.5099
   609.2500      0.0000    811.1526      6.2177     73.9221
   609.5000      0.0000    811.3199      6.1018     77.3611
   609.7500      0.0000    811.4475      6.0433     78.5719
   610.0000      0.0000    811.3426      6.0884     78.1141
   610.2500      0.0000    810.9592      6.2160     77.1112
   610.5000      0.0000    810.4326      6.3501     76.1638
   610.7500      0.0000    809.9686      6.4146     75.5935
   611.0000      0.0000    809.7288      6.3838     75.9243
   611.2500      0.0000    809.7786      6.2906     77.6497
   611.5000      0.0000    810.0588      6.1944     80.8382
   611.7500      0.0000    810.4048      6.1367     85.0475
   612.0000      0.0000    810.6634      6.1159     89.3568
   612.2500      0.0000    810.7870      6.1059     92.7156
   612.5000      0.0000    810.7243      6.0938     94.8223
   612.7500      0.0000    810.1960      6.0912     96.6016
   613.0000      0.0000    808.7255      6.1120     99.2708
   613.2500      0.0000    806.1027      6.1524    102.8958
   613.5000      0.0000    802.8297      6.1959    106.3207
   613.7500      0.0000    799.9056      6.2301    108.5049
   614.0000      0.0000    798.1270      6.2533    109.4233
   614.2500      0.0000    797.8077      6.2649    109.6575
   614.5000      0.0000    799.0215      6.2544    109.7263
   614.7500      0.0000    801.5743      6.2081    109.7935
   615.0000      0.0000    804.7667      6.1232    109.4546
   615.2500      0.0000    807.7789      6.0135    108.0575
   615.5000      0.0000    810.5197      5.9079    105.6939
   615.7500      0.0000    814.0870      5.8395    103.3997
   616.0000      0.0000    820.4827      5.8240    101.8051
   616.2500      0.0000    831.5298      5.8528    100.0355
   616.5000      0.0000    847.2335      5.9122     96.6578
   616.7500      0.0000    864.9173      5.9900     91.6226
   617.0000      0.0000    880.5643      6.0568     86.8043
   617.2500      0.0000    891.4746      6.0651     84.5399
   617.5000      0.0000    897.6416      5.9810     85.7624
   617.7500      0.0000    900.8976      5.8201     89.3890
   618.0000      0.0000    903.1537      5.6488     93.1467
   618.2500      0.0000    905.0600      5.5456     94.8661
   618.5000      0.0000    905.6453      5.5467     93.4294
   618.7500      0.0000    903.3145      5.6185     89.1430
   619.0000      0.0000    897.6966      5.6896     83.4613
   619.2500      0.0000    890.4319      5.7149     78.0751
   619.5000      0.0000    883.8879      5.7006     73.8610
   619.7500      0.0000    879.3532      5.6661     70.4502
   620.0000      0.0000    876.3510      5.6090     66.8467
   620.2500      0.0000    873.0142      5.5252     62.7200
   620.5000      0.0000    867.2704      5.4377     58.9744
   620.7500      0.0000    858.7064      5.3732     56.6961
   621.0000      0.0000    849.5393      5.3172     55.8746
   621.2500      0.0000    842.9903      5.2214     55.7743
   621.5000      0.0000    840.2780      5.0604     56.1775
   621.7500      0.0000    839.5439      4.8648     57.3585
   622.0000      0.0000    837.9206      4.6914     58.9432
   622.2500      0.0000    834.2841      4.5715     59.7171
   622.5000      0.0000    829.8026      4.4964     58.8364
   622.7500      0.0000    826.3531      4.4437     56.7272
   623.0000      0.0000    825.0494      4.3994     54.5888
   623.2500      0.0000    825.9855      4.3614     53.3336
   623.5000      0.0000    828.4762      4.3448     53.1190
   623.7500      0.0000    831.2339      4.3851     53.6121
   624.0000      0.0000    832.9230      4.5088     54.6127
   624.2500      0.0000    833.1815      4.6915     56.6174
   624.5000      0.0000    832.9465      4.8689     60.8871
   624.7500      0.0000    833.3270      4.9920     68.7781
   625.0000      0.0000    834.2369      5.0549     80.6922
   625.2500      0.0000    834.5087      5.0670     95.3380
   625.5000      0.0000    833.3117      5.0253    110.0317
   625.7500      0.0000    831.0787      4.9335    122.1068
   626.0000      0.0000    828.9987      4.8367    130.3380
   626.2500      0.0000    828.0269      4.8029    135.0897
   626.5000      0.0000    828.4871      4.8563    137.2687
   626.7500      0.0000    830.0773      4.9425    137.3657
   627.0000      0.0000    831.8620      4.9806    135.4766
   627.2500      0.0000    832.6033      4.9493    131.8916
   627.5000      0.0000    831.6602      4.9089    127.2027
   627.7500      0.0000    829.5353      4.9409    121.9015
   628.0000      0.0000    827.2088      5.0767    116.3736
