~Version Information
VERS.                      2.0: CWLS Log ASCII Standard - VERSION 2.0
WRAP.                       NO: One line per depth step
~Well Information Block
STRT.FT               860.0000: 
STOP.FT              2733.7000: 
STEP.FT                 0.1000: 
NULL.                -999.2500: 
COMP.          Pioneer Natural Resources: COMPANY
WELL.          Beacon 11-18 Tr: WELL
FLD.           Purgatoire River: FIELD
LOC.           409' FNL & 203' FWL: LOCATION
PROV.                 Colorado: PROVINCE
CNTY.               Las Animas: COUNTRY
SRVC.                Patterson: SERVICE COMPANY
DATE.          Mon Jan 17 07:36:09 2005: LOG DATE
UWI.           05 071 08251 00: UNIQUE WELL ID
~Curve Information Block
DEPT.FT            0 000 00 00: Depth
DCAL.in                       : CDL Caliper
RHOB.g/cc                     : CDL Bulk Density
RHOC.g/cc                     : CDL Density Correction
DPOR.pu                       : CDL Density Porosity
NPOR.pu                       : Neutron Porosity
GR.GAPI                       : Gamma Ray
~Parameter Information Block
~A  Depth       DCAL        RHOB        RHOC        DPOR        NPOR         GR     
# ...
  2088.8000      8.0377      2.5460      0.0668      6.3004     25.0494    125.1404
  2088.9000      8.0377      2.5742      0.0966      4.5965     24.8982    128.3206
  2089.0000      8.0440      2.6061      0.1110      2.6610     26.0191    128.6788
  2089.1000      8.0440      2.6224      0.1333      1.6737     27.0382    121.7752
  2089.2000      8.0440      2.6222      0.1105      1.6822     26.9719    113.3915
  2089.3000      8.0453      2.6313      0.0834      1.1312     26.2673    113.0636
  2089.4000      8.0453      2.6578      0.1765     -0.4716     25.9932    124.3009
  2089.5000      8.0453      2.6752      0.1327     -1.5299     26.3474    139.4573
  2089.6000      8.0453      2.6714      0.1090     -1.2989     26.7931    147.6240
  2089.7000      8.0453      2.6589      0.0952     -0.5387     26.9800    148.6036
  2089.8000      8.0456      2.6487      0.0999      0.0778     26.7452    145.1705
  2089.9000      8.0456      2.6464      0.0789      0.2190     26.2887    138.7974
  2090.0000      8.0460      2.6466      0.0996      0.2031     25.7873    134.2242
  2090.1000      8.0460      2.6357      0.0967      0.8637     25.4742    133.0464
  2090.2000      8.0460      2.6139      0.0905      2.1906     25.5794    131.8274
  2090.3000      8.0359      2.5926      0.1139      3.4805     25.9124    128.2330
  2090.4000      8.0359      2.5795      0.0528      4.2714     26.1241    124.3578
  2090.5000      8.0215      2.5808      0.0989      4.1911     25.8444    120.9474
  2090.6000      8.0215      2.5951      0.1039      3.3261     25.3374    115.1646
  2090.7000      8.0215      2.6062      0.1264      2.6540     25.1621    109.9631
  2090.8000      8.0280      2.5984      0.1229      3.1251     25.4555    111.2616
  2090.9000      8.0280      2.5787      0.0563      4.3221     25.7569    116.1386
  2091.0000      8.0402      2.5686      0.0635      4.9311     25.4897    121.4368
  2091.1000      8.0402      2.5722      0.1040      4.7168     24.9529    127.3559
  2091.2000      8.0402      2.5725      0.1097      4.6970     24.5642    127.5601
  2091.3000      8.0435      2.5643      0.0753      5.1944     24.2430    120.9648
  2091.4000      8.0435      2.5514      0.0792      5.9731     24.1199    117.1524
  2091.5000      8.0421      2.5296      0.0831      7.2995     24.5379    117.6405
  2091.6000      8.0421      2.5080      0.0016      8.6050     25.1700    115.9725
  2091.7000      8.0421      2.5143      0.0050      8.2263     25.3700    114.4350
  2091.8000      8.0414      2.5481      0.0810      6.1781     25.3595    119.5010
  2091.9000      8.0414      2.5797      0.1229      4.2597     25.3788    125.8328
  2092.0000      8.0439      2.5980      0.0877      3.1488     25.1658    125.1322
  2092.1000      8.0439      2.6089      0.1162      2.4913     25.0464    121.5187
  2092.2000      8.0439      2.6065      0.1107      2.6356     24.9164    122.8800
  2092.3000      8.0473      2.5877      0.1229      3.7783     24.1826    128.4126
  2092.4000      8.0473      2.5654      0.0898      5.1292     23.4488    133.4522
  2092.5000      8.0474      2.5577      0.0767      5.5935     23.6098    139.5286
  2092.6000      8.0474      2.5709      0.1072      4.7969     24.4062    144.7541
  2092.7000      8.0474      2.5943      0.1368      3.3780     25.0171    142.9087
  2092.8000      8.0437      2.6099      0.1514      2.4294     25.4062    138.2450
  2092.9000      8.0437      2.6159      0.1068      2.0662     26.1171    137.0075
  2093.0000      8.0417      2.6241      0.1292      1.5679     26.6275    134.5911
  2093.1000      8.0417      2.6258      0.1460      1.4692     26.0315    128.3519
  2093.2000      8.0417      2.6019      0.1005      2.9177     24.9951    123.4802
  2093.3000      8.0438      2.5639      0.0656      5.2169     24.7860    120.5018
  2093.4000      8.0438      2.5427      0.0411      6.5021     25.3932    116.9040
  2093.5000      8.0451      2.5461      0.0757      6.2974     25.9440    114.3564
  2093.6000      8.0451      2.5572      0.0858      5.6231     26.2165    116.0051
  2093.7000      8.0451      2.5657      0.0733      5.1086     26.3058    122.8597
  2093.8000      8.0446      2.5696      0.1254      4.8705     26.0048    129.6062
  2093.9000      8.0446      2.5684      0.1082      4.9473     25.4325    129.4510
  2094.0000      8.0413      2.5665      0.0856      5.0611     25.1397    127.0674
  2094.1000      8.0413      2.5615      0.1408      5.3638     25.6339    130.0964
  2094.2000      8.0413      2.5420      0.1039      6.5435     26.4760    135.3053
  2094.3000      8.0396      2.5016      0.0947      8.9953     26.8515    136.0250
  2094.4000      8.0396      2.4404      0.0596     12.7013     26.9301    131.8191
  2094.5000      8.0462      2.3730     -0.0052     16.7852     27.3391    128.3373
  2094.6000      8.0462      2.3225     -0.0081     19.8484     28.1438    131.7262
  2094.7000      8.0462      2.2997     -0.0220     21.2302     29.1211    136.3499
  2094.8000      8.0537      2.2969     -0.0340     21.4005     30.0987    132.3842
  2094.9000      8.0537      2.2910      0.0327     21.7600     30.7828    123.2356
  2095.0000      8.0550      2.2696      0.0022     23.0517     30.8134    117.8133
  2095.1000      8.0550      2.2550     -0.0012     23.9380     30.3124    118.0767
  2095.2000      8.0550      2.2658      0.0450     23.2834     29.5846    118.8353
  2095.3000      8.0511      2.2915      0.1093     21.7293     28.9318    117.3073
  2095.4000      8.0511      2.3266      0.0954     19.5984     28.9503    117.6367
  2095.5000      8.0465      2.3812      0.1387     16.2919     29.3321    122.3066
  2095.6000      8.0465      2.4414      0.2359     12.6444     29.1930    126.3262
  2095.7000      8.0465      2.4745      0.2321     10.6334     28.6033    129.1787
  2095.8000      8.0444      2.4814      0.1557     10.2160     27.9795    136.8565
  2095.9000      8.0444      2.4968      0.1384      9.2834     27.4383    144.6696
  2096.0000      8.0431      2.5347      0.1778      6.9868     27.2173    143.3776
  2096.1000      8.0431      2.5742      0.2024      4.5955     27.6362    137.6206
  2096.2000      8.0431      2.6027      0.1602      2.8672     28.3319    134.8681
  2096.3000      8.0380      2.6280      0.1150      1.3350     28.4030    135.2174
  2096.4000      8.0380      2.6471      0.1493      0.1735     27.6777    135.3476
  2096.5000      8.0244      2.6498      0.1118      0.0121     26.8909    130.8070
  2096.6000      8.0244      2.6455      0.1180      0.2723     26.6200    123.1615
  2096.7000      8.0244      2.6501      0.0959     -0.0037     26.9801    118.1470
  2096.8000      8.0105      2.6626      0.1172     -0.7666     27.8989    115.4042
  2096.9000      8.0105      2.6675      0.1379     -1.0619     28.6417    111.4659
  2097.0000      8.0096      2.6513      0.1334     -0.0806     28.1698    107.3189
  2097.1000      8.0096      2.6226      0.1107      1.6584     26.9731    104.1024
  2097.2000      8.0096      2.6000      0.1174      3.0313     26.4640    104.7914
  2097.3000      8.0124      2.5855      0.1263      3.9118     26.4916    114.1383
  2097.4000      8.0124      2.5713      0.1122      4.7668     26.3342    126.4397
  2097.5000      8.0128      2.5599      0.0975      5.4586     26.0438    130.3328
  2097.6000      8.0128      2.5632      0.0811      5.2622     25.7286    124.8862
  2097.7000      8.0128      2.5795      0.1043      4.2710     25.4318    117.0384
  2097.8000      8.0141      2.5973      0.0756      3.1928     25.4126    112.7771
  2097.9000      8.0141      2.6184      0.1054      1.9172     25.7923    115.8904
  2098.0000      8.0146      2.6381      0.1561      0.7215     25.7067    123.7229
  2098.1000      8.0146      2.6413      0.1409      0.5254     24.4363    124.7987
  2098.2000      8.0146      2.6287      0.1188      1.2895     23.3941    117.2975
  2098.3000      8.0137      2.6161      0.0992      2.0517     23.7556    109.4877
