~Version Information
VERS.                      2.0: CWLS Log ASCII Standard - VERSION 2.0
WRAP.                       NO: One line per depth step
~Well Information Block
STRT.FT               555.6000: 
STOP.FT              2132.0000: 
STEP.FT                 0.1000: 
NULL.                -999.2500: 
COMP.          Petrogulf Corporation: COMPANY
WELL.           Montoya 12-41R: WELL
FLD.           Purgatorie River: FIELD
LOC.           1086' FNL & 610' FEL: LOCATION
CNTY.               Las Animas: COUNTY
SRVC.                         : SERVICE COMPANY
DATE.          Thu Nov 18 08:45:51 2004: LOG DATE
UWI.           05 071 08241 00: UNIQUE WELL ID
STAT.                 Colorado: STATE
~Curve Information Block
DEPT.FT            0 000 00 00: Depth
DCAL.in                       : CDL Caliper
RHOB.g/cc                     : CDL Bulk Density
RHOC.g/cc                     : CDL Density Correction
DPOR.pu                       : CDL Density Porosity
GR.GAPI                       : Gamma Ray
NPOR.pu                       : Neutron Porosity
~Parameter Information Block
~A  Depth       DCAL        RHOB        RHOC        DPOR         GR         NPOR    
# ...
  1093.2000      8.0262      2.4597      0.0947     11.5327     88.9017     14.9128
  1093.3000      8.0302      2.4738      0.1234     10.6766     87.3849     14.5378
  1093.4000      8.0302      2.4793      0.1093     10.3439     82.5977     13.9812
  1093.5000      8.0343      2.4853      0.1285      9.9796     78.7578     13.6913
  1093.6000      8.0343      2.4939      0.1307      9.4586     79.0647     14.1560
  1093.7000      8.0343      2.5000      0.1392      9.0914     83.6178     15.3752
  1093.8000      8.0410      2.5089      0.1276      8.5518     85.9915     16.7647
  1093.9000      8.0410      2.5213      0.1810      7.8019     81.5671     17.3175
  1094.0000      8.0466      2.5252      0.1571      7.5614     74.3902     16.3332
  1094.1000      8.0466      2.5144      0.1690      8.2173     69.8851     14.5540
  1094.2000      8.0466      2.4951      0.1053      9.3851     69.7117     13.1171
  1094.3000      8.0474      2.4787      0.1112     10.3835     72.3858     12.2630
  1094.4000      8.0474      2.4694      0.1053     10.9446     76.7029     12.0542
  1094.5000      8.0493      2.4700      0.0903     10.9085     80.0679     12.6808
  1094.6000      8.0493      2.4828      0.0716     10.1358     79.8169     13.8693
  1094.7000      8.0493      2.4951      0.1474      9.3879     76.4470     14.6170
  1094.8000      8.0464      2.4896      0.0989      9.7196     70.6828     14.1461
  1094.9000      8.0464      2.4663      0.1089     11.1307     63.5304     12.9535
  1095.0000      8.0412      2.4385      0.0403     12.8171     58.0363     12.1932
  1095.1000      8.0412      2.4231      0.0385     13.7525     55.8126     12.5497
  1095.2000      8.0412      2.4227      0.0691     13.7760     56.8462     13.9639
  1095.3000      8.0410      2.4287      0.0522     13.4128     60.7766     15.8119
  1095.4000      8.0410      2.4357      0.0462     12.9853     64.1751     17.2312
  1095.5000      8.0395      2.4368      0.0753     12.9240     62.1468     17.2333
  1095.6000      8.0395      2.4288      0.0469     13.4085     56.0776     16.0745
  1095.7000      8.0395      2.4223      0.0258     13.8015     52.7031     15.3586
  1095.8000      8.0409      2.4265      0.0428     13.5452     54.4877     15.5785
  1095.9000      8.0409      2.4396      0.0411     12.7524     57.4443     15.7997
  1096.0000      8.0423      2.4495      0.0943     12.1542     57.7393     15.3308
  1096.1000      8.0423      2.4412      0.0770     12.6523     55.0569     14.9027
  1096.2000      8.0423      2.4199      0.0398     13.9472     53.0248     14.8642
  1096.3000      8.0400      2.4053      0.0113     14.8297     54.1257     14.2731
  1096.4000      8.0400      2.4070      0.0479     14.7293     55.0868     12.9713
  1096.5000      8.0410      2.4222      0.0597     13.8055     54.5461     11.9607
  1096.6000      8.0410      2.4430      0.0810     12.5469     54.7109     11.9033
  1096.7000      8.0410      2.4561      0.0721     11.7509     55.0347     12.3733
  1096.8000      8.0395      2.4537      0.0707     11.8961     55.0356     12.7447
  1096.9000      8.0395      2.4401      0.0665     12.7187     54.6221     13.0538
  1097.0000      8.0392      2.4244      0.0490     13.6740     52.1510     13.2501
  1097.1000      8.0392      2.4163      0.0542     14.1653     49.4519     13.1283
  1097.2000      8.0392      2.4233      0.0550     13.7411     49.5457     13.1003
  1097.3000      8.0465      2.4398      0.0454     12.7386     52.1928     13.7196
  1097.4000      8.0465      2.4488      0.0673     12.1929     55.1903     14.2761
  1097.5000      8.0519      2.4426      0.0300     12.5714     56.8058     13.4725
  1097.6000      8.0519      2.4327      0.0415     13.1678     57.3625     11.5515
  1097.7000      8.0519      2.4364     -0.0022     12.9437     57.2306      9.8531
  1097.8000      8.0477      2.4517      0.0965     12.0162     55.1310      9.1594
  1097.9000      8.0477      2.4595      0.0502     11.5453     51.2568      9.4659
  1098.0000      8.0388      2.4564      0.0479     11.7304     48.9848     10.3412
  1098.1000      8.0388      2.4483      0.0677     12.2214     50.2696     11.2097
  1098.2000      8.0388      2.4377      0.0682     12.8644     52.4523     11.6726
  1098.3000      8.0378      2.4304      0.0471     13.3109     51.8062     11.4372
  1098.4000      8.0378      2.4287      0.0242     13.4110     47.8582     10.7585
  1098.5000      8.0461      2.4253      0.0539     13.6207     43.9418     10.4507
  1098.6000      8.0461      2.4157      0.0065     14.1992     43.4511     10.6440
  1098.7000      8.0461      2.4044      0.0454     14.8849     45.9692     10.7424
  1098.8000      8.0512      2.3904      0.0282     15.7356     48.6245     10.6912
  1098.9000      8.0512      2.3746      0.0133     16.6882     49.9966     10.9280
  1099.0000      8.0502      2.3682     -0.0268     17.0799     49.2179     11.3331
  1099.1000      8.0502      2.3753      0.0249     16.6473     48.1926     11.1187
  1099.2000      8.0502      2.3840      0.0493     16.1183     49.5906      9.9448
  1099.3000      8.0494      2.3890      0.0536     15.8183     51.8492      8.8027
  1099.4000      8.0494      2.4070      0.0442     14.7299     53.4706      8.6866
  1099.5000      8.0454      2.4495      0.1234     12.1523     53.9972      9.3796
  1099.6000      8.0454      2.4997      0.2103      9.1070     53.3969     10.3024
  1099.7000      8.0454      2.5316      0.2149      7.1767     52.4835     11.2481
  1099.8000      8.0462      2.5368      0.2224      6.8612     50.3569     11.8137
  1099.9000      8.0462      2.5222      0.2145      7.7439     48.1985     11.7092
  1100.0000      8.0588      2.5029      0.1801      8.9175     49.3868     11.2558
  1100.1000      8.0588      2.4973      0.1616      9.2537     52.1947     10.7606
  1100.2000      8.0588      2.5080      0.1702      8.6087     52.1774     10.0278
  1100.3000      8.0848      2.5232      0.1752      7.6819     49.9412      9.2145
  1100.4000      8.0848      2.5379      0.1297      6.7949     49.8381      9.0248
  1100.5000      8.1259      2.5501      0.1808      6.0519     52.2491      9.8902
  1100.6000      8.1259      2.5529      0.1747      5.8825     52.8919     11.3721
  1100.7000      8.1259      2.5434      0.1534      6.4588     49.1223     12.9580
  1100.8000      8.1695      2.5281      0.0914      7.3857     44.2472     14.4874
  1100.9000      8.1695      2.5101      0.1307      8.4811     42.5039     15.2518
  1101.0000      8.0074      2.4890      0.0948      9.7589     44.1982     14.6836
  1101.1000      8.0074      2.4737      0.1021     10.6826     46.9030     13.7110
  1101.2000      8.0074      2.4715      0.0786     10.8171     48.7008     13.4001
  1101.3000      8.0072      2.4780      0.0900     10.4219     50.0008     13.8289
  1101.4000      8.0072      2.4819      0.1149     10.1870     52.2665     14.3035
  1101.5000      8.0098      2.4782      0.0732     10.4135     55.6228     14.0806
  1101.6000      8.0098      2.4744      0.0380     10.6405     58.1770     13.3144
  1101.7000      8.0098      2.4751      0.0621     10.6022     58.7497     12.7639
  1101.8000      8.0175      2.4708      0.0851     10.8591     58.4775     12.7813
  1101.9000      8.0175      2.4563      0.0867     11.7368     60.7679     13.2771
  1102.0000      8.0197      2.4397      0.0522     12.7444     68.5827     14.4690
  1102.1000      8.0197      2.4272      0.0565     13.5037     79.9660     16.3411
  1102.2000      8.0197      2.4169      0.0259     14.1244     89.3409     18.3082
  1102.3000      8.0155      2.4138     -0.0062     14.3155     93.6881     20.1780
  1102.4000      8.0155      2.4252      0.0545     13.6272     97.8425     22.1161
  1102.5000      8.0122      2.4418      0.0661     12.6167    104.6259     24.2517
  1102.6000      8.0122      2.4486      0.0829     12.2084    109.6057     26.0211
  1102.7000      8.0122      2.4452      0.0940     12.4121    112.4691     26.3766
