~Version Information
VERS.                      2.0: CWLS Log ASCII Standard - VERSION 2.0
WRAP.                       NO: One line per depth step
~Well Information Block
STRT.FT               519.6000: 
STOP.FT              2727.5000: 
STEP.FT                 0.1000: 
NULL.                -999.2500: 
COMP.          Petrogulf Corporation: COMPANY
WELL.              Silva 6-22V: WELL
FLD.           Purgatorie River: FIELD
LOC.           1936' FNL & 1798' FWL: LOCATION
CNTY.               Las Animas: COUNTY
SRVC.                         : SERVICE COMPANY
DATE.          Tue Nov 09 12:21:27 2004: LOG DATE
UWI.           05 071 08143 00: UNIQUE WELL ID
STAT.                 Colorado: STATE
~Curve Information Block
DEPT.FT            0 000 00 00: Depth
DCAL.in                       : CDL Caliper
RHOB.g/cc                     : CDL Bulk Density
RHOC.g/cc                     : CDL Density Correction
DPOR.pu                       : CDL Density Porosity
GR.GAPI                       : Gamma Ray
NPOR.pu                       : Neutron Porosity
~Parameter Information Block
~A  Depth       DCAL        RHOB        RHOC        DPOR         GR         NPOR    
# ...
   970.8000      8.0183      2.4770      0.0312     10.4837     53.8180     16.8222
   970.9000      8.0183      2.4985      0.0866      9.1803     57.1098     16.6858
   971.0000      8.0290      2.5079      0.1198      8.6097     61.4481     16.4097
   971.1000      8.0290      2.4923      0.0420      9.5547     62.6276     16.3562
   971.2000      8.0290      2.4696      0.0381     10.9318     58.9382     16.4548
   971.3000      8.0423      2.4565      0.0319     11.7253     55.5477     16.4550
   971.4000      8.0423      2.4555      0.0065     11.7869     55.9004     16.4736
   971.5000      8.0536      2.4593      0.0490     11.5600     55.7217     16.5608
   971.6000      8.0536      2.4534      0.0634     11.9175     53.4536     16.6132
   971.7000      8.0536      2.4386      0.0121     12.8148     53.2372     16.5415
   971.8000      8.0592      2.4292      0.0075     13.3795     54.6526     16.4473
   971.9000      8.0592      2.4336     -0.0030     13.1138     53.7674     16.4214
   972.0000      8.0538      2.4471      0.0275     12.2948     51.8216     16.2974
   972.1000      8.0538      2.4503      0.0838     12.1008     52.3390     16.0847
   972.2000      8.0538      2.4330      0.0191     13.1510     53.5183     16.0156
   972.3000      8.0395      2.4124      0.0325     14.3984     52.3538     16.1622
   972.4000      8.0395      2.4021      0.0268     15.0233     49.0089     16.3090
   972.5000      8.0406      2.3988      0.0142     15.2248     47.4975     16.3107
   972.6000      8.0406      2.4016      0.0066     15.0518     50.0722     16.1135
   972.7000      8.0406      2.4164      0.0208     14.1601     52.5737     15.7839
   972.8000      8.0593      2.4404      0.0482     12.7048     51.8078     15.7953
   972.9000      8.0593      2.4599      0.0774     11.5195     51.3430     16.1739
   973.0000      8.0724      2.4733      0.0482     10.7071     54.5415     16.4255
   973.1000      8.0724      2.4848      0.0797     10.0119     58.2206     16.4509
   973.2000      8.0724      2.4881      0.0648      9.8128     57.2879     16.4492
   973.3000      8.0758      2.4869      0.0650      9.8877     53.1835     16.6007
   973.4000      8.0758      2.4938      0.0671      9.4646     49.5778     16.9001
   973.5000      8.0709      2.5121      0.0719      8.3593     46.4853     17.0520
   973.6000      8.0709      2.5261      0.1340      7.5119     45.2760     16.9621
   973.7000      8.0709      2.5200      0.0577      7.8799     47.3976     17.0193
   973.8000      8.0622      2.5005      0.0828      9.0590     51.4721     17.3615
   973.9000      8.0622      2.4810      0.0406     10.2434     55.3343     17.7208
   974.0000      8.0594      2.4717      0.0369     10.8082     57.4915     17.8643
   974.1000      8.0594      2.4739      0.0287     10.6712     59.0368     17.8991
   974.2000      8.0594      2.4798      0.0656     10.3162     61.9737     18.1027
   974.3000      8.0505      2.4844      0.0139     10.0386     66.1363     18.5983
   974.4000      8.0505      2.4840      0.0320     10.0590     67.7058     19.2744
   974.5000      8.0389      2.4778      0.0287     10.4357     65.1155     19.5704
   974.6000      8.0389      2.4779      0.0375     10.4311     62.1193     19.3316
   974.7000      8.0389      2.4943      0.0148      9.4359     60.4510     19.4295
   974.8000      8.0407      2.5212      0.0400      7.8080     59.9011     20.2417
   974.9000      8.0407      2.5443      0.0962      6.4083     60.8977     20.8674
   975.0000      8.0477      2.5629      0.0472      5.2778     63.1277     20.6429
   975.1000      8.0477      2.5871      0.0940      3.8101     66.2091     19.9271
   975.2000      8.0477      2.6101      0.1136      2.4177     69.1320     19.2791
   975.3000      8.0444      2.6190      0.0974      1.8761     70.5616     19.0576
   975.4000      8.0444      2.6125      0.0436      2.2757     71.0401     19.4666
   975.5000      8.0416      2.5922      0.0531      3.5032     72.3853     20.2815
   975.6000      8.0416      2.5640      0.0029      5.2107     75.1666     20.8905
   975.7000      8.0416      2.5424     -0.0223      6.5189     79.5311     21.1176
   975.8000      8.0359      2.5349     -0.0163      6.9763     85.3708     21.1859
   975.9000      8.0359      2.5317     -0.0010      7.1705     88.5193     21.2135
   976.0000      8.0327      2.5262     -0.0309      7.5048     86.7302     21.2787
   976.1000      8.0327      2.5227     -0.0095      7.7140     85.3133     21.3484
   976.2000      8.0327      2.5237      0.0028      7.6576     87.6534     21.4767
   976.3000      8.0406      2.5281      0.0196      7.3858     91.3093     21.7750
   976.4000      8.0406      2.5359      0.0191      6.9149     93.9175     21.9324
   976.5000      8.0433      2.5426      0.0224      6.5093     95.9310     21.7116
   976.6000      8.0433      2.5380      0.0466      6.7868     98.8180     21.4284
   976.7000      8.0433      2.5205      0.0403      7.8515    102.8330     21.2218
   976.8000      8.0376      2.5012      0.0016      9.0177    107.4965     21.0352
   976.9000      8.0376      2.4863      0.0257      9.9198    112.8774     20.9734
   977.0000      8.0417      2.4668      0.0437     11.1011    117.2179     20.8905
   977.1000      8.0417      2.4375      0.0193     12.8796    117.8669     20.6825
   977.2000      8.0417      2.4068      0.0081     14.7375    115.1895     20.4197
   977.3000      8.0500      2.3770      0.0207     16.5443    113.5557     19.9868
   977.4000      8.0500      2.3409     -0.0167     18.7307    117.4700     19.3825
   977.5000      8.0522      2.3063     -0.0360     20.8290    125.7513     18.8781
   977.6000      8.0522      2.2946     -0.0162     21.5392    133.5400     18.6226
   977.7000      8.0522      2.3146      0.0722     20.3297    139.9777     18.4355
   977.8000      8.0585      2.3556      0.1366     17.8397    147.5431     18.2229
   977.9000      8.0585      2.4090      0.1539     14.6068    156.1292     18.1266
   978.0000      8.0851      2.4644      0.2727     11.2467    159.6912     18.1592
   978.1000      8.0851      2.4958      0.3234      9.3470    155.0529     18.3034
   978.2000      8.0851      2.4887      0.2806      9.7751    150.3519     18.5394
   978.3000      8.1462      2.4564      0.2694     11.7350    151.4237     18.8006
   978.4000      8.1462      2.4082      0.3126     14.6566    151.9738     19.1944
   978.5000      8.1954      2.3394      0.2741     18.8253    146.7958     19.9636
   978.6000      8.1954      2.2569      0.1388     23.8227    140.3435     20.9980
   978.7000      8.1954      2.1863      0.0305     28.1050    135.8858     21.7278
   978.8000      8.1678      2.1463     -0.0019     30.5272    133.8887     21.9126
   978.9000      8.1678      2.1329      0.0188     31.3421    134.7618     22.1114
   979.0000      8.1189      2.1289      0.0317     31.5836    135.4232     22.8376
   979.1000      8.1189      2.1178      0.0674     32.2536    131.9465     23.6553
   979.2000      8.1189      2.0958      0.0716     33.5907    126.0742     23.7189
   979.3000      8.1042      2.0770      0.0467     34.7245    123.8808     22.9829
   979.4000      8.1042      2.0807      0.0300     34.5004    124.7341     22.2781
   979.5000      8.1101      2.1125      0.0452     32.5739    122.3893     22.1810
   979.6000      8.1101      2.1571      0.0762     29.8702    118.6390     22.4908
   979.7000      8.1101      2.1999      0.0954     27.2766    119.6646     23.0210
   979.8000      8.1161      2.2538      0.0620     24.0150    124.3857     23.8615
   979.9000      8.1161      2.3266      0.1540     19.6002    128.0508     24.8380
   980.0000      8.1269      2.3904      0.2007     15.7360    131.5832     25.4406
   980.1000      8.1269      2.4300      0.1489     13.3363    135.1682     25.5639
   980.2000      8.1269      2.4631      0.1751     11.3257    133.5416     25.6450
   980.3000      8.1446      2.4897      0.2193      9.7156    129.6089     25.8513
