~Version Information
VERS.                      2.0: CWLS Log ASCII Standard - VERSION 2.0
WRAP.                       NO: One line per depth step
~Well Information Block
STRT.FT               595.0000: 
STOP.FT              1508.7500: 
STEP.FT                 0.2500: 
NULL.                -999.2500: 
COMP.          Pioneer Natural Resources: COMPANY
WELL.          Sumatra 34-22 Tr: WELL
FLD.           Purgatoire River: FIELD
LOC.           443' FSL & 2424' FEL--: LOCATION
PROV.                 Colorado: PROVINCE
CNTY.               Las Animas: COUNTRY
SRVC.                Patterson: SERVICE COMPANY
DATE.          Wed Jun 08 23:53:01 2005: LOG DATE
UWI.           05 071 08383 00: UNIQUE WELL ID
~Curve Information Block
DEPT.FT            0 000 00 00: Depth
SN.Ohm-m                      : IEL Short Normal
SP.mV                         : IEL Spontaneous Potential
DIR.Ohm-m                     : IEL Induction Resistivity
GR.GAPI                       : Gamma Ray
~Parameter Information Block
~A  Depth        SN          SP         DIR          GR     
# ...
  1298.5000    682.8896   -528.9436     15.9720    123.8719
  1298.7500    682.8896   -528.9330     15.4772    124.1388
  1299.0000    682.8896   -528.9230     15.0436    125.8349
  1299.2500    682.8896   -528.9142     14.6722    128.3234
  1299.5000    682.8896   -528.9074     14.3519    134.2750
  1299.7500    682.8894   -528.9032     14.0638    139.0327
  1300.0000    682.8770   -528.9020     13.7894    145.3649
  1300.2500    682.8085   -528.9041     13.5197    148.1526
  1300.5000    682.4833   -528.9094     13.2610    149.7875
  1300.7500    681.3006   -528.9175     13.0352    149.4389
  1301.0000    678.0379   -528.9277     12.8707    147.3867
  1301.2500    671.3307   -528.9390     12.7916    145.2535
  1301.5000    661.4107   -528.9506     12.8103    141.1495
  1301.7500    651.7695   -528.9614     12.9268    137.9717
  1302.0000    647.7419   -528.9710     13.1338    132.9858
  1302.2500    651.9516   -528.9791     13.4227    129.7589
  1302.5000    661.6689   -528.9855     13.7882    125.1274
  1302.7500    671.5488   -528.9905     14.2302    122.0117
  1303.0000    678.1678   -528.9943     14.7506    117.0346
  1303.2500    681.3581   -528.9972     15.3479    113.5886
  1303.5000    682.5027   -528.9995     16.0067    108.8076
  1303.7500    682.8134   -529.0014     16.6895    106.3130
  1304.0000    682.8779   -529.0031     17.3358    104.1661
  1304.2500    682.8896   -529.0045     17.8757    103.9039
  1304.5000    682.8896   -529.0057     18.2540    105.0869
  1304.7500    682.8896   -529.0068     18.4498    106.7027
  1305.0000    682.8896   -529.0077     18.4779    110.0245
  1305.2500    682.8896   -529.0083     18.3764    112.6294
  1305.5000    682.8896   -529.0087     18.1906    116.4822
  1305.7500    682.8896   -529.0087     17.9646    118.5850
  1306.0000    682.8896   -529.0086     17.7370    120.8857
  1306.2500    682.8896   -529.0081     17.5380    122.1230
  1306.5000    682.8896   -529.0073     17.3862    123.7216
  1306.7500    682.8896   -529.0062     17.2863    124.2314
  1307.0000    682.8896   -529.0046     17.2309    123.2812
  1307.2500    682.8896   -529.0026     17.2075    121.4296
  1307.5000    682.8896   -529.0000     17.2095    117.6583
  1307.7500    682.8896   -528.9969     17.2460    115.1945
  1308.0000    682.8896   -528.9933     17.3425    112.5196
  1308.2500    682.8896   -528.9893     17.5339    111.6320
  1308.5000    682.8896   -528.9849     17.8513    111.3093
  1308.7500    682.8896   -528.9802     18.3114    111.2022
  1309.0000    682.8896   -528.9753     18.9073    110.1455
  1309.2500    682.8896   -528.9704     19.6048    108.5997
  1309.5000    682.8896   -528.9658     20.3449    105.4317
  1309.7500    682.8896   -528.9617     21.0566    103.0918
  1310.0000    682.8896   -528.9584     21.6797     99.2317
  1310.2500    682.8896   -528.9562     22.1845     96.1566
  1310.5000    682.8896   -528.9554     22.5746     90.7645
  1310.7500    682.8896   -528.9558     22.8639     87.2478
  1311.0000    682.8896   -528.9575     23.0442     83.7896
  1311.2500    682.8896   -528.9598     23.0629     83.4224
  1311.5000    682.8896   -528.9623     22.8318     85.6207
  1311.7500    682.8896   -528.9644     22.2707     88.1385
  1312.0000    682.8896   -528.9653     21.3584     92.2729
  1312.2500    682.8896   -528.9646     20.1566     95.2786
  1312.5000    682.8896   -528.9619     18.7860    101.3495
  1312.7500    682.8896   -528.9572     17.3789    107.0522
  1313.0000    682.8896   -528.9503     16.0394    117.6868
  1313.2500    682.8896   -528.9414     14.8287    125.1019
  1313.5000    682.8896   -528.9304     13.7685    134.6803
  1313.7500    682.8896   -528.9171     12.8545    139.3740
  1314.0000    682.8896   -528.9011     12.0711    143.9333
  1314.2500    682.8896   -528.8816     11.4020    145.7894
  1314.5000    682.8896   -528.8578     10.8352    147.6922
  1314.7500    682.8896   -528.8288     10.3625    148.6878
  1315.0000    682.8896   -528.7936      9.9761    149.7602
  1315.2500    682.8896   -528.7511      9.6654    150.0050
  1315.5000    682.8890   -528.7004      9.4154    149.5999
  1315.7500    682.8477   -528.6402      9.2098    149.1011
  1316.0000    682.6055   -528.5688      9.0350    148.7575
  1316.2500    681.4336   -528.4841      8.8838    149.0623
  1316.5000    677.0468   -528.3829      8.7558    150.2210
  1316.7500    664.4216   -528.2616      8.6552    151.2548
  1317.0000    636.7972   -528.1160      8.5881    153.0763
  1317.2500    591.7447   -527.9427      8.5617    154.5477
  1317.5000    539.3944   -527.7401      8.5832    157.0004
  1317.7500    501.8715   -527.5101      8.6602    158.3737
  1318.0000    498.0352   -527.2592      8.7990    159.0960
  1318.2500    526.5995   -527.0001      9.0036    158.3093
  1318.5000    565.7715   -526.7502      9.2765    154.8923
  1318.7500    589.3242   -526.5308      9.6203    150.9609
  1319.0000    583.4791   -526.3637     10.0395    142.5073
  1319.2500    551.5289   -526.2675     10.5406    135.5205
  1319.5000    504.5745   -526.2543     11.1300    124.4534
  1319.7500    449.7202   -526.3270     11.8109    117.6534
  1320.0000    391.6964   -526.4794     12.5817    109.1877
  1320.2500    343.7917   -526.6965     13.4339    104.5636
  1320.5000    325.8642   -526.9583     14.3521     98.5851
  1320.7500    347.1477   -527.2421     15.3117     95.1791
  1321.0000    398.6313   -527.5267     16.2796     91.1281
  1321.2500    463.8666   -527.7939     17.2169     89.0308
  1321.5000    529.6963   -528.0299     18.0896     86.3191
  1321.7500    586.7599   -528.2258     18.8821     84.7274
  1322.0000    628.7847   -528.3765     19.6049     83.0422
  1322.2500    654.8835   -528.4800     20.2908     82.5866
  1322.5000    669.0779   -528.5369     20.9783     82.7676
  1322.7500    676.3762   -528.5488     21.6912     83.2053
  1323.0000    680.0820   -528.5181     22.4222     84.0371
  1323.2500    681.8469   -528.4481     23.1289     84.7319
  1323.5000    682.5757   -528.3423     23.7392     86.2362
  1323.7500    682.8116   -528.2053     24.1647     87.6799
  1324.0000    682.8606   -528.0424     24.3149     90.4170
  1324.2500    682.7753   -527.8602     24.1161     92.3106
  1324.5000    682.2780   -527.6650     23.5361     94.8164
  1324.7500    680.2856   -527.4619     22.6069     96.5449
  1325.0000    673.9293   -527.2532     21.4266    100.5012
  1325.2500    657.9479   -527.0372     20.1312    104.5164
  1325.5000    626.4547   -526.8088     18.8565    112.0779
  1325.7500    578.6047   -526.5615     17.7087    117.4603
  1326.0000    524.3127   -526.2897     16.7556    125.2820
  1326.2500    481.6125   -525.9935     16.0299    130.0874
  1326.5000    463.2543   -525.6798     15.5377    135.8967
  1326.7500    464.1614   -525.3636     15.2671    138.1114
  1327.0000    463.5392   -525.0654     15.1977    137.8318
  1327.2500    440.1454   -524.8075     15.3088    134.9077
  1327.5000    386.8774   -524.6098     15.5855    126.5282
  1327.7500    314.7552   -524.4863     16.0223    118.9290
  1328.0000    246.1798   -524.4442     16.6212    106.8527
  1328.2500    204.0211   -524.4842     17.3880    100.0777
  1328.5000    203.3185   -524.6035     18.3237     93.9661
  1328.7500    246.9730   -524.7972     19.4149     92.7638
  1329.0000    323.3485   -525.0595     20.6205     93.8478
  1329.2500    407.4177   -525.3828     21.8638     95.2839
  1329.5000    469.5861   -525.7563     23.0395     96.8603
  1329.7500    490.5403   -526.1655     24.0441     96.9631
  1330.0000    472.5783   -526.5918     24.8144     95.1693
  1330.2500    438.7452   -527.0143     25.3475     92.6226
  1330.5000    418.7439   -527.4127     25.6882     87.3121
  1330.7500    431.4945   -527.7700     25.9027     83.3847
  1331.0000    476.9030   -528.0750     26.0595     77.9667
  1331.2500    539.6740   -528.3226     26.2220     75.0379
  1331.5000    599.7650   -528.5139     26.4393     71.7713
  1331.7500    643.3046   -528.6539     26.7290     70.2226
