~Version Information
VERS.                      2.0: CWLS Log ASCII Standard - VERSION 2.0
WRAP.                       NO: One line per depth step
~Well Information Block
STRT.FT                 0.0000: 
STOP.FT              2025.0000: 
STEP.FT                 0.2500: 
NULL.                -999.2500: 
COMP.          Petrogulf Corporation: COMPANY
WELL.          Robinson 15-12V: WELL
FLD.           Purgatorie River: FIELD
LOC.           1788' FNL & 466' FWL: LOCATION
PROV.                 Colorado: PROVINCE
CNTY.               Las Animas: COUNTRY
SRVC.                Patterson: SERVICE COMPANY
DATE.          Tue Oct 04 11:57:31 2005: LOG DATE
UWI.                          : UNIQUE WELL ID
~Curve Information Block
DEPT.FT            0 000 00 00: Depth
GR.GAPI                       : Gamma Ray
CCL.                          : Casing Collar Locator
TT3.usec                      : CBL 3' Travel Time
AMP3.mV                       : CBL 3' Amplitude
~Parameter Information Block
~A  Depth        GR         CCL         TT3         AMP3    
# ...
  1038.5000    134.3913      0.0000    791.1498     10.1525
  1038.7500    131.8596      0.0000    790.7617     10.2488
  1039.0000    128.9778      0.0000    790.3417     10.3491
  1039.2500    127.5178      0.0000    789.8876     10.4252
  1039.5000    128.1103      0.0000    788.5306     10.4382
  1039.7500    129.9900      0.0000    784.2207     10.3913
  1040.0000    131.8676      0.0000    775.4834     10.3280
  1040.2500    132.6440      0.0000    764.3712     10.2793
  1040.5000    131.6121      0.0000    755.4204     10.2505
  1040.7500    128.6257      0.0000    750.8972     10.2551
  1041.0000    124.2355      0.0000    749.5488     10.3267
  1041.2500    119.4524      0.0000    749.4221     10.4797
  1041.5000    115.3078      0.0000    749.7805     10.6921
  1041.7500    112.6004      0.0000    751.2813     10.9532
  1042.0000    111.7233      0.0000    755.7795     11.2825
  1042.2500    112.3378      0.0000    764.7285     11.6678
  1042.5000    113.2635      0.0000    776.1947     12.0275
  1042.7500    113.0642      0.0000    785.4893     12.2769
  1043.0000    111.1593      0.0000    790.0353     12.4194
  1043.2500    108.5113      0.0000    791.1566     12.5421
  1043.5000    107.0273      0.0000    791.3260     12.7234
  1043.7500    107.9722      0.0000    792.0136     12.9456
  1044.0000    110.8655      0.0000    793.9847     13.1004
  1044.2500    114.0517      0.0000    797.9179     13.0938
  1044.5000    116.3487      0.0000    803.0194     12.9518
  1044.7500    118.0391      0.0000    806.0671     12.7834
  1045.0000    120.3015      0.0000    805.7176     12.6349
  1045.2500    123.8975      0.0000    806.2405     12.4707
  1045.5000    128.2927      0.0000    811.9978     12.2925
  1045.7500    131.6934      0.0000    820.3055     12.1666
  1046.0000    131.8798      0.0000    823.5815     12.1487
  1046.2500    127.3046      0.0000    818.4328     12.2405
  1046.5000    117.9763      0.0000    811.9649     12.4156
  1046.7500    105.8735      0.0000    815.0676     12.6708
  1047.0000     94.3830      0.0000    825.6546     13.0168
  1047.2500     86.6354      0.0000    828.8993     13.4110
  1047.5000     84.0140      0.0000    818.8744     13.7718
  1047.7500     86.1105      0.0000    804.1228     14.0745
  1048.0000     91.6454      0.0000    791.2694     14.3549
  1048.2500     99.1608      0.0000    779.1754     14.6065
  1048.5000    107.1910      0.0000    768.0500     14.7650
  1048.7500    114.4283      0.0000    762.9349     14.7823
  1049.0000    120.1441      0.0000    766.9297     14.6336
  1049.2500    124.5512      0.0000    776.7452     14.3159
  1049.5000    128.5239      0.0000    787.6627     13.8772
  1049.7500    132.6648      0.0000    797.4203     13.3956
  1050.0000    136.6014      0.0000    800.9394     12.9437
  1050.2500    139.1987      0.0000    793.0251     12.5865
  1050.5000    139.2927      0.0000    780.3232     12.3553
  1050.7500    136.3153      0.0000    775.3683     12.2209
  1051.0000    130.7769      0.0000    780.2300     12.1295
  1051.2500    124.3653      0.0000    787.3781     12.0405
  1051.5000    119.2774      0.0000    791.1960     11.9406
  1051.7500    117.1484      0.0000    791.0417     11.8393
  1052.0000    118.2284      0.0000    787.4836     11.7467
  1052.2500    121.1287      0.0000    781.4724     11.6871
  1052.5000    123.5719      0.0000    775.7733     11.7142
  1052.7500    123.9555      0.0000    773.4554     11.8584
  1053.0000    122.3235      0.0000    775.7034     12.0751
  1053.2500    119.8686      0.0000    781.3988     12.2600
  1053.5000    117.8742      0.0000    787.3654     12.2982
  1053.7500    117.3460      0.0000    791.0879     12.1256
  1054.0000    119.1456      0.0000    792.7255     11.7977
  1054.2500    123.6333      0.0000    793.2093     11.4499
  1054.5000    129.8254      0.0000    792.0873     11.1535
  1054.7500    135.3433      0.0000    787.3969     10.8918
  1055.0000    137.8464      0.0000    777.8351     10.6488
  1055.2500    136.5163      0.0000    766.0115     10.4277
  1055.5000    131.9871      0.0000    757.7994     10.2454
  1055.7500    125.3173      0.0000    757.5945     10.1432
  1056.0000    117.4187      0.0000    765.4048     10.1395
  1056.2500    109.0635      0.0000    777.1529     10.1851
  1056.5000    101.0006      0.0000    788.1128     10.2064
  1056.7500     94.1704      0.0000    797.6221     10.1810
  1057.0000     89.8923      0.0000    807.9692     10.1474
  1057.2500     89.4104      0.0000    818.6567     10.1497
  1057.5000     92.8943      0.0000    825.5750     10.1916
  1057.7500     98.9315      0.0000    825.7803     10.2456
  1058.0000    105.0740      0.0000    821.2091     10.2836
  1058.2500    109.1644      0.0000    818.5376     10.2923
  1058.5000    110.7408      0.0000    822.5702     10.2666
  1058.7500    111.3831      0.0000    828.3521     10.2106
  1059.0000    113.2227      0.0000    827.4008     10.1470
  1059.2500    116.7228      0.0000    819.8835     10.1074
  1059.5000    120.1101      0.0000    811.2711     10.1110
  1059.7500    121.0828      0.0000    804.1534     10.1619
  1060.0000    118.7597      0.0000    800.0225     10.2359
  1060.2500    113.9753      0.0000    801.4619     10.2874
  1060.5000    108.2879      0.0000    809.8115     10.2985
  1060.7500    103.0820      0.0000    822.9732     10.2823
  1061.0000     99.1648      0.0000    835.7156     10.2458
  1061.2500     96.6155      0.0000    843.3947     10.1941
  1061.5000     94.9849      0.0000    847.1932     10.1524
  1061.7500     93.8044      0.0000    854.6441     10.1402
  1062.0000     92.8890      0.0000    874.9771     10.1556
  1062.2500     92.1873      0.0000    917.0568     10.2137
  1062.5000     91.5973      0.0000    979.6833     10.3340
  1062.7500     91.0857      0.0000   1032.0565     10.4648
  1063.0000     90.8386      0.0000   1032.8322     10.5127
  1063.2500     91.0618      0.0000    986.1560     10.4590
  1063.5000     91.6680      0.0000    941.9216     10.3702
  1063.7500     92.3622      0.0000    934.4355     10.2857
  1064.0000     93.1162      0.0000    953.7568     10.1673
  1064.2500     94.3343      0.0000    970.6234      9.9903
  1064.5000     96.3155      0.0000    964.2920      9.8028
  1064.7500     98.7631      0.0000    930.8816      9.6530
  1065.0000    101.1572      0.0000    884.2675      9.5409
  1065.2500    103.4231      0.0000    846.8398      9.4644
  1065.5000    105.8394      0.0000    828.6349      9.4558
  1065.7500    108.5190      0.0000    822.8280      9.5394
  1066.0000    111.4238      0.0000    820.9055      9.6751
  1066.2500    114.7755      0.0000    818.7377      9.7943
  1066.5000    119.0363      0.0000    812.3825      9.8735
  1066.7500    124.2780      0.0000    799.9065      9.9216
  1067.0000    129.7173      0.0000    784.8314      9.9425
  1067.2500    134.1544      0.0000    774.2022      9.9372
  1067.5000    137.0855      0.0000    773.3500      9.9009
  1067.7500    139.2709      0.0000    780.3163      9.8323
  1068.0000    141.9061      0.0000    787.2794      9.7473
  1068.2500    145.2321      0.0000    788.5451      9.6581
  1068.5000    148.2726      0.0000    784.8575      9.5747
  1068.7500    149.8102      0.0000    780.7690      9.5171
  1069.0000    149.1540      0.0000    777.9367      9.4799
  1069.2500    146.0588      0.0000    773.2201      9.4283
  1069.5000    140.5561      0.0000    766.3955      9.3409
  1069.7500    133.1796      0.0000    763.8021      9.2052
  1070.0000    124.9585      0.0000    771.3511      8.9728
  1070.2500    116.9211      0.0000    788.6230      8.6426
  1070.5000    109.7360      0.0000    808.8947      8.4365
  1070.7500    103.6892      0.0000    821.7034      8.5846
  1071.0000     98.5926      0.0000    820.2301      8.8636
  1071.2500     93.7994      0.0000    809.3920      8.9170
  1071.5000     88.7652      0.0000    802.6166      8.8578
  1071.7500     83.7307      0.0000    812.9260      8.9486
