~Version Information
VERS.                      2.0: CWLS Log ASCII Standard - VERSION 2.0
WRAP.                       NO: One line per depth step
~Well Information Block
STRT.FT               650.0000: 
STOP.FT              2085.0000: 
STEP.FT                 0.1000: 
NULL.                -999.2500: 
COMP.          Pioneer Natural Resources: COMPANY
WELL.           Galloway 32-13: WELL
FLD.           Purgatoire River: FIELD
LOC.           1809' FNL & 2004' FEL: LOCATION
PROV.                 Colorado: PROVINCE
CNTY.               Las Animas: COUNTRY
SRVC.                Patterson: SERVICE COMPANY
DATE.          Sat Jul 09 02:17:51 2005: LOG DATE
UWI.           05 071 08423 00: UNIQUE WELL ID
~Curve Information Block
DEPT.FT            0 000 00 00: Depth
DCAL.in                       : CDL Caliper
RHOB.g/cc                     : CDL Bulk Density
RHOC.g/cc                     : CDL Density Correction
DPOR.pu                       : CDL Density Porosity
GR.GAPI                       : Gamma Ray
NPOR.pu                       : Neutron Porosity
~Parameter Information Block
~A  Depth       DCAL        RHOB        RHOC        DPOR         GR         NPOR    
# ...
   746.0000      8.1484      2.4844      0.0381     10.0349    142.7106     26.4082
   746.1000      8.1484      2.4684      0.0653     11.0048    143.6547     26.4701
   746.2000      8.1484      2.4561      0.0348     11.7518    146.1234     26.9473
   746.3000      8.1491      2.4587     -0.0016     11.5909    147.2533     27.3974
   746.4000      8.1491      2.4741      0.0495     10.6630    148.1456     27.7609
   746.5000      8.1489      2.4797      0.0556     10.3230    147.0139     28.0684
   746.6000      8.1489      2.4734      0.0045     10.7009    143.0444     28.1263
   746.7000      8.1489      2.4778      0.0283     10.4392    140.3571     28.0752
   746.8000      8.1473      2.5036      0.0248      8.8711    137.5587     28.2168
   746.9000      8.1473      2.5346      0.1277      6.9933    133.1593     28.5143
   747.0000      8.1454      2.5437      0.0823      6.4425    129.3066     28.5333
   747.1000      8.1454      2.5350      0.0185      6.9688    126.8321     28.1463
   747.2000      8.1454      2.5346      0.0615      6.9953    124.6563     27.6725
   747.3000      8.1443      2.5467      0.0518      6.2599    121.1417     27.1023
   747.4000      8.1443      2.5562      0.0582      5.6863    117.3891     26.3697
   747.5000      8.1432      2.5526      0.0781      5.9037    111.6236     25.9205
   747.6000      8.1432      2.5423      0.0551      6.5274    105.5865     26.0731
   747.7000      8.1432      2.5347      0.0346      6.9908    107.9228     26.3687
   747.8000      8.1313      2.5249      0.0322      7.5817    115.5030     26.3024
   747.9000      8.1313      2.5047      0.0227      8.8072    118.2350     25.9113
   748.0000      8.0994      2.4822     -0.0181     10.1679    116.9488     25.4725
   748.1000      8.0994      2.4774     -0.0144     10.4586    114.6723     25.3147
   748.2000      8.0994      2.4917     -0.0187      9.5961    110.4320     25.4524
   748.3000      8.0656      2.5019      0.0183      8.9775    108.2488     25.7134
   748.4000      8.0656      2.4993     -0.0129      9.1317    112.1558     25.9534
   748.5000      8.0514      2.5009     -0.0096      9.0388    117.9409     26.0059
   748.6000      8.0514      2.5078      0.0440      8.6206    119.6300     25.8876
   748.7000      8.0514      2.5118      0.0528      8.3754    119.0988     25.6653
   748.8000      8.0525      2.5270     -0.0221      7.4562    122.7479     25.4388
   748.9000      8.0525      2.5626      0.0884      5.2997    131.1090     25.4426
   749.0000      8.0545      2.5910      0.1010      3.5728    135.7239     25.5875
   749.1000      8.0545      2.5795      0.0888      4.2710    132.2137     25.7389
   749.2000      8.0545      2.5306      0.0379      7.2370    125.8614     26.0244
   749.3000      8.0529      2.4813     -0.0084     10.2267    120.1699     26.4826
   749.4000      8.0529      2.4628     -0.0274     11.3483    115.6024     26.9125
   749.5000      8.0531      2.4705     -0.0140     10.8811    112.3378     27.0829
   749.6000      8.0531      2.4767      0.0290     10.5048    110.3301     26.7752
   749.7000      8.0531      2.4745     -0.0327     10.6370    109.7346     26.2055
   749.8000      8.0604      2.4912     -0.0367      9.6248    111.8236     25.9520
   749.9000      8.0604      2.5314      0.0426      7.1892    116.2865     25.9003
   750.0000      8.0681      2.5651      0.0681      5.1455    113.8895     25.6985
   750.1000      8.0681      2.5728      0.0939      4.6798    101.9017     25.5476
   750.2000      8.0681      2.5619      0.0694      5.3369     93.2836     25.6994
   750.3000      8.0681      2.5518      0.0627      5.9519     96.1266     25.8716
   750.4000      8.0681      2.5470      0.0787      6.2398    105.3901     25.6942
   750.5000      8.0592      2.5390      0.0293      6.7280    114.2468     25.2600
   750.6000      8.0592      2.5236      0.0692      7.6586    120.0525     24.8460
   750.7000      8.0592      2.5125      0.0320      8.3340    120.4764     24.4312
   750.8000      8.0485      2.5272      0.0640      7.4432    117.6620     24.0361
   750.9000      8.0485      2.5645      0.1190      5.1794    117.3353     23.8614
   751.0000      8.0440      2.5886      0.1817      3.7193    120.6654     24.1091
   751.1000      8.0440      2.5720      0.1389      4.7290    124.5689     24.6108
   751.2000      8.0440      2.5297      0.0652      7.2916    126.1022     24.6832
   751.3000      8.0483      2.4977     -0.0132      9.2306    126.3412     24.4562
   751.4000      8.0483      2.4888      0.0219      9.7724    128.2808     24.7331
   751.5000      8.0570      2.4860      0.0220      9.9423    131.0553     25.4171
   751.6000      8.0570      2.4752      0.0249     10.5954    132.2152     25.9111
   751.7000      8.0570      2.4570      0.0308     11.6994    136.2282     26.1688
   751.8000      8.0630      2.4404     -0.0262     12.7002    144.7579     26.5861
   751.9000      8.0630      2.4419     -0.0024     12.6126    149.3496     27.3054
   752.0000      8.0573      2.4686      0.0205     10.9931    147.1539     27.8826
   752.1000      8.0573      2.5166      0.0160      8.0838    143.7124     28.0047
   752.2000      8.0573      2.5777      0.0970      4.3843    142.1319     28.0538
   752.3000      8.0440      2.6285      0.1549      1.3005    140.8843     28.2154
   752.4000      8.0440      2.6452      0.1958      0.2897    138.4623     27.9212
   752.5000      8.0358      2.6230      0.1893      1.6343    135.8364     27.2732
   752.6000      8.0358      2.5735      0.1495      4.6356    134.7204     27.1923
   752.7000      8.0358      2.5171      0.0580      8.0566    135.9420     27.6442
   752.8000      8.0361      2.4793     -0.0061     10.3449    139.0683     27.7765
   752.9000      8.0361      2.4707      0.0040     10.8658    145.5850     27.3652
   753.0000      8.0503      2.4869     -0.0848      9.8843    153.1381     26.9008
   753.1000      8.0503      2.5205      0.0949      7.8483    153.0349     26.9524
   753.2000      8.0503      2.5452      0.0925      6.3504    147.8060     27.5645
   753.3000      8.0765      2.5396      0.0500      6.6931    149.6021     28.0175
   753.4000      8.0765      2.5087      0.0688      8.5661    156.9741     27.8951
   753.5000      8.0975      2.4687      0.0232     10.9858    157.9340     27.7389
   753.6000      8.0975      2.4426     -0.0106     12.5698    151.2385     27.8764
   753.7000      8.0975      2.4463      0.0320     12.3442    144.6670     28.2993
   753.8000      8.1057      2.4757      0.0443     10.5641    140.3899     28.8756
   753.9000      8.1057      2.5162      0.1131      8.1075    135.6008     28.9869
   754.0000      8.1073      2.5503      0.1194      6.0451    131.7558     28.4868
   754.1000      8.1073      2.5650      0.1043      5.1496    132.5603     27.9433
   754.2000      8.1073      2.5615      0.0810      5.3631    136.4574     27.7401
   754.3000      8.1067      2.5517      0.0943      5.9581    139.5214     27.6749
   754.4000      8.1067      2.5486      0.0633      6.1434    138.4971     27.4788
   754.5000      8.1055      2.5520      0.1134      5.9388    132.4737     27.2712
   754.6000      8.1055      2.5443      0.0814      6.4055    130.5940     27.1877
   754.7000      8.1055      2.5163      0.0429      8.1047    142.6097     27.2831
   754.8000      8.1047      2.4802     -0.0076     10.2893    159.0728     27.4047
   754.9000      8.1047      2.4517      0.0044     12.0168    163.6851     27.4259
   755.0000      8.1070      2.4371     -0.0352     12.9037    159.7703     27.4641
   755.1000      8.1070      2.4418     -0.0340     12.6177    156.7705     27.6720
   755.2000      8.1070      2.4646      0.0463     11.2383    153.9848     28.0068
   755.3000      8.1131      2.4831      0.0718     10.1159    153.3826     28.2982
   755.4000      8.1131      2.4791      0.0817     10.3562    156.2176     28.6706
   755.5000      8.1200      2.4639     -0.0100     11.2787    160.9038     29.4124
