~Version Information
VERS.                      2.0: CWLS Log ASCII Standard - VERSION 2.0
WRAP.                       NO: One line per depth step
~Well Information Block
STRT.FT               898.0000: 
STOP.FT              2360.0000: 
STEP.FT                 0.2500: 
NULL.                -999.2500: 
COMP.          Pioneer Natural Resources: COMPANY
WELL.             Trimax 44-23: WELL
FLD.           Purgatoire River: FIELD
LOC.           527' FSL & 1064' FEL: LOCATION
PROV.                 Colorado: PROVINCE
CNTY.               Las Animas: COUNTRY
SRVC.                Patterson: SERVICE COMPANY
DATE.          Sun Mar 13 04:57:04 2005: LOG DATE
UWI.           05 071 08326 00: UNIQUE WELL ID
~Curve Information Block
DEPT.FT            0 000 00 00: Depth
SN.Ohm-m                      : IEL Short Normal
SP.mV                         : IEL Spontaneous Potential
DIR.Ohm-m                     : IEL Induction Resistivity
GR.GAPI                       : Gamma Ray
~Parameter Information Block
~A  Depth        SN          SP         DIR          GR     
# ...
  2037.0000     16.0857    -13.1459     11.9555     84.1181
  2037.2500     17.1028    -12.7808     12.4217     77.7178
  2037.5000     18.6681    -12.3087     13.0299     68.5858
  2037.7500     21.2230    -11.7863     13.8119     63.1258
  2038.0000     25.2947    -11.2565     14.8047     55.7281
  2038.2500     31.0415    -10.7301     16.0509     50.9510
  2038.5000     37.9683    -10.1901     17.5956     43.5965
  2038.7500     45.1963     -9.6102     19.4770     38.8094
  2039.0000     51.9349     -8.9751     21.7021     32.9389
  2039.2500     57.6976     -8.2874     24.2051     30.4953
  2039.5000     62.2352     -7.5638     26.7890     29.1296
  2039.7500     65.3690     -6.8234     29.0894     29.2395
  2040.0000     67.0173     -6.0772     30.6480     29.6416
  2040.2500     67.3588     -5.3187     31.1327     29.4637
  2040.5000     66.6844     -4.5260     30.5521     28.3864
  2040.7500     65.0459     -3.6763     29.2292     27.7269
  2041.0000     62.1999     -2.7631     27.5700     28.6266
  2041.2500     57.9029     -1.7976     25.8631     31.4766
  2041.5000     52.2732     -0.7970     24.2297     39.9278
  2041.7500     45.8731      0.2234     22.6801     48.2456
  2042.0000     39.4374      1.2458     21.1971     63.9443
  2042.2500     33.5966      2.2391     19.7911     75.7697
  2042.5000     28.7425      3.1568     18.5008     93.5238
  2042.7500     24.9710      3.9489     17.3641    103.9940
  2043.0000     22.1826      4.5830     16.3931    115.7739
  2043.2500     20.2521      5.0579     15.5728    120.4456
  2043.5000     19.0550      5.4016     14.8750    122.5173
  2043.7500     18.4234      5.6564     14.2737    120.8950
  2044.0000     18.1655      5.8623     13.7535    115.0551
  2044.2500     18.1136      6.0475     13.3105    109.7805
  2044.5000     18.1604      6.2240     12.9479    101.4723
  2044.7500     18.2611      6.3884     12.6696     96.6280
  2045.0000     18.3955      6.5281     12.4764     91.6865
  2045.2500     18.5340      6.6345     12.3643     90.1954
  2045.5000     18.6339      6.7129     12.3261     89.9767
  2045.7500     18.6572      6.7817     12.3532     90.4067
  2046.0000     18.6069      6.8641     12.4379     90.9856
  2046.2500     18.5498      6.9781     12.5759     91.2725
  2046.5000     18.5935      7.1287     12.7672     91.8689
  2046.7500     18.8462      7.3034     13.0166     92.4960
  2047.0000     19.3732      7.4775     13.3315     93.6799
  2047.2500     20.1518      7.6215     13.7168     94.3862
  2047.5000     21.0706      7.7072     14.1691     94.6258
  2047.7500     22.0090      7.7140     14.6763     93.8328
  2048.0000     22.9273      7.6417     15.2259     90.8683
  2048.2500     23.8706      7.5242     15.8179     87.7400
  2048.5000     24.9116      7.4211     16.4697     81.5848
  2048.7500     26.1190      7.3829     17.2094     76.7246
  2049.0000     27.5475      7.4157     18.0624     68.9596
  2049.2500     29.2115      7.4798     19.0392     64.0890
  2049.5000     31.0700      7.5221     20.1277     58.3157
  2049.7500     33.0200      7.5140     21.2935     55.6923
  2050.0000     34.8724      7.4620     22.4884     52.9499
  2050.2500     36.3870      7.3882     23.6647     51.3941
  2050.5000     37.3968      7.3062     24.7782     49.3536
  2050.7500     37.8692      7.2176     25.7743     48.5821
  2051.0000     37.8652      7.1281     26.5783     48.8577
  2051.2500     37.5221      7.0565     27.1228     49.9172
  2051.5000     37.0408      7.0268     27.4026     52.2058
  2051.7500     36.6036      7.0548     27.5046     53.7383
  2052.0000     36.3011      7.1423     27.5714     55.2376
  2052.2500     36.1400      7.2806     27.7271     55.3880
  2052.5000     36.0822      7.4537     28.0215     54.3521
  2052.7500     36.0769      7.6400     28.4149     53.0493
  2053.0000     36.0820      7.8153     28.8016     50.6315
  2053.2500     36.0636      7.9596     29.0504     49.0211
  2053.5000     35.9871      8.0667     29.0411     47.2391
  2053.7500     35.8142      8.1478     28.6881     46.7394
  2054.0000     35.5101      8.2255     27.9698     47.0994
  2054.2500     35.0508      8.3181     26.9598     48.0015
  2054.5000     34.4082      8.4215     25.8194     50.2812
  2054.7500     33.5336      8.5025     24.7303     52.4481
  2055.0000     32.3996      8.5085     23.8157     56.7116
  2055.2500     31.0792      8.3902     23.1052     60.2336
  2055.5000     29.7537      8.1183     22.5540     66.6507
  2055.7500     28.6197      7.6844     22.0905     71.8341
  2056.0000     27.7932      7.0901     21.6584     80.8629
  2056.2500     27.2694      6.3391     21.2320     87.0450
  2056.5000     26.9374      5.4413     20.8081     94.4719
  2056.7500     26.6468      4.4218     20.3915     97.1683
  2057.0000     26.2843      3.3250     19.9867     97.7711
  2057.2500     25.8103      2.2074     19.5954     96.7181
  2057.5000     25.2457      1.1235     19.2157     94.5125
  2057.7500     24.6372      0.1123     18.8425     93.1543
  2058.0000     24.0405     -0.8077     18.4694     91.8012
  2058.2500     23.5250     -1.6313     18.0915     91.5330
  2058.5000     23.1590     -2.3536     17.7070     91.7182
  2058.7500     22.9255     -2.9573     17.3179     91.5209
  2059.0000     22.6618     -3.4107     16.9328     89.4555
  2059.2500     22.1843     -3.6754     16.5676     86.7509
  2059.5000     21.4583     -3.7219     16.2452     81.9056
  2059.7500     20.5865     -3.5476     15.9924     79.2400
  2060.0000     19.7467     -3.1868     15.8323     77.2090
  2060.2500     19.1895     -2.7091     15.7782     77.0504
  2060.5000     19.1684     -2.2029     15.8300     77.8205
  2060.7500     19.7808     -1.7520     15.9764     78.6957
  2061.0000     20.8541     -1.4087     16.2010     80.1866
  2061.2500     22.0252     -1.1740     16.4889     80.9833
  2061.5000     22.9798     -0.9975     16.8245     81.5926
  2061.7500     23.6156     -0.8079     17.1849     81.8905
  2062.0000     24.0130     -0.5574     17.5373     82.9670
  2062.2500     24.3144     -0.2442     17.8510     84.2034
  2062.5000     24.6273      0.1004     18.1180     86.0474
  2062.7500     24.9937      0.4406     18.3620     86.5167
  2063.0000     25.4096      0.7540     18.6231     85.1661
  2063.2500     25.8699      1.0344     18.9346     83.0143
  2063.5000     26.4060      1.2882     19.3144     79.2408
  2063.7500     27.0858      1.5275     19.7769     77.2291
  2064.0000     27.9865      1.7611     20.3469     75.4569
  2064.2500     29.1510      1.9893     21.0532     74.7187
  2064.5000     30.5260      2.2048     21.9031     73.3281
  2064.7500     31.9535      2.3956     22.8607     72.0059
  2065.0000     33.2709      2.5447     23.8548     69.8364
  2065.2500     34.3891      2.6335     24.8154     68.6522
  2065.5000     35.2768      2.6452     25.7041     67.7259
  2065.7500     35.9520      2.5678     26.5091     67.8306
  2066.0000     36.4933      2.3974     27.2186     69.1960
  2066.2500     37.0041      2.1455     27.8090     70.7506
  2066.5000     37.5482      1.8434     28.2647     73.1776
  2066.7500     38.1074      1.5315     28.5974     74.1802
  2067.0000     38.6029      1.2438     28.8306     73.9285
  2067.2500     38.9586      0.9988     28.9556     72.5453
  2067.5000     39.1359      0.8007     28.9159     69.3309
  2067.7500     39.1305      0.6408     28.6545     67.0270
  2068.0000     38.9557      0.4987     28.1872     64.1335
  2068.2500     38.6334      0.3461     27.6163     62.8194
  2068.5000     38.1908      0.1579     27.0662     62.0104
  2068.7500     37.6473     -0.0743     26.6098     62.4091
  2069.0000     36.9970     -0.3369     26.2500     64.6130
  2069.2500     36.2151     -0.6057     25.9529     67.0856
  2069.5000     35.3073     -0.8630     25.6852     71.9015
  2069.7500     34.3529     -1.1067     25.4271     75.6186
  2070.0000     33.4531     -1.3481     25.1625     81.5990
  2070.2500     32.6544     -1.6066     24.8732     85.5130
