~Version Information
 VERS.                      2.0: CWLS Log ASCII Standard - VERSION 2.0
 WRAP.                       NO: One line per depth step
 ~Well Information Block
 STRT.FT               762.3000: 
 STOP.FT              2573.7000: 
 STEP.FT                 0.1000: 
 NULL.                -999.2500: 
 COMP.          Petrogulf Corporation: COMPANY
 WELL.               J&P 12-33V: WELL
 FLD.           Purgatorie River: FIELD
 LOC.           2005' FSL & 1928' FEL: LOCATION
 CNTY.               Las Animas: COUNTY
 SRVC.                         : SERVICE COMPANY
 DATE.          Sat Aug 28 11:34:36 2004: LOG DATE
 UWI.           05 071 08092 00: UNIQUE WELL ID
 STAT.                 Colorado: STATE
 PROV.                         :Province
 ~Curve Information Block
 DEPT.FT            0 000 00 00: Depth
 GR.GAPI                       : Gamma Ray
 DCAL.in                       : CDL Caliper
 DPOR.pu                       : CDL Density Porosity
 NPOR.pu                       : Neutron Porosity
 RHOB.g/cc                     : CDL Bulk Density
 RHOC.g/cc                     : CDL Density Correction
 ~Parameter Information Block
 ~A  Depth        GR         DCAL        DPOR        NPOR        RHOB        RHOC    
# ...
  1261.5000     89.2627      8.2965     11.2491     19.2190      2.4644      0.0559
  1261.6000     78.7656      8.2965     13.5672     17.7017      2.4261     -0.0022
  1261.7000     66.7601      8.2965     18.0484     16.3525      2.3522      0.0253
  1261.8000     56.1372      8.2970     24.0607     14.6598      2.2530     -0.0254
  1261.9000     47.7440      8.2970     31.4032     12.8940      2.1318     -0.0296
  1262.0000     43.8454      8.3022     41.5335     11.7740      1.9647     -0.0348
  1262.1000     44.5684      8.3022     54.3941     11.3941      1.7525     -0.1203
  1262.2000     46.1969      8.3022     66.4827     11.1265      1.5530     -0.1608
  1262.3000     45.3735      8.3490     75.4762     10.6101      1.4046     -0.1156
  1262.4000     42.6452      8.3490     81.7419     10.1265      1.3013     -0.1492
  1262.5000     40.4316      8.4688     84.3503      9.8750      1.2582     -0.1416
  1262.6000     39.8669      8.4688     82.3594      9.8764      1.2911      0.1198
  1262.7000     39.9840      8.4688     78.5931     10.0670      1.3532      0.3260
  1262.8000     39.1871      8.6974     76.4121     10.2481      1.3892      0.3184
  1262.9000     38.8342      8.6974     76.1581     10.4930      1.3934      0.3141
  1263.0000     39.6456      8.8883     76.9883     11.0767      1.3797      0.2746
  1263.1000     38.3672      8.8883     77.9457     11.9980      1.3639      0.1964
  1263.2000     35.0635      8.8883     77.9743     13.0935      1.3634      0.1616
  1263.3000     33.9580      8.8004     77.0858     14.3789      1.3781      0.1432
  1263.4000     35.4921      8.8004     76.1333     15.7622      1.3938      0.1171
  1263.5000     37.2009      8.7471     75.8552     16.8934      1.3984      0.1415
  1263.6000     39.7291      8.7471     76.6657     17.5749      1.3850      0.1256
  1263.7000     44.7645      8.7471     78.2214     17.9031      1.3593      0.0817
  1263.8000     49.8909      8.7379     79.6966     18.0125      1.3350      0.0631
  1263.9000     52.5934      8.7379     80.6569     17.9182      1.3192      0.0292
  1264.0000     55.3080      8.7378     81.1957     17.8067      1.3103      0.0403
  1264.1000     60.7909      8.7378     81.5884     17.8392      1.3038      0.0231
  1264.2000     69.0005      8.7378     82.0039     17.8761      1.2969      0.0428
  1264.3000     79.2066      8.7291     82.5783     17.8988      1.2875      0.0554
  1264.4000     90.7110      8.7291     83.1559     17.8839      1.2779      0.0170
  1264.5000    102.1827      8.6566     83.3469     17.5763      1.2748      0.0054
  1264.6000    111.1568      8.6566     83.2751     17.1893      1.2760      0.0114
  1264.7000    117.6091      8.6566     83.1076     17.0889      1.2787      0.0161
  1264.8000    123.8512      8.4927     81.9679     17.0975      1.2975      0.0320
  1264.9000    129.0703      8.4927     78.9131     17.1198      1.3479      0.1202
  1265.0000    131.5549      8.5326     74.3675     17.4985      1.4229      0.2014
  1265.1000    131.3223      8.5326     69.4694     18.3576      1.5038      0.2469
  1265.2000    130.0019      8.5326     65.0498     19.5433      1.5767      0.2536
  1265.3000    130.2216      8.8344     61.0622     21.0661      1.6425      0.2183
  1265.4000    131.6143      8.8344     56.6938     22.7643      1.7146      0.1955
  1265.5000    130.0635      9.1097     52.2910     24.1482      1.7872      0.2301
  1265.6000    127.4762      9.1097     49.5640     25.2164      1.8322      0.2460
  1265.7000    129.3792      9.1097     48.2434     26.2842      1.8540      0.1173
  1265.8000    132.7644      9.1889     45.4524     27.3541      1.9000      0.0620
  1265.9000    131.9489      9.1889     39.7637     28.3309      1.9939      0.0389
  1266.0000    126.4013      9.1062     32.7200     29.1869      2.1101      0.0236
  1266.1000    119.6024      9.1062     26.2806     29.7900      2.2164      0.0534
  1266.2000    115.8564      9.1062     21.1853     29.8294      2.3004      0.0836
  1266.3000    117.1673      8.3590     17.2001     29.2625      2.3662      0.1179
  1266.4000    123.3220      8.3590     13.6709     28.5863      2.4244      0.1237
  1266.5000    132.7851      8.2448     10.3973     28.2218      2.4784      0.1325
  1266.6000    141.5169      8.2448      8.0152     28.0645      2.5178      0.1047
  1266.7000    144.3229      8.2448      6.9479     27.8623      2.5354      0.0618
  1266.8000    142.0757      8.2221      6.5892     27.5288      2.5413      0.0134
  1266.9000    140.7196      8.2221      6.1103     27.0849      2.5492      0.0078
  1267.0000    142.5197      8.2136      5.5560     26.5473      2.5583      0.0393
  1267.1000    145.0178      8.2136      5.3920     25.8642      2.5610      0.0236
  1267.2000    145.3275      8.2136      5.5042     25.0507      2.5592      0.0278
  1267.3000    142.1428      8.2118      5.6434     24.2013      2.5569      0.0248
  1267.4000    138.2025      8.2118      5.7685     23.3177      2.5548      0.0034
  1267.5000    136.6179      8.2119      5.8561     22.5125      2.5534     -0.0145
  1267.6000    136.1673      8.2119      6.4992     21.9827      2.5428      0.0252
  1267.7000    136.2466      8.2119      8.3720     21.7880      2.5119      0.0353
  1267.8000    137.1516      8.2113     10.9371     21.7815      2.4695     -0.0194
  1267.9000    134.6446      8.2113     13.2895     21.6793      2.4307      0.0180
  1268.0000    130.6140      8.2119     15.3693     21.4119      2.3964     -0.0145
  1268.1000    132.5020      8.2119     16.9216     21.1663      2.3708     -0.0174
  1268.2000    136.9848      8.2119     17.0180     21.0534      2.3692     -0.0157
  1268.3000    137.3045      8.2115     15.3617     21.0721      2.3965      0.0415
  1268.4000    135.2662      8.2115     12.7832     21.3281      2.4391      0.0799
  1268.5000    134.5116      8.2137     10.1461     21.8507      2.4826      0.1555
  1268.6000    136.3637      8.2137      7.9738     22.5327      2.5184      0.2236
  1268.7000    139.7468      8.2137      6.4250     23.3554      2.5440      0.2657
  1268.8000    140.4423      8.2144      5.1117     24.2120      2.5657      0.2791
  1268.9000    137.8213      8.2144      4.0450     24.7711      2.5833      0.2764
  1269.0000    135.0989      8.2146      3.7389     24.9478      2.5883      0.2283
  1269.1000    133.8228      8.2146      4.0892     24.9405      2.5825      0.2195
  1269.2000    132.8111      8.2146      4.4884     24.8349      2.5759      0.1692
  1269.3000    129.7290      8.2128      4.3738     24.5438      2.5778      0.0975
  1269.4000    126.1535      8.2128      4.0383     24.0036      2.5834      0.1296
  1269.5000    125.1169      8.2126      4.3511     23.2351      2.5782      0.0732
  1269.6000    121.8896      8.2126      5.6386     22.3678      2.5570      0.0717
  1269.7000    112.8541      8.2126      8.4701     21.7518      2.5102      0.0435
  1269.8000    106.0959      8.2122     13.2653     21.6995      2.4311     -0.0016
  1269.9000    105.2955      8.2122     18.7464     22.1996      2.3407     -0.0405
  1270.0000    104.5141      8.2068     23.1122     22.8907      2.2686     -0.0253
  1270.1000    102.8230      8.2068     25.6398     23.4894      2.2269     -0.0556
  1270.2000    103.2630      8.2068     26.0221     24.1056      2.2206     -0.0350
  1270.3000    103.9029      8.2096     23.8380     25.0989      2.2567     -0.0096
  1270.4000    101.9675      8.2096     19.3234     26.4431      2.3312      0.0933
  1270.5000    100.9701      8.2122     13.9022     27.7063      2.4206      0.1881
  1270.6000    105.2480      8.2122      9.0842     28.6751      2.5001      0.3160
  1270.7000    112.1841      8.2122      5.7239     29.2285      2.5556      0.3569
  1270.8000    116.7726      8.2116      3.9246     29.2742      2.5852      0.2590
  1270.9000    118.5239      8.2116      2.7877     29.1063      2.6040      0.1807
  1271.0000    120.3504      8.2105      1.0993     29.0698      2.6319      0.1506
