~Version Information
VERS.                      2.0: CWLS Log ASCII Standard - VERSION 2.0
WRAP.                       NO: One line per depth step
~Well Information Block
STRT.FT               450.0000: 
STOP.FT              2753.5000: 
STEP.FT                 0.1000: 
NULL.                -999.2500: 
COMP.          Pioneer Natural Resources: COMPANY
WELL.             Squeal 11-26: WELL
FLD.           Purgatoire River: FIELD
LOC.           1186' FNL & 152' FWL: LOCATION
PROV.                 Colorado: PROVINCE
CNTY.               Las Animas: COUNTRY
SRVC.                Patterson: SERVICE COMPANY
DATE.          Wed Jun 15 09:11:52 2005: LOG DATE
UWI.           05 071 08404 00: UNIQUE WELL ID
~Curve Information Block
DEPT.FT            0 000 00 00: Depth
DCAL.in                       : CDL Caliper
RHOB.g/cc                     : CDL Bulk Density
RHOC.g/cc                     : CDL Density Correction
DPOR.pu                       : CDL Density Porosity
GR.GAPI                       : Gamma Ray
NPOR.pu                       : Neutron Porosity
~Parameter Information Block
~A  Depth       DCAL        RHOB        RHOC        DPOR         GR         NPOR    
# ...
  1362.0000      7.9753      2.8314      0.1552    -10.9935    105.8629     27.8550
  1362.1000      7.9753      2.8702      0.1466    -13.3480    109.1926     28.2193
  1362.2000      7.9753      2.8973      0.1062    -14.9886    111.8139     27.9507
  1362.3000      7.9382      2.9276      0.1140    -16.8229    112.0206     27.8211
  1362.4000      7.9382      2.9420      0.1034    -17.6960    110.1080     27.6838
  1362.5000      7.9629      2.9240      0.0212    -16.6066    107.2984     27.1882
  1362.6000      7.9629      2.8921      0.0143    -14.6702    102.3272     26.7138
  1362.7000      7.9629      2.8629     -0.0165    -12.9037     92.3056     26.5582
  1362.8000      7.9747      2.8268      0.0057    -10.7167     82.1586     26.9047
  1362.9000      7.9747      2.7773     -0.0217     -7.7159     77.9833     27.6350
  1363.0000      7.9788      2.7278     -0.0423     -4.7160     78.0703     28.4994
  1363.1000      7.9788      2.6977     -0.0508     -2.8892     79.2507     29.6544
  1363.2000      7.9788      2.6925     -0.0167     -2.5764     80.4634     30.8525
  1363.3000      8.0061      2.6881      0.0554     -2.3087     83.4814     31.3562
  1363.4000      8.0061      2.6621      0.0424     -0.7349     92.0379     31.1168
  1363.5000      8.0242      2.6223      0.0226      1.6778    104.4615     30.6324
  1363.6000      8.0242      2.5805      0.0093      4.2145    113.5092     30.0436
  1363.7000      8.0242      2.5463      0.0079      6.2878    118.0085     29.4200
  1363.8000      8.0254      2.5350     -0.0031      6.9690    121.2410     29.2754
  1363.9000      8.0254      2.5447      0.0364      6.3808    125.8060     29.7078
  1364.0000      8.0399      2.5476      0.0646      6.2043    131.1487     29.6886
  1364.1000      8.0399      2.5185      0.0051      7.9716    135.0878     29.0415
  1364.2000      8.0399      2.4555      0.0265     11.7893    137.5010     29.0364
  1364.3000      8.0422      2.3823      0.0072     16.2243    138.0031     29.8916
  1364.4000      8.0422      2.3302     -0.0046     19.3789    137.8180     31.0311
  1364.5000      8.0493      2.3131     -0.0410     20.4174    138.1578     31.7225
  1364.6000      8.0493      2.3202     -0.0333     19.9860    138.8419     31.1493
  1364.7000      8.0493      2.3317      0.0199     19.2932    138.6610     29.5385
  1364.8000      8.0408      2.3476      0.0012     18.3285    136.2469     27.9835
  1364.9000      8.0408      2.3865      0.0474     15.9668    131.9742     27.4152
  1365.0000      8.0285      2.4511      0.1507     12.0532    127.9888     28.2189
  1365.1000      8.0285      2.5224      0.1667      7.7359    126.1568     29.8744
  1365.2000      8.0285      2.5790      0.1850      4.3022    125.3702     30.9912
  1365.3000      8.0151      2.6029      0.1301      2.8534    121.7325     30.7707
  1365.4000      8.0151      2.6012      0.0570      2.9548    116.1369     30.0262
  1365.5000      8.0185      2.6024      0.0506      2.8855    113.1131     29.8090
  1365.6000      8.0185      2.6087      0.1024      2.5000    110.5756     30.1267
  1365.7000      8.0185      2.6069      0.0393      2.6126    107.1839     30.3845
  1365.8000      8.0290      2.5980      0.0719      3.1485    106.6227     30.0920
  1365.9000      8.0290      2.5916      0.0200      3.5411    108.1344     29.0092
  1366.0000      8.0274      2.5946      0.0728      3.3567    108.1562     27.5719
  1366.1000      8.0274      2.6006      0.0373      2.9960    107.2212     26.6365
  1366.2000      8.0274      2.5983      0.0898      3.1314    106.1133     26.1112
  1366.3000      8.0265      2.5930     -0.0173      3.4525    103.2559     25.3958
  1366.4000      8.0265      2.6015      0.0067      2.9365    101.8226     24.9839
  1366.5000      8.0340      2.6273      0.0273      1.3753    103.4560     25.7631
  1366.6000      8.0340      2.6539      0.0593     -0.2347    102.2726     27.0894
  1366.7000      8.0340      2.6543      0.0798     -0.2627     97.0371     27.3844
  1366.8000      8.0383      2.6182      0.0312      1.9296     92.4363     26.5994
  1366.9000      8.0383      2.5764     -0.0180      4.4603     91.3498     26.2531
  1367.0000      8.0324      2.5664      0.0126      5.0685     93.3274     27.2197
  1367.1000      8.0324      2.5808      0.0635      4.1926     95.8538     28.6467
  1367.2000      8.0324      2.5866      0.0708      3.8434     98.5360     29.6328
  1367.3000      8.0300      2.5724      0.0129      4.7001    100.0658     30.6429
  1367.4000      8.0300      2.5511     -0.0066      5.9946     96.8156     31.8266
  1367.5000      8.0378      2.5345      0.0159      7.0006     91.3109     32.4225
  1367.6000      8.0378      2.5257     -0.0045      7.5348     91.3833     32.0335
  1367.7000      8.0378      2.5207      0.0241      7.8344    100.3482     31.0401
  1367.8000      8.0315      2.5192     -0.0012      7.9245    113.4096     29.9446
  1367.9000      8.0315      2.5270      0.0262      7.4524    123.3590     29.1425
  1368.0000      8.0400      2.5439      0.0378      6.4297    126.2543     28.7362
  1368.1000      8.0400      2.5696      0.0316      4.8746    124.5189     28.1529
  1368.2000      8.0400      2.6013      0.0417      2.9515    123.6177     27.4505
  1368.3000      8.0409      2.6189      0.0590      1.8844    124.5363     27.5730
  1368.4000      8.0409      2.6051      0.0564      2.7228    126.3606     28.5037
  1368.5000      8.0458      2.5760      0.0553      4.4844    128.5584     29.4649
  1368.6000      8.0458      2.5657      0.0069      5.1075    130.4515     29.9875
  1368.7000      8.0458      2.5849      0.0795      3.9470    131.7866     30.2417
  1368.8000      8.0588      2.6036      0.0474      2.8114    131.1295     30.4411
  1368.9000      8.0588      2.5910      0.0949      3.5738    127.3690     29.9529
  1369.0000      8.0795      2.5615      0.0274      5.3625    122.2734     28.9166
  1369.1000      8.0795      2.5468      0.0730      6.2539    120.7197     28.5500
  1369.2000      8.0795      2.5497      0.0624      6.0811    127.3241     29.1800
  1369.3000      8.0354      2.5592      0.0460      5.5024    137.0134     30.0760
  1369.4000      8.0354      2.5612      0.0679      5.3818    140.3286     30.5059
  1369.5000      8.0446      2.5440      0.0462      6.4254    141.0056     30.7739
  1369.6000      8.0446      2.5311      0.0202      7.2066    143.4590     31.3588
  1369.7000      8.0446      2.5466      0.0969      6.2648    143.8483     31.8336
  1369.8000      8.0532      2.5712      0.1313      4.7749    141.1810     31.7753
  1369.9000      8.0532      2.5885      0.0990      3.7283    135.9436     31.3009
  1370.0000      8.0752      2.6063      0.0769      2.6467    130.9058     30.5622
  1370.1000      8.0752      2.6240      0.1314      1.5765    129.8687     29.7984
  1370.2000      8.0752      2.6334      0.0990      1.0066    129.2511     29.1948
  1370.3000      8.0629      2.6362      0.1136      0.8391    125.3810     28.2095
  1370.4000      8.0629      2.6269      0.1213      1.3990    122.7180     26.7004
  1370.5000      8.0472      2.5960      0.0790      3.2747    125.8716     25.8181
  1370.6000      8.0472      2.5572      0.0177      5.6239    130.3338     26.1348
  1370.7000      8.0472      2.5413      0.0257      6.5867    129.4469     26.5224
  1370.8000      8.0471      2.5599      0.0418      5.4618    124.6127     26.0791
  1370.9000      8.0471      2.5972      0.0814      3.1972    119.6565     25.4537
  1371.0000      8.0478      2.6331      0.0770      1.0245    115.6806     25.8086
  1371.1000      8.0478      2.6512      0.1199     -0.0735    113.6869     26.9677
  1371.2000      8.0478      2.6339      0.1133      0.9771    112.2893     27.9807
  1371.3000      8.0307      2.5834      0.0518      4.0364    110.6987     28.5976
  1371.4000      8.0307      2.5431     -0.0494      6.4766    112.6547     28.8029
  1371.5000      8.0221      2.5501      0.0673      6.0526    120.3739     28.3147
