~Version Information
VERS.                      2.0: CWLS Log ASCII Standard - VERSION 2.0
WRAP.                       NO: One line per depth step
~Well Information Block
STRT.FT                -7.7500: 
STOP.FT              1532.2500: 
STEP.FT                 0.2500: 
NULL.                -999.2500: 
COMP.          Pioneer Natural Resources: COMPANY
WELL.          Big Cat Federal 44-1: WELL
FLD.           Purgatorie River: FIELD
LOC.           197' FSL & 973' FEL--: LOCATION
CNTY.               Las Animas: COUNTY
SRVC.          Patterson Wireline: SERVICE COMPANY
DATE.          Fri Apr 28 12:21:06 2006: LOG DATE
UWI.           05 071 08042 00: UNIQUE WELL ID
STAT.                       CO: STATE
~Curve Information Block
DEPT.FT            0 000 00 00: Depth
CCL.                          : Casing Collar Locator
TT3.usec                      : CBL 3' Travel Time
AMP3.mV                       : CBL 3' Amplitude
GR.GAPI                       : Gamma Ray
~Parameter Information Block
~A  Depth       CCL         TT3         AMP3         GR     
# ...
   695.7500      0.0000    720.7115     15.8588    127.4070
   696.0000      0.0000    735.5697     15.6481    121.5835
   696.2500      0.0000    740.7985     15.4237    114.4046
   696.5000      0.0000    740.0972     15.1867    108.3690
   696.7500      0.0000    736.9927     14.9550    105.8007
   697.0000      0.0000    733.1605     14.7429    107.0845
   697.2500      0.0000    728.5876     14.5495    110.2816
   697.5000      0.0000    723.2739     14.3609    112.8324
   697.7500      0.0000    718.4767     14.1653    113.7277
   698.0000      0.0000    716.1736     13.9656    113.7183
   698.2500      0.0000    717.1485     13.7777    113.6111
   698.5000      0.0000    719.7750     13.6150    113.1000
   698.7500      0.0000    721.1232     13.4783    111.5718
   699.0000      0.0000    719.4677     13.3651    109.5626
   699.2500      0.0000    715.6960     13.2824    108.7407
   699.5000      0.0000    712.2961     13.2395    110.2488
   699.7500      0.0000    711.1102     13.2285    113.3047
   700.0000      0.0000    712.1415     13.2242    115.6865
   700.2500      0.0000    714.3704     13.2000    115.6820
   700.5000      0.0000    717.2988     13.1407    113.4514
   700.7500      0.0000    721.2465     13.0449    110.2642
   701.0000      0.0000    726.2719     12.9241    106.6576
   701.2500      0.0000    731.5427     12.7976    102.0188
   701.5000      0.0000    736.0744     12.6824     95.9551
   701.7500      0.0000    739.6871     12.5828     89.3125
   702.0000      0.0000    742.9927     12.4908     83.6135
   702.2500      0.0000    746.6229     12.3941     80.0019
   702.5000      0.0000    750.5056     12.2865     78.7355
   702.7500      0.0000    753.7728     12.1730     79.1664
   703.0000      0.0000    755.4327     12.0643     80.1112
   703.2500      0.0000    755.3735     11.9674     80.5730
   703.5000      0.0000    754.8723     11.8845     80.3185
   703.7500      0.0000    755.9515     11.8228     79.9076
   704.0000      0.0000    759.8151     11.7965     80.2142
   704.2500      0.0000    765.7970     11.8123     81.6578
   704.5000      0.0000    772.0791     11.8564     83.6664
   704.7500      0.0000    777.4897     11.9011     85.0510
   705.0000      0.0000    782.4639     11.9264     85.0513
   705.2500      0.0000    788.3040     11.9389     83.8639
   705.5000      0.0000    795.6313     11.9708     82.2038
   705.7500      0.0000    803.5736     12.0589     80.7609
   706.0000      0.0000    810.4099     12.2189     80.0339
   706.2500      0.0000    814.9274     12.4380     80.0101
   706.5000      0.0000    817.0820     12.6866     79.6944
   706.7500      0.0000    817.5878     12.9323     77.5345
   707.0000      0.0000    817.1349     13.1456     72.9460
   707.2500      0.0000    815.9342     13.3032     67.3954
   707.5000      0.0000    813.6500     13.3964     63.5478
   707.7500      0.0000    809.8403     13.4366     63.0455
   708.0000      0.0000    805.0051     13.4490     65.0761
   708.2500      0.0000    801.2703     13.4572     67.2070
   708.5000      0.0000    801.0403     13.4739     67.6972
   708.7500      0.0000    804.2373     13.4994     66.9166
   709.0000      0.0000    807.5887     13.5248     66.4042
   709.2500      0.0000    807.3904     13.5339     66.7093
   709.5000      0.0000    802.5462     13.5084     66.6218
   709.7500      0.0000    794.6508     13.4358     64.7698
   710.0000      0.0000    785.6620     13.3169     61.4612
   710.2500      0.0000    775.9111     13.1680     58.3510
   710.5000      0.0000    764.5102     13.0173     56.7311
   710.7500      0.0000    751.8077     12.8960     56.9189
   711.0000      0.0000    741.1636     12.8262     58.8069
   711.2500      0.0000    737.4204     12.8121     61.8384
   711.5000      0.0000    743.1298     12.8398     64.6486
   711.7500      0.0000    756.8184     12.8882     66.0918
   712.0000      0.0000    775.1205     12.9461     66.9388
   712.2500      0.0000    795.2853     13.0167     69.7105
   712.5000      0.0000    814.5637     13.1022     76.4927
   712.7500      0.0000    828.6644     13.1873     87.2023
   713.0000      0.0000    833.1381     13.2414     99.6964
   713.2500      0.0000    826.6722     13.2429    110.8874
   713.5000      0.0000    812.1387     13.2001    118.0847
   713.7500      0.0000    794.0328     13.1451    120.4560
   714.0000      0.0000    774.5607     13.1041    119.8739
   714.2500      0.0000    752.5840     13.0784    119.9530
   714.5000      0.0000    727.7763     13.0530    123.4714
   714.7500      0.0000    706.0007     13.0166    130.1926
   715.0000      0.0000    697.5796     12.9682    137.2731
   715.2500      0.0000    707.5799     12.9109    141.9348
   715.5000      0.0000    729.6885     12.8455    143.4684
   715.7500      0.0000    751.9294     12.7739    142.7721
   716.0000      0.0000    766.5981     12.7058    140.8414
   716.2500      0.0000    773.2451     12.6574    138.0773
   716.5000      0.0000    774.8436     12.6411    134.2782
   716.7500      0.0000    773.7769     12.6541    128.8522
   717.0000      0.0000    770.6970     12.6802    121.6590
   717.2500      0.0000    765.3182     12.7032    114.1969
   717.5000      0.0000    757.4110     12.7187    109.3536
   717.7500      0.0000    747.0096     12.7350    109.0895
   718.0000      0.0000    733.2311     12.7673    112.3363
   718.2500      0.0000    713.6340     12.8314    115.8300
   718.5000      0.0000    686.5311     12.9369    117.3229
   718.7500      0.0000    655.2894     13.0794    117.5258
   719.0000      0.0000    629.3709     13.2375    118.6518
   719.2500      0.0000    619.2948     13.3784    121.5128
   719.5000      0.0000    629.5109     13.4695    124.4637
   719.7500      0.0000    655.1509     13.4915    124.9185
   720.0000      0.0000    685.0914     13.4467    121.5608
   720.2500      0.0000    709.1020     13.3561    115.1938
   720.5000      0.0000    723.2307     13.2494    107.9431
   720.7500      0.0000    729.3307     13.1550    102.1471
   721.0000      0.0000    730.7864     13.0937     99.6439
   721.2500      0.0000    729.0878     13.0715    100.9188
   721.5000      0.0000    722.9426     13.0762    104.4601
   721.7500      0.0000    709.9451     13.0859    107.7292
   722.0000      0.0000    690.5215     13.0833    109.3691
   722.2500      0.0000    671.4645     13.0586    110.1521
   722.5000      0.0000    663.2592     13.0053    111.6392
   722.7500      0.0000    671.3118     12.9216    114.4588
   723.0000      0.0000    690.8700     12.8192    118.1073
   723.2500      0.0000    712.3040     12.7227    121.7383
   723.5000      0.0000    729.5858     12.6536    124.5830
   723.7500      0.0000    742.2491     12.6184    126.0467
   724.0000      0.0000    751.7236     12.6128    126.2884
   724.2500      0.0000    758.4974     12.6304    126.6406
   724.5000      0.0000    762.2064     12.6651    128.6391
   724.7500      0.0000    762.5577     12.7094    132.4861
   725.0000      0.0000    759.6682     12.7550    137.0486
   725.2500      0.0000    754.2383     12.7987    141.4932
   725.5000      0.0000    747.6580     12.8463    146.1433
   725.7500      0.0000    741.6263     12.9107    151.2495
   726.0000      0.0000    737.2995     12.9989    155.7067
   726.2500      0.0000    734.8329     13.0984    157.9270
   726.5000      0.0000    733.7086     13.1816    157.8387
   726.7500      0.0000    733.3269     13.2293    157.2330
   727.0000      0.0000    733.3000     13.2487    158.1425
   727.2500      0.0000    733.4107     13.2640    161.3795
   727.5000      0.0000    733.4672     13.2937    166.2216
   727.7500      0.0000    733.2166     13.3405    170.6088
   728.0000      0.0000    732.3496     13.3998    171.9486
   728.2500      0.0000    730.6453     13.4690    168.9545
   728.5000      0.0000    728.2642     13.5467    163.1454
   728.7500      0.0000    725.9386     13.6292    158.1798
   729.0000      0.0000    724.2944     13.7143    157.2504
