~Version Information
VERS.                      2.0: CWLS Log ASCII Standard - VERSION 2.0
WRAP.                       NO: One line per depth step
~Well Information Block
STRT.FT               647.0000: 
STOP.FT              1166.0000: 
STEP.FT                 0.1000: 
NULL.                -999.2500: 
COMP.          Pioneer Natural Resources: COMPANY
WELL.             Linda T 32-3: WELL
FLD.           Purgatoire River: FIELD
LOC.           1350' FNL & 2290' FEL: LOCATION
PROV.                 Colorado: PROVINCE
CNTY.               Las Animas: COUNTRY
SRVC.                Patterson: SERVICE COMPANY
DATE.          Sat Feb 05 08:06:50 2005: LOG DATE
UWI.           05 071 08215 00: UNIQUE WELL ID
~Curve Information Block
DEPT.FT            0 000 00 00: Depth
DCAL.in                       : CDL Caliper
RHOB.g/cc                     : CDL Bulk Density
RHOC.g/cc                     : CDL Density Correction
DPOR.pu                       : CDL Density Porosity
GR.GAPI                       : Gamma Ray
NPOR.pu                       : Neutron Porosity
~Parameter Information Block
~A  Depth       DCAL        RHOB        RHOC        DPOR         GR         NPOR    
# ...
  1050.2000      8.1204      2.5973      0.1065      3.1926     97.9761     16.6600
  1050.3000      8.0217      2.5836      0.0663      4.0235    101.6556     17.1833
  1050.4000      8.0217      2.5806      0.1231      4.2078    103.9420     18.0873
  1050.5000      8.0380      2.5799      0.0915      4.2483    102.2761     18.4926
  1050.6000      8.0380      2.5691      0.0845      4.9026    103.1039     18.1907
  1050.7000      8.0380      2.5593      0.0396      5.4975    108.9661     18.3104
  1050.8000      7.9924      2.5646      0.0668      5.1767    111.7654     19.0809
  1050.9000      7.9924      2.5777      0.0940      4.3812    107.7342     19.4279
  1051.0000      8.0063      2.5884      0.0722      3.7339    103.6062     18.9435
  1051.1000      8.0063      2.5963      0.1044      3.2574    104.2809     18.2518
  1051.2000      8.0063      2.5979      0.1376      3.1566    106.7160     17.9384
  1051.3000      7.9985      2.5956      0.1084      3.2970    107.9937     18.2968
  1051.4000      7.9985      2.6012      0.0972      2.9589    106.6605     19.1296
  1051.5000      7.9406      2.6141      0.1495      2.1779    102.8655     19.6369
  1051.6000      7.9406      2.6240      0.1432      1.5784    100.0005     19.7124
  1051.7000      7.9406      2.6264      0.1349      1.4326     98.4877     19.6926
  1051.8000      7.9611      2.6166      0.1079      2.0245     96.0112     19.1104
  1051.9000      7.9611      2.5952      0.1110      3.3187     90.9075     18.3423
  1052.0000      7.9788      2.5776      0.0812      4.3850     85.6829     18.2787
  1052.1000      7.9788      2.5802      0.0693      4.2287     87.9357     18.4391
  1052.2000      7.9788      2.5999      0.0924      3.0390     97.1638     18.0554
  1052.3000      8.0308      2.6190      0.0823      1.8811    103.7939     17.3771
  1052.4000      8.0308      2.6208      0.1317      1.7704    102.4879     17.1107
  1052.5000      8.0742      2.6022      0.0718      2.8998     95.4772     17.4529
  1052.6000      8.0742      2.5837      0.0637      4.0195     90.8169     17.7943
  1052.7000      8.0742      2.5831      0.0318      4.0554     94.3849     17.7140
  1052.8000      8.0131      2.5921      0.0739      3.5113    104.4101     17.5917
  1052.9000      8.0131      2.5966      0.0323      3.2350    115.4732     17.8689
  1053.0000      8.0185      2.6001      0.0576      3.0220    123.7444     18.5616
  1053.1000      8.0185      2.6104      0.0940      2.4015    127.2751     19.3061
  1053.2000      8.0185      2.6202      0.1332      1.8046    127.3603     19.8687
  1053.3000      8.0135      2.6189      0.1008      1.8876    127.6693     20.3871
  1053.4000      8.0135      2.6088      0.0936      2.4943    125.8128     20.9804
  1053.5000      8.0200      2.5973      0.0724      3.1964    118.5908     21.3303
  1053.6000      8.0200      2.5826      0.0783      4.0863    110.7526     20.9716
  1053.7000      8.0200      2.5570      0.0391      5.6342    107.1309     20.0764
  1053.8000      8.0511      2.5228      0.0254      7.7067    106.5766     19.4151
  1053.9000      8.0511      2.5002     -0.0197      9.0769    106.0353     19.1926
  1054.0000      8.0666      2.5124     -0.0140      8.3370    103.5949     18.7967
  1054.1000      8.0666      2.5519      0.0252      5.9433     98.2543     18.0846
  1054.2000      8.0666      2.5812      0.0414      4.1707     92.3341     17.5230
  1054.3000      8.0347      2.5849      0.0283      3.9435     90.1947     17.0629
  1054.4000      8.0347      2.5767      0.0350      4.4420     92.8329     16.5280
  1054.5000      8.0622      2.5648      0.0280      5.1641     98.2433     16.1989
  1054.6000      8.0622      2.5523      0.0190      5.9218    103.8912     16.3913
  1054.7000      8.0622      2.5453     -0.0249      6.3476    106.4620     16.8899
  1054.8000      8.0455      2.5499      0.0321      6.0650    105.6160     17.2297
  1054.9000      8.0455      2.5688      0.0196      4.9228    104.8422     17.3435
  1055.0000      8.0281      2.5939      0.0536      3.3983    105.8046     17.5757
  1055.1000      8.0281      2.6127      0.0729      2.2581    106.2027     18.0342
  1055.2000      8.0281      2.6248      0.0865      1.5302    104.6086     18.1878
  1055.3000      8.0514      2.6292      0.1464      1.2590    102.3939     17.8443
  1055.4000      8.0514      2.6180      0.1213      1.9373    101.8282     17.7179
  1055.5000      7.9963      2.5963      0.1397      3.2570    101.5313     18.4681
  1055.6000      7.9963      2.5740      0.1553      4.6079     97.6038     19.3930
  1055.7000      7.9963      2.5595      0.0708      5.4833     93.8114     19.5801
  1055.8000      7.9928      2.5663      0.0815      5.0742     97.9258     19.7620
  1055.9000      7.9928      2.5924      0.0875      3.4897    106.1361     20.3830
  1056.0000      7.9109      2.6161      0.1242      2.0541    108.5976     20.7257
  1056.1000      7.9109      2.6246      0.1000      1.5372    106.7959     20.5908
  1056.2000      7.9109      2.6303      0.1112      1.1957    108.1854     20.3482
  1056.3000      7.9455      2.6417      0.1606      0.5037    109.6946     20.0612
  1056.4000      7.9455      2.6469      0.1730      0.1863    108.8921     20.0273
  1056.5000      7.9401      2.6329      0.1684      1.0354    114.1974     20.8196
  1056.6000      7.9401      2.6058      0.0831      2.6803    124.3996     21.8820
  1056.7000      7.9401      2.5862      0.0707      3.8685    127.4859     22.0795
  1056.8000      7.9671      2.5818      0.0749      4.1358    124.8508     21.2910
  1056.9000      7.9671      2.5872      0.0671      3.8044    127.0606     20.5522
  1057.0000      8.0264      2.6013      0.1084      2.9528    131.5132     20.5882
  1057.1000      8.0264      2.6206      0.1214      1.7821    129.7254     20.9481
  1057.2000      8.0264      2.6339      0.1501      0.9735    125.7787     21.0839
  1057.3000      8.0310      2.6307      0.1375      1.1677    126.3219     21.0512
  1057.4000      8.0310      2.6170      0.1137      2.0010    127.7441     21.0416
  1057.5000      7.9788      2.6087      0.0778      2.5016    125.1117     20.9483
  1057.6000      7.9788      2.6082      0.0782      2.5321    120.3367     20.6263
  1057.7000      7.9788      2.6047      0.0643      2.7427    118.7105     20.6775
  1057.8000      7.9839      2.5977      0.0820      3.1693    123.6221     21.3914
  1057.9000      7.9839      2.5958      0.0715      3.2867    133.5175     22.0498
  1058.0000      8.0379      2.5956      0.0972      3.2995    140.3623     22.3951
  1058.1000      8.0379      2.5874      0.0824      3.7936    136.7899     22.6965
  1058.2000      8.0379      2.5752      0.0491      4.5336    125.5706     22.6415
  1058.3000      8.0398      2.5733      0.0672      4.6463    113.6711     21.7343
  1058.4000      8.0398      2.5873      0.0854      3.8027    107.2389     20.7534
  1058.5000      8.0400      2.6016      0.1454      2.9354    108.8895     20.6205
  1058.6000      8.0400      2.6015      0.0927      2.9379    112.9480     21.0039
  1058.7000      8.0400      2.5962      0.0541      3.2636    116.0364     21.6159
  1058.8000      8.0324      2.5978      0.0799      3.1620    118.3904     22.2011
  1058.9000      8.0324      2.6020      0.0933      2.9092    117.1041     22.0507
  1059.0000      8.0171      2.6046      0.0498      2.7540    115.3273     21.6142
  1059.1000      8.0171      2.6077      0.0904      2.5657    118.5068     21.4729
  1059.2000      8.0171      2.6095      0.0824      2.4517    123.6164     21.0499
  1059.3000      8.0238      2.6056      0.0943      2.6883    124.3598     20.4002
  1059.4000      8.0238      2.5894      0.0450      3.6703    120.8163     20.2065
  1059.5000      7.9850      2.5616      0.0785      5.3567    113.7540     20.1645
  1059.6000      7.9850      2.5342      0.0311      7.0153    104.4268     19.5259
  1059.7000      7.9850      2.5197      0.0208      7.8944    101.6571     18.5994
