~Version Information
VERS.                      2.0: CWLS Log ASCII Standard - VERSION 2.0
WRAP.                       NO: One line per depth step
~Well Information Block
STRT.FT               425.0000: 
STOP.FT              2461.0000: 
STEP.FT                 0.1000: 
NULL.                -999.2500: 
COMP.          Evergreen Operating Corporation: COMPANY
WELL.              Nomad 32-10: WELL
FLD.           Purgatorie River: FIELD
LOC.           2281' FNL & 1585' FEL: LOCATION
PROV.                 Colorado: PROVINCE
CNTY.               Las Animas: COUNTRY
SRVC.                Patterson: SERVICE COMPANY
DATE.          Thu Aug 12 11:13:52 2004: LOG DATE
UWI.           05 071 08127 00: UNIQUE WELL ID
~Curve Information Block
DEPT.FT            0 000 00 00: Depth
DCAL.in                       : CDL Caliper
RHOB.g/cc                     : CDL Bulk Density
RHOC.g/cc                     : CDL Density Correction
DPOR.pu                       : CDL Density Porosity
NPOR.pu                       : Neutron Porosity
GR.GAPI                       : Gamma Ray
~Parameter Information Block
~A  Depth       DCAL        RHOB        RHOC        DPOR        NPOR         GR     
# ...
   953.0000      8.1630      2.6008      0.0387      2.9799     29.8590    131.4006
   953.1000      8.1630      2.5465     -0.0055      6.2742     29.3857    133.5879
   953.2000      8.1630      2.4955     -0.0589      9.3621     28.7889    133.7244
   953.3000      8.1693      2.4726     -0.0533     10.7501     28.2848    133.7990
   953.4000      8.1693      2.4800     -0.0316     10.3053     27.9786    133.2032
   953.5000      8.1723      2.4957      0.0053      9.3537     27.8396    134.2295
   953.6000      8.1723      2.5033      0.0370      8.8894     27.7495    140.7636
   953.7000      8.1723      2.5080      0.0673      8.6037     27.6261    149.3658
   953.8000      8.1439      2.5171      0.0911      8.0539     27.4873    151.6307
   953.9000      8.1439      2.5244      0.1210      7.6102     27.3277    150.0109
   954.0000      8.1598      2.5215      0.1676      7.7887     27.1954    152.8233
   954.1000      8.1598      2.5135      0.1156      8.2709     27.1201    155.0572
   954.2000      8.1598      2.5110      0.1017      8.4239     27.2398    149.4704
   954.3000      8.1724      2.5153      0.0682      8.1637     27.6683    141.2335
   954.4000      8.1724      2.5231      0.0605      7.6920     28.0401    139.5414
   954.5000      8.2224      2.5258      0.0332      7.5266     28.1677    148.5658
   954.6000      8.2224      2.5181     -0.0511      7.9942     28.3258    160.7560
   954.7000      8.2224      2.5125     -0.0313      8.3306     28.5269    164.4879
   954.8000      8.2606      2.5211      0.0018      7.8097     28.5529    160.3570
   954.9000      8.2606      2.5318      0.0705      7.1646     28.3508    154.2944
   955.0000      8.2620      2.5311      0.0097      7.2042     28.0012    147.6368
   955.1000      8.2620      2.5288      0.0265      7.3441     27.5906    144.1155
   955.2000      8.2620      2.5306      0.0054      7.2346     27.2262    147.7371
   955.3000      8.2803      2.5319      0.0411      7.1605     27.1035    153.3922
   955.4000      8.2803      2.5360      0.0699      6.9071     27.2259    153.7083
   955.5000      8.2327      2.5505      0.0330      6.0330     27.2985    152.2632
   955.6000      8.2327      2.5734      0.0659      4.6425     27.1299    156.2762
   955.7000      8.2327      2.5920      0.0392      3.5137     26.9184    161.4153
   955.8000      8.2317      2.6017      0.0645      2.9292     27.1118    160.6155
   955.9000      8.2317      2.6080      0.0805      2.5447     27.7159    158.6915
   956.0000      8.1946      2.6095      0.0785      2.4531     28.4063    159.0414
   956.1000      8.1946      2.5956      0.0981      3.2959     29.2066    157.2066
   956.2000      8.1946      2.5634      0.0487      5.2458     29.8567    155.6737
   956.3000      8.1903      2.5247      0.0409      7.5917     29.7250    156.9809
   956.4000      8.1903      2.4923     -0.0117      9.5558     28.9048    154.7310
   956.5000      8.2032      2.4655      0.0165     11.1804     27.8624    149.3629
   956.6000      8.2032      2.4251      0.0171     13.6293     26.7735    150.7859
   956.7000      8.2032      2.3515     -0.0316     18.0883     25.8462    158.2206
   956.8000      8.1973      2.2430     -0.0262     24.6691     24.9963    159.7679
   956.9000      8.1973      2.1164     -0.0970     32.3399     23.9043    153.6127
   957.0000      8.1964      1.9989     -0.1520     39.4581     22.5970    147.6595
   957.1000      8.1964      1.9105     -0.1508     44.8202     21.1993    143.6997
   957.2000      8.1964      1.8626     -0.1524     47.7210     19.8709    137.9427
   957.3000      8.2189      1.8592     -0.0807     47.9244     18.8659    131.7191
   957.4000      8.2189      1.8909     -0.0089     46.0052     18.1667    129.5056
   957.5000      8.2578      1.9440      0.0953     42.7890     17.6913    131.4646
   957.6000      8.2578      2.0043      0.2271     39.1335     17.4700    133.3007
   957.7000      8.2578      2.0574      0.3051     35.9181     17.5347    132.0617
   957.8000      8.4541      2.0898      0.3545     33.9515     17.9987    132.3163
   957.9000      8.4541      2.0936      0.2843     33.7217     18.7867    136.6268
   958.0000      8.4538      2.0804      0.0809     34.5218     19.4859    139.6521
   958.1000      8.4538      2.0637      0.0782     35.5323     19.8428    138.4871
   958.2000      8.4538      2.0289      0.0225     37.6448     19.8573    135.4542
   958.3000      8.3259      1.9606     -0.0839     41.7799     19.4514    131.1995
   958.4000      8.3259      1.8625     -0.0470     47.7269     18.5732    123.9907
   958.5000      8.2724      1.7483     -0.1301     54.6468     17.3043    118.4266
   958.6000      8.2724      1.6453     -0.1320     60.8911     15.8990    117.9167
   958.7000      8.2724      1.5696     -0.1203     65.4769     14.7377    115.4752
   958.8000      8.2358      1.5164     -0.1130     68.7024     13.6359    108.1188
   958.9000      8.2358      1.4766     -0.0498     71.1173     11.9994    102.1185
   959.0000      8.2731      1.4335      0.0277     73.7300     10.0628     99.7093
   959.1000      8.2731      1.3743      0.0199     77.3166      8.4261     97.7369
   959.2000      8.2731      1.3126      0.0140     81.0542      7.1901     95.4001
   959.3000      8.3120      1.2733      0.0053     83.4363      6.3681     93.4814
   959.4000      8.3120      1.2672      0.0323     83.8031      6.0891     90.1882
   959.5000      8.4499      1.2877      0.0394     82.5619      6.1696     82.9411
   959.6000      8.4499      1.3206      0.0473     80.5724      6.2713     73.5996
   959.7000      8.4499      1.3539      0.0772     78.5536      6.4586     67.8730
   959.8000      8.7911      1.3812      0.1065     76.8980      6.9597     67.4859
   959.9000      8.7911      1.4016      0.1407     75.6623      7.6579     69.6340
   960.0000      8.6804      1.4175      0.1332     74.6968      8.2261     71.3614
   960.1000      8.6804      1.4303      0.1472     73.9194      8.6084     70.0510
   960.2000      8.6804      1.4355      0.1788     73.6049      8.8302     68.1865
   960.3000      8.6753      1.4243      0.1630     74.2820      8.7434     69.6402
   960.4000      8.6753      1.3943      0.1038     76.1023      8.4585     71.1180
   960.5000      8.5238      1.3555      0.0073     78.4549      8.1505     68.9172
   960.6000      8.5238      1.3235     -0.0085     80.3960      7.8915     66.6182
   960.7000      8.5238      1.3079      0.0081     81.3397      7.9327     70.4765
   960.8000      8.5658      1.3193     -0.0007     80.6463      8.3816     79.5450
   960.9000      8.5658      1.3741     -0.0058     77.3258      8.9617     86.3067
   961.0000      8.4676      1.4736      0.0490     71.2994      9.4020     88.9138
   961.1000      8.4676      1.5968      0.1393     63.8279      9.6537     90.4809
   961.2000      8.4676      1.7270      0.1580     55.9409      9.8688     94.9558
   961.3000      8.3788      1.8587      0.2273     47.9586     10.3556    104.6041
   961.4000      8.3788      1.9850      0.2504     40.3037     11.2767    114.0321
   961.5000      8.3517      2.1040      0.2550     33.0923     12.7956    120.3602
   961.6000      8.3517      2.2126      0.2777     26.5107     14.8851    127.4985
   961.7000      8.3517      2.2935      0.2498     21.6061     17.0010    132.2077
   961.8000      8.2784      2.3461      0.1261     18.4177     18.9527    131.3832
   961.9000      8.2784      2.3973      0.0622     15.3159     21.0034    132.6259
   962.0000      8.1955      2.4617      0.0906     11.4145     23.0210    139.7285
   962.1000      8.1955      2.5334      0.0575      7.0666     24.7685    146.0198
   962.2000      8.1955      2.6051      0.1278      2.7204     26.2007    145.7654
   962.3000      8.1373      2.6709      0.1158     -1.2658     27.2877    140.4695
   962.4000      8.1373      2.7259      0.1355     -4.5983     28.2843    133.8146
   962.5000      8.1396      2.7557      0.1464     -6.4039     29.5016    127.5593
