~Version Information
VERS.                      2.0: CWLS Log ASCII Standard - VERSION 2.0
WRAP.                       NO: One line per depth step
~Well Information Block
STRT.FT               830.0000: 
STOP.FT              3122.7500: 
STEP.FT                 0.2500: 
NULL.                -999.2500: 
COMP.          Pioneer Natural Resources: COMPANY
WELL.              Stones 24-8: WELL
FLD.           Purgatoire River: FIELD
LOC.           648' FSL & 2264' FWL: LOCATION
PROV.                 Colorado: PROVINCE
CNTY.               Las Animas: COUNTRY
SRVC.                Patterson: SERVICE COMPANY
DATE.          Wed Jan 19 12:44:32 2005: LOG DATE
UWI.           05 071 07945 00: UNIQUE WELL ID
~Curve Information Block
DEPT.FT            0 000 00 00: Depth
SN.Ohm-m                      : IEL Short Normal
SP.mV                         : IEL Spontaneous Potential
DIR.Ohm-m                     : IEL Induction Resistivity
GR.GAPI                       : Gamma Ray
~Parameter Information Block
~A  Depth        SN          SP         DIR          GR     
# ...
  2639.0000     11.4358   -133.3244     11.4449    151.6893
  2639.2500     11.2142   -132.9266     11.1367    151.7814
  2639.5000     11.0782   -132.7106     10.9172    150.8027
  2639.7500     11.0230   -132.6689     10.7875    149.1071
  2640.0000     11.0393   -132.7861     10.7498    144.5901
  2640.2500     11.1190   -133.0403     10.8051    140.2328
  2640.5000     11.2530   -133.4044     10.9516    131.4859
  2640.7500     11.4288   -133.8479     11.1838    123.8012
  2641.0000     11.6347   -134.3386     11.4919    109.1296
  2641.2500     11.8716   -134.8445     11.8633     97.8347
  2641.5000     12.1556   -135.3368     12.2839     81.0713
  2641.7500     12.5028   -135.7924     12.7398     71.5336
  2642.0000     12.9109   -136.1959     13.2153     60.9199
  2642.2500     13.3535   -136.5391     13.6886     56.0796
  2642.5000     13.7880   -136.8193     14.1284     51.0809
  2642.7500     14.1701   -137.0366     14.4989     48.7462
  2643.0000     14.4662   -137.1915     14.7726     46.4104
  2643.2500     14.6608   -137.2845     14.9436     45.6362
  2643.5000     14.7573   -137.3178     15.0274     45.5836
  2643.7500     14.7750   -137.2977     15.0503     46.0554
  2644.0000     14.7442   -137.2372     15.0351     46.9011
  2644.2500     14.6965   -137.1571     14.9932     47.2639
  2644.5000     14.6525   -137.0847     14.9281     47.3892
  2644.7500     14.6134   -137.0504     14.8454     47.3390
  2645.0000     14.5686   -137.0831     14.7619     47.5038
  2645.2500     14.5159   -137.2052     14.7028     48.0287
  2645.5000     14.4720   -137.4292     14.6892     49.6888
  2645.7500     14.4569   -137.7546     14.7255     51.3279
  2646.0000     14.4690   -138.1671     14.7951     54.1383
  2646.2500     14.4807   -138.6406     14.8680     55.9320
  2646.5000     14.4538   -139.1409     14.9133     58.3620
  2646.7500     14.3610   -139.6332     14.9093     60.1179
  2647.0000     14.1963   -140.0888     14.8474     64.1523
  2647.2500     13.9725   -140.4901     14.7302     68.7429
  2647.5000     13.7140   -140.8311     14.5678     79.9437
  2647.7500     13.4500   -141.1150     14.3729     90.4121
  2648.0000     13.2097   -141.3501     14.1550    108.7690
  2648.2500     13.0171   -141.5472     13.9182    120.7318
  2648.5000     12.8867   -141.7177     13.6655    134.6021
  2648.7500     12.8254   -141.8734     13.4087    139.7563
  2649.0000     12.8333   -142.0245     13.1740    141.0515
  2649.2500     12.9025   -142.1781     12.9976    138.5553
  2649.5000     13.0133   -142.3354     12.9102    132.3102
  2649.7500     13.1366   -142.4918     12.9211    127.7246
  2650.0000     13.2466   -142.6378     13.0131    120.8021
  2650.2500     13.3365   -142.7627     13.1531    115.7829
  2650.5000     13.4254   -142.8571     13.3110    107.4299
  2650.7500     13.5471   -142.9162     13.4742    101.9458
  2651.0000     13.7299   -142.9419     13.6486     95.1861
  2651.2500     13.9821   -142.9460     13.8459     91.7089
  2651.5000     14.2914   -142.9521     14.0711     86.8463
  2651.7500     14.6326   -142.9942     14.3174     83.1434
  2652.0000     14.9758   -143.1092     14.5716     76.8346
  2652.2500     15.3005   -143.3249     14.8226     72.7051
  2652.5000     15.6080   -143.6470     15.0681     67.6492
  2652.7500     15.9180   -144.0513     15.3170     65.0882
  2653.0000     16.2409   -144.4854     15.5822     61.6234
  2653.2500     16.5478   -144.8811     15.8710     59.1017
  2653.5000     16.7762   -145.1725     16.1764     55.0604
  2653.7500     16.8740   -145.3125     16.4754     52.6410
  2654.0000     16.8427   -145.2844     16.7377     50.4927
  2654.2500     16.7410   -145.1039     16.9405     50.8390
  2654.5000     16.6549   -144.8124     17.0804     55.4619
  2654.7500     16.6584   -144.4676     17.1735     61.7388
  2655.0000     16.7825   -144.1328     17.2444     75.2645
  2655.2500     17.0045   -143.8694     17.3138     85.6226
  2655.5000     17.2665   -143.7300     17.3927     99.4887
  2655.7500     17.5120   -143.7534     17.4849    105.4009
  2656.0000     17.7178   -143.9592     17.5927    107.0147
  2656.2500     17.9047   -144.3451     17.7248    103.3176
  2656.5000     18.1264   -144.8868     17.8998     92.5144
  2656.7500     18.4414   -145.5424     18.1449     83.3451
  2657.0000     18.8770   -146.2584     18.4896     69.1978
  2657.2500     19.4083   -146.9773     18.9547     60.7223
  2657.5000     19.9679   -147.6442     19.5382     50.7635
  2657.7500     20.4795   -148.2132     20.1988     46.1769
  2658.0000     20.8885   -148.6521     20.8452     41.8263
  2658.2500     21.1721   -148.9461     21.3477     39.9901
  2658.5000     21.3341   -149.0984     21.5872     38.0278
  2658.7500     21.3957   -149.1260     21.5227     37.1920
  2659.0000     21.3847   -149.0525     21.2216     37.0194
  2659.2500     21.3245   -148.9000     20.8228     37.7191
  2659.5000     21.2276   -148.6839     20.4610     39.5040
  2659.7500     21.0962   -148.4129     20.2097     40.6908
  2660.0000     20.9274   -148.0948     20.0701     41.9091
  2660.2500     20.7184   -147.7443     19.9965     42.3309
  2660.5000     20.4721   -147.3880     19.9361     42.6384
  2660.7500     20.2022   -147.0636     19.8585     42.8210
  2661.0000     19.9342   -146.8121     19.7639     43.5811
  2661.2500     19.6985   -146.6666     19.6742     44.8627
  2661.5000     19.5188   -146.6431     19.6156     48.4319
  2661.7500     19.4016   -146.7361     19.6034     51.5550
  2662.0000     19.3321   -146.9200     19.6343     55.5744
  2662.2500     19.2781   -147.1565     19.6887     56.6974
  2662.5000     19.2046   -147.4031     19.7384     55.4266
  2662.7500     19.0919   -147.6227     19.7543     53.2488
  2663.0000     18.9441   -147.7896     19.7124     49.9783
  2663.2500     18.7824   -147.8925     19.6006     48.8172
  2663.5000     18.6306   -147.9313     19.4257     49.6195
  2663.7500     18.5024   -147.9108     19.2143     52.1506
  2664.0000     18.3922   -147.8338     19.0033     59.0813
  2664.2500     18.2733   -147.6978     18.8192     65.4823
  2664.5000     18.1074   -147.4952     18.6587     76.3214
  2664.7500     17.8634   -147.2162     18.4851     83.1956
  2665.0000     17.5334   -146.8509     18.2511     91.2289
  2665.2500     17.1382   -146.3911     17.9347     94.6978
  2665.5000     16.7219   -145.8313     17.5574     97.9100
  2665.7500     16.3361   -145.1716     17.1685     99.7730
  2666.0000     16.0204   -144.4212     16.8125    103.8557
  2666.2500     15.7853   -143.6013     16.5074    107.9194
  2666.5000     15.6104   -142.7441     16.2439    115.6084
  2666.7500     15.4617   -141.8876     15.9998    120.9082
  2667.0000     15.3146   -141.0692     15.7569    127.3782
  2667.2500     15.1685   -140.3205     15.5106    130.2775
  2667.5000     15.0458   -139.6660     15.2699    133.2389
  2667.7500     14.9798   -139.1261     15.0504    134.9654
  2668.0000     14.9986   -138.7198     14.8696    137.2914
  2668.2500     15.1164   -138.4664     14.7449    138.0182
  2668.5000     15.3382   -138.3832     14.6949    136.7603
  2668.7500     15.6758   -138.4813     14.7390    134.2606
  2669.0000     16.1582   -138.7629     14.8953    128.6893
  2669.2500     16.8222   -139.2213     15.1748    124.3013
  2669.5000     17.6873   -139.8444     15.5772    117.6698
  2669.7500     18.7341   -140.6176     16.0956    113.7204
  2670.0000     19.9052   -141.5256     16.7280    108.7765
  2670.2500     21.1275   -142.5502     17.4825    105.7808
  2670.5000     22.3426   -143.6681     18.3675    100.7693
  2670.7500     23.5250   -144.8487     19.3752     96.7389
  2671.0000     24.6813   -146.0536     20.4789     89.7227
  2671.2500     25.8347   -147.2386     21.6468     84.7069
  2671.5000     27.0057   -148.3565     22.8551     77.3190
  2671.7500     28.2020   -149.3613     24.0816     96.9699
  2672.0000     29.4167   -150.2146     25.2897     88.4975
  2672.2500     30.6339   -150.8928     26.4255     83.3021
