~Version Information
VERS.                      2.0: CWLS Log ASCII Standard - VERSION 2.0
WRAP.                       NO: One line per depth step
~Well Information Block
STRT.FT                15.0000: 
STOP.FT              2565.5000: 
STEP.FT                 0.2500: 
NULL.                -999.2500: 
COMP.          Pioneer Natural Resources: COMPANY
WELL.           Costello 44-24: WELL
FLD.           Purgatoire River: FIELD
LOC.           327' FSL & 378' FEL: LOCATION
PROV.                 Colorado: PROVINCE
CNTY.               Las Animas: COUNTRY
SRVC.                Patterson: SERVICE COMPANY
DATE.          Mon Jul 25 10:15:19 2005: LOG DATE
UWI.           05 071 08413 00: UNIQUE WELL ID
~Curve Information Block
DEPT.FT            0 000 00 00: Depth
GR.GAPI                       : Gamma Ray
CCL.                          : Casing Collar Locator
TT3.usec                      : CBL 3' Travel Time
AMP3.mV                       : CBL 3' Amplitude
~Parameter Information Block
~A  Depth        GR         CCL         TT3         AMP3    
# ...
  2527.5000    100.1614      0.0000    576.9276      7.8275
  2527.7500     95.9313      0.0000    613.2292      7.9442
  2528.0000     94.1711      0.0000    624.5819      8.0780
  2528.2500     94.6234      0.0000    605.0814      8.2824
  2528.5000     95.8534      0.0000    561.3466      8.6413
  2528.7500     96.5157      0.0000    508.6392      9.1131
  2529.0000     96.1034      2.9269    463.6215      9.5202
  2529.2500     95.0203      0.0000    438.0187      9.6746
  2529.5000     94.1509      0.0000    436.7867      9.5082
  2529.7500     94.0742      0.0000    458.6345      9.1299
  2530.0000     94.5397      0.0000    494.6928      8.7737
  2530.2500     94.8098      0.0000    527.8221      8.6207
  2530.5000     94.3987      0.0000    539.2985      8.6437
  2530.7500     93.3848      0.0000    521.1462      8.6757
  2531.0000     92.3069      0.0000    481.9211      8.6261
  2531.2500     91.8683      0.0000    438.9494      8.5633
  2531.5000     92.4138      0.0000    405.5375      8.5885
  2531.7500     93.5880      0.0000    385.6491      8.7060
  2532.0000     94.7312      0.0000    377.6171      8.8373
  2532.2500     95.6181      0.0000    380.0913      8.9129
  2532.5000     96.6854      0.0000    394.7895      8.9191
  2532.7500     98.5240      0.0000    424.5605      8.8802
  2533.0000    101.2462      0.0000    468.3133      8.8238
  2533.2500    104.3579      0.0000    517.9205      8.7641
  2533.5000    107.0573      0.0000    561.7148      8.7038
  2533.7500    108.4703      0.0000    591.9037      8.6428
  2534.0000    107.8675      0.0000    608.2130      8.5857
  2534.2500    105.2826      0.0000    615.1102      8.5409
  2534.5000    102.0173      0.0000    617.0725      8.5152
  2534.7500     99.9263      0.0000    616.2716      8.5083
  2535.0000     99.8872      0.0000    613.0741      8.5114
  2535.2500    101.2770      0.0000    607.8750      8.5154
  2535.5000    102.8223      0.0000    602.5187      8.5294
  2535.7500    103.3696      0.0000    599.5522      8.5959
  2536.0000    102.1010      0.0000    599.4721      8.7609
  2536.2500     99.0601      0.0000    599.3504      8.9987
  2536.5000     95.6587      0.0000    595.4371      9.1635
  2536.7500     93.9123      0.0000    587.3533      9.0700
  2537.0000     94.8520      0.0000    578.7293      8.6766
  2537.2500     97.8534      0.0000    573.0292      8.1797
  2537.5000    101.3074      0.0000    569.6630      7.8783
  2537.7500    103.6030      0.0000    565.8384      7.9318
  2538.0000    103.7502      0.0000    561.8213      8.2632
  2538.2500    101.7476      0.0000    562.0453      8.6641
  2538.5000     98.6110      0.0000    570.3150      8.9498
  2538.7500     95.6570      0.0000    585.5504      9.0339
  2539.0000     93.4353      0.0000    603.1844      8.9305
  2539.2500     91.5422      0.0000    619.4789      8.7222
  2539.5000     89.5226      0.0000    633.3367      8.5048
  2539.7500     87.5308      0.0000    644.8552      8.3396
  2540.0000     85.9382      0.0000    653.9006      8.2433
  2540.2500     84.7285      0.0000    660.5009      8.2074
  2540.5000     83.5972      0.0000    665.7656      8.2183
  2540.7500     82.5097      0.0000    671.7037      8.2677
  2541.0000     81.9186      0.0000    679.6703      8.3509
  2541.2500     82.5070      0.0000    688.4780      8.4569
  2541.5000     84.8271      0.0000    694.1972      8.5605
  2541.7500     89.0339      0.0000    692.8979      8.6289
  2542.0000     94.6884      0.0000    684.1122      8.6380
  2542.2500    100.7237      0.0000    671.3344      8.5825
  2542.5000    105.7546      0.0000    659.4053      8.4738
  2542.7500    108.8715      0.0000    651.8435      8.3334
  2543.0000    110.4218      0.0000    649.7483      8.1938
  2543.2500    111.6256      0.0000    651.8688      8.0993
  2543.5000    113.0466      0.0000    655.6434      8.0939
  2543.7500    113.8743      0.0000    658.8596      8.1983
  2544.0000    113.0911      0.0000    660.6882      8.3958
  2544.2500    110.8319      0.0000    661.4225      8.6418
  2544.5000    108.2112      0.0000    661.6584      8.8899
  2544.7500    106.3710      0.0000    661.7963      9.1150
  2545.0000    106.0727      0.0000    661.9816      9.3199
  2545.2500    107.5750      0.0000    662.2143      9.5245
  2545.5000    110.2912      0.0000    662.4432      9.7363
  2545.7500    112.8147      0.0000    662.6159      9.9243
  2546.0000    113.7175      0.0000    662.7065     10.0315
  2546.2500    112.4801      0.0000    662.7319     10.0292
  2546.5000    109.7900      0.0000    662.7477      9.9521
  2546.7500    106.9962      0.0000    662.8298      9.8688
  2547.0000    105.0888      0.0000    663.0391      9.8269
  2547.2500    104.1462      0.0000    663.3735      9.8307
  2547.5000    103.8128      0.0000    663.7345      9.8554
  2547.7500    104.0932      0.0000    663.9568      9.8681
  2548.0000    105.3663      0.0000    663.9141      9.8447
  2548.2500    107.6650      0.0000    663.6331      9.7780
  2548.5000    110.2044      0.0000    663.3068      9.6777
  2548.7500    111.7945      0.0000    663.1685      9.5669
  2549.0000    111.8058      0.0000    663.3209      9.4790
  2549.2500    110.7044      0.0000    663.6765      9.4444
  2549.5000    109.5816      0.0000    664.0920      9.4659
  2549.7500    109.2449      0.0000    664.5959      9.5093
  2550.0000    109.7535      0.0000    665.4852      9.5264
  2550.2500    110.4817      0.0000    667.1118      9.4845
  2550.5000    110.4026      0.0000    668.9254      9.3694
  2550.7500    108.6404      0.0000    667.5392      9.1615
  2551.0000    105.2994      0.0000    654.2342      8.7960
  2551.2500    101.8917      0.0000    614.6213      8.1383
  2551.5000    100.5965      0.0000    535.0883      7.0413
  2551.7500    102.7248      0.0000    415.8468      5.5039
  2552.0000    107.7432      0.0000    278.6932      3.7796
  2552.2500    113.6836      0.0000    156.6192      2.2604
  2552.5000    118.4210      0.0000     72.2783      1.2155
  2552.7500    120.8357      0.0000     26.9836      0.6557
  2553.0000    121.3901      0.0000      8.0619      0.4220
  2553.2500    121.8284      0.0000      1.9103      0.3461
  2553.5000    123.7211      0.0000      0.3540      0.3269
  2553.7500    126.6946      0.0000      0.0471      0.3232
  2554.0000    128.2831      0.0000   -999.2500   -999.2500
  2554.2500    126.1309      0.0000   -999.2500   -999.2500
  2554.5000    120.3877      0.0000   -999.2500   -999.2500
  2554.7500    113.5526      0.0000   -999.2500   -999.2500
  2555.0000    108.0622      0.0000   -999.2500   -999.2500
  2555.2500    104.4833      0.0000   -999.2500   -999.2500
  2555.5000    101.9146      0.0000   -999.2500   -999.2500
  2555.7500     99.5735      0.0000   -999.2500   -999.2500
  2556.0000     97.8029      0.0000   -999.2500   -999.2500
  2556.2500     97.6755      0.0000   -999.2500   -999.2500
  2556.5000     99.6830      0.0000   -999.2500   -999.2500
  2556.7500    102.8903      0.0000   -999.2500   -999.2500
  2557.0000    105.4483      0.0000   -999.2500   -999.2500
  2557.2500    105.8957      0.0000   -999.2500   -999.2500
  2557.5000    104.1025      0.0000   -999.2500   -999.2500
  2557.7500    101.3069      0.0000   -999.2500   -999.2500
  2558.0000     99.3082      0.0000   -999.2500   -999.2500
  2558.2500     99.3823      0.0000   -999.2500   -999.2500
  2558.5000    101.7335      0.0000   -999.2500   -999.2500
  2558.7500    105.7010      0.0000   -999.2500   -999.2500
  2559.0000    110.2042      0.0000   -999.2500   -999.2500
  2559.2500    114.1157      0.0000   -999.2500   -999.2500
  2559.5000    116.7204   -999.2500   -999.2500   -999.2500
  2559.7500    118.1394   -999.2500   -999.2500   -999.2500
  2560.0000    119.3335   -999.2500   -999.2500   -999.2500
  2560.2500    121.5337   -999.2500   -999.2500   -999.2500
  2560.5000    125.2763   -999.2500   -999.2500   -999.2500
  2560.7500    129.4716   -999.2500   -999.2500   -999.2500
