~Version Information
VERS.                      2.0: CWLS Log ASCII Standard - VERSION 2.0
WRAP.                       NO: One line per depth step
~Well Information Block
STRT.FT                -5.5000: 
STOP.FT              1979.7500: 
STEP.FT                 0.2500: 
NULL.                -999.2500: 
COMP.          Pioneer Natural Resources: COMPANY
WELL.          Bucksnort 41-35: WELL
FLD.           Purgatorie River: FIELD
LOC.           117' FNL & 463' FEL: LOCATION
PROV.                 Colorado: PROVINCE
CNTY.               Las Animas: COUNTRY
SRVC.                Patterson: SERVICE COMPANY
DATE.          Fri Jul 29 10:31:46 2005: LOG DATE
UWI.                          : UNIQUE WELL ID
~Curve Information Block
DEPT.FT            0 000 00 00: Depth
GR.GAPI                       : Gamma Ray
CCL.                          : Casing Collar Locator
TT3.usec                      : CBL 3' Travel Time
AMP3.mV                       : CBL 3' Amplitude
~Parameter Information Block
~A  Depth        GR         CCL         TT3         AMP3    
    -5.5000   -999.2500   -999.2500   -999.2500   -999.2500
    -5.2500   -999.2500   -999.2500   -999.2500   -999.2500
    -5.0000   -999.2500   -999.2500   -999.2500   -999.2500
    -4.7500   -999.2500   -999.2500   -999.2500   -999.2500
    -4.5000   -999.2500   -999.2500   -999.2500   -999.2500
    -4.2500   -999.2500   -999.2500   -999.2500   -999.2500
    -4.0000   -999.2500   -999.2500   -999.2500   -999.2500
    -3.7500   -999.2500   -999.2500   -999.2500   -999.2500
    -3.5000   -999.2500   -999.2500   -999.2500   -999.2500
    -3.2500   -999.2500   -999.2500   1200.0000      0.6022
    -3.0000   -999.2500   -999.2500   1200.0000      0.6163
    -2.7500   -999.2500   -999.2500   1200.0000      0.6287
    -2.5000   -999.2500   -999.2500   1200.0000      0.6469
    -2.2500   -999.2500   -999.2500   1200.0000      0.6523
    -2.0000   -999.2500   -999.2500   1200.0000      0.6313
    -1.7500   -999.2500   -999.2500   1200.0000      0.6028
    -1.5000   -999.2500   -999.2500   1200.0000      0.5926
    -1.2500   -999.2500   -999.2500   1200.0000      0.6079
    -1.0000   -999.2500   -999.2500   1200.0000      0.6392
    -0.7500   -999.2500   -999.2500   1200.0000      0.6713
    -0.5000   -999.2500   -999.2500   1200.0000      0.6929
    -0.2500   -999.2500   -999.2500   1200.0000      0.6937
     0.0000   -999.2500   -999.2500   1200.0000      0.6310
     0.2500   -999.2500   -999.2500   1200.0000      0.6008
     0.5000   -999.2500   -999.2500   1200.0000      0.5854
     0.7500   -999.2500   -999.2500   1200.0000      0.5893
     1.0000   -999.2500   -999.2500   1200.0000      0.6084
     1.2500   -999.2500   -999.2500   1200.0000      0.6220
     1.5000   -999.2500   -999.2500   1200.0000      0.6141
     1.7500   -999.2500   -999.2500   1200.0000      0.5961
     2.0000   -999.2500   -999.2500   1200.0000      0.5919
     2.2500   -999.2500      0.0000   1200.0000      0.6062
     2.5000   -999.2500      0.0000   1200.0000      0.6231
     2.7500   -999.2500      0.0000   1200.0000      0.6350
     3.0000   -999.2500      0.0000   1200.0000      0.6478
     3.2500   -999.2500      0.0000   1200.0000      0.6554
     3.5000   -999.2500      0.0000   1200.0000      0.6410
     3.7500   -999.2500      0.0000   1200.0000      0.6102
     4.0000   -999.2500      0.0000   1200.0000      0.5950
     4.2500   -999.2500      0.0000   1200.0000      0.6169
     4.5000   -999.2500      0.0000   1200.0000      0.6615
     4.7500   -999.2500      0.0000   1200.0000      0.6934
     5.0000   -999.2500      0.0000   1200.0000      0.6882
     5.2500   -999.2500      0.0000   1200.0000      0.6522
     5.5000   -999.2500      0.0000   1200.0000      0.6142
     5.7500   -999.2500      0.0000   1200.0000      0.6024
     6.0000   -999.2500      0.0000   1200.0000      0.6249
     6.2500   -999.2500      0.0000   1200.0000      0.6622
     6.5000   -999.2500      0.0000   1200.0000      0.6864
     6.7500   -999.2500      0.0000   1200.0000      0.6871
     7.0000   -999.2500      0.0000   1200.0000      0.6696
     7.2500   -999.2500      0.0000   1200.0000      0.6443
     7.5000     70.4220      0.0000   1200.0000      0.6307
     7.7500     70.6802      0.0000   1200.0000      0.6509
     8.0000     69.2924      0.0000   1200.0000      0.6971
     8.2500     67.4708      0.0000   1200.0000      0.7263
     8.5000     66.1132      0.0000   1200.0000      0.7113
     8.7500     65.3455      0.0000   1200.0000      0.6698
     9.0000     64.8575      0.0000   1200.0000      0.6332
     9.2500     64.2001      0.0000   1200.0000      0.6214
     9.5000     62.8952      0.0000   1200.0000      0.6419
     9.7500     60.7543      0.0000   1200.0000      0.6824
    10.0000     58.1833      0.0000   1200.0000      0.7096
    10.2500     55.9421      0.0000   1200.0000      0.7012
    10.5000     54.6083      0.0000   1200.0000      0.6726
    10.7500     54.3313      0.0000   1200.0000      0.6514
    11.0000     54.8585      0.0000   1200.0000      0.6384
    11.2500     55.6395      0.0000   1200.0000      0.6184
    11.5000     56.1351      0.0000   1200.0000      0.5911
    11.7500     56.1920      0.0000   1200.0000      0.5761
    12.0000     56.0869      0.0000   1200.0000      0.5949
    12.2500     56.3642      0.0000   1200.0000      0.6430
    12.5000     57.6410      0.0000   1200.0000      0.6813
    12.7500     60.1156      0.0000   1200.0000      0.6747
    13.0000     63.1278      0.0000   1200.0000      0.6350
    13.2500     65.5569      0.0000   1200.0000      0.6063
    13.5000     66.7878      0.0000   1200.0000      0.6148
    13.7500     67.0287      0.0000   1200.0000      0.6525
    14.0000     66.7136      0.0000   1200.0000      0.6991
    14.2500     65.9684      0.0000   1200.0000      0.7696
    14.5000     64.8036      0.0000   1200.0000      0.9575
    14.7500     63.6303      0.0000   1200.0000      1.3806
    15.0000     63.3672     -2.0000   1200.0000      2.0256
    15.2500     64.9754     -2.0000   1200.0000      2.7191
    15.5000     68.7714      0.0000   1200.0000      3.3019
    15.7500     73.9591      0.0000   1200.0000      3.7490
    16.0000     78.7352      0.0000   1200.0000      4.1808
    16.2500     81.1473      0.0000   1200.0000      4.8522
    16.5000     80.2444      0.0000   1199.9159      5.9354
    16.7500     76.6414      0.0000   1198.9465      7.4965
    17.0000     72.0939      0.0000   1191.7837     10.2885
    17.2500     68.4757      0.0000   1157.8469     16.0291
    17.5000     66.7966      0.0000   1054.7496     25.9791
    17.7500     66.7902      0.0000    853.9225     39.3680
    18.0000     67.3577      0.0000    603.0750     53.2962
    18.2500     67.5753      0.0000    402.1479     64.5259
    18.5000     67.4415      0.0000    298.9245     71.7245
    18.7500     67.6982      0.0000    264.8932     75.6517
    19.0000     68.9197      0.0000    257.6698     77.7242
    19.2500     70.8504      0.0000    256.6558     78.9815
    19.5000     72.5884      0.0000    256.5320     79.8976
    19.7500     73.2015      0.0000    256.4917     80.6091
    20.0000     72.2084      0.0000    256.4494     81.1645
    20.2500     69.8761      0.0000    256.4124     81.5726
    20.5000     67.1982      0.0000    256.3957     81.7577
    20.7500     65.3327      0.0000    256.4095     81.6264
    21.0000     64.7477      0.0000    256.4449     81.2064
    21.2500     64.8686      0.0000    256.4727     80.6766
    21.5000     64.7193      0.0000    256.4724     80.1984
    21.7500     63.9107      0.0000    256.4600     79.6881
    22.0000     62.9530      0.0000    256.4743     78.8283
    22.2500     62.7299      0.0000    256.5370     77.3180
    22.5000     63.7353      0.0000    256.6785     75.0782
    22.7500     65.6642      0.0000    257.1287     72.2250
    23.0000     67.6038      0.0000    258.7340     68.8320
    23.2500     68.6459      0.0000    263.2239     64.7487
    23.5000     68.4832      0.0000    272.1726     59.7322
    23.7500     67.5190      0.0000    286.7705     53.7314
    24.0000     66.4333      0.0000    314.9168     47.0142
    24.2500     65.6857      0.0000    378.5646     40.1484
    24.5000     65.4276      0.0000    493.2764     33.8494
    24.7500     65.7515      0.0000    630.4462     28.6223
    25.0000     66.8608      0.0000    732.7551     24.5297
    25.2500     68.8424      0.0000    776.4078     21.3502
    25.5000     71.2341      0.0000    783.9538     18.8381
    25.7500     73.0766      0.0000    784.0092     16.8261
    26.0000     73.5970      0.0000    785.4655     15.2063
    26.2500     72.6801      0.0000    783.7416     13.9124
    26.5000     70.6339      0.0000    776.3823     12.9353
    26.7500     67.8756      0.0000    767.0865     12.2749
    27.0000     65.0230      0.0000    760.5786     11.8624
    27.2500     62.9055      0.0000    760.1619     11.5587
    27.5000     62.1348      0.0000    764.1392     11.1793
    27.7500     62.7974      0.0000    762.3298     10.5526
