~Version Information
VERS.                      2.0: CWLS Log ASCII Standard - VERSION 2.0
WRAP.                       NO: One line per depth step
~Well Information Block
STRT.FT               860.0000: 
STOP.FT              1907.0000: 
STEP.FT                 0.1000: 
NULL.                -999.2500: 
COMP.          Pioneer Natural Resources: COMPANY
WELL.          Victory 12-14 Tr: WELL
FLD.           Purgatoire River: FIELD
LOC.           2522' FNL & 276' FWL: LOCATION
PROV.                 Colorado: PROVINCE
CNTY.               Las Animas: COUNTRY
SRVC.                Patterson: SERVICE COMPANY
DATE.          Mon Jul 18 06:52:40 2005: LOG DATE
UWI.           05 071 08433 00: UNIQUE WELL ID
~Curve Information Block
DEPT.FT            0 000 00 00: Depth
DCAL.in                       : CDL Caliper
RHOB.g/cc                     : CDL Bulk Density
RHOC.g/cc                     : CDL Density Correction
DPOR.pu                       : CDL Density Porosity
GR.GAPI                       : Gamma Ray
NPOR.pu                       : Neutron Porosity
~Parameter Information Block
~A  Depth       DCAL        RHOB        RHOC        DPOR         GR         NPOR    
# ...
  1272.8000      8.1149      2.5033     -0.0043      8.8925    129.8389     22.8706
  1272.9000      8.1149      2.4868     -0.0375      9.8904    132.3579     22.7536
  1273.0000      8.1194      2.4943      0.0002      9.4340    132.8006     22.3883
  1273.1000      8.1194      2.5052      0.0203      8.7728    131.1248     21.8944
  1273.2000      8.1194      2.4995      0.0673      9.1235    131.3328     21.4470
  1273.3000      8.1231      2.4740      0.0318     10.6658    131.5715     21.0122
  1273.4000      8.1231      2.4438      0.0176     12.4971    128.5457     20.7812
  1273.5000      8.1297      2.4149      0.0515     14.2502    126.8431     20.6940
  1273.6000      8.1297      2.3696      0.0498     16.9933    131.5002     20.0372
  1273.7000      8.1297      2.2964      0.0147     21.4324    140.1169     18.8380
  1273.8000      8.1311      2.2070      0.0004     26.8489    145.8982     18.1783
  1273.9000      8.1311      2.1225     -0.0560     31.9708    144.9147     18.2891
  1274.0000      8.1253      2.0609     -0.0514     35.7037    142.0608     18.2460
  1274.1000      8.1253      2.0237     -0.0190     37.9570    143.3949     17.5383
  1274.2000      8.1253      1.9908      0.0308     39.9514    146.0982     16.2815
  1274.3000      8.1309      1.9428      0.0223     42.8633    143.1687     14.8336
  1274.4000      8.1309      1.8758      0.0524     46.9209    134.2782     13.7797
  1274.5000      8.1460      1.7855      0.0863     52.3913    124.0866     13.3798
  1274.6000      8.1460      1.6703      0.0322     59.3752    118.5366     13.1008
  1274.7000      8.1460      1.5524     -0.0373     66.5236    120.3427     12.4888
  1274.8000      8.1636      1.4580     -0.0673     72.2420    121.7921     11.8607
  1274.9000      8.1636      1.3890     -0.0824     76.4225    115.9598     11.4849
  1275.0000      8.1878      1.3406     -0.0912     79.3563    107.9392     11.3293
  1275.1000      8.1878      1.3284     -0.0853     80.0993    102.6441     11.3299
  1275.2000      8.1878      1.3684      0.0819     77.6735     96.9344     11.4972
  1275.3000      8.2050      1.4482      0.2173     72.8385     89.0149     11.9480
  1275.4000      8.2050      1.5416      0.2866     67.1737     81.7762     12.6614
  1275.5000      8.2296      1.6351      0.3053     61.5081     77.5615     13.4431
  1275.6000      8.2296      1.7301      0.2528     55.7532     76.3187     14.2250
  1275.7000      8.2296      1.8237      0.2764     50.0803     74.3082     15.3598
  1275.8000      8.3270      1.8984      0.2440     45.5508     68.2963     17.1175
  1275.9000      8.3270      1.9540      0.1921     42.1825     62.8318     18.8340
  1276.0000      8.3023      2.0197      0.1485     38.2002     66.8042     19.9787
  1276.1000      8.3023      2.1017      0.1839     33.2286     81.4690     20.8716
  1276.2000      8.3023      2.1614      0.1826     29.6147     97.6216     21.5403
  1276.3000      8.3528      2.1821      0.0797     28.3565    107.6305     21.6277
  1276.4000      8.3528      2.1974     -0.0280     27.4330    112.4316     21.2065
  1276.5000      8.2465      2.2250      0.0236     25.7589    115.9464     20.4628
  1276.6000      8.2465      2.2384      0.0210     24.9449    123.2400     19.6283
  1276.7000      8.2465      2.2217      0.0101     25.9571    134.0454     19.1524
  1276.8000      8.1737      2.1934     -0.0098     27.6757    140.2486     19.0132
  1276.9000      8.1737      2.1760      0.0202     28.7256    138.6060     18.6999
  1277.0000      8.1269      2.1715      0.0815     28.9989    135.5199     18.0651
  1277.1000      8.1269      2.1504      0.1237     30.2779    134.9877     17.4049
  1277.2000      8.1269      2.0783      0.0961     34.6490    132.0864     16.8259
  1277.3000      8.1332      1.9693     -0.0193     41.2521    125.3866     16.2384
  1277.4000      8.1332      1.8801     -0.0537     46.6631    121.5716     15.7598
  1277.5000      8.1331      1.8353     -0.0511     49.3729    123.1216     15.6418
  1277.6000      8.1331      1.8135     -0.0151     50.6953    123.6151     15.8506
  1277.7000      8.1331      1.7978     -0.0241     51.6499    121.7940     15.9219
  1277.8000      8.1384      1.7904      0.0343     52.0985    124.0343     15.8465
  1277.9000      8.1384      1.7818      0.1187     52.6185    129.0947     16.0853
  1278.0000      8.1471      1.7588      0.0738     54.0107    130.2359     16.6698
  1278.1000      8.1471      1.7329      0.0601     55.5811    127.8802     17.3975
  1278.2000      8.1471      1.7254      0.0406     56.0342    125.0918     17.8710
  1278.3000      8.1309      1.7484      0.0095     54.6409    122.5701     17.9264
  1278.4000      8.1309      1.7927      0.0116     51.9557    121.7850     18.0833
  1278.5000      8.1423      1.8298      0.0392     49.7099    124.3291     18.4671
  1278.6000      8.1423      1.8495      0.0107     48.5124    128.1181     18.6483
  1278.7000      8.1423      1.8634      0.1163     47.6741    128.7969     18.5114
  1278.8000      8.1407      1.8705      0.1194     47.2445    127.8925     18.5375
  1278.9000      8.1407      1.8664      0.0742     47.4902    128.6170     18.9703
  1279.0000      8.1630      1.8562      0.0585     48.1096    129.9684     19.3405
  1279.1000      8.1630      1.8493     -0.0124     48.5253    129.7635     19.5800
  1279.2000      8.1630      1.8607     -0.0502     47.8373    130.0780     20.1989
  1279.3000      8.1518      1.8991      0.0251     45.5090    134.8599     21.1072
  1279.4000      8.1518      1.9605      0.0579     41.7880    141.7760     21.9397
  1279.5000      8.1582      2.0428      0.0894     36.7975    145.8281     22.5915
  1279.6000      8.1582      2.1394      0.1119     30.9447    146.4216     22.9774
  1279.7000      8.1582      2.2270      0.1863     25.6365    144.7172     23.2339
  1279.8000      8.1786      2.2954      0.1391     21.4921    139.6031     23.5655
  1279.9000      8.1786      2.3618      0.1246     17.4664    131.8868     23.9613
  1280.0000      8.1925      2.4270      0.1385     13.5163    126.8751     24.1097
  1280.1000      8.1925      2.4665      0.0486     11.1209    128.8143     23.3762
  1280.2000      8.1925      2.4651      0.0819     11.2087    136.0230     21.8967
  1280.3000      8.1765      2.4323      0.0210     13.1957    141.9875     20.8035
  1280.4000      8.1765      2.3942     -0.0065     15.5040    144.3937     20.5989
  1280.5000      8.1361      2.3564     -0.0169     17.7926    149.2838     20.6444
  1280.6000      8.1361      2.3024      0.0114     21.0645    157.5730     20.5122
  1280.7000      8.1361      2.2379     -0.0499     24.9760    160.8769     20.5924
  1280.8000      8.1233      2.1936     -0.0807     27.6631    155.9624     20.7649
  1280.9000      8.1233      2.1838     -0.0424     28.2525    147.7849     20.5538
  1281.0000      8.1335      2.1963     -0.0027     27.4952    140.8086     20.3008
  1281.1000      8.1335      2.2150      0.0168     26.3635    138.0005     20.4728
  1281.2000      8.1335      2.2424      0.0186     24.7003    138.2514     21.0171
  1281.3000      8.1476      2.2890      0.0811     21.8798    138.8136     21.6233
  1281.4000      8.1476      2.3495      0.1425     18.2149    140.9748     22.1927
  1281.5000      8.1355      2.4077      0.1478     14.6839    145.2811     22.8959
  1281.6000      8.1355      2.4490      0.1920     12.1800    148.7999     23.6402
  1281.7000      8.1355      2.4732      0.1183     10.7159    149.7386     24.2140
  1281.8000      8.1211      2.4979      0.0873      9.2172    148.3518     24.7368
  1281.9000      8.1211      2.5335      0.1625      7.0635    146.0083     25.1417
  1282.0000      8.1052      2.5747      0.1548      4.5621    143.9969     25.0723
  1282.1000      8.1052      2.6086      0.1798      2.5095    140.1780     24.7938
  1282.2000      8.1052      2.6210      0.1395      1.7586    135.4595     24.8136
  1282.3000      8.1240      2.6121      0.0974      2.2988    134.9722     25.1048
