~Version Information
VERS.                      2.0: CWLS Log ASCII Standard - VERSION 2.0
WRAP.                       NO: One line per depth step
~Well Information Block
STRT.FT               784.0000: 
STOP.FT              1033.0000: 
STEP.FT                 0.1000: 
NULL.                -999.2500: 
COMP.          Pioneer Natural Resources: COMPANY
WELL.          Run-Away-Train 43-26: WELL
FLD.           Purgatoire River: FIELD
LOC.           1693' FSL & 1195' FEL: LOCATION
PROV.                 Colorado: PROVINCE
CNTY.               Las Animas: COUNTRY
SRVC.                Patterson: SERVICE COMPANY
DATE.          Wed Apr 06 07:23:28 2005: LOG DATE
UWI.           05 071 08188 00: UNIQUE WELL ID
~Curve Information Block
DEPT.FT            0 000 00 00: Depth
DCAL.in                       : CDL Caliper
RHOB.g/cc                     : CDL Bulk Density
RHOC.g/cc                     : CDL Density Correction
DPOR.pu                       : CDL Density Porosity
GR.GAPI                       : Gamma Ray
NPOR.pu                       : Neutron Porosity
~Parameter Information Block
~A  Depth       DCAL        RHOB        RHOC        DPOR         GR         NPOR    
# ...
   889.6000      7.9387      2.2534     -0.0444     24.0384    120.8533     18.1884
   889.7000      7.9387      2.1121     -0.0454     32.5979    114.9570     16.9329
   889.8000      7.9391      1.9519     -0.1166     42.3068    116.0574     15.8919
   889.9000      7.9391      1.7862     -0.1882     52.3514    118.3858     14.9425
   890.0000      7.9475      1.6447     -0.2329     60.9243    114.4010     14.0632
   890.1000      7.9475      1.5213     -0.2428     68.4042    107.3959     13.2430
   890.2000      7.9475      1.3941     -0.1601     76.1147    101.8178     12.5564
   890.3000      7.9583      1.2991     -0.2022     81.8753     97.7643     12.0581
   890.4000      7.9583      1.2955     -0.0496     82.0887     92.6075     11.6138
   890.5000      7.9823      1.3547      0.2171     78.5035     84.9234     11.2714
   890.6000      7.9823      1.3925      0.2180     76.2122     75.9325     11.3605
   890.7000      7.9823      1.3768      0.2349     77.1623     68.0127     11.9242
   890.8000      8.1472      1.3369      0.1294     79.5840     63.6596     12.6260
   890.9000      8.1472      1.3287      0.0373     80.0781     60.8264     13.5387
   891.0000      8.2536      1.3889      0.0557     76.4309     57.5222     15.1990
   891.1000      8.2536      1.5055      0.1564     69.3662     56.6931     17.4312
   891.2000      8.2536      1.6573      0.1256     60.1627     59.0553     19.4876
   891.3000      8.1524      1.8342      0.2509     49.4453     61.1512     20.8017
   891.4000      8.1524      2.0072      0.2864     38.9593     62.3449     21.2881
   891.5000      8.2604      2.1557      0.3335     29.9557     65.1396     21.6254
   891.6000      8.2604      2.2972      0.3382     21.3829     69.1431     22.4584
   891.7000      8.2604      2.4323      0.4081     13.1922     71.1196     23.6262
   891.8000      8.3390      2.5136      0.4125      8.2665     69.7624     24.4792
   891.9000      8.3390      2.5195      0.1981      7.9084     69.1404     24.8202
   892.0000      8.4122      2.4863      0.1551      9.9206     74.2848     24.9749
   892.1000      8.4122      2.4520      0.0782     12.0020     84.2427     24.9672
   892.2000      8.4122      2.4258      0.1245     13.5904     95.3566     24.5011
   892.3000      8.0973      2.3893      0.0752     15.8012    102.3476     23.3828
   892.4000      8.0973      2.3215      0.0806     19.9064    100.7099     21.6243
   892.5000      7.9380      2.2189     -0.0274     26.1293     95.1917     19.4793
   892.6000      7.9380      2.0931     -0.0046     33.7539     92.3746     17.3694
   892.7000      7.9380      1.9638     -0.0570     41.5863     92.0669     15.5990
   892.8000      7.8792      1.8470     -0.0459     48.6674     91.7863     14.4622
   892.9000      7.8792      1.7474     -0.0613     54.7021     90.7967     14.0853
   893.0000      7.9243      1.6715     -0.0184     59.3021     91.7764     14.1372
   893.1000      7.9243      1.6232      0.0234     62.2303     97.1891     14.3723
   893.2000      7.9243      1.6046      0.0342     63.3569    102.3411     14.7730
   893.3000      7.8923      1.6193      0.1932     62.4679     99.5631     15.3270
   893.4000      7.8923      1.6521      0.2587     60.4771     89.3635     15.9479
   893.5000      7.8977      1.6850      0.2271     58.4856     81.2071     16.4953
   893.6000      7.8977      1.7247      0.1790     56.0771     76.7843     16.9951
   893.7000      7.8977      1.7828      0.1409     52.5569     72.0960     17.8475
   893.8000      7.9172      1.8433      0.1770     48.8929     69.0909     19.2722
   893.9000      7.9172      1.8872      0.0600     46.2300     65.3106     21.0492
   894.0000      8.0574      1.9310      0.0693     43.5781     57.7343     22.9973
   894.1000      8.0574      1.9966      0.0779     39.6030     54.7234     24.7241
   894.2000      8.0574      2.0839      0.0674     34.3080     59.9698     25.7491
   894.3000      7.9757      2.1820      0.1257     28.3607     64.7171     26.1187
   894.4000      7.9757      2.2747      0.1612     22.7463     63.6902     26.3508
   894.5000      7.9308      2.3500      0.1174     18.1803     59.9129     26.5197
   894.6000      7.9308      2.4088      0.1362     14.6210     56.9592     26.3300
   894.7000      7.9308      2.4558      0.0816     11.7686     55.6327     25.9127
   894.8000      7.9098      2.4960      0.0512      9.3304     57.2507     25.5104
   894.9000      7.9098      2.5225      0.0297      7.7271     62.9146     25.2009
   895.0000      7.9184      2.5212      0.0361      7.8047     68.5226     25.0078
   895.1000      7.9184      2.4987      0.0074      9.1679     70.9124     24.7053
   895.2000      7.9184      2.4802     -0.0282     10.2937     73.4430     24.2915
   895.3000      7.9054      2.4810      0.0003     10.2445     78.2039     24.0253
   895.4000      7.9054      2.4942      0.0208      9.4443     81.1567     23.8255
   895.5000      7.8991      2.5078     -0.0154      8.6188     81.0083     23.4388
   895.6000      7.8991      2.5183      0.0340      7.9828     82.3360     22.9585
   895.7000      7.8991      2.5201      0.0390      7.8718     85.5485     22.9791
   895.8000      7.8838      2.5175      0.0242      8.0331     86.3536     23.8426
   895.9000      7.8838      2.5242      0.0420      7.6256     85.1409     24.9453
   896.0000      7.8731      2.5390      0.0881      6.7262     85.2511     25.4188
   896.1000      7.8731      2.5554      0.0132      5.7306     88.0867     25.1400
   896.2000      7.8731      2.5713      0.0982      4.7667     94.1545     24.5148
   896.3000      7.8596      2.5727      0.0872      4.6855    100.9000     24.0718
   896.4000      7.8596      2.5497      0.0314      6.0788    105.5946     24.1879
   896.5000      7.8646      2.5168      0.0132      8.0718    109.1626     24.6632
   896.6000      7.8646      2.4949     -0.0067      9.3994    112.2428     25.0001
   896.7000      7.8646      2.4908      0.0010      9.6477    112.8648     24.9398
   896.8000      7.8813      2.5022      0.0320      8.9597    110.5446     24.6750
   896.9000      7.8813      2.5257      0.0482      7.5322    110.6193     24.6484
   897.0000      7.8838      2.5579      0.0423      5.5812    116.4362     24.8776
   897.1000      7.8838      2.5895      0.0839      3.6663    120.9699     24.9558
   897.2000      7.8838      2.6082      0.1029      2.5327    119.3399     24.8144
   897.3000      7.8553      2.6161      0.0649      2.0562    115.5413     24.6618
   897.4000      7.8553      2.6195      0.1116      1.8462    115.3108     24.5323
   897.5000      7.8463      2.6109      0.1195      2.3706    119.7284     24.4808
   897.6000      7.8463      2.5891      0.0760      3.6923    124.3424     24.7492
   897.7000      7.8463      2.5695      0.0299      4.8797    124.8963     25.2691
   897.8000      7.8568      2.5616      0.0358      5.3601    121.9433     25.7455
   897.9000      7.8568      2.5604      0.0270      5.4286    119.1684     26.1365
   898.0000      7.8718      2.5576      0.0230      5.6021    116.7585     26.3250
   898.1000      7.8718      2.5497      0.0034      6.0778    112.9077     26.1091
   898.2000      7.8718      2.5435      0.0072      6.4528    110.6613     25.7907
   898.3000      7.8873      2.5453      0.0027      6.3454    114.1175     25.6653
   898.4000      7.8873      2.5545     -0.0212      5.7871    121.4862     25.4312
   898.5000      7.8873      2.5632      0.0230      5.2580    125.5737     25.0892
   898.6000      7.8873      2.5627      0.0141      5.2884    123.3086     24.9958
   898.7000      7.8873      2.5509      0.0592      6.0082    120.1274     24.8343
   898.8000      7.8846      2.5327     -0.0208      7.1071    120.9762     24.4223
   898.9000      7.8846      2.5170      0.0055      8.0623    125.3356     24.0984
   899.0000      7.8948      2.5051     -0.0283      8.7816    128.2637     23.9261
   899.1000      7.8948      2.5096     -0.0489      8.5102    124.1152     23.8756
