~Version Information
VERS.                      2.0: CWLS Log ASCII Standard - VERSION 2.0
WRAP.                       NO: One line per depth step
~Well Information Block
STRT.FT               350.0000: 
STOP.FT              2531.5000: 
STEP.FT                 0.1000: 
NULL.                -999.2500: 
COMP.          Pioneer Natural Resources: COMPANY
WELL.          Cock-a-doodle-doo: WELL
FLD.           Purgatoire River: FIELD
LOC.           163' FSL & 54' FEL: LOCATION
PROV.                 Colorado: PROVINCE
CNTY.               Las Animas: COUNTRY
SRVC.                Patterson: SERVICE COMPANY
DATE.          Fri Jul 01 09:34:59 2005: LOG DATE
UWI.           05 071 08429 00: UNIQUE WELL ID
~Curve Information Block
DEPT.FT            0 000 00 00: Depth
DCAL.in                       : CDL Caliper
RHOB.g/cc                     : CDL Bulk Density
RHOC.g/cc                     : CDL Density Correction
DPOR.pu                       : CDL Density Porosity
GR.GAPI                       : Gamma Ray
NPOR.pu                       : Neutron Porosity
~Parameter Information Block
~A  Depth       DCAL        RHOB        RHOC        DPOR         GR         NPOR    
# ...
  1943.6000      7.9791      2.5753      0.1012      4.5245     62.8686     14.9362
  1943.7000      7.9791      2.5698      0.1214      4.8634     62.8298     16.4143
  1943.8000      7.9837      2.5714      0.0640      4.7618     65.0258     17.3720
  1943.9000      7.9837      2.5876     -0.0022      3.7842     66.8186     18.0356
  1944.0000      7.9880      2.6036      0.0754      2.8126     65.3634     18.7535
  1944.1000      7.9880      2.6016      0.0456      2.9342     65.7845     19.5259
  1944.2000      7.9880      2.5904      0.0561      3.6135     72.7287     20.3800
  1944.3000      8.0144      2.5843      0.0451      3.9833     81.9912     21.4604
  1944.4000      8.0144      2.5830      0.1083      4.0633     91.5255     22.5460
  1944.5000      8.0464      2.5800      0.0650      4.2424    104.4821     22.6367
  1944.6000      8.0464      2.5850      0.0143      3.9369    118.9271     22.0113
  1944.7000      8.0464      2.6116      0.0231      2.3281    128.8886     22.1469
  1944.8000      8.1051      2.6479      0.0650      0.1258    131.3475     23.1251
  1944.9000      8.1051      2.6698      0.0664     -1.2003    130.4411     24.0144
  1945.0000      8.1212      2.6730      0.0715     -1.3966    130.4424     24.5595
  1945.1000      8.1212      2.6654      0.1248     -0.9346    130.5052     24.8716
  1945.2000      8.1212      2.6524      0.0470     -0.1464    130.0302     24.4469
  1945.3000      8.0630      2.6480      0.0967      0.1216    129.3383     23.5527
  1945.4000      8.0630      2.6571      0.0822     -0.4310    124.7980     23.6249
  1945.5000      8.0456      2.6664      0.0635     -0.9969    112.0901     24.4005
  1945.6000      8.0456      2.6629      0.0717     -0.7827     97.8217     23.7976
  1945.7000      8.0456      2.6490      0.0746      0.0597     90.7585     21.4752
  1945.8000      8.0202      2.6322      0.1113      1.0795     89.5142     19.8207
  1945.9000      8.0202      2.6127      0.0885      2.2619     85.4618     20.3326
  1946.0000      7.9825      2.5978      0.0566      3.1623     74.8387     21.8466
  1946.1000      7.9825      2.5998      0.0633      3.0399     65.7779     22.6123
  1946.2000      7.9825      2.6113      0.1115      2.3427     64.1731     22.2704
  1946.3000      7.9581      2.6132      0.0872      2.2295     66.7663     21.7273
  1946.4000      7.9581      2.6089      0.0470      2.4882     69.6594     21.4968
  1946.5000      7.9474      2.6155      0.0772      2.0923     70.6059     21.2775
  1946.6000      7.9474      2.6247      0.1167      1.5331     70.5597     21.2615
  1946.7000      7.9474      2.6186      0.0867      1.9029     71.9393     21.7774
  1946.8000      7.9519      2.6003      0.0435      3.0121     72.1931     22.4893
  1946.9000      7.9519      2.5790      0.1013      4.3036     68.6995     23.0255
  1947.0000      7.9571      2.5592      0.0810      5.5021     65.9338     22.6375
  1947.1000      7.9571      2.5588      0.0302      5.5291     67.3289     21.0626
  1947.2000      7.9571      2.5923      0.0668      3.4981     69.0157     19.9674
  1947.3000      7.9607      2.6342      0.0972      0.9586     69.2024     20.1767
  1947.4000      7.9607      2.6402      0.1364      0.5940     69.5829     20.0800
  1947.5000      7.9637      2.6017      0.1053      2.9284     71.0013     18.9157
  1947.6000      7.9637      2.5553      0.0426      5.7391     71.7390     18.2024
  1947.7000      7.9637      2.5363      0.0789      6.8900     69.2794     18.6950
  1947.8000      7.9498      2.5432      0.0679      6.4703     65.7237     19.1907
  1947.9000      7.9498      2.5537      0.0639      5.8362     65.0142     18.3958
  1948.0000      7.9477      2.5499      0.0411      6.0695     66.2609     16.5483
  1948.1000      7.9477      2.5305      0.0224      7.2395     66.5783     14.9368
  1948.2000      7.9477      2.5098      0.0723      8.4969     65.2212     14.8343
  1948.3000      7.9481      2.4994      0.0508      9.1248     61.4740     16.4474
  1948.4000      7.9481      2.5096     -0.0084      8.5089     58.3433     18.4064
  1948.5000      7.9569      2.5369      0.0559      6.8562     58.5858     18.9403
  1948.6000      7.9569      2.5515      0.1122      5.9677     58.7146     17.7159
  1948.7000      7.9569      2.5397      0.0527      6.6824     56.6484     16.1028
  1948.8000      7.9604      2.5237      0.0349      7.6531     55.1262     15.2198
  1948.9000      7.9604      2.5198      0.0271      7.8892     55.6100     14.6223
  1949.0000      7.9990      2.5226      0.0311      7.7222     57.5222     14.2858
  1949.1000      7.9990      2.5275      0.0042      7.4262     58.8904     14.7913
  1949.2000      7.9990      2.5322      0.0590      7.1416     57.6374     15.4761
  1949.3000      8.0224      2.5368      0.0166      6.8612     55.0171     15.6186
  1949.4000      8.0224      2.5496      0.0578      6.0866     52.6054     15.8734
  1949.5000      8.0624      2.5584      0.0526      5.5533     51.9214     16.6716
  1949.6000      8.0624      2.5395      0.0612      6.6989     55.5194     17.5226
  1949.7000      8.0624      2.5106     -0.0337      8.4471     63.2092     17.7627
  1949.8000      8.0886      2.5129      0.0317      8.3091     70.5388     17.4449
  1949.9000      8.0886      2.5494      0.0293      6.0951     75.0638     17.0285
  1950.0000      8.0827      2.5873      0.0910      3.7981     76.7724     16.5837
  1950.1000      8.0827      2.5903      0.1165      3.6164     75.8374     16.2936
  1950.2000      8.0827      2.5566      0.0285      5.6598     77.1720     16.5220
  1950.3000      8.0501      2.5211      0.0460      7.8104     84.8684     17.3087
  1950.4000      8.0501      2.5113     -0.0208      8.4073     90.3383     18.4747
  1950.5000      8.0668      2.5236      0.0250      7.6629     84.6114     19.4587
  1950.6000      8.0668      2.5325      0.0525      7.1209     74.8416     19.7916
  1950.7000      8.0668      2.5220      0.0403      7.7575     69.3590     19.7024
  1950.8000      8.0826      2.5004     -0.0007      9.0690     68.0813     19.8606
  1950.9000      8.0826      2.4803      0.0464     10.2855     71.0593     20.3128
  1951.0000      8.0877      2.4703      0.0046     10.8910     77.4322     19.7883
  1951.1000      8.0877      2.4766      0.0314     10.5096     81.9536     18.2652
  1951.2000      8.0877      2.4900      0.0454      9.6997     82.7955     17.2484
  1951.3000      8.0843      2.4911      0.0651      9.6289     82.3299     16.8742
  1951.4000      8.0843      2.4778      0.0326     10.4353     79.9407     16.4104
  1951.5000      8.0771      2.4691     -0.0162     10.9655     74.3132     15.9471
  1951.6000      8.0771      2.4663      0.0540     11.1304     67.5116     15.6421
  1951.7000      8.0771      2.4577     -0.0220     11.6561     63.5075     15.4215
  1951.8000      8.0565      2.4593     -0.0111     11.5560     62.0020     15.4906
  1951.9000      8.0565      2.4819      0.0980     10.1904     57.5996     15.7467
  1952.0000      8.0399      2.5041      0.0896      8.8409     49.7368     15.8894
  1952.1000      8.0399      2.5109      0.0550      8.4332     44.1706     15.8536
  1952.2000      8.0399      2.4976      0.0847      9.2341     43.0754     15.9965
  1952.3000      8.0046      2.4692      0.0122     10.9567     43.9849     16.7014
  1952.4000      8.0046      2.4475      0.0740     12.2742     45.5362     17.2691
  1952.5000      8.0053      2.4441      0.0179     12.4772     48.1571     16.8541
  1952.6000      8.0053      2.4509      0.0509     12.0645     51.4114     16.2346
  1952.7000      8.0053      2.4595      0.0653     11.5484     52.8187     16.2979
  1952.8000      8.0039      2.4737      0.1107     10.6879     51.9500     16.4191
  1952.9000      8.0039      2.4980      0.0857      9.2149     50.7021     15.9235
  1953.0000      7.9690      2.5257      0.1359      7.5319     51.4380     15.1772
  1953.1000      7.9690      2.5467      0.1041      6.2589     56.4145     14.8756
