~Version Information
VERS.                      2.0: CWLS Log ASCII Standard - VERSION 2.0
WRAP.                       NO: One line per depth step
~Well Information Block
STRT.FT               472.0000: 
STOP.FT              2428.5000: 
STEP.FT                 0.1000: 
NULL.                -999.2500: 
COMP.          Pioneer Natural Resources: COMPANY
WELL.          Flying Horse 12-11: WELL
FLD.           Purgatoire River: FIELD
LOC.           2428' FNL & 308' FWL: LOCATION
PROV.                 Colorado: PROVINCE
CNTY.               Las Animas: COUNTRY
SRVC.                Patterson: SERVICE COMPANY
DATE.          Mon May 30 06:06:20 2005: LOG DATE
UWI.           05 071 08378 00: UNIQUE WELL ID
~Curve Information Block
DEPT.FT            0 000 00 00: Depth
DCAL.in                       : CDL Caliper
RHOB.g/cc                     : CDL Bulk Density
RHOC.g/cc                     : CDL Density Correction
DPOR.pu                       : CDL Density Porosity
GR.GAPI                       : Gamma Ray
NPOR.pu                       : Neutron Porosity
~Parameter Information Block
~A  Depth       DCAL        RHOB        RHOC        DPOR         GR         NPOR    
# ...
  1508.8000      8.0398      2.6486      0.0921      0.0864    121.8324     26.9520
  1508.9000      8.0398      2.6629      0.0903     -0.7806    121.5539     26.4290
  1509.0000      8.0362      2.6501      0.1046     -0.0090    119.1959     26.8777
  1509.1000      8.0362      2.6157      0.0941      2.0794    118.5423     27.9545
  1509.2000      8.0362      2.5768      0.0271      4.4335    124.5607     29.2190
  1509.3000      8.0309      2.5602     -0.0167      5.4426    132.0927     30.0679
  1509.4000      8.0309      2.5712     -0.0223      4.7763    135.3669     29.8580
  1509.5000      8.0404      2.5789     -0.0452      4.3119    135.2971     28.8694
  1509.6000      8.0404      2.5619     -0.0783      5.3409    133.7776     28.1689
  1509.7000      8.0404      2.5353     -0.0339      6.9525    132.6808     28.2502
  1509.8000      8.0319      2.5174      0.0093      8.0336    131.0901     28.5252
  1509.9000      8.0319      2.5098      0.0066      8.4955    128.6345     28.4049
  1510.0000      8.0612      2.5082      0.0515      8.5916    132.5175     28.0526
  1510.1000      8.0612      2.5065      0.0533      8.6978    141.6834     27.8208
  1510.2000      8.0612      2.5029      0.0086      8.9128    146.4919     27.6592
  1510.3000      8.0980      2.5085      0.0135      8.5785    146.8387     27.5991
  1510.4000      8.0980      2.5280      0.0448      7.3910    144.9604     27.9238
  1510.5000      8.0582      2.5566      0.0273      5.6582    138.7876     28.1141
  1510.6000      8.0582      2.5922      0.0239      3.5056    133.0376     27.6803
  1510.7000      8.0582      2.6269      0.0793      1.3980    132.7331     27.2364
  1510.8000      8.0511      2.6537      0.0853     -0.2264    135.0282     27.1520
  1510.9000      8.0511      2.6799      0.0964     -1.8108    135.2720     26.8185
  1511.0000      8.0479      2.7143      0.0859     -3.8989    129.9631     26.0820
  1511.1000      8.0479      2.7597      0.1035     -6.6466    119.9605     25.8341
  1511.2000      8.0479      2.8132      0.0938     -9.8886    110.9308     26.3808
  1511.3000      8.0332      2.8675      0.0744    -13.1822    102.5074     27.1131
  1511.4000      8.0332      2.9020      0.1168    -15.2745     91.3723     27.1814
  1511.5000      8.0382      2.8916      0.0830    -14.6441     82.8643     26.1952
  1511.6000      8.0382      2.8305      0.0892    -10.9412     83.4731     25.1326
  1511.7000      8.0382      2.7377     -0.0495     -5.3140     90.6557     24.9923
  1511.8000      8.0391      2.6514     -0.1438     -0.0860     94.2520     25.3426
  1511.9000      8.0391      2.5997     -0.1898      3.0477     89.9959     25.6292
  1512.0000      8.0368      2.5836     -0.1505      4.0218     85.0908     25.8766
  1512.1000      8.0368      2.5968     -0.1691      3.2236     83.5164     26.1775
  1512.2000      8.0368      2.6313     -0.0375      1.1345     84.5213     26.6531
  1512.3000      8.0591      2.6535      0.1424     -0.2144     90.9925     26.9973
  1512.4000      8.0591      2.6331      0.1536      1.0248    102.0556     26.8580
  1512.5000      8.1556      2.5944      0.0967      3.3714    111.5389     26.5899
  1512.6000      8.1556      2.5809      0.1155      4.1851    119.1129     27.1159
  1512.7000      8.1556      2.5954      0.1265      3.3103    128.6730     28.5954
  1512.8000      8.1201      2.6065      0.1459      2.6336    135.2919     30.0726
  1512.9000      8.1201      2.5897      0.1240      3.6534    133.4188     30.7817
  1513.0000      8.0173      2.5583      0.0444      5.5569    129.3548     30.6915
  1513.1000      8.0173      2.5449      0.0468      6.3687    131.6798     30.2520
  1513.2000      8.0173      2.5496      0.0444      6.0841    139.4335     29.9285
  1513.3000      8.0307      2.5523      0.0409      5.9239    148.3263     29.9748
  1513.4000      8.0307      2.5555      0.0342      5.7258    152.3229     30.4621
  1513.5000      8.0361      2.5709      0.0399      4.7968    147.6091     31.0830
  1513.6000      8.0361      2.5868      0.0997      3.8287    141.3668     30.8237
  1513.7000      8.0361      2.5831      0.0935      4.0531    141.1939     29.5090
  1513.8000      8.0489      2.5645      0.0382      5.1803    145.8302     28.6919
  1513.9000      8.0489      2.5503      0.0929      6.0423    148.3650     29.1131
  1514.0000      8.0506      2.5523      0.0183      5.9212    146.2270     29.6788
  1514.1000      8.0506      2.5786      0.0727      4.3278    143.0351     29.5831
  1514.2000      8.0506      2.6204      0.1022      1.7922    143.7220     28.7561
  1514.3000      8.0396      2.6540      0.0917     -0.2427    148.4238     27.8796
  1514.4000      8.0396      2.6550      0.1378     -0.3050    152.9618     27.8130
  1514.5000      8.0301      2.6131      0.0925      2.2357    154.7720     28.3144
  1514.6000      8.0301      2.5569     -0.0156      5.6424    155.2602     28.6888
  1514.7000      8.0301      2.5350     -0.0060      6.9717    154.0289     28.8697
  1514.8000      8.0218      2.5554      0.0544      5.7363    147.6771     29.3396
  1514.9000      8.0218      2.5816      0.0406      4.1474    140.6715     30.0757
  1515.0000      8.0230      2.5851      0.0162      3.9328    141.4575     30.3794
  1515.1000      8.0230      2.5738      0.0076      4.6202    148.9578     29.9953
  1515.2000      8.0230      2.5756     -0.0397      4.5079    153.3806     29.2320
  1515.3000      8.0281      2.6008      0.0149      2.9818    150.3137     28.4457
  1515.4000      8.0281      2.6255      0.0807      1.4842    146.3323     28.1727
  1515.5000      8.0205      2.6307      0.0611      1.1702    144.2556     28.7152
  1515.6000      8.0205      2.6191      0.0868      1.8737    140.7086     29.4197
  1515.7000      8.0205      2.5949      0.0336      3.3411    134.6944     29.5034
  1515.8000      8.0279      2.5718      0.0342      4.7375    129.8767     29.2035
  1515.9000      8.0279      2.5661     -0.0202      5.0833    132.2119     29.0614
  1516.0000      8.0412      2.5728      0.0089      4.6806    141.5912     29.2093
  1516.1000      8.0412      2.5784      0.0229      4.3379    149.3643     29.5588
  1516.2000      8.0412      2.5843      0.0628      3.9794    149.0358     29.6961
  1516.3000      8.0427      2.5876      0.0837      3.7839    143.9268     29.4511
  1516.4000      8.0427      2.5746      0.0612      4.5671    141.5013     29.2519
  1516.5000      8.0354      2.5505      0.0219      6.0316    143.1755     29.3207
  1516.6000      8.0354      2.5393      0.0210      6.7075    146.2658     29.3724
  1516.7000      8.0354      2.5470      0.0699      6.2425    148.5467     29.2563
  1516.8000      8.0383      2.5523      0.0653      5.9237    150.9943     29.4548
  1516.9000      8.0383      2.5440      0.0553      6.4257    156.6611     29.9944
  1517.0000      8.0393      2.5299      0.0465      7.2782    162.6578     30.1667
  1517.1000      8.0393      2.5195      0.0120      7.9098    163.8291     29.9154
  1517.2000      8.0393      2.5124      0.0716      8.3375    162.3972     29.6341
  1517.3000      8.0578      2.5033      0.0463      8.8915    159.6184     29.3204
  1517.4000      8.0578      2.5020      0.0260      8.9720    156.2824     28.9847
  1517.5000      8.0737      2.5150      0.0397      8.1802    155.4994     28.7309
  1517.6000      8.0737      2.5294      0.0543      7.3084    154.4458     28.6329
  1517.7000      8.0737      2.5461      0.0059      6.2958    148.8160     28.4419
  1517.8000      8.0738      2.5775      0.0709      4.3934    142.8058     27.8971
  1517.9000      8.0738      2.6104      0.1045      2.3987    140.6520     27.6220
  1518.0000      8.0608      2.6288      0.1490      1.2848    139.5266     28.1679
  1518.1000      8.0608      2.6416      0.1351      0.5068    137.4699     28.6524
  1518.2000      8.0608      2.6506      0.1525     -0.0386    135.5323     28.2483
  1518.3000      8.0772      2.6352      0.1077      0.8965    134.0957     27.7221
