~Version Information
VERS.                      2.0: CWLS Log ASCII Standard - VERSION 2.0
WRAP.                       NO: One line per depth step
~Well Information Block
STRT.FT               845.0000: 
STOP.FT              2308.2500: 
STEP.FT                 0.2500: 
NULL.                -999.2500: 
COMP.          Pioneer Natural Resources: COMPANY
WELL.             Vector 33-23: WELL
FLD.           Purgatoire River: FIELD
LOC.           1560' FEL & 1988' FSL----: LOCATION
PROV.                 Colorado: PROVINCE
CNTY.               Las Animas: COUNTRY
SRVC.                Patterson: SERVICE COMPANY
DATE.          Sat Mar 26 12:39:07 2005: LOG DATE
UWI.           05 071 08336 00: UNIQUE WELL ID
~Curve Information Block
DEPT.FT            0 000 00 00: Depth
SN.Ohm-m                      : IEL Short Normal
SP.mV                         : IEL Spontaneous Potential
DIR.Ohm-m                     : IEL Induction Resistivity
GR.GAPI                       : Gamma Ray
~Parameter Information Block
~A  Depth        SN          SP         DIR          GR     
# ...
  1615.5000     25.1160    -99.3927     21.0948    104.2986
  1615.7500     25.7844   -100.3630     21.5655    107.0576
  1616.0000     26.4455   -101.4152     22.1413    110.2978
  1616.2500     27.0837   -102.5363     22.7954    111.1915
  1616.5000     27.6865   -103.7167     23.4773    110.2229
  1616.7500     28.2434   -104.9489     24.1231    108.3212
  1617.0000     28.7535   -106.2241     24.6752    104.7957
  1617.2500     29.2328   -107.5272     25.1030    102.8189
  1617.5000     29.7087   -108.8320     25.4107    101.3286
  1617.7500     30.1996   -110.0981     25.6281    101.2513
  1618.0000     30.6882   -111.2700     25.7885    101.2455
  1618.2500     31.1099   -112.2806     25.9105    100.3798
  1618.5000     31.3678   -113.0558     25.9879     97.4355
  1618.7500     31.3620   -113.5222     25.9877     95.2838
  1619.0000     31.0169   -113.6134     25.8540     93.9167
  1619.2500     30.2955   -113.2765     25.5211     94.6962
  1619.5000     29.2053   -112.4780     24.9360     97.2360
  1619.7500     27.8000   -111.2079     24.0808     98.8033
  1620.0000     26.1717   -109.4830     22.9817    100.3202
  1620.2500     24.4287   -107.3475     21.6977    101.2985
  1620.5000     22.6669   -104.8720     20.3021    104.2510
  1620.7500     20.9530   -102.1484     18.8668    107.8721
  1621.0000     19.3238    -99.2831     17.4548    115.9270
  1621.2500     17.7949    -96.3868     16.1147    122.4890
  1621.5000     16.3716    -93.5642     14.8784    132.4352
  1621.7500     15.0600    -90.9037     13.7602    138.2007
  1622.0000     13.8727    -88.4710     12.7608    144.6757
  1622.2500     12.8277    -86.3053     11.8745    147.3567
  1622.5000     11.9416    -84.4205     11.0954    148.8070
  1622.7500     11.2206    -82.8087     10.4199    148.3087
  1623.0000     10.6533    -81.4470      9.8453    146.8401
  1623.2500     10.2107    -80.3031      9.3671    146.5695
  1623.5000      9.8545    -79.3420      8.9774    148.5549
  1623.7500      9.5488    -78.5306      8.6649    151.4663
  1624.0000      9.2685    -77.8406      8.4159    157.1481
  1624.2500      9.0044    -77.2497      8.2176    160.8432
  1624.5000      8.7666    -76.7408      8.0599    164.3618
  1624.7500      8.5816    -76.3003      7.9372    164.4966
  1625.0000      8.4768    -75.9154      7.8468    161.3186
  1625.2500      8.4608    -75.5725      7.7880    157.9622
  1625.5000      8.5092    -75.2558      7.7589    153.7013
  1625.7500      8.5696    -74.9484      7.7558    152.5270
  1626.0000      8.5827    -74.6340      7.7712    153.5303
  1626.2500      8.5088    -74.2994      7.7939    155.2506
  1626.5000      8.3435    -73.9364      7.8103    157.1772
  1626.7500      8.1192    -73.5434      7.8076    156.7727
  1627.0000      7.8963    -73.1245      7.7774    152.7663
  1627.2500      7.7435    -72.6901      7.7190    148.4529
  1627.5000      7.7121    -72.2553      7.6390    141.8486
  1627.7500      7.8124    -71.8392      7.5488    138.6117
  1628.0000      8.0068    -71.4647      7.4607    136.6529
  1628.2500      8.2250    -71.1575      7.3840    137.4773
  1628.5000      8.3960    -70.9459      7.3242    141.5318
  1628.7500      8.4778    -70.8590      7.2826    145.2731
  1629.0000      8.4668    -70.9254      7.2575    150.1711
  1629.2500      8.3887    -71.1712      7.2457    151.8054
  1629.5000      8.2827    -71.6185      7.2442    151.3333
  1629.7500      8.1897    -72.2834      7.2531    149.7893
  1630.0000      8.1440    -73.1757      7.2780    147.6445
  1630.2500      8.1682    -74.2979      7.3293    147.2322
  1630.5000      8.2750    -75.6451      7.4205    148.5428
  1630.7500      8.4719    -77.2045      7.5647    150.4790
  1631.0000      8.7632    -78.9544      7.7715    154.2778
  1631.2500      9.1468    -80.8628      8.0445    156.6891
  1631.5000      9.6088    -82.8869      8.3806    158.2166
  1631.7500     10.1243    -84.9726      8.7696    156.8243
  1632.0000     10.6619    -87.0562      9.1960    150.7683
  1632.2500     11.1890    -89.0683      9.6407    144.8229
  1632.5000     11.6790    -90.9379     10.0845    135.1450
  1632.7500     12.1215    -92.5987     10.5113    129.3538
  1633.0000     12.5307    -93.9941     10.9124    122.8299
  1633.2500     12.9390    -95.0817     11.2892    120.0560
  1633.5000     13.3745    -95.8361     11.6537    118.0878
  1633.7500     13.8370    -96.2504     12.0235    118.1749
  1634.0000     14.2928    -96.3359     12.4120    119.9784
  1634.2500     14.6905    -96.1209     12.8202    121.4736
  1634.5000     14.9889    -95.6486     13.2339    122.0534
  1634.7500     15.1834    -94.9739     13.6310    120.5007
  1635.0000     15.3241    -94.1598     13.9961    115.5982
  1635.2500     15.5203    -93.2735     14.3351    111.5778
  1635.5000     15.9201    -92.3815     14.6794    106.0409
  1635.7500     16.6645    -91.5443     15.0805    103.1402
  1636.0000     17.8264    -90.8117     15.5956     99.9691
  1636.2500     19.3589    -90.2173     16.2712     98.4038
  1636.5000     21.0909    -89.7751     17.1252     96.3895
  1636.7500     22.7918    -89.4782     18.1321     95.0670
  1637.0000     24.2739    -89.3007     19.2160     93.0577
  1637.2500     25.4557    -89.2026     20.2637     91.8004
  1637.5000     26.3486    -89.1366     21.1575     90.1037
  1637.7500     26.9979    -89.0552     21.8123     88.9983
  1638.0000     27.4308    -88.9167     22.1963     87.3244
  1638.2500     27.6413    -88.6891     22.3280     86.4635
  1638.5000     27.6071    -88.3505     22.2611     86.3440
  1638.7500     27.3186    -87.8880     22.0611     87.3305
  1639.0000     26.7944    -87.2955     21.7799     90.3015
  1639.2500     26.0738    -86.5714     21.4357     93.0268
  1639.5000     25.1934    -85.7163     21.0101     97.7040
  1639.7500     24.1712    -84.7333     20.4647    100.7927
  1640.0000     23.0113    -83.6276     19.7675    104.4779
  1640.2500     21.7260    -82.4079     18.9142    105.8910
  1640.5000     20.3539    -81.0869     17.9340    106.5072
  1640.7500     18.9602    -79.6832     16.8789    106.5996
  1641.0000     17.6148    -78.2216     15.8064    108.2688
  1641.2500     16.3697    -76.7342     14.7657    111.4420
  1641.5000     15.2466    -75.2611     13.7905    119.4554
  1641.7500     14.2438    -73.8496     12.8984    126.0141
  1642.0000     13.3491    -72.5524     12.0940    135.7626
  1642.2500     12.5531    -71.4241     11.3743    141.7149
  1642.5000     11.8538    -70.5157     10.7342    149.6828
  1642.7500     11.2562    -69.8694     10.1701    154.0959
  1643.0000     10.7661    -69.5123      9.6820    158.9225
  1643.2500     10.3847    -69.4537      9.2723    161.1954
  1643.5000     10.1060    -69.6833      8.9433    164.0358
  1643.7500      9.9193    -70.1734      8.6958    165.5325
  1644.0000      9.8135    -70.8830      8.5274    166.0796
  1644.2500      9.7793    -71.7629      8.4326    164.7626
  1644.5000      9.8080    -72.7614      8.4052    160.6015
  1644.7500      9.8890    -73.8277      8.4390    157.2008
  1645.0000     10.0092    -74.9155      8.5275    152.6994
  1645.2500     10.1551    -75.9848      8.6629    150.5522
  1645.5000     10.3146    -77.0025      8.8351    148.1516
  1645.7500     10.4794    -77.9431      9.0327    146.3134
  1646.0000     10.6454    -78.7890      9.2446    142.1456
  1646.2500     10.8129    -79.5302      9.4623    138.4873
  1646.5000     10.9876    -80.1632      9.6794    132.7784
  1646.7500     11.1789    -80.6897      9.8927    129.6127
  1647.0000     11.3932    -81.1157     10.1024    126.7336
  1647.2500     11.6250    -81.4498     10.3112    126.1695
  1647.5000     11.8542    -81.7040     10.5208    126.8864
  1647.7500     12.0576    -81.8943     10.7286    127.9271
  1648.0000     12.2260    -82.0420     10.9277    129.5721
  1648.2500     12.3733    -82.1750     11.1134    130.5081
  1648.5000     12.5297    -82.3276     11.2887    131.6526
  1648.7500     12.7307    -82.5389     11.4665    132.1960
