~Version Information
VERS.                      2.0: CWLS Log ASCII Standard - VERSION 2.0
WRAP.                       NO: One line per depth step
~Well Information Block
STRT.FT                10.0000: 
STOP.FT              1066.5000: 
STEP.FT                 0.2500: 
NULL.                -999.2500: 
COMP.          Pioneer Natural Resources: COMPANY
WELL.            Redland 23-24: WELL
FLD.           Purgatoire River: FIELD
LOC.           2356' FSL & 1880' FWL----: LOCATION
PROV.                 Colorado: PROVINCE
CNTY.               Las Animas: COUNTRY
SRVC.                         : SERVICE COMPANY
DATE.          Thu Mar 24 10:01:02 2005: LOG DATE
UWI.           05 071 08221   : UNIQUE WELL ID
~Curve Information Block
DEPT.FT            0 000 00 00: Depth
CCL.                          : Casing Collar Locator
TT3.usec                      : CBL 3' Travel Time
AMP3.mV                       : CBL 3' Amplitude
AMP5.mV                       : CBL 5' Amplitude
GR.GAPI                       : Gamma Ray
~Parameter Information Block
~A  Depth       CCL         TT3         AMP3        AMP5         GR     
# ...
   486.0000      0.0000    620.3144      6.0749      8.1342    106.6614
   486.2500      0.0000    620.0732      6.0043     10.3104    106.8991
   486.5000      0.0000    618.5581      5.8331     10.7456    107.6700
   486.7500      0.0000    616.3058      5.5998      8.3953    108.5290
   487.0000      0.0000    614.7794      5.3552      7.5249    108.4184
   487.2500      0.0000    615.0643      5.1174      8.5694    106.4768
   487.5000      0.0000    617.0760      4.8672      8.4824    102.5345
   487.7500      0.0000    619.5181      4.5926      7.0026     96.8977
   488.0000      0.0000    620.7635      4.3219      6.8285     90.0036
   488.2500      0.0000    620.5546      4.1125      6.6544     82.5960
   488.5000      0.0000    621.2169      4.0299      6.3062     76.1176
   488.7500      0.0000    626.7839      4.1343      7.1767     72.3158
   489.0000      0.0000    639.7296      4.4546      6.5674     71.9786
   489.2500      0.0000    657.2164      4.9588      6.9156     74.3107
   489.5000      0.0000    670.8171      5.5525      6.3062     78.1237
   489.7500      0.0000    672.0817      6.1030      6.9156     83.3889
   490.0000      0.0000    659.3918      6.4613      6.4803     90.9037
   490.2500      0.0000    638.1074      6.4879      6.0451    100.3886
   490.5000      0.0000    614.0949      6.0971      5.3487    109.4743
   490.7500      0.0000    589.5479      5.3097      4.7394    114.9649
   491.0000      0.0000    566.1212      4.2726      5.3487    115.2106
   491.2500      0.0000    549.8134      3.2156      5.0005    111.2769
   491.5000      0.0000    549.8049      2.3596      3.0855    105.7451
   491.7500      0.0000    571.8099      1.8333      2.3891    100.2891
   492.0000      0.0000    613.7787      1.6483      2.3021     94.4891
   492.2500      0.0000    668.1778      1.7376      2.9114     87.0652
   492.5000      0.0000    726.3002      2.0140      2.4762     77.8776
   492.7500      0.0000    779.4469      2.4085      2.5632     68.2522
   493.0000      0.0000    819.0383      2.8764      2.3891     59.6590
   493.2500      0.0000    839.5453      3.3841      1.9539     52.7161
   493.5000      0.0000    842.1398      3.8919      2.4762     47.4399
   493.7500      0.0000    834.3945      4.3458      2.8244     43.7422
   494.0000      0.0000    825.5422      4.6911      2.7373     41.3889
   494.2500      0.0000    821.0544      4.8978      2.3891     39.9782
   494.5000      0.0000    820.5550      4.9707      2.5632     39.3989
   494.7500      0.0000    820.2155      4.9334      3.4337     40.0240
   495.0000      0.0000    817.2687      4.8094      2.4762     42.1037
   495.2500      0.0000    812.5729      4.6203      2.6503     45.2477
   495.5000      0.0000    809.5966      4.3945      2.7373     48.9130
   495.7500      0.0000    811.9721      4.1661      2.7373     53.2880
   496.0000      0.0000    821.7405      3.9635      2.0409     59.4185
   496.2500      0.0000    838.0910      3.7991      1.6927     68.4829
   496.5000      0.0000    856.6643      3.6705      0.9093     80.7973
   496.7500      0.0000    871.0214      3.5673      0.7352     95.1178
   497.0000      0.0000    876.3607      3.4754      0.7352    108.9580
   497.2500      0.0000    872.4720      3.3745      0.9964    120.0749
   497.5000      0.0000    863.1487      3.2340      1.1705    127.6278
   497.7500      0.0000    852.7558      3.0225      1.7798    131.8369
   498.0000      0.0000    843.1291      2.7319      1.7798    133.2075
   498.2500      0.0000    833.0635      2.3997      1.6057    132.6044
   498.5000      0.0000    819.7922      2.1036      2.3891    131.3990
   498.7500      0.0000    800.1071      1.9282      1.6057    130.6714
   499.0000      0.0000    770.6229      1.9333      3.2596    130.3472
   499.2500      0.0000    729.6562      2.1421      4.1301    129.6275
   499.5000      0.0000    681.4265      2.5375      3.8689    128.2609
   499.7500      0.0000    637.9783      3.0573      3.4337    126.9753
   500.0000      0.0000    613.8824      3.6194      5.2617    126.4745
   500.2500      0.0000    616.3679      4.1845      5.8710    126.2436
   500.5000      0.0000    639.3542      4.7812      7.0026    124.6341
   500.7500      0.0000    667.5231      5.4419      7.0026    120.2506
   501.0000      0.0000    687.5355      6.1209      7.6990    113.3037
   501.2500      1.0000    695.5131      6.6932      6.3062    105.6413
   501.5000      0.0000    694.3817      7.0236      6.7415     99.4033
   501.7500      0.0000    688.0331      7.0355      6.3062     95.5902
   502.0000      0.0000    680.6758      6.7646      6.9156     93.8717
   502.2500      0.0000    677.6931      6.3928      7.5249     93.5670
   502.5000      0.0000    681.2368      6.1866      6.6544     94.3816
   502.7500      0.0000    684.8293      6.3229      7.0026     96.0958
   503.0000      0.0000    676.5767      6.7603      7.7860     98.0907
   503.2500      0.0000    649.9958      7.2957      7.0896     99.8490
   503.5000      0.0000    610.6862      7.7144      5.2617    101.6855
   503.7500      0.0000    571.7719      7.8731      8.5694    104.3048
   504.0000      0.0000    543.7551      7.7126      2.9984    107.5982
   504.2500      0.0000    528.9969      7.2698      9.0917    110.4431
   504.5000      0.0000    524.0101      6.6753      5.1746    111.9774
   504.7500      0.0000    525.8233      6.0881      6.2192    112.7060
   505.0000      0.0000    536.7184      5.5979      5.4358    113.8559
   505.2500      0.0000    562.5450      5.1888      3.6078    115.6835
   505.5000      0.0000    604.5040      4.7932      2.2150    116.9850
   505.7500      0.0000    652.4155      4.3720      3.5207    116.4706
   506.0000      0.0000    688.8275      3.9441      3.5207    114.0791
   506.2500      0.0000    702.2818      3.5562      3.5207    110.6236
   506.5000      0.0000    696.8668      3.2424      3.6078    106.5883
   506.7500      0.0000    687.9615      3.0185      3.2596    101.5731
   507.0000      0.0000    687.9639      2.8989      4.1301     94.7214
   507.2500      0.0000    696.0795      2.8940      2.8244     85.7553
   507.5000      0.0000    700.6074      3.0000      3.5207     75.7910
   507.7500      0.0000    688.3435      3.2072      3.3466     66.9716
   508.0000      0.0000    652.9401      3.5072      4.0430     60.9751
   508.2500      0.0000    599.7099      3.8654      3.7819     57.8871
   508.5000      0.0000    544.3409      4.2010      4.9135     56.5756
   508.7500      0.0000    504.3864      4.4164      5.0876     56.0229
   509.0000      0.0000    491.0423      4.4474      4.4782     56.0928
   509.2500      0.0000    508.2442      4.2875      5.1746     57.1522
   509.5000      0.0000    553.5234      3.9913      4.9135     59.4408
   509.7500      0.0000    614.6279      3.6650      4.3041     63.0482
   510.0000      0.0000    669.3282      3.4219      4.3912     68.0423
   510.2500      0.0000    695.3324      3.3194      4.6523     74.1641
   510.5000      0.0000    682.5000      3.3406      5.4358     80.6630
   510.7500      0.0000    636.4020      3.4280      3.2596     86.8622
   511.0000      0.0000    572.7958      3.5184      4.0430     92.7242
   511.2500      0.0000    509.0645      3.5582      5.3487     98.4191
   511.5000      0.0000    457.2083      3.5218      5.8710    103.3040
   511.7500      0.0000    421.0798      3.4282      5.4358    105.8080
   512.0000      0.0000    398.5341      3.3300      4.9135    104.7733
   512.2500      0.0000    385.5676      3.2805      5.0005    100.9370
   512.5000      0.0000    378.8056      3.3092      5.0876     96.7644
   512.7500      0.0000    375.8107      3.4121      4.3912     94.5712
   513.0000      0.0000    374.7776      3.5548      8.5694     94.6872
   513.2500      0.0000    374.4785      3.6953      9.5270     95.4394
   513.5000      0.0000    374.2785      3.8211      9.4399     94.9410
   513.7500      0.0000    373.9963      3.9671     10.2233     92.8848
