~Version Information
VERS.                      2.0: CWLS Log ASCII Standard - VERSION 2.0
WRAP.                       NO: One line per depth step
~Well Information Block
STRT.FT                -7.5000: 
STOP.FT              1129.7500: 
STEP.FT                 0.2500: 
NULL.                -999.2500: 
COMP.          Pioneer Natural Resources: COMPANY
WELL.          Drewmeister 34-34: WELL
FLD.           Purgatorie River: FIELD
LOC.           958' FSL & 1857' FEL: LOCATION
STAT.                       CO: State
CNTY.               Las Animas: COUNTRY
CTRY. USA : Country
SECT. 34 : Section
TOWN. 32S : Township
RANG. 65W : Range
SRVC.          Patterson Wireline: SERVICE COMPANY
DATE.          Fri Oct 14 14:02:00 2005: LOG DATE
API.           05 071 08131 00: UNIQUE WELL ID
~Curve Information Block
DEPT.FT            0 000 00 00: Depth
CCL.                          : Casing Collar Locator
TT3.usec                      : CBL 3' Travel Time
AMP3.mV                       : CBL 3' Amplitude
GR.GAPI                       : Gamma Ray
~Parameter Information Block
~A  Depth       CCL         TT3         AMP3         GR     
# ...
   227.0000      0.0000    856.9406      8.3563    103.9180
   227.2500      0.0000    857.4285      8.3409    104.7289
   227.5000      0.0000    874.2191      8.2473    104.2647
   227.7500      0.0000    909.2908      8.1000    101.7715
   228.0000      0.0000    957.6365      7.9344     98.6769
   228.2500      0.0000   1002.9351      7.7677     97.5649
   228.5000      0.0000   1023.6281      7.5845     99.4219
   228.7500      0.0000   1007.3108      7.3694    102.5025
   229.0000      0.0000    959.9420      7.1470    103.9754
   229.2500      0.0000    900.5494      6.9654    102.0919
   229.5000      0.0000    847.3924      6.8409     96.7862
   229.7500      0.0000    808.6179      6.7317     89.1614
   230.0000      0.0000    783.0157      6.5774     80.9043
   230.2500      0.0000    766.0345      6.3666     73.5985
   230.5000      0.0000    753.9689      6.1828     67.9679
   230.7500      0.0000    744.6689      6.1658     63.7554
   231.0000      0.0000    737.3116      6.3721     60.3135
   231.2500      0.0000    732.9343      6.6606     57.1228
   231.5000      0.0000    734.6699      6.7900     53.7730
   231.7500      0.0000    746.5770      6.6645     49.8724
   232.0000      0.0000    771.5696      6.4185     45.3678
   232.2500      0.0000    809.1686      6.2355     40.9538
   232.5000      0.0000    853.4057      6.1609     37.7787
   232.7500      2.0000    892.9164      6.1154     36.4874
   233.0000     -2.0000    915.5154      6.0129     36.5821
   233.2500      0.0000    914.8176      5.8445     36.8710
   233.5000      0.0000    892.9571      5.7008     36.5465
   233.7500      0.0000    859.0175      5.7152     35.8097
   234.0000      0.0000    826.9296      5.9163     35.6280
   234.2500      0.0000    811.1884      6.1190     37.0729
   234.5000      0.0000    818.2916      6.0455     40.7648
   234.7500      0.0000    841.0098      5.6026     46.6614
   235.0000      0.0000    862.6409      4.9982     54.1400
   235.2500      0.0000    868.5085      4.5551     62.2387
   235.5000      0.0000    855.5911      4.4521     69.9841
   235.7500      0.0000    832.7082      4.6528     76.6624
   236.0000      0.0000    812.1010      5.0143     81.9135
   236.2500      0.0000    802.4104      5.4161     85.7460
   236.5000      0.0000    808.3229      5.8032     88.4149
   236.7500      0.0000    831.3169      6.1614     90.1666
   237.0000      0.0000    867.0991      6.4823     91.1600
   237.2500      0.0000    904.9424      6.7500     91.6465
   237.5000      0.0000    933.5989      6.9399     92.0880
   237.7500      0.0000    948.5623      7.0165     93.0939
   238.0000      0.0000    953.3223      6.9480     95.2667
   238.2500      0.0000    955.1522      6.7391     98.7675
   238.5000      0.0000    960.3717      6.4515    102.7877
   238.7500      0.0000    970.7586      6.1763    105.7018
   239.0000      0.0000    980.8283      5.9776    106.0428
   239.2500      0.0000    979.3266      5.8528    103.2966
   239.5000      0.0000    956.9338      5.7446     97.8872
   239.7500      0.0000    914.2271      5.5976     90.7211
   240.0000      0.0000    862.0756      5.4185     82.8016
   240.2500      0.0000    814.3813      5.2829     75.0775
   240.5000      0.0000    779.8532      5.2710     68.4025
   240.7500      0.0000    759.4291      5.3982     63.5267
   241.0000      0.0000    749.2697      5.6143     61.0299
   241.2500      0.0000    744.8619      5.8599     61.0228
   241.5000      0.0000    743.1066      6.1122     62.8475
   241.7500      0.0000    742.4252      6.3815     65.4243
   242.0000      0.0000    742.2052      6.6751     68.0970
   242.2500      0.0000    742.2578      6.9623     70.7984
   242.5000      0.0000    742.5028      7.1820     73.2901
   242.7500      0.0000    742.8458      7.2968     74.7880
   243.0000      0.0000    743.1282      7.3364     74.8388
   243.2500      0.0000    743.1908      7.3681     74.1903
   243.5000      0.0000    742.9943      7.4265     74.2092
   243.7500      0.0000    742.6645      7.4896     75.5509
   244.0000      0.0000    742.3837      7.5232     77.9026
   244.2500      0.0000    742.2490      7.5258     80.8334
   244.5000      0.0000    742.2469      7.5211     84.1471
   244.7500      0.0000    742.3284      7.5232     87.3061
   245.0000      0.0000    742.4608      7.5290     89.1835
   245.2500      0.0000    742.6179      7.5457     88.8685
   245.5000      0.0000    742.7676      7.6081     86.5547
   245.7500      0.0000    742.8870      7.7528     83.3196
   246.0000      0.0000    742.9664      7.9660     80.1842
   246.2500      0.0000    742.9947      8.1748     77.8095
   246.5000      0.0000    742.9915      8.3088     76.9633
   246.7500      0.0000    743.1177      8.3708     78.3815
   247.0000      0.0000    744.0270      8.4332     81.6306
   247.2500      0.0000    747.4294      8.5613     84.5708
   247.5000      0.0000    756.4617      8.7441     84.6965
   247.7500      0.0000    774.3046      8.9075     81.1847
   248.0000      0.0000    799.9556      8.9998     75.3958
   248.2500      0.0000    824.5643      9.0564     69.4983
   248.5000      0.0000    835.2300      9.1625     64.9722
   248.7500      0.0000    826.0007      9.3433     62.1515
   249.0000      0.0000    804.1287      9.5188     60.4132
   249.2500      0.0000    783.2670      9.5916     58.5853
   249.5000      0.0000    771.8673      9.5584     55.6844
   249.7500      0.0000    769.4899      9.5078     51.6797
   250.0000      0.0000    771.7400      9.5197     47.5564
   250.2500      0.0000    775.6466      9.5946     44.6323
   250.5000      0.0000    780.6573      9.6709     43.8383
   250.7500      0.0000    786.9337      9.6843     45.2930
   251.0000      0.0000    794.0129      9.6041     48.1198
   251.2500      0.0000    800.3752      9.4288     50.8102
   251.5000      0.0000    803.6534      9.1586     52.2244
   251.7500      0.0000    801.8281      8.7874     52.4347
   252.0000      0.0000    795.1506      8.3335     52.5683
   252.2500      0.0000    786.7983      7.8687     53.7502
   252.5000      0.0000    780.7386      7.4889     55.9762
   252.7500      0.0000    778.3917      7.2494     57.9096
   253.0000      0.0000    777.6099      7.1348     58.0160
   253.2500      0.0000    775.0238      7.0884     56.1429
   253.5000      0.0000    769.1071      7.0582     53.9544
   253.7500      0.0000    761.1367      7.0210     53.7004
   254.0000      0.0000    753.8553      6.9798     56.4300
   254.2500      0.0000    749.6006      6.9499     61.2063
   254.5000      0.0000    749.4890      6.9513     65.9530
   254.7500      0.0000    753.5210      7.0071     69.1115
   255.0000      0.0000    760.6349      7.1313     70.5932
   255.2500      0.0000    768.6212      7.3068     71.2891
   255.5000      0.0000    774.8478      7.4837     71.8224
   255.7500      0.0000    777.8658      7.6184     71.9537
   256.0000      0.0000    778.4373      7.7116     71.1703
   256.2500      0.0000    778.7125      7.7944     69.4612
   256.5000      0.0000    780.2350      7.8787     67.2695
   256.7500      0.0000    782.8215      7.9439     65.0971
   257.0000      0.0000    785.2507      7.9744     63.6199
   257.2500      0.0000    786.5062      7.9886     63.8782
   257.5000      0.0000    786.0795      8.0140     66.6356
   257.7500      0.0000    783.5121      8.0438     71.2956
   258.0000      0.0000    778.3122      8.0338     75.8612
   258.2500      0.0000    770.6447      7.9475     78.4172
   258.5000      0.0000    761.9022      7.8004     78.5808
   258.7500      0.0000    754.1483      7.6547     77.3362
   259.0000      0.0000    748.8105      7.5606     75.7916
   259.2500      0.0000    745.9752      7.5028     74.5071
   259.5000      0.0000    744.8255      7.4138     73.8617
   259.7500      0.0000    744.4833      7.2461     74.5228
   260.0000      0.0000    744.4561      7.0218     77.0748
   260.2500      0.0000    744.5720      6.8029     81.1503
