~Version Information
VERS.                      2.0: CWLS Log ASCII Standard - VERSION 2.0
WRAP.                       NO: One line per depth step
~Well Information Block
STRT.FT                -8.7500: 
STOP.FT              1126.7500: 
STEP.FT                 0.2500: 
NULL.                -999.2500: 
COMP.          Evergreen Operating Corp.: COMPANY
WELL.             Bernice 21-3: WELL
FLD.           Purgatorie River: FIELD
LOC.           201' FNL & 2575' FWL--: LOCATION
PROV.                       CO: PROVINCE
CNTY.               Las Animas: COUNTRY
SRVC.          Patterson Wireline: SERVICE COMPANY
DATE.          Mon Feb 02 12:04:59 2004: LOG DATE
UWI.              05 071 07912: UNIQUE WELL ID
~Curve Information Block
DEPT.FT            0 000 00 00: Depth
CCL.                          : Casing Collar Locator
TT3.usec                      : CBL 3' Travel Time
AMP3.mV                       : CBL 3' Amplitude
GR.GAPI                       : Gamma Ray
~Parameter Information Block
~A  Depth       CCL         TT3         AMP3         GR     
# ...
   225.7500      0.0000    695.6923      8.5810     59.8408
   226.0000      0.0000    694.0111      8.5806     58.6421
   226.2500      0.0000    694.9437      8.5370     56.5731
   226.5000      0.0000    698.0648      8.4636     54.0396
   226.7500      0.0000    702.6219      8.3967     51.9038
   227.0000      0.0000    707.3752      8.3639     50.9161
   227.2500      0.0000    710.8300      8.3559     51.3768
   227.5000      0.0000    711.7582      8.3444     53.1146
   227.7500      0.0000    710.0018      8.3187     55.4477
   228.0000      0.0000    707.3110      8.2882     57.1707
   228.2500      0.0000    707.2253      8.2616     57.0746
   228.5000      0.0000    713.2119      8.2431     54.8458
   228.7500      0.0000    725.9043      8.2324     51.3639
   229.0000      0.0000    741.9772      8.2117     47.9427
   229.2500      0.0000    756.8417      8.1517     45.3941
   229.5000      0.0000    769.2804      8.0476     43.9859
   229.7500      0.0000    782.1399      7.9341     44.0905
   230.0000      0.0000    797.3304      7.8490     46.2475
   230.2500      0.0000    811.9473      7.8013     50.3189
   230.5000      0.0000    821.5139      7.7851     54.9711
   230.7500      0.0000    825.6472      7.8022     58.4610
   231.0000      0.0000    827.7652      7.8510     59.9386
   231.2500      0.0000    830.2189      7.9099     59.8664
   231.5000      0.0000    833.2267      7.9486     59.3775
   231.7500      0.0000    838.3510      7.9550     59.4582
   232.0000      0.0000    848.9597      7.9387     60.4751
   232.2500      0.0000    865.9525      7.9204     62.0799
   232.5000      0.0000    885.6336      7.9283     63.5962
   232.7500      0.0000    902.9492      7.9901     64.7389
   233.0000      0.0000    915.2476      8.1096     66.0382
   233.2500      0.0000    922.5469      8.2582     68.5812
   233.5000      0.0000    925.9009      8.4010     73.2384
   233.7500      0.0000    926.5779      8.5111     79.8581
   234.0000      0.0000    925.9667      8.5565     87.1040
   234.2500      0.0000    924.7499      8.5002     93.2425
   234.5000      0.0000    921.8711      8.3307     97.0666
   234.7500      0.0000    915.2801      8.0804     97.9566
   235.0000      0.0000    904.2490      7.8126     95.3444
   235.2500      0.0000    890.3932      7.5972     88.7317
   235.5000      0.0000    876.2563      7.4897     78.5003
   235.7500      0.0000    863.7355      7.5126     66.3794
   236.0000      0.0000    854.0690      7.6459     54.7551
   236.2500      0.0000    847.7643      7.8313     45.5142
   236.5000      0.0000    843.2449      7.9927     39.4840
   236.7500      0.0000    836.6954      8.0701     36.6295
   237.0000      0.0000    825.1428      8.0501     36.4394
   237.2500      0.0000    809.6848      7.9662     38.0669
   237.5000      0.0000    794.6715      7.8745     40.3786
   237.7500      0.0000    783.9535      7.8250     42.2537
   238.0000      0.0000    778.7446      7.8426     42.9758
   238.2500      0.0000    778.7557      7.9232     42.3028
   238.5000      0.0000    784.1578      8.0483     40.3785
   238.7500      0.0000    795.6606      8.1991     37.8270
   239.0000      0.0000    812.6911      8.3476     35.6468
   239.2500      0.0000    832.0588      8.4517     34.6066
   239.5000      0.0000    849.2333      8.4778     34.8988
   239.7500      0.0000    861.1939      8.4302     36.6233
   240.0000      0.0000    867.8694      8.3511     40.1903
   240.2500      0.0000    871.1384      8.2934     45.8311
   240.5000      0.0000    873.1691      8.2850     53.0838
   240.7500      0.0000    875.8060      8.3115     61.1814
   241.0000      0.0000    880.7781      8.3325     69.5572
   241.2500      0.0000    889.4800      8.3188     77.6864
   241.5000      0.0000    901.8944      8.2806     84.8604
   241.7500      0.0000    915.8527      8.2586     90.4644
   242.0000      0.0000    927.9824      8.2865     94.2356
   242.2500      0.0000    935.7141      8.3567     96.0166
   242.5000      0.0000    938.3452      8.4246     95.4873
   242.7500      0.0000    936.6454      8.4496     92.5865
   243.0000      0.0000    932.0192      8.4340     88.1742
   243.2500      0.0000    925.5563      8.4255     83.8777
   243.5000      0.0000    916.8143      8.4831     81.1466
   243.7500      0.0000    903.7335      8.6320     80.5067
   244.0000      0.0000    885.8605      8.8374     81.4569
   244.2500      0.0000    869.0089      9.0107     82.8280
   244.5000      0.0000    864.5855      9.0476     83.4574
   244.7500      0.0000    880.3958      8.8995     82.9116
   245.0000      0.0000    911.3845      8.6320     81.5989
   245.2500      0.0000    942.1925      8.3868     80.1932
   245.5000      0.0000    959.9069      8.2593     79.1333
   245.7500      0.0000    963.2399      8.2311     78.7241
   246.0000     -4.0000    959.9177      8.2230     79.3362
   246.2500      0.0000    957.0029      8.1750     81.1399
   246.5000      0.0000    954.3884      8.0651     83.6694
   246.7500      0.0000    947.2355      7.8876     85.8496
   247.0000      0.0000    933.6379      7.6623     86.5639
   247.2500      0.0000    918.3091      7.4661     85.3683
   247.5000      0.0000    908.4679      7.4126     82.7373
   247.7500      0.0000    907.0256      7.5586     79.5075
   248.0000      0.0000    910.3236      7.8326     76.1079
   248.2500      0.0000    912.3287      8.0863     72.4601
   248.5000      0.0000    910.3374      8.2180     68.5703
   248.7500      0.0000    906.0586      8.2340     65.0087
   249.0000      0.0000    902.3026      8.1983     62.6365
   249.2500      0.0000    900.2438      8.1552     61.7714
   249.5000      0.0000    899.5130      8.1093     61.7085
   249.7500      0.0000    899.4803      8.0500     61.3147
   250.0000      0.0000    899.9603      7.9734     60.2459
   250.2500      0.0000    901.1840      7.8838     59.4517
   250.5000      0.0000    903.4512      7.7879     60.2553
   250.7500      0.0000    906.6715      7.6924     62.9072
   251.0000      0.0000    910.1469      7.6092     66.2394
   251.2500      0.0000    912.9545      7.5590     68.9396
   251.5000      0.0000    914.7048      7.5590     71.0997
   251.7500      0.0000    915.5505      7.5977     74.3507
   252.0000      0.0000    915.1664      7.6299     80.3199
   252.2500      0.0000    912.2793      7.6002     88.7286
   252.5000      0.0000    905.9316      7.4759     97.0895
   252.7500      0.0000    897.1566      7.2722    102.5690
   253.0000      0.0000    888.9156      7.0547    104.0717
   253.2500      0.0000    884.0607      6.9095    102.3726
   253.5000      0.0000    883.2007      6.8870     98.7982
   253.7500      0.0000    884.5692      6.9687     94.5027
   254.0000      0.0000    886.0792      7.0898     90.7666
   254.2500      0.0000    887.1942      7.1959     88.9458
   254.5000      0.0000    888.3233      7.2738     89.4988
   254.7500      0.0000    888.5423      7.3388     91.3059
   255.0000      0.0000    884.8442      7.4081     92.4740
   255.2500      0.0000    874.2266      7.4874     91.9919
   255.5000      0.0000    856.4064      7.5739     90.3959
   255.7500      0.0000    834.4256      7.6581     88.8072
   256.0000      0.0000    813.4664      7.7260     87.5482
   256.2500      0.0000    799.8727      7.7710     85.8281
   256.5000      0.0000    799.6151      7.8030     82.7379
   256.7500      0.0000    814.4780      7.8429     78.4193
   257.0000      0.0000    839.0179      7.9056     74.0708
   257.2500      0.0000    863.0073      7.9864     70.7656
   257.5000      0.0000    877.3605      8.0586     68.5403
   257.7500      0.0000    877.4102      8.0911     66.8663
   258.0000      0.0000    862.5170      8.0731     65.7760
   258.2500      0.0000    835.8370      8.0195     66.1220
   258.5000      0.0000    804.8079      7.9536     68.6087
   258.7500      0.0000    779.2150      7.8927     72.8298
   259.0000      0.0000    766.6859      7.8533     77.5205
