~Version Information
VERS.                      2.0: CWLS Log ASCII Standard - VERSION 2.0
WRAP.                       NO: One line per depth step
~Well Information Block
STRT.FT               483.0000: 
STOP.FT              1701.5000: 
STEP.FT                 0.1000: 
NULL.                -999.2500: 
COMP.          Pioneer Natural Resources: COMPANY
WELL.            Mad Dog 42-31: WELL
FLD.           Purgatorie River: FIELD
LOC.           2064' FNL & 479' FEL: LOCATION
PROV.                 Colorado: PROVINCE
CNTY.               Las Animas: COUNTRY
SRVC.                         : SERVICE COMPANY
DATE.          Sun Oct 10 04:38:02 2004: LOG DATE
UWI.           05 071 08195 00: UNIQUE WELL ID
~Curve Information Block
DEPT.FT            0 000 00 00: Depth
LTEN.lb                       : Surface Line Tension
DCAL.in                       : CDL Caliper
RHOB.g/cc                     : CDL Bulk Density
RHOC.g/cc                     : CDL Density Correction
DPOR.pu                       : CDL Density Porosity
GR.GAPI                       : Gamma Ray
NPOR.pu                       : Neutron Porosity
~Parameter Information Block
~A  Depth       LTEN        DCAL        RHOB        RHOC        DPOR         GR         NPOR    
# ...
  1205.4000   1029.7233      7.8439      2.5824      0.0741      4.0964     99.8066     21.4161
  1205.5000    954.1166      7.8430      2.6145      0.1215      2.1541     94.8247     21.7822
  1205.6000    954.1166      7.8430      2.6130      0.1196      2.2398     89.4315     21.6711
  1205.7000    954.1166      7.8430      2.5877      0.0723      3.7777     82.4250     21.1171
  1205.8000   1010.3405      7.8403      2.5672      0.0318      5.0158     77.7887     20.6232
  1205.9000   1010.3405      7.8403      2.5567      0.0855      5.6552     79.2387     20.4320
  1206.0000    977.7501      7.8425      2.5404      0.0780      6.6441     83.8613     20.6062
  1206.1000    977.7501      7.8425      2.5227      0.0589      7.7178     87.0877     21.0222
  1206.2000    977.7501      7.8425      2.5270     -0.0080      7.4546     85.1932     21.3925
  1206.3000    986.3710      7.8478      2.5559      0.0525      5.7003     77.9841     21.4846
  1206.4000    986.3710      7.8478      2.5824      0.0268      4.0977     69.8550     21.2215
  1206.5000   1037.9824      7.8476      2.5915      0.0816      3.5447     64.2198     20.8674
  1206.6000   1037.9824      7.8476      2.6039      0.0565      2.7956     63.7800     20.8519
  1206.7000   1037.9824      7.8476      2.6302      0.1053      1.1979     67.9815     21.2844
  1206.8000    978.6628      7.8544      2.6411      0.1620      0.5418     71.5285     21.6478
  1206.9000    978.6628      7.8544      2.6193      0.0923      1.8610     73.4572     21.4801
  1207.0000   1012.1997      7.8494      2.5895      0.0792      3.6653     76.5699     21.1626
  1207.1000   1012.1997      7.8494      2.5713      0.0859      4.7723     81.8265     21.1907
  1207.2000   1012.1997      7.8494      2.5594      0.0606      5.4888     90.0139     21.5366
  1207.3000   1021.6734      7.8398      2.5492      0.0369      6.1086    100.0310     21.7819
  1207.4000   1021.6734      7.8398      2.5398      0.0293      6.6793    107.0878     22.0857
  1207.5000    996.3986      7.8420      2.5273      0.0582      7.4392    108.3814     23.0596
  1207.6000    996.3986      7.8420      2.5186     -0.0081      7.9638    107.9679     24.3157
  1207.7000    996.3986      7.8420      2.5218      0.0289      7.7705    113.9451     25.2611
  1207.8000   1028.3586      7.8574      2.5294      0.0216      7.3094    126.7686     25.9909
  1207.9000   1028.3586      7.8574      2.5372      0.0913      6.8386    133.6270     26.4844
  1208.0000   1017.3031      7.8615      2.5465      0.0632      6.2706    125.5820     26.4451
  1208.1000   1017.3031      7.8615      2.5558      0.1324      5.7083    112.2524     26.0620
  1208.2000   1017.3031      7.8615      2.5560      0.1075      5.6958    104.4948     25.7313
  1208.3000    987.2637      7.8599      2.5423      0.1125      6.5291    101.3459     25.2793
  1208.4000    987.2637      7.8599      2.5146      0.1474      8.2055     98.1376     24.5783
  1208.5000   1023.7797      7.8630      2.4786      0.0789     10.3895     92.9548     23.9732
  1208.6000   1023.7797      7.8630      2.4490      0.0888     12.1797     83.5112     23.9738
  1208.7000   1023.7797      7.8630      2.4286      0.0985     13.4207     71.1577     24.6874
  1208.8000    987.9391      7.8656      2.4086      0.0202     14.6317     61.6805     25.2386
  1208.9000    987.9391      7.8656      2.3898      0.0626     15.7721     59.1313     24.3721
  1209.0000   1012.3170      7.8777      2.3766      0.0325     16.5726     61.1228     22.4888
  1209.1000   1012.3170      7.8777      2.3748      0.0050     16.6773     58.5704     21.1615
  1209.2000   1012.3170      7.8777      2.3824      0.1007     16.2169     50.0045     20.4799
  1209.3000   1014.3718      7.8769      2.3761      0.0984     16.5995     44.8137     19.4666
  1209.4000   1014.3718      7.8769      2.3450      0.0711     18.4828     45.9997     18.0291
  1209.5000    987.8979      7.8832      2.3154     -0.0275     20.2805     47.4272     16.7699
  1209.6000    987.8979      7.8832      2.3086      0.0041     20.6882     44.6121     15.6401
  1209.7000    987.8979      7.8832      2.3176      0.0108     20.1481     39.4222     14.7656
  1209.8000   1019.7778      7.8863      2.3335      0.0269     19.1830     35.4764     14.9552
  1209.9000   1019.7778      7.8863      2.3508      0.0231     18.1363     33.6297     16.3287
  1210.0000   1006.9356      7.8749      2.3593      0.0724     17.6165     33.5122     17.7398
  1210.1000   1006.9356      7.8749      2.3596      0.0176     17.6006     34.1736     18.0891
  1210.2000   1006.9356      7.8749      2.3630      0.0716     17.3958     35.0185     17.8174
  1210.3000   1017.9217      7.8723      2.3695      0.0955     16.9972     36.1499     17.6973
  1210.4000   1017.9217      7.8723      2.3758      0.0568     16.6173     36.9480     17.6657
  1210.5000   1012.7992      7.8595      2.3877      0.0845     15.8994     37.1578     17.3674
  1210.6000   1012.7992      7.8595      2.4080      0.1028     14.6674     38.2586     16.6663
  1210.7000   1012.7992      7.8595      2.4276      0.1179     13.4784     41.9565     15.7542
  1210.8000    996.1848      7.8682      2.4326      0.0882     13.1784     46.3506     14.9881
  1210.9000    996.1848      7.8682      2.4304      0.0612     13.3081     48.3610     14.5172
  1211.0000   1008.3323      7.8671      2.4382      0.1041     12.8336     49.1333     14.0911
  1211.1000   1008.3323      7.8671      2.4464      0.1066     12.3417     50.0977     13.5023
  1211.2000   1008.3323      7.8671      2.4418      0.0991     12.6194     51.2817     13.1270
  1211.3000    996.6317      7.8678      2.4344      0.0616     13.0689     54.9624     13.3447
  1211.4000    996.6317      7.8678      2.4347      0.0361     13.0488     61.5951     14.0196
  1211.5000   1026.3442      7.8618      2.4360      0.0678     12.9704     67.1829     14.9569
  1211.6000   1026.3442      7.8618      2.4305      0.0338     13.3059     68.7184     16.0435
  1211.7000   1026.3442      7.8618      2.4221      0.0528     13.8106     68.3102     16.6676
  1211.8000   1002.0949      7.8639      2.4150      0.0367     14.2454     69.0271     16.2859
  1211.9000   1002.0949      7.8639      2.4110      0.0339     14.4853     69.3660     15.5799
  1212.0000    994.0085      7.8892      2.4176      0.0199     14.0820     68.4499     15.3252
  1212.1000    994.0085      7.8892      2.4382      0.0332     12.8339     65.7297     15.4700
  1212.2000    994.0085      7.8892      2.4502      0.0661     12.1098     59.9015     15.6625
  1212.3000   1017.4490      7.9156      2.4291      0.0743     13.3888     53.9282     15.6939
  1212.4000   1017.4490      7.9156      2.4011     -0.0190     15.0825     49.3861     15.6888
  1212.5000   1000.4256      7.8899      2.4172     -0.0076     14.1090     45.5599     15.7302
  1212.6000   1000.4256      7.8899      2.4718      0.1226     10.7994     44.8138     15.8171
  1212.7000   1000.4256      7.8899      2.5186      0.1112      7.9651     48.5645     15.7848
  1212.8000   1007.0959      7.8779      2.5466      0.0883      6.2644     53.9706     15.5393
  1212.9000   1007.0959      7.8779      2.5703      0.1186      4.8315     58.8701     15.3986
  1213.0000   1021.8810      7.8819      2.5922      0.1366      3.5027     64.8510     15.7800
  1213.1000   1021.8810      7.8819      2.6095      0.1585      2.4551     74.9407     16.8328
  1213.2000   1021.8810      7.8819      2.6134      0.1811      2.2183     89.6245     18.0914
  1213.3000   1009.2297      7.8872      2.6020      0.1335      2.9109    104.1678     18.8366
  1213.4000   1009.2297      7.8872      2.5925      0.1226      3.4877    113.9395     19.2017
  1213.5000   1018.2209      7.8547      2.5955      0.1543      3.3012    119.4227     19.6675
  1213.6000   1018.2209      7.8547      2.6079      0.0976      2.5512    123.3408     20.3829
  1213.7000   1018.2209      7.8547      2.6263      0.1573      1.4359    131.3856     21.8106
