~Version Information
VERS.                      2.0: CWLS Log ASCII Standard - VERSION 2.0
WRAP.                       NO: One line per depth step
~Well Information Block
STRT.FT               456.0000: 
STOP.FT              1703.0000: 
STEP.FT                 0.2500: 
NULL.                -999.2500: 
COMP.          Pioneer Natural Resources: COMPANY
WELL.                Mead 11-9: WELL
FLD.           Purgatoire River: FIELD
LOC.           1127' FNL & 668' FWL: LOCATION
PROV.                 Colorado: PROVINCE
CNTY.               Las Animas: COUNTRY
SRVC.                Patterson: SERVICE COMPANY
DATE.          Fri Feb 18 16:14:34 2005: LOG DATE
UWI.           05 071 08160 00: UNIQUE WELL ID
~Curve Information Block
DEPT.FT            0 000 00 00: Depth
SN.Ohm-m                      : IEL Short Normal
SP.mV                         : IEL Spontaneous Potential
DIR.Ohm-m                     : IEL Induction Resistivity
GR.GAPI                       : Gamma Ray
~Parameter Information Block
~A  Depth        SN          SP         DIR          GR     
# ...
   523.0000   2000.0000   2000.0000     50.6132     66.4598
   523.2500   2000.0000   2000.0000     48.7809     66.2650
   523.5000   2000.0000   2000.0000     46.4208     65.0662
   523.7500   2000.0000   2000.0000     43.9633     64.1399
   524.0000   2000.0000   2000.0000     41.6695     63.9127
   524.2500   2000.0000   2000.0000     39.5950     65.4650
   524.5000   2000.0000   2000.0000     37.6675     71.6719
   524.7500   2000.0000   2000.0000     35.7837     78.5918
   525.0000   2000.0000   2000.0000     33.8793     91.9867
   525.2500   2000.0000   2000.0000     31.9526    101.5618
   525.5000   2000.0000   2000.0000     30.0495    114.4013
   525.7500   2000.0000   2000.0000     28.2400    120.9672
   526.0000   2000.0000   2000.0000     26.6031    127.3947
   526.2500   2000.0000   2000.0000     25.2163    129.7383
   526.5000   2000.0000   2000.0000     24.1429    131.3363
   526.7500   2000.0000   2000.0000     23.4195    131.7171
   527.0000   2000.0000   2000.0000     23.0521    132.2410
   527.2500   2000.0000   2000.0000     23.0192    133.0411
   527.5000   2000.0000   2000.0000     23.2743    134.9738
   527.7500   2000.0000   2000.0000     23.7424    136.0141
   528.0000   2000.0000   2000.0000     24.3117    135.0626
   528.2500   2000.0000   2000.0000     24.8402    131.8351
   528.5000   2000.0000   2000.0000     25.1969    123.5594
   528.7500   2000.0000   2000.0000     25.3276    117.1527
   529.0000   2000.0000   2000.0000     25.2897    108.7646
   529.2500   2000.0000   2000.0000     25.2104    104.6193
   529.5000   2000.0000   2000.0000     25.2088    100.1578
   529.7500   2000.0000   2000.0000     25.3485     97.9450
   530.0000   2000.0000   2000.0000     25.6471     95.6945
   530.2500   2000.0000   2000.0000     26.1068     95.1542
   530.5000   2000.0000   2000.0000     26.7337     96.1255
   530.7500   2000.0000   2000.0000     27.5283     97.9368
   531.0000   2000.0000   2000.0000     28.4561    101.9555
   531.2500   2000.0000   2000.0000     29.4183    105.0179
   531.5000   2000.0000   2000.0000     30.2452    109.1174
   531.7500   2000.0000   2000.0000     30.7391    110.9877
   532.0000   2000.0000   2000.0000     30.7711    112.0988
   532.2500   2000.0000   2000.0000     30.3630    111.7694
   532.5000   2000.0000   2000.0000     29.6652    110.1117
   532.7500   2000.0000   2000.0000     28.8430    108.6842
   533.0000   2000.0000   2000.0000     27.9830    107.0954
   533.2500   2000.0000   2000.0000     27.0864    106.9556
   533.5000   2000.0000   2000.0000     26.1213    108.6132
   533.7500   2000.0000   2000.0000     25.0704    110.9555
   534.0000   2000.0000   2000.0000     23.9414    115.9247
   534.2500   2000.0000   2000.0000     22.7558    119.7938
   534.5000   2000.0000   2000.0000     21.5447    125.4901
   534.7500   2000.0000   2000.0000     20.3474    128.6086
   535.0000   2000.0000   2000.0000     19.2064    131.3030
   535.2500   2000.0000   2000.0000     18.1528    131.4571
   535.5000   2000.0000   2000.0000     17.2010    129.5269
   535.7500   2000.0000   2000.0000     16.3528    127.5456
   536.0000   2000.0000   2000.0000     15.6061    125.3747
   536.2500   2000.0000   2000.0000     14.9580    125.3651
   536.5000   2000.0000   2000.0000     14.4048    127.7713
   536.7500   2000.0000   2000.0000     13.9403    130.2648
   537.0000   2000.0000   2000.0000     13.5574    133.5867
   537.2500   2000.0000   2000.0000     13.2498    134.9926
   537.5000   2000.0000   2000.0000     13.0153    136.3150
   537.7500   2000.0000   2000.0000     12.8570    137.1931
   538.0000   2000.0000   2000.0000     12.7827    138.6687
   538.2500   2000.0000   2000.0000     12.7991    139.3601
   538.5000   2000.0000   2000.0000     12.9021    139.2997
   538.7500   2000.0000   2000.0000     13.0680    138.5249
   539.0000   2000.0000   2000.0000     13.2569    136.5917
   539.2500   2000.0000   2000.0000     13.4322    134.6846
   539.5000   2000.0000   2000.0000     13.5880    129.9215
   539.7500   2000.0000   2000.0000     13.7591    124.9391
   540.0000   2000.0000   2000.0000     14.0040    115.2481
   540.2500   2000.0000   2000.0000     14.3720    108.6555
   540.5000   2000.0000   2000.0000     14.8768    101.6569
   540.7500   2000.0000   2000.0000     15.4861    100.1852
   541.0000   2000.0000   2000.0000     16.1308    102.7158
   541.2500   2000.0000   2000.0000     16.7308    106.2594
   541.5000   2000.0000   2000.0000     17.2236    111.2129
   541.7500   2000.0000   2000.0000     17.5775    112.8320
   542.0000   2000.0000   2000.0000     17.7853    112.2710
   542.2500   2000.0000   2000.0000     17.8534    110.9599
   542.5000   2000.0000   2000.0000     17.7950    110.5471
   542.7500   2000.0000   2000.0000     17.6284    112.5817
   543.0000   2000.0000   2000.0000     17.3773    119.0593
   543.2500   2000.0000   2000.0000     17.0757    124.5628
   543.5000   2000.0000   2000.0000     16.7700    132.6268
   543.7500   2000.0000   2000.0000     16.5106    137.3367
   544.0000   2000.0000   2000.0000     16.3324    143.2920
   544.2500   2000.0000   2000.0000     16.2371    146.5037
   544.5000   2000.0000   2000.0000     16.1921    149.8778
   544.7500   2000.0000   2000.0000     16.1498    150.7988
   545.0000   2000.0000   2000.0000     16.0768    149.1834
   545.2500   2000.0000   2000.0000     15.9739    145.5648
   545.5000   2000.0000   2000.0000     15.8693    136.7534
   545.7500   2000.0000   2000.0000     15.7942    130.1132
   546.0000   2000.0000   2000.0000     15.7642    122.5638
   546.2500   2000.0000   2000.0000     15.7775    120.4841
   546.5000   2000.0000   2000.0000     15.8260    121.4656
   546.7500   2000.0000   2000.0000     15.9031    123.5498
   547.0000   2000.0000   2000.0000     16.0051    126.4901
   547.2500   2000.0000   2000.0000     16.1271    127.6376
   547.5000   2000.0000   2000.0000     16.2601    128.3133
   547.7500   2000.0000   2000.0000     16.3928    128.5626
   548.0000   2000.0000   2000.0000     16.5144    129.2021
   548.2500   2000.0000   2000.0000     16.6175    129.7623
   548.5000   2000.0000   2000.0000     16.6991    130.3508
   548.7500   2000.0000   2000.0000     16.7606    130.3174
   549.0000   2000.0000   2000.0000     16.8062    129.4971
   549.2500   2000.0000   2000.0000     16.8423    128.5865
   549.5000   2000.0000   2000.0000     16.8756    127.0964
   549.7500   2000.0000   2000.0000     16.9119    126.1350
   550.0000   2000.0000   2000.0000     16.9534    124.5240
   550.2500   2000.0000   2000.0000     16.9969    123.1662
   550.5000   2000.0000   2000.0000     17.0313    121.0413
   550.7500   2000.0000   2000.0000     17.0387    120.3096
   551.0000   2000.0000   2000.0000     17.0014    121.8060
   551.2500   2000.0000   2000.0000     16.9107    124.9364
   551.5000   2000.0000   2000.0000     16.7738    131.9046
   551.7500   2000.0000   2000.0000     16.6112    136.8973
   552.0000   2000.0000   2000.0000     16.4483    143.1968
   552.2500   2000.0000   2000.0000     16.3034    146.1564
   552.5000   2000.0000   2000.0000     16.1796    148.4146
   552.7500   2000.0000   2000.0000     16.0608    148.2146
   553.0000   2000.0000   2000.0000     15.9182    145.1243
   553.2500   2000.0000   2000.0000     15.7242    141.5639
   553.5000   2000.0000   2000.0000     15.4674    135.3102
   553.7500   2000.0000   2000.0000     15.1532    131.2045
   554.0000   2000.0000   2000.0000     14.7955    125.4698
   554.2500   2000.0000   2000.0000     14.4107    121.8643
   554.5000   2000.0000   2000.0000     14.0251    117.0532
   554.7500   2000.0000   2000.0000     13.6817    114.7076
   555.0000   2000.0000   2000.0000     13.4340    113.2033
   555.2500   2000.0000   2000.0000     13.3275    113.5789
   555.5000   2000.0000   2000.0000     13.3856    115.4884
   555.7500   2000.0000   2000.0000     13.6055    117.0042
   556.0000   2000.0000   2000.0000     13.9626    118.6904
   556.2500   2000.0000   2000.0000     14.4187    119.0541
