~Version Information
VERS.                      2.0: CWLS Log ASCII Standard - VERSION 2.0
WRAP.                       NO: One line per depth step
~Well Information Block
STRT.FT                -3.5000: 
STOP.FT              1745.0000: 
STEP.FT                 0.2500: 
NULL.                -999.2500: 
COMP.          Pioneer Natural Resources: COMPANY
WELL.           Labrador 34-30: WELL
FLD.           Purgatorie River: FIELD
LOC.           926' FSL & 2080' FEL--: LOCATION
PROV.                       CO: PROVINCE
CNTY.               Las Animas: COUNTRY
SRVC.                         : SERVICE COMPANY
DATE.          Fri Dec 10 09:58:23 2004: LOG DATE
UWI.                071-08202 : UNIQUE WELL ID
~Curve Information Block
DEPT.FT            0 000 00 00: Depth
GR.GAPI                       : Gamma Ray
CCL.                          : Casing Collar Locator
TT3.usec                      : CBL 3' Travel Time
AMP3.mV                       : CBL 3' Amplitude
~Parameter Information Block
~A  Depth        GR         CCL         TT3         AMP3    
# ...
  1470.5000     92.1790      0.0000    748.2457     11.4677
  1470.7500     92.5012      0.0000    748.3842     11.2888
  1471.0000     91.1956      0.0000    748.5625     11.1050
  1471.2500     88.8016      0.0000    748.7906     10.9710
  1471.5000     86.4670      0.0000    749.0436     10.9304
  1471.7500     85.2075      0.0000    749.2859     10.9873
  1472.0000     85.3910      0.0000    749.5028     11.1018
  1472.2500     86.9185      0.0000    749.7011     11.2226
  1472.5000     89.6154      0.0000    749.8884     11.3222
  1472.7500     93.1789      0.0000    750.0648     11.3970
  1473.0000     96.7307      0.0000    750.2286     11.4462
  1473.2500     98.8818      0.0000    750.3737     11.4648
  1473.5000     98.7147      0.0000    750.4863     11.4583
  1473.7500     96.6929      0.0000    750.5633     11.4607
  1474.0000     94.2371      0.0000    750.6249     11.5340
  1474.2500     92.3628      0.0000    750.6902     11.7348
  1474.5000     90.9581      0.0000    750.7412     12.0664
  1474.7500     89.2683      0.0000    750.6750     12.4590
  1475.0000     86.7148      0.0000    750.1972     12.8047
  1475.2500     83.2404      0.0000    748.6664     13.0183
  1475.5000     79.1970      0.0000    745.2034     13.0715
  1475.7500     75.2192      0.0000    739.4785     12.9815
  1476.0000     72.1077      0.0000    732.7558     12.7779
  1476.2500     70.3424      0.0000    727.5779     12.4873
  1476.5000     69.5935      0.0000    725.4322     12.1465
  1476.7500     69.1793      0.0000    724.6687     11.8165
  1477.0000     69.1778      0.0000    721.2289     11.5641
  1477.2500     70.6291      0.0000    711.0200     11.4179
  1477.5000     74.3655      0.0000    691.4167     11.3483
  1477.7500     79.9184      0.0000    663.0344     11.2996
  1478.0000     85.8286      0.0000    633.1092     11.2407
  1478.2500     90.8667      0.0000    615.3549     11.1846
  1478.5000     94.7412      0.0000    620.9932     11.1595
  1478.7500     97.8727      0.0000    648.2099     11.1664
  1479.0000    100.8339      0.0000    683.3530     11.1679
  1479.2500    103.9233      0.0000    712.8938     11.1210
  1479.5000    107.0144      0.0000    731.8737     11.0191
  1479.7500    109.7612      0.0000    742.1899     10.8966
  1480.0000    111.9313      0.0000    747.2381     10.7900
  1480.2500    113.4894      0.0000    749.3845     10.7020
  1480.5000    114.5889      0.0000    750.0449     10.6110
  1480.7500    115.7087      0.0000    750.0917     10.5032
  1481.0000    117.4276      0.0000    749.9921     10.3834
  1481.2500    119.5525      0.0000    749.9178     10.2620
  1481.5000    120.5331      0.0000    749.9020     10.1453
  1481.7500    118.2946      0.0000    749.9652     10.0456
  1482.0000    112.0587      0.0000    750.1401      9.9916
  1482.2500    103.2143      0.0000    750.4385     10.0189
  1482.5000     94.2537      0.0000    750.8288     10.1394
  1482.7500     87.1431      0.0000    751.2397     10.3176
  1483.0000     82.7347      0.0000    751.5871     10.4853
  1483.2500     81.0517      0.0000    751.8063     10.5862
  1483.5000     81.5325      0.0000    751.8677     10.6117
  1483.7500     82.9968      0.0000    751.7651     10.6011
  1484.0000     83.6399      0.0000    751.4509     10.6096
  1484.2500     81.5657      0.0000    750.6319     10.6752
  1484.5000     76.0257      0.0000    748.4804     10.8063
  1484.7500     68.2765      0.0000    743.6796     10.9901
  1485.0000     60.7716      0.0000    735.5361     11.1959
  1485.2500     55.4039      0.0000    725.8250     11.3548
  1485.5000     52.6196      0.0000    718.9077     11.3547
  1485.7500     51.8706      0.0000    718.3849     11.1080
  1486.0000     52.4313      0.0000    723.3647     10.6572
  1486.2500     53.8880      0.0000    729.3750     10.1801
  1486.5000     56.2262      0.0000    733.1038      9.8228
  1486.7500     59.5708      0.0000    735.0984      9.5271
  1487.0000     63.8177      0.0000    738.2965      9.1060
  1487.2500     68.4742      0.0000    745.1205      8.5124
  1487.5000     72.7432      0.0000    755.1613      7.9452
  1487.7500     75.7002      0.0000    764.3578      7.6390
  1488.0000     76.5784      0.0000    767.5474      7.6200
  1488.2500     75.3184      0.0000    763.4344      7.7145
  1488.5000     73.1219      2.0000    756.1456      7.7366
  1488.7500     72.0786      0.0000    750.8142      7.6245
  1489.0000     73.5573      0.0000    748.9263      7.4372
  1489.2500     77.0090      0.0000    748.5366      7.2733
  1489.5000     80.8878      0.0000    747.2233      7.2057
  1489.7500     84.5007      0.0000    743.8127      7.2827
  1490.0000     88.1865      0.0000    738.3641      7.5670
  1490.2500     91.9169      0.0000    731.6229      8.1200
  1490.5000     94.6946      0.0000    724.5522      8.9103
  1490.7500     95.6660      0.0000    718.1505      9.7705
  1491.0000     95.3878      0.0000    713.4818     10.4930
  1491.2500     95.3630      0.0000    711.3685     10.9690
  1491.5000     96.1082      0.0000    711.7372     11.2257
  1491.7500     96.2285      0.0000    713.3412     11.3601
  1492.0000     93.9823      0.0000    714.5248     11.4630
  1492.2500     89.4905      0.0000    714.7234     11.5846
  1492.5000     84.9662      0.0000    715.2289     11.7373
  1492.7500     83.0446      0.0000    718.1116     11.9171
  1493.0000     85.0718      0.0000    724.2125     12.1270
  1493.2500     90.4291      0.0000    732.2349     12.3815
  1493.5000     97.0570      0.0000    739.7874     12.6913
  1493.7500    102.7591      0.0000    745.1733     13.0435
  1494.0000    106.1532      0.0000    748.1971     13.3996
  1494.2500    106.7331      0.0000    749.6187     13.7151
  1494.5000    104.7859      0.0000    750.2471     13.9633
  1494.7500    101.5848      0.0000    750.5297     14.1431
  1495.0000     99.0832      0.0000    750.6446     14.2665
  1495.2500     98.8513      0.0000    750.6932     14.3439
  1495.5000    101.3942      0.0000    750.7716     14.3834
  1495.7500    106.4072      0.0000    750.9395     14.3979
  1496.0000    112.9914      0.0000    751.1863     14.4036
  1496.2500    119.4666      0.0000    751.4469     14.4078
  1496.5000    123.8206      0.0000    751.6396     14.4014
  1496.7500    124.9719      0.0000    751.7010     14.3687
  1497.0000    123.4100      0.0000    751.6149     14.3000
  1497.2500    120.3529      0.0000    751.4255     14.1916
  1497.5000    116.3783      0.0000    751.2212     14.0373
  1497.7500    111.1315      0.0000    751.0906     13.8277
  1498.0000    104.4715      0.0000    751.0804     13.5591
  1498.2500     97.6193      0.0000    751.1850     13.2383
  1498.5000     92.7143      0.0000    751.3685     12.8803
  1498.7500     91.1180      0.0000    751.5939     12.5094
  1499.0000     92.3273      0.0000    751.8411     12.1585
  1499.2500     94.5405      0.0000    752.1088     11.8580
  1499.5000     95.9222      0.0000    752.4100     11.6240
  1499.7500     95.2776      0.0000    752.7918     11.4593
  1500.0000     92.1577      0.0000    753.4218     11.3576
  1500.2500     87.0097      0.0000    754.7551     11.2988
  1500.5000     81.2011      0.0000    757.6165     11.2500
  1500.7500     76.4299      0.0000    762.8515     11.1871
  1501.0000     73.8620      0.0000    770.4672     11.1143
  1501.2500     73.6385      0.0000    779.0128     11.0563
  1501.5000     74.8574      0.0000    786.0844     11.0326
  1501.7500     76.0756      0.0000    789.6971     11.0478
  1502.0000     76.2195      0.0000    789.3153     11.1014
  1502.2500     75.1098      0.0000    785.8741     11.1921
  1502.5000     73.1161      0.0000    781.1229     11.3103
  1502.7500     70.5736      0.0000    776.9202     11.4364
  1503.0000     67.6546      0.0000    774.6701     11.5546
  1503.2500     64.5271      0.0000    774.6979     11.6614
  1503.5000     61.4189      0.0000    775.8368     11.7568
  1503.7500     58.7104      0.0000    776.0663     11.8309
