~Version Information
VERS.                      2.0: CWLS Log ASCII Standard - VERSION 2.0
WRAP.                       NO: One line per depth step
~Well Information Block
STRT.FT                 0.5000: 
STOP.FT              2744.2500: 
STEP.FT                 0.2500: 
NULL.                -999.2500: 
COMP.          Petrogulf Corporation: COMPANY
WELL.              Silva 1-43V: WELL
FLD.           Purgatoire River: FIELD
LOC.           2010' FSL & 614' FEL--: LOCATION
PROV.                 Colorado: PROVINCE
CNTY.               Las Animas: COUNTRY
SRVC.                Patterson: SERVICE COMPANY
DATE.          Mon Sep 12 10:37:12 2005: LOG DATE
UWI.           05 071 08371 00: UNIQUE WELL ID
~Curve Information Block
DEPT.FT            0 000 00 00: Depth
CCL.                          : Casing Collar Locator
TT3.usec                      : CBL 3' Travel Time
AMP3.mV                       : CBL 3' Amplitude
GR.GAPI                       : Gamma Ray
~Parameter Information Block
~A  Depth       CCL         TT3         AMP3         GR     
# ...
   905.0000      0.0000    689.2833      6.7995    129.5632
   905.2500      0.0000    691.2925      6.7514    126.8713
   905.5000      0.0000    690.0692      6.7825    125.8483
   905.7500      0.0000    686.2081      6.8717    126.1623
   906.0000      0.0000    681.9048      6.9742    126.6306
   906.2500      0.0000    678.6866      7.0544    126.3447
   906.5000      0.0000    676.7297      7.0984    125.0772
   906.7500      0.0000    675.5848      7.1079    123.0572
   907.0000      0.0000    674.9056      7.0898    120.5603
   907.2500      0.0000    674.5784      7.0553    117.5932
   907.5000      0.0000    674.5696      7.0213    114.0280
   907.7500      0.0000    674.8091      7.0073    110.2349
   908.0000      0.0000    675.1637      7.0295    107.3449
   908.2500      0.0000    675.5039      7.0934    106.5304
   908.5000      0.0000    675.8126      7.1901    108.0472
   908.7500      0.0000    676.2772      7.2984    111.1204
   909.0000      0.0000    677.2155      7.3938    114.7769
   909.2500      0.0000    678.7540      7.4579    118.7693
   909.5000      0.0000    680.5386      7.4824    123.4257
   909.7500      0.0000    682.0786      7.4683    128.4882
   910.0000      0.0000    683.6349      7.4230    132.6313
   910.2500      0.0000    686.4598      7.3548    134.4285
   910.5000      0.0000    691.5795      7.2687    133.3481
   910.7500      0.0000    698.2993      7.1698    129.8159
   911.0000      0.0000    704.3182      7.0665    125.0330
   911.2500      0.0000    707.5456      6.9636    120.8222
   911.5000      0.0000    707.6177      6.8530    118.9464
   911.7500      0.0000    705.5278      6.7214    120.1706
   912.0000      0.0000    702.3604      6.5679    123.9572
   912.2500      0.0000    699.0764      6.4134    128.8661
   912.5000      0.0000    697.0544      6.2886    133.0482
   912.7500      0.0000    697.6314      6.2108    134.8163
   913.0000      0.0000    700.8120      6.1715    133.4747
   913.2500      0.0000    705.0728      6.1449    129.9367
   913.5000      0.0000    708.6577      6.1079    126.3949
   913.7500      0.0000    710.7672      6.0535    124.9561
   914.0000      0.0000    711.5699      5.9890    126.1550
   914.2500      0.0000    711.5929      5.9271    128.8179
   914.5000      0.0000    711.2938      5.8841    131.6813
   914.7500      0.0000    711.0048      5.8849    134.8696
   915.0000      0.0000    711.0225      5.9593    139.1394
   915.2500      0.0000    711.7147      6.1224    143.9765
   915.5000      0.0000    713.4714      6.3554    147.5786
   915.7500      0.0000    716.3187      6.6110    148.7606
   916.0000      0.0000    719.3307      6.8432    147.7995
   916.2500      0.0000    720.5183      7.0371    145.4562
   916.5000      0.0000    717.7889      7.2163    142.3246
   916.7500      0.0000    710.5245      7.4228    139.3137
   917.0000      0.0000    700.3890      7.6857    137.6258
   917.2500      0.0000    690.3916      8.0026    137.5042
   917.5000      0.0000    682.9244      8.3437    137.4258
   917.7500      0.0000    678.6083      8.6682    135.3480
   918.0000      0.0000    676.7255      8.9353    130.9438
   918.2500      0.0000    676.2525      9.1050    126.1982
   918.5000      0.0000    676.4036      9.1432    123.5903
   918.7500      0.0000    676.6745      9.0393    123.9362
   919.0000      0.0000    676.8234      8.8233    126.1599
   919.2500      0.0000    676.9576      8.5625    128.7726
   919.5000      0.0000    677.6479      8.3322    131.1151
   919.7500      0.0000    680.0804      8.1742    133.3083
   920.0000      0.0000    686.0574      8.0738    135.5240
   920.2500      0.0000    697.1879      7.9774    137.6385
   920.5000      0.0000    713.0480      7.8371    139.6162
   920.7500      0.0000    729.9597      7.6398    141.9292
   921.0000      0.0000    742.7390      7.3982    145.0988
   921.2500      0.0000    748.7667      7.1298    148.9735
   921.5000      0.0000    750.1733      6.8543    153.0210
   921.7500      0.0000    751.4054      6.6060    157.0228
   922.0000      0.0000    754.6447      6.4376    160.6921
   922.2500      0.0000    757.7175      6.4006    162.8958
   922.5000      0.0000    756.0301      6.5122    162.1886
   922.7500      0.0000    746.2509      6.7311    158.4313
   923.0000      0.0000    728.8885      6.9699    153.5938
   923.2500      0.0000    708.2941      7.1401    150.5279
   923.5000      0.0000    690.0889      7.2079    150.5124
   923.7500      0.0000    678.1343      7.2310    151.7647
   924.0000      0.0000    673.5808      7.3367    150.6525
   924.2500      0.0000    675.6277      7.6206    144.8348
   924.5000      0.0000    681.7072      8.0596    135.2966
   924.7500      0.0000    686.8325      8.5629    125.2249
   925.0000      0.0000    684.4738      9.0917    117.2682
   925.2500      0.0000    670.3201      9.6744    112.2206
   925.5000      2.0000    647.0614     10.3134    109.7681
   925.7500      0.0000    625.3737     10.9363    109.4766
   926.0000      0.0000    616.9433     11.4452    111.0464
   926.2500      0.0000    623.3640     11.7992    114.3902
   926.5000      0.0000    633.0418     12.0399    119.5142
   926.7500      0.0000    632.4518     12.2164    125.7221
   927.0000      0.0000    620.5919     12.2632    130.9599
   927.2500      0.0000    609.7952     12.0030    132.8575
   927.5000      0.0000    612.4289     11.3406    131.0459
   927.7500      0.0000    629.6608     10.4151    128.0623
   928.0000      0.0000    653.2682      9.4948    127.1989
   928.2500      0.0000    674.5455      8.7602    129.2876
   928.5000      0.0000    689.4902      8.2388    132.0578
   928.7500      0.0000    698.4547      7.8901    132.5779
   929.0000      0.0000    704.5317      7.6900    129.6626
   929.2500      0.0000    711.6891      7.6448    124.0322
   929.5000      0.0000    721.8477      7.7635    117.2024
   929.7500      0.0000    733.3469      8.0268    110.5098
   930.0000      0.0000    743.0474      8.3761    104.4670
   930.2500      0.0000    749.4635      8.7288     98.7783
   930.5000      0.0000    753.2850      9.0082     93.4179
   930.7500      0.0000    755.4939      9.1699     89.5163
   931.0000      0.0000    755.7616      9.2135     88.5349
   931.2500      0.0000    753.1262      9.1750     90.7165
   931.5000      0.0000    748.5139      9.1042     94.8402
   931.7500      0.0000    746.0663      9.0370     99.3306
   932.0000      0.0000    750.8542      8.9806    103.2483
   932.2500      0.0000    764.7569      8.9211    106.2875
   932.5000      0.0000    784.5724      8.8413    108.1042
   932.7500      0.0000    803.9564      8.7314    107.8893
   933.0000      0.0000    817.1863      8.5920    104.8561
   933.2500      0.0000    821.8022      8.4369     99.2176
   933.5000      0.0000    818.7627      8.2914     92.4401
   933.7500      0.0000    811.6581      8.1812     86.4257
   934.0000      0.0000    806.7958      8.1202     82.5880
   934.2500      0.0000    811.7044      8.1063     81.6980
   934.5000      0.0000    829.3166      8.1277     84.1195
   934.7500      0.0000    852.7420      8.1735     89.5142
   935.0000      0.0000    868.7559      8.2346     96.1713
   935.2500      0.0000    868.3696      8.2954    101.2994
   935.5000      0.0000    853.3270      8.3316    102.7594
   935.7500      0.0000    832.8824      8.3250    100.5891
   936.0000      0.0000    816.2117      8.2774     96.6486
   936.2500      0.0000    807.2449      8.2085     92.9672
   936.5000      0.0000    804.1932      8.1439     90.6402
   936.7500      0.0000    802.7419      8.1038     89.9004
   937.0000      0.0000    799.6909      8.0897     90.5017
   937.2500      0.0000    794.1139      8.0740     91.7513
   937.5000      0.0000    786.2940      8.0126     92.6751
   937.7500      0.0000    776.7283      7.8825     92.8120
   938.0000      0.0000    766.2687      7.7027     92.8340
   938.2500      0.0000    756.6411      7.5157     93.9566
