~Version Information
VERS.                      2.0: CWLS Log ASCII Standard - VERSION 2.0
WRAP.                       NO: One line per depth step
~Well Information Block
STRT.FT               702.7000: 
STOP.FT              2529.2000: 
STEP.FT                 0.1000: 
NULL.                -999.2500: 
COMP.          Pioneer Natural Resources: COMPANY
WELL.          Aztec Federal 41-15: WELL
FLD.           Purgatorie River: FIELD
LOC.           706' FNL & 1253' FEL: LOCATION
CNTY.               Las Animas: COUNTY
SRVC.          Superior Well Services: SERVICE COMPANY
DATE.          Tue Mar 18 09-36-47 2008: LOG DATE
UWI.           05-071-08342-00: UNIQUE WELL ID
STAT.                       CO: STATE
~Curve Information Block
DEPT.FT            0 000 00 00: Depth
DCAL.in                       : CDL Caliper
DPOR.pu                       : CDL Density Porosity
GR.GAPI                       : Gamma Ray
RHOB.g/cc                     : CDL Bulk Density
RHOC.g/cc                     : CDL Density Correction
~Parameter Information Block
~A  Depth       DCAL        DPOR         GR         RHOB        RHOC    
# ...
  1072.3000      8.0217      2.7262    113.1989      2.6050      0.0237
  1072.4000      8.0130      1.5082    112.5330      2.6251      0.0320
  1072.5000      8.0070      1.8554    111.0299      2.6194      0.0303
  1072.6000      8.0038      3.4039    109.6053      2.5938      0.0192
  1072.7000      8.0025      4.5580    111.6298      2.5748      0.0094
  1072.8000      8.0017      4.9079    116.3147      2.5690      0.0087
  1072.9000      8.0008      5.0104    122.2180      2.5673      0.0197
  1073.0000      7.9998      4.5817    127.2674      2.5744      0.0400
  1073.1000      7.9987      3.2957    128.0023      2.5956      0.0648
  1073.2000      7.9979      2.9547    126.1722      2.6012      0.0834
  1073.3000      7.9972      4.2905    125.7842      2.5792      0.0997
  1073.4000      7.9967      5.5535    126.7437      2.5584      0.1284
  1073.5000      7.9959      5.7035    127.9326      2.5559      0.1781
  1073.6000      7.9945      4.2095    130.0090      2.5805      0.2607
  1073.7000      7.9923      0.9542    132.7303      2.6343      0.3663
  1073.8000      7.9897     -2.3561    133.2265      2.6889      0.4555
  1073.9000      7.9882     -3.0314    130.0612      2.7000      0.4913
  1074.0000      7.9902      0.2240    127.6407      2.6463      0.4621
  1074.1000      7.9988      7.2203    128.1267      2.5309      0.3741
  1074.2000      8.0164     16.4735    129.0223      2.3782      0.2496
  1074.3000      8.0442     25.0575    130.7998      2.2366      0.1308
  1074.4000      8.0813     30.2673    133.5914      2.1506      0.0534
  1074.5000      8.1238     31.1705    134.4830      2.1357      0.0193
  1074.6000      8.1652     28.6250    134.4062      2.1777      0.0096
  1074.7000      8.1972     24.7556    135.6975      2.2415      0.0098
  1074.8000      8.2120     21.1112    137.0721      2.3017      0.0209
  1074.9000      8.2052     17.1527    136.8800      2.3670      0.0521
  1075.0000      8.1778     12.9531    135.2683      2.4363      0.0967
  1075.1000      8.1359     10.2831    134.9000      2.4803      0.1275
  1075.2000      8.0887      8.9107    137.3718      2.5030      0.1397
  1075.3000      8.0451      6.6479    139.3092      2.5403      0.1606
  1075.4000      8.0110      3.7492    138.6071      2.5881      0.1930
  1075.5000      7.9881      3.0722    139.1337      2.5993      0.2022
  1075.6000      7.9749      5.5567    142.3647      2.5583      0.1745
  1075.7000      7.9689      9.3181    143.9962      2.4963      0.1376
  1075.8000      7.9682     12.7582    142.1848      2.4395      0.1209
  1075.9000      7.9720     15.7589    139.0337      2.3900      0.1309
  1076.0000      7.9796     18.5575    136.9365      2.3438      0.1634
  1076.1000      7.9904     20.8391    137.9369      2.3062      0.2095
  1076.2000      8.0026     22.2645    140.0975      2.2826      0.2564
  1076.3000      8.0141     23.7606    138.5033      2.2580      0.2961
  1076.4000      8.0224     27.7358    133.2473      2.1924      0.3153
  1076.5000      8.0265     35.0627    128.5014      2.0715      0.2999
  1076.6000      8.0270     43.5757    125.8314      1.9310      0.2550
  1076.7000      8.0262     51.3550    123.0104      1.8026      0.1994
  1076.8000      8.0269     58.1598    116.9265      1.6904      0.1458
  1076.9000      8.0313     63.3343    108.2499      1.6050      0.0996
  1077.0000      8.0399     65.6148    102.0144      1.5674      0.0619
  1077.1000      8.0505     65.1872    101.3218      1.5744      0.0281
  1077.2000      8.0596     63.0438    103.7014      1.6098     -0.0037
  1077.3000      8.0639     59.7039    105.9466      1.6649     -0.0363
  1077.4000      8.0619     55.4651    107.0713      1.7348     -0.0690
  1077.5000      8.0546     50.4478    106.8008      1.8176     -0.0859
  1077.6000      8.0441     43.9581    106.2299      1.9247     -0.0719
  1077.7000      8.0328     35.2467    106.1757      2.0684     -0.0268
  1077.8000      8.0224     25.7563    106.1514      2.2250      0.0309
  1077.9000      8.0137     18.4288    106.4427      2.3459      0.0751
  1078.0000      8.0066     14.1098    108.1851      2.4172      0.1022
  1078.1000      8.0006     11.7798    110.3021      2.4556      0.1206
  1078.2000      7.9954     10.6372    110.3862      2.4745      0.1304
  1078.3000      7.9905      9.3096    110.1141      2.4964      0.1375
  1078.4000      7.9858      7.1458    113.0936      2.5321      0.1437
  1078.5000      7.9814      5.9908    117.3128      2.5512      0.1346
  1078.6000      7.9770      7.5940    117.6478      2.5247      0.1012
  1078.7000      7.9728     10.7151    114.3970      2.4732      0.0540
  1078.8000      7.9685     12.4761    110.0380      2.4441      0.0209
  1078.9000      7.9640     12.0284    105.9935      2.4515      0.0216
  1079.0000      7.9592     11.1622    102.7020      2.4658      0.0406
  1079.1000      7.9543      9.8280    100.9419      2.4878      0.0707
  1079.2000      7.9498      6.9915    104.1480      2.5346      0.1215
  1079.3000      7.9463      4.8051    112.3203      2.5707      0.1696
  1079.4000      7.9445      5.6806    119.0242      2.5563      0.1792
  1079.5000      7.9444      8.0858    120.1382      2.5166      0.1629
  1079.6000      7.9458      8.3266    117.7395      2.5126      0.1700
  1079.7000      7.9480      6.5270    115.4924      2.5423      0.1993
  1079.8000      7.9501      5.5622    115.6961      2.5582      0.2119
  1079.9000      7.9517      5.9015    118.3251      2.5526      0.2048
  1080.0000      7.9526      6.4873    121.0333      2.5430      0.1944
  1080.1000      7.9531      7.5042    122.0906      2.5262      0.1768
  1080.2000      7.9537      9.7545    123.1465      2.4891      0.1422
  1080.3000      7.9547     12.3466    125.2092      2.4463      0.1055
  1080.4000      7.9560     13.6724    125.9992      2.4244      0.0919
  1080.5000      7.9572     13.2759    124.2171      2.4309      0.1071
  1080.6000      7.9582     11.6479    122.2559      2.4578      0.1405
  1080.7000      7.9585      9.8799    120.9205      2.4870      0.1722
  1080.8000      7.9585      8.7012    119.7461      2.5064      0.1897
  1080.9000      7.9584      8.2371    120.0897      2.5141      0.1965
  1081.0000      7.9588      8.2627    121.8473      2.5137      0.2001
  1081.1000      7.9599      8.5144    122.6434      2.5095      0.2032
  1081.2000      7.9616      9.1980    122.7253      2.4982      0.2016
  1081.3000      7.9636     10.4845    123.4156      2.4770      0.1950
  1081.4000      7.9655     12.2213    123.6994      2.4483      0.1864
  1081.5000      7.9666     13.5672    123.9714      2.4261      0.1819
  1081.6000      7.9670     12.8303    126.3581      2.4383      0.1946
  1081.7000      7.9668      9.7830    130.4780      2.4886      0.2152
  1081.8000      7.9665      7.1434    135.4734      2.5321      0.2042
  1081.9000      7.9665      7.4698    139.5222      2.5267      0.1423
  1082.0000      7.9673      9.2748    138.7302      2.4970      0.0639
  1082.1000      7.9687      9.0280    133.3803      2.5010      0.0233
  1082.2000      7.9702      6.0637    128.4436      2.5499      0.0400
  1082.3000      7.9711      1.8327    127.3079      2.6198      0.1014
  1082.4000      7.9707     -2.7895    126.9173      2.6960      0.1810
  1082.5000      7.9690     -7.1439    122.4075      2.7679      0.2471
  1082.6000      7.9663     -9.8795    116.2832      2.8130      0.2826
  1082.7000      7.9632     -9.5032    114.2251      2.8068      0.2855
  1082.8000      7.9602     -5.3353    115.4964      2.7380      0.2560
  1082.9000      7.9574      1.4828    116.2832      2.6255      0.1969
  1083.0000      7.9549      8.1645    115.9464      2.5153      0.1264
  1083.1000      7.9524     12.7971    114.2467      2.4388      0.0710
  1083.2000      7.9500     15.3658    111.5903      2.3965      0.0432
  1083.3000      7.9475     16.1359    110.9279      2.3838      0.0381
  1083.4000      7.9447     15.0800    111.9490      2.4012      0.0489
