~Version Information
VERS.                      2.0: CWLS Log ASCII Standard - VERSION 2.0
WRAP.                       NO: One line per depth step
~Well Information Block
STRT.FT               906.0000: 
STOP.FT              1960.5000: 
STEP.FT                 0.2500: 
NULL.                -999.2500: 
COMP.          Petrogulf Corporation: COMPANY
WELL.            Torcom 17-33R: WELL
FLD.           Purgatorie River: FIELD
LOC.           1483' FSL & 1804' FEL: LOCATION
PROV.                 Colorado: PROVINCE
CNTY.               Las Animas: COUNTRY
SRVC.                Patterson: SERVICE COMPANY
DATE.          Thu Aug 18 08:33:01 2005: LOG DATE
UWI.                071 08069 : UNIQUE WELL ID
~Curve Information Block
DEPT.FT            0 000 00 00: Depth
SP.mV                         : DIL Spontaneous Potential
RILD.Ohm-m                    : DIL Deep Resistivity
RILM.Ohm-m                    : DIL Medium Resistivity
RLL3.Ohm-m                    : DIL Shallow Resistivity
GR.GAPI                       : Gamma Ray
~Parameter Information Block
~A  Depth        SP         RILD        RILM        RLL3         GR     
# ...
  1886.0000     37.2932     31.4161     35.9342     32.3028     41.6082
  1886.2500     36.7839     30.9013     36.3929     33.8331     42.0017
  1886.5000     38.4511     30.2285     35.5899     34.5955     39.4123
  1886.7500     40.1718     31.1020     36.3370     34.3053     43.7899
  1887.0000     41.4686     30.5528     35.1379     34.2266     44.4849
  1887.2500     43.0824     30.9062     35.4090     34.6640     43.4141
  1887.5000     43.7881     30.3259     35.6818     34.6429     44.5354
  1887.7500     41.8862     31.0763     35.4762     34.3259     43.6299
  1888.0000     41.2454     30.8496     35.1312     33.8851     56.6011
  1888.2500     39.5414     31.9749     34.2629     32.7100     71.1312
  1888.5000     39.1003     30.9900     33.6221     30.7515     73.8899
  1888.7500     41.5138     31.4388     32.5925     26.8526     71.2829
  1889.0000     44.3038     31.0972     33.3382     27.1816     66.0610
  1889.2500     46.5082     30.5662     33.7041     32.8782     60.5658
  1889.5000     47.5181     29.8251     35.5443     37.8353     52.4584
  1889.7500     49.7249     29.0365     34.7427     41.2756     53.5169
  1890.0000     50.3983     28.5670     33.8932     42.2044     55.6445
  1890.2500     49.6041     28.3088     31.4895     41.1490     57.4339
  1890.5000     49.0484     27.9686     30.3772     36.9457     63.1776
  1890.7500     50.1482     27.2781     28.8765     30.4868     65.7073
  1891.0000     53.4677     27.9045     27.7901     25.2935     65.6322
  1891.2500     56.3265     27.9294     27.5693     23.0846     57.3406
  1891.5000     55.3899     27.9220     27.6280     22.7051     50.4738
  1891.7500     52.5190     27.3197     27.5565     23.6744     50.0922
  1892.0000     49.5866     27.0802     28.6531     25.4813     53.5308
  1892.2500     47.0621     26.4996     28.6754     28.3000     51.4721
  1892.5000     46.8998     26.1211     28.4480     30.2044     51.2320
  1892.7500     48.0595     25.8512     27.7915     29.8886     53.5919
  1893.0000     47.8635     26.0475     26.9531     26.6431     54.6697
  1893.2500     48.9998     25.7309     26.5915     23.9681     55.5675
  1893.5000     51.6473     25.7337     26.4570     23.8441     51.3665
  1893.7500     52.2061     25.6504     26.5217     25.3847     54.2580
  1894.0000     51.2741     25.8677     26.3673     26.9703     50.1467
  1894.2500     49.7530     26.0912     26.7060     28.0302     44.5944
  1894.5000     50.4837     26.4855     26.9752     27.6565     51.5012
  1894.7500     50.5406     26.4945     27.5501     25.1518     59.5988
  1895.0000     50.6907     27.1440     27.4120     23.6973     55.1827
  1895.2500     51.4633     27.8418     27.7629     23.7778     57.0408
  1895.5000     50.5762     28.0510     29.1791     25.9070     48.2716
  1895.7500     50.2752     27.5118     30.0826     29.6605     44.9472
  1896.0000     49.2093     27.0311     31.4628     34.9862     50.0345
  1896.2500     45.8706     26.9008     32.2463     39.3129     45.9777
  1896.5000     43.3290     26.8575     31.7084     39.5188     50.2829
  1896.7500     42.7389     26.8463     30.7228     37.7268     62.2459
  1897.0000     42.7989     27.0208     29.6100     35.0751     77.7937
  1897.2500     41.2681     26.8612     28.5668     28.7516     82.7875
  1897.5000     39.7216     27.3158     28.6633     24.2498     67.3001
  1897.7500     38.4265     27.0250     28.3954     25.5127     65.0366
  1898.0000     35.9149     27.3242     28.1315     29.5396     58.3896
  1898.2500     35.7462     27.4076     28.4543     30.0805     58.2289
  1898.5000     35.3133     27.1355     28.2900     28.9642     61.0427
  1898.7500     33.5294     26.0918     28.7236     29.2530     53.8188
  1899.0000     32.8505     25.8157     28.3593     30.3658     51.2890
  1899.2500     33.6173     25.0112     29.0431     31.7617     45.6942
  1899.5000     35.6675     24.3480     28.7205     35.5085     47.9821
  1899.7500     39.4087     23.8198     28.2759     38.4530     48.5552
  1900.0000     41.6225     23.1200     27.3239     37.6497     53.3639
  1900.2500     42.5266     22.3810     26.7576     34.1449     59.8014
  1900.5000     44.9206     22.1052     25.1579     31.5179     82.6696
  1900.7500     44.6457     21.9932     23.7694     28.6092     99.4127
  1901.0000     42.7111     21.7493     22.1079     23.8021    106.5202
  1901.2500     39.8548     21.1035     21.8433     19.6529    108.4041
  1901.5000     40.0140     20.9169     21.2757     18.0396    102.7196
  1901.7500     41.3103     21.3178     21.0114     19.4452     87.5361
  1902.0000     40.7315     20.9504     21.2138     21.9594     74.2991
  1902.2500     38.9084     20.7537     20.9208     22.5763     71.4577
  1902.5000     37.1113     20.5358     21.1967     21.5194     74.0766
  1902.7500     35.8718     20.5631     20.8912     21.1707     68.2031
  1903.0000     36.5936     20.5826     21.0168     21.0956     61.9868
  1903.2500     37.3402     20.4900     21.3243     21.8396     62.7322
  1903.5000     37.0141     20.6516     21.8778     23.1039     51.6067
  1903.7500     35.6907     21.1641     22.5482     25.3309     54.3439
  1904.0000     36.3637     21.6428     23.5144     26.7508     45.7303
  1904.2500     38.0043     22.0907     23.9448     27.7675     42.8130
  1904.5000     38.7420     23.1919     24.8460     28.5903     51.8488
  1904.7500     37.7453     24.2062     25.9030     28.6601     49.8053
  1905.0000     37.2891     24.6621     27.8225     29.2033     52.7281
  1905.2500     37.0703     26.5003     28.5635     30.1925     48.0773
  1905.5000     35.1707     28.2807     30.5853     31.8687     47.3539
  1905.7500     31.0688     29.4967     32.2527     33.1313     45.5183
  1906.0000     26.9808     29.8010     33.6238     35.0236     42.2802
  1906.2500     23.1628     29.5308     35.2980     37.6649     44.8035
  1906.5000     21.1834     30.4076     36.8828     38.9457     38.0756
  1906.7500     21.6597     29.7125     38.0716     39.8550     38.7615
  1907.0000     24.1376     30.2467     37.1000     40.3414     49.7781
  1907.2500     26.1721     30.1202     35.7383     39.5550     47.4633
  1907.5000     27.7932     29.8517     35.9233     36.5003     43.5294
  1907.7500     26.9313     29.8803     33.8749     32.6533     45.8313
  1908.0000     25.5238     28.3342     32.5629     29.9401     50.0402
  1908.2500     24.8209     27.9541     31.1624     29.6611     54.2393
  1908.5000     23.5152     27.8252     29.8961     29.8377     76.4889
  1908.7500     24.5556     27.2443     28.0338     28.9833     89.0681
  1909.0000     25.9692     27.2548     26.0612     24.3309    127.1103
  1909.2500     26.0712     26.5662     24.9286     17.9268    147.5678
  1909.5000     26.3107     25.9044     24.2933     16.0524    123.9359
  1909.7500     25.9444     24.8512     24.8250     18.3338    106.3903
  1910.0000     26.1755     25.1901     25.8229     22.8208     77.9507
  1910.2500     25.6488     24.5223     27.2321     27.2004     62.3604
  1910.5000     26.2853     24.4628     27.4414     30.2436     58.4315
  1910.7500     26.4987     24.4961     27.3196     32.2676     60.7646
  1911.0000     25.1839     23.7247     27.0155     32.1346     54.0450
  1911.2500     23.3104     23.5295     26.4084     30.4636     51.0998
  1911.5000     24.4309     23.5197     25.4550     27.8489     53.1197
  1911.7500     25.2533     23.8547     25.1431     24.5665     56.7939
  1912.0000     25.5818     24.7008     24.5295     22.5787     53.5194
  1912.2500     24.9192     25.2480     25.4166     22.7572     49.9003
  1912.5000     23.4465     24.4116     26.2645     24.4058     53.4245
  1912.7500     23.4205     24.3002     27.6419     27.7739     55.8484
  1913.0000     25.9045     24.3869     27.7616     33.8361     61.7699
  1913.2500     27.9691     24.3348     27.2151     39.1277     66.7069
  1913.5000     31.6223     23.9582     25.9694     36.6582     76.8821
  1913.7500     35.3724     23.4474     24.6987     27.4454     86.5748
