~Version Information
VERS.                      2.0: CWLS Log ASCII Standard - VERSION 2.0
WRAP.                       NO: One line per depth step
~Well Information Block
STRT.FT               545.0000: 
STOP.FT              1922.0000: 
STEP.FT                 0.2500: 
NULL.                -999.2500: 
COMP.          Pioneer Natural Resources: COMPANY
WELL.            Summers 21-19: WELL
FLD.           Purgatoire River: FIELD
LOC.           900' FNL & 1950' FWL: LOCATION
PROV.                 Colorado: PROVINCE
CNTY.               Las Animas: COUNTRY
SRVC.                Patterson: SERVICE COMPANY
DATE.          Sat Oct 15 03:34:13 2005: LOG DATE
UWI.           05 071 08315 00: UNIQUE WELL ID
~Curve Information Block
DEPT.FT            0 000 00 00: Depth
SN.Ohm-m                      : IEL Short Normal
SP.mV                         : IEL Spontaneous Potential
DIR.Ohm-m                     : IEL Induction Resistivity
GR.GAPI                       : Gamma Ray
~Parameter Information Block
~A  Depth        SN          SP         DIR          GR     
# ...
  1449.5000     14.0279   -104.5759     11.7622    119.8887
  1449.7500     14.4950   -104.6894     12.2657    117.9753
  1450.0000     15.1019   -104.8535     12.7889    114.7674
  1450.2500     15.8596   -105.0868     13.3381    112.1162
  1450.5000     16.6598   -105.4015     13.9127    107.2564
  1450.7500     17.4091   -105.7914     14.5083    103.6203
  1451.0000     18.1717   -106.2259     15.1229     98.0709
  1451.2500     18.9949   -106.6614     15.7597     94.7397
  1451.5000     19.7889   -107.0592     16.4210     91.5004
  1451.7500     20.4989   -107.3943     17.0987     91.1954
  1452.0000     21.2113   -107.6505     17.7724     93.4314
  1452.2500     22.0441   -107.8094     18.4169     95.6467
  1452.5000     22.9981   -107.8477     19.0130     97.5759
  1452.7500     23.9703   -107.7394     19.5554     97.0763
  1453.0000     24.9106   -107.4563     20.0531     94.0154
  1453.2500     25.8288   -106.9619     20.5249     91.3276
  1453.5000     26.6683   -106.2109     20.9892     87.6509
  1453.7500     27.3470   -105.1708     21.4523     85.7478
  1454.0000     27.8597   -103.8579     21.9018     83.8922
  1454.2500     28.2339   -102.3449     22.3103     83.5480
  1454.5000     28.5073   -100.7179     22.6458     84.8732
  1454.7500     28.7775    -99.0370     22.8833     87.0533
  1455.0000     29.0972    -97.3594     23.0123     91.7250
  1455.2500     29.3506    -95.7911     23.0426     95.1076
  1455.5000     29.4207    -94.4855     23.0049     99.0097
  1455.7500     29.3777    -93.5741     22.9428     99.8609
  1456.0000     29.3505    -93.0904     22.8935     97.6023
  1456.2500     29.3444    -92.9566     22.8670     94.0345
  1456.5000     29.3677    -93.0365     22.8355     87.2181
  1456.7500     29.5932    -93.2062     22.7420     82.6366
  1457.0000     30.1778    -93.3928     22.5263     76.3025
  1457.2500     31.0566    -93.5741     22.1551     72.2863
  1457.5000     32.0342    -93.7543     21.6368     66.4849
  1457.7500     32.8803    -93.9376     21.0093     63.1547
  1458.0000     33.2844    -94.1147     20.3121     60.0316
  1458.2500     32.9529    -94.2665     19.5657     59.6878
  1458.5000     31.8123    -94.3748     18.7724     62.3251
  1458.7500     30.0343    -94.4295     17.9353     66.4951
  1459.0000     27.8708    -94.4341     17.0735     76.6695
  1459.2500     25.4417    -94.4113     16.2204     85.6309
  1459.5000     22.6872    -94.4003     15.4093    100.1728
  1459.7500     19.6606    -94.4384     14.6581    109.0089
  1460.0000     16.7447    -94.5379     13.9662    119.1965
  1460.2500     14.3717    -94.6825     13.3212    123.8643
  1460.5000     12.7271    -94.8449     12.7082    128.7228
  1460.7500     11.8173    -95.0053     12.1189    131.1961
  1461.0000     11.5158    -95.1539     11.5545    134.0361
  1461.2500     11.5238    -95.2837     11.0244    135.0192
  1461.5000     11.5238    -95.3877     10.5401    134.6286
  1461.7500     11.3840    -95.4613     10.1102    133.3480
  1462.0000     11.1604    -95.5051      9.7375    130.9855
  1462.2500     10.9408    -95.5212      9.4196    129.6168
  1462.5000     10.7439    -95.5062      9.1491    127.8616
  1462.7500     10.5575    -95.4447      8.9159    126.6815
  1463.0000     10.3826    -95.3087      8.7096    125.2794
  1463.2500     10.2117    -95.0686      8.5222    125.3447
  1463.5000     10.0222    -94.7149      8.3500    127.8157
  1463.7500      9.7850    -94.2768      8.1932    130.5073
  1464.0000      9.4626    -93.8200      8.0530    133.6219
  1464.2500      9.0395    -93.4163      7.9297    133.8384
  1464.5000      8.5787    -93.1089      7.8218    131.3872
  1464.7500      8.2195    -92.8953      7.7267    128.9663
  1465.0000      8.0772    -92.7335      7.6409    125.8685
  1465.2500      8.1507    -92.5574      7.5615    124.3863
  1465.5000      8.3438    -92.2979      7.4864    122.5893
  1465.7500      8.5542    -91.9075      7.4159    121.5710
  1466.0000      8.7196    -91.3852      7.3523    120.6971
  1466.2500      8.8253    -90.7816      7.2987    120.7510
  1466.5000      8.8951    -90.1722      7.2572    121.7927
  1466.7500      8.9148    -89.6168      7.2282    123.1067
  1467.0000      8.8355    -89.1417      7.2117    125.8785
  1467.2500      8.7064    -88.7523      7.2097    127.8000
  1467.5000      8.6388    -88.4527      7.2269    129.4308
  1467.7500      8.6640    -88.2467      7.2684    129.2118
  1468.0000      8.7393    -88.1277      7.3357    127.5825
  1468.2500      8.7945    -88.0730      7.4240    126.5068
  1468.5000      8.7731    -88.0502      7.5243    125.9385
  1468.7500      8.7189    -88.0296      7.6280    126.3812
  1469.0000      8.7299    -87.9954      7.7309    128.1033
  1469.2500      8.8290    -87.9522      7.8331    129.6973
  1469.5000      8.9679    -87.9200      7.9360    131.9822
  1469.7500      9.0893    -87.9196      8.0398    133.0340
  1470.0000      9.1775    -87.9590      8.1422    133.8702
  1470.2500      9.2707    -88.0295      8.2390    134.2649
  1470.5000      9.3991    -88.1122      8.3254    135.3222
  1470.7500      9.5343    -88.1888      8.3964    136.5921
  1471.0000      9.6075    -88.2510      8.4473    139.0428
  1471.2500      9.6033    -88.3063      8.4747    140.2898
  1471.5000      9.5973    -88.3755      8.4785    140.0178
  1471.7500      9.6474    -88.4818      8.4636    138.1529
  1472.0000      9.7616    -88.6358      8.4400    134.1416
  1472.2500      9.9321    -88.8274      8.4188    131.7954
  1472.5000     10.0418    -89.0320      8.4081    129.7840
  1472.7500      9.9147    -89.2208      8.4107    129.3843
  1473.0000      9.5318    -89.3713      8.4254    129.9122
  1473.2500      9.0446    -89.4735      8.4497    131.0479
  1473.5000      8.6628    -89.5303      8.4807    133.9564
  1473.7500      8.5673    -89.5432      8.5160    136.4066
  1474.0000      8.8057    -89.4867      8.5536    139.8330
  1474.2500      9.2276    -89.3050      8.5934    141.3408
  1474.5000      9.5538    -88.9616      8.6383    141.9112
  1474.7500      9.5799    -88.5051      8.6925    141.2451
  1475.0000      9.3289    -88.0733      8.7585    139.3053
  1475.2500      8.9935    -87.8121      8.8338    137.9429
  1475.5000      8.8004    -87.7894      8.9117    136.8593
  1475.7500      8.9414    -87.9792      8.9848    137.1520
  1476.0000      9.4864    -88.3079      9.0494    138.8598
  1476.2500     10.2556    -88.7061      9.1053    140.3418
  1476.5000     10.8842    -89.1303      9.1523    142.3645
  1476.7500     11.1472    -89.5595      9.1872    143.3973
  1477.0000     11.1454    -89.9843      9.2040    144.2250
  1477.2500     11.0881    -90.4008      9.1977    144.0673
  1477.5000     11.0223    -90.8087      9.1673    142.5295
  1477.7500     10.9077    -91.2072      9.1166    140.9171
  1478.0000     10.8063    -91.5898      9.0541    139.0455
  1478.2500     10.8160    -91.9432      8.9919    139.1106
  1478.5000     10.9358    -92.2473      8.9452    141.4906
  1478.7500     11.1050    -92.4722      8.9294    143.7204
  1479.0000     11.2371    -92.5775      8.9580    146.1243
  1479.2500     11.2224    -92.5194      9.0406    146.8698
  1479.5000     11.0602    -92.2679      9.1816    148.0665
  1479.7500     10.8815    -91.8263      9.3812    149.7182
  1480.0000     10.7904    -91.2372      9.6352    152.9707
  1480.2500     10.8545    -90.5621      9.9359    154.3168
  1480.5000     11.1585    -89.8406     10.2738    152.8731
  1480.7500     11.6956    -89.0633     10.6395    149.2749
  1481.0000     12.3321    -88.1897     11.0280    141.0139
  1481.2500     12.9866    -87.2071     11.4432    134.4428
  1481.5000     13.7797    -86.1790     11.9001    123.8383
  1481.7500     14.9182    -85.2386     12.4211    116.5503
  1482.0000     16.4249    -84.5209     13.0279    105.9723
  1482.2500     18.1234    -84.0886     13.7349     99.6877
  1482.5000     19.8903    -83.9097     14.5487     92.1858
  1482.7500     21.7274    -83.9009     15.4700     88.7360
