~Version Information
VERS.                      2.0: CWLS Log ASCII Standard - VERSION 2.0
WRAP.                       NO: One line per depth step
~Well Information Block
STRT.FT               577.8000: 
STOP.FT              2445.8000: 
STEP.FT                 0.1000: 
NULL.                -999.2500: 
COMP.          Petrogulf Corporation: COMPANY
WELL.             State 16-32V: WELL
FLD.           Purgatorie River: FIELD
LOC.           1599' FNL & 1783' FEL: LOCATION
CNTY.               Las Animas: COUNTY
SRVC.                         : SERVICE COMPANY
DATE.          Thu Jun 05 16:36:04 2003: LOG DATE
UWI.           05 071 07726 00: UNIQUE WELL ID
STAT.                 Colorado: STATE
~Curve Information Block
DEPT.FT            0 000 00 00: Depth
DCAL.in                       : Caliper from Density Tool
RHOB.g/cc                     : Bulk Density
RHOC.g/cc                     : Density Correction
DPOR.pu                       : Density Porosity
GR.GAPI                       : Gamma Ray
NPOR.pu                       : Neutron Porosity
~Parameter Information Block
~A  Depth       DCAL        RHOB        RHOC        DPOR         GR         NPOR    
# ...
  1451.4000      8.3035      2.5861      0.0812      3.8755     85.1162     19.0437
  1451.5000      8.2549      2.5819      0.0763      4.1261     86.1240     19.2291
  1451.6000      8.2549      2.5819      0.0763      4.1261     87.0682     19.3558
  1451.7000      8.2549      2.5819      0.0763      4.1261     87.8784     19.4277
  1451.8000      8.2929      2.5811      0.0705      4.1761     88.5064     19.4526
  1451.9000      8.2929      2.5811      0.0705      4.1761     88.9319     19.4405
  1452.0000      8.3550      2.5842      0.0690      3.9857     89.1609     19.4029
  1452.1000      8.3550      2.5842      0.0690      3.9857     89.2219     19.3509
  1452.2000      8.3550      2.5842      0.0690      3.9857     89.1570     19.2937
  1452.3000      8.3864      2.5925      0.0704      3.4847     89.0133     19.2376
  1452.4000      8.3864      2.5925      0.0704      3.4847     88.8323     19.1848
  1452.5000      8.3853      2.5989      0.0732      3.0950     88.6438     19.1328
  1452.6000      8.3853      2.5989      0.0732      3.0950     88.4640     19.0751
  1452.7000      8.3853      2.5989      0.0732      3.0950     88.2913     19.0017
  1452.8000      8.3733      2.6085      0.0793      2.5167     88.1140     18.9015
  1452.9000      8.3733      2.6085      0.0793      2.5167     87.9117     18.7638
  1453.0000      8.4074      2.6145      0.0839      2.1488     87.6593     18.5807
  1453.1000      8.4074      2.6145      0.0839      2.1488     87.3325     18.3487
  1453.2000      8.4074      2.6145      0.0839      2.1488     86.9086     18.0694
  1453.3000      8.4447      2.6228      0.0902      1.6503     86.3700     17.7502
  1453.4000      8.4447      2.6228      0.0902      1.6503     85.7056     17.4028
  1453.5000      8.4579      2.6269      0.0932      1.3972     84.9133     17.0423
  1453.6000      8.4579      2.6269      0.0932      1.3972     84.0031     16.6852
  1453.7000      8.4579      2.6269      0.0932      1.3972     82.9965     16.3475
  1453.8000      8.4222      2.6300      0.0956      1.2134     81.9281     16.0432
  1453.9000      8.4222      2.6300      0.0956      1.2134     80.8438     15.7835
  1454.0000      8.2815      2.6299      0.0963      1.2168     79.7967     15.5758
  1454.1000      8.2815      2.6299      0.0963      1.2168     78.8420     15.4236
  1454.2000      8.2815      2.6299      0.0963      1.2168     78.0317     15.3273
  1454.3000      8.1236      2.6284      0.0984      1.3108     77.4079     15.2842
  1454.4000      8.1236      2.6284      0.0984      1.3108     77.0010     15.2901
  1454.5000      8.1085      2.6272      0.1011      1.3805     76.8255     15.3402
  1454.6000      8.1085      2.6272      0.1011      1.3805     76.8850     15.4305
  1454.7000      8.1085      2.6272      0.1011      1.3805     77.1740     15.5586
  1454.8000      8.2284      2.6248      0.1064      1.5257     77.6852     15.7246
  1454.9000      8.2284      2.6248      0.1064      1.5257     78.4127     15.9309
  1455.0000      8.3557      2.6215      0.1093      1.7243     79.3579     16.1815
  1455.1000      8.3557      2.6215      0.1093      1.7243     80.5309     16.4811
  1455.2000      8.3557      2.6215      0.1093      1.7243     81.9500     16.8337
  1455.3000      8.4199      2.6124      0.1106      2.2811     83.6338     17.2409
  1455.4000      8.4199      2.6124      0.1106      2.2811     85.5986     17.7004
  1455.5000      8.4448      2.6034      0.1092      2.8257     87.8469     18.2060
  1455.6000      8.4448      2.6034      0.1092      2.8257     90.3622     18.7472
  1455.7000      8.4448      2.6034      0.1092      2.8257     93.1062     19.3101
  1455.8000      8.3764      2.5872      0.1044      3.8063     96.0168     19.8786
  1455.9000      8.3764      2.5872      0.1044      3.8063     99.0151     20.4365
  1456.0000      8.3402      2.5759      0.1002      4.4924    102.0154     20.9691
  1456.1000      8.3402      2.5759      0.1002      4.4924    104.9353     21.4648
  1456.2000      8.3402      2.5759      0.1002      4.4924    107.7088     21.9161
  1456.3000      8.3263      2.5601      0.0935      5.4510    110.2967     22.3195
  1456.4000      8.3263      2.5601      0.0935      5.4510    112.6863     22.6760
  1456.5000      8.3417      2.5512      0.0892      5.9865    114.8941     22.9892
  1456.6000      8.3417      2.5512      0.0892      5.9865    116.9551     23.2651
  1456.7000      8.3417      2.5512      0.0892      5.9865    118.9119     23.5099
  1456.8000      8.4059      2.5418      0.0837      6.5581    120.8055     23.7298
  1456.9000      8.4059      2.5418      0.0837      6.5581    122.6626     23.9294
  1457.0000      8.4241      2.5384      0.0808      6.7629    124.4906     24.1117
  1457.1000      8.4241      2.5384      0.0808      6.7629    126.2778     24.2778
  1457.2000      8.4241      2.5384      0.0808      6.7629    127.9960     24.4265
  1457.3000      8.3502      2.5375      0.0770      6.8193    129.6076     24.5549
  1457.4000      8.3502      2.5375      0.0770      6.8193    131.0726     24.6583
  1457.5000      8.2594      2.5391      0.0745      6.7200    132.3551     24.7308
  1457.6000      8.2594      2.5391      0.0745      6.7200    133.4267     24.7661
  1457.7000      8.2594      2.5391      0.0745      6.7200    134.2693     24.7579
  1457.8000      8.2444      2.5440      0.0710      6.4219    134.8744     24.7021
  1457.9000      8.2444      2.5440      0.0710      6.4219    135.2402     24.5968
  1458.0000      8.2754      2.5484      0.0698      6.1548    135.3701     24.4443
  1458.1000      8.2754      2.5484      0.0698      6.1548    135.2732     24.2525
  1458.2000      8.2754      2.5484      0.0698      6.1548    134.9637     24.0336
  1458.3000      8.3075      2.5556      0.0713      5.7239    134.4651     23.8049
  1458.4000      8.3075      2.5556      0.0713      5.7239    133.8124     23.5870
  1458.5000      8.3443      2.5597      0.0749      5.4745    133.0523     23.4013
  1458.6000      8.3443      2.5597      0.0749      5.4745    132.2482     23.2678
  1458.7000      8.3443      2.5597      0.0749      5.4745    131.4730     23.2027
  1458.8000      8.4164      2.5637      0.0826      5.2314    130.8101     23.2160
  1458.9000      8.4164      2.5637      0.0826      5.2314    130.3428     23.3101
  1459.0000      8.4455      2.5651      0.0879      5.1440    130.1454     23.4794
  1459.1000      8.4455      2.5651      0.0879      5.1440    130.2726     23.7104
  1459.2000      8.4455      2.5651      0.0879      5.1440    130.7476     23.9836
  1459.3000      8.4585      2.5677      0.0939      4.9881    131.5553     24.2750
  1459.4000      8.4585      2.5677      0.0939      4.9881    132.6375     24.5588
  1459.5000      8.4544      2.5715      0.0959      4.7551    133.8948     24.8106
  1459.6000      8.4544      2.5715      0.0959      4.7551    135.1957     25.0089
  1459.7000      8.4544      2.5715      0.0959      4.7551    136.3894     25.1369
  1459.8000      8.4468      2.5831      0.0964      4.0567    137.3237     25.1835
  1459.9000      8.4468      2.5831      0.0964      4.0567    137.8623     25.1432
  1460.0000      8.4591      2.5949      0.0959      3.3383    137.8989     25.0161
  1460.1000      8.4591      2.5949      0.0959      3.3383    137.3670     24.8070
  1460.2000      8.4591      2.5949      0.0959      3.3383    136.2462     24.5252
  1460.3000      8.4828      2.6166      0.0953      2.0227    134.5560     24.1837
  1460.4000      8.4828      2.6166      0.0953      2.0227    132.3537     23.7984
  1460.5000      8.4676      2.6308      0.0955      1.1663    129.7237     23.3873
  1460.6000      8.4676      2.6308      0.0955      1.1663    126.7661     22.9692
  1460.7000      8.4676      2.6308      0.0955      1.1663    123.5889     22.5623
  1460.8000      8.4607      2.6454      0.0957      0.2774    120.2975     22.1825
  1460.9000      8.4607      2.6454      0.0957      0.2774    116.9872     21.8424
