~Version Information
VERS.                      2.0: CWLS Log ASCII Standard - VERSION 2.0
WRAP.                       NO: One line per depth step
~Well Information Block
STRT.FT                -8.2500: 
STOP.FT              2725.7500: 
STEP.FT                 0.2500: 
NULL.                -999.2500: 
COMP.          Pioneer Natural Resources: COMPANY
WELL.          Rabbit Bush Federal 44-19: WELL
FLD.           Purgatoire River: FIELD
LOC.           826' FSL & 1127' FEL: LOCATION
CNTY.               Las Animas: COUNTY
SRVC.                Patterson: SERVICE COMPANY
DATE.          Thu Sep 14 10:51:19 2006: LOG DATE
UWI.           05 071 08149 00: UNIQUE WELL ID
STAT.                       CO: STATE
~Curve Information Block
DEPT.FT            0 000 00 00: Depth
GR.GAPI                       : Gamma Ray
CCL.                          : Casing Collar Locator
TT3.usec                      : CBL 3' Travel Time
AMP3.mV                       : CBL 3' Amplitude
~Parameter Information Block
~A  Depth        GR         CCL         TT3         AMP3    
# ...
  1063.7500    129.4966      0.0000    380.8452      6.2280
  1064.0000    130.0523      0.0000    386.2501      6.0698
  1064.2500    126.7832      0.0000    388.4610      5.9996
  1064.5000    120.1130      0.0000    386.4974      6.0534
  1064.7500    111.9734      0.0000    380.3323      6.2314
  1065.0000    105.1783      0.0000    370.9818      6.4883
  1065.2500    101.8787      0.0000    360.5287      6.7514
  1065.5000    102.1826      0.0000    351.4583      6.9553
  1065.7500    104.1808      0.0000    345.5620      7.0628
  1066.0000    105.6661      0.0000    343.4995      7.0618
  1066.2500    106.1550      0.0000    345.2430      6.9561
  1066.5000    107.0033      0.0000    350.4628      6.7673
  1066.7500    109.3870      0.0000    358.2361      6.5381
  1067.0000    112.7715      0.0000    367.0606      6.3226
  1067.2500    115.9341      0.0000    376.2491      6.1600
  1067.5000    118.9911      0.0000    388.0373      6.0574
  1067.7500    123.6388      0.0000    407.5219      5.9982
  1068.0000    131.4408      0.0000    438.9656      5.9621
  1068.2500    142.1730      0.0000    481.5547      5.9340
  1068.5000    153.4533      0.0000    529.5640      5.9025
  1068.7500    161.5697      0.0000    576.7451      5.8717
  1069.0000    163.2667      0.0000    619.5764      5.8859
  1069.2500    157.8127      0.0000    657.0678      6.0322
  1069.5000    147.5724      0.0000    689.6729      6.3923
  1069.7500    135.9794      0.0000    718.2837      6.9709
  1070.0000    124.7760      0.0000    742.7567      7.6626
  1070.2500    113.6114      0.0000    761.4670      8.3038
  1070.5000    102.1045      0.0000    772.5753      8.7654
  1070.7500     91.6099      0.0000    774.8649      9.0037
  1071.0000     84.9649      0.0000    767.7792      9.0436
  1071.2500     84.7359      0.0000    753.0301      8.9474
  1071.5000     91.3392      0.0000    736.9122      8.7995
  1071.7500    102.4457      0.0000    728.0518      8.6719
  1072.0000    114.1575      0.0000    730.6990      8.5706
  1072.2500    123.1004      0.0000    741.2775      8.4385
  1072.5000    128.0615     -2.0000    752.6784      8.2390
  1072.7500    130.0510      0.0000    760.7939      8.0135
  1073.0000    130.7116      0.0000    766.3481      7.8356
  1073.2500    130.5916      0.0000    772.1584      7.7341
  1073.5000    129.0601      0.0000    779.6005      7.6969
  1073.7500    125.7167      0.0000    786.9002      7.7283
  1074.0000    121.4479      0.0000    790.8695      7.8614
  1074.2500    117.9212      0.0000    790.2706      8.1161
  1074.5000    116.1423      0.0000    786.5792      8.4755
  1074.7500    115.8299      0.0000    782.3854      8.8896
  1075.0000    116.5101      0.0000    780.3711      9.2648
  1075.2500    118.7426      0.0000    782.5420      9.4641
  1075.5000    123.2120      0.0000    789.2275      9.3754
  1075.7500    128.7116      0.0000    800.4605      9.0110
  1076.0000    132.2538      0.0000    819.5238      8.5326
  1076.2500    131.4309      0.0000    852.7571      8.1615
  1076.5000    125.9088      0.0000    901.5771      8.0528
  1076.7500    116.7551      0.0000    953.4377      8.2284
  1077.0000    105.3752      0.0000    985.2686      8.5820
  1077.2500     93.3456      0.0000    981.1337      8.9225
  1077.5000     82.6279      0.0000    945.8376      9.0459
  1077.7500     75.3553      0.0000    898.2761      8.8342
  1078.0000     73.0031      0.0000    854.0410      8.3227
  1078.2500     75.4829      0.0000    818.1738      7.6703
  1078.5000     81.3230      0.0000    790.7377      7.0582
  1078.7500     89.0637      0.0000    772.1981      6.6047
  1079.0000     98.1375      0.0000    762.6564      6.3407
  1079.2500    108.1615      0.0000    759.9559      6.2275
  1079.5000    117.9289      0.0000    760.4003      6.1895
  1079.7500    125.6926      0.0000    760.6479      6.1525
  1080.0000    130.3952      0.0000    758.4496      6.0785
  1080.2500    132.1417      0.0000    751.8589      5.9732
  1080.5000    131.4377      0.0000    738.6054      5.8604
  1080.7500    128.6864      0.0000    717.6234      5.7526
  1081.0000    125.0598      0.0000    691.1617      5.6461
  1081.2500    123.2206      0.0000    663.3903      5.5379
  1081.5000    125.9283      0.0000    636.4857      5.4414
  1081.7500    133.3752      0.0000    611.1829      5.3866
  1082.0000    142.3195      0.0000    592.1494      5.4030
  1082.2500    148.1877      0.0000    588.1973      5.4973
  1082.5000    148.0308      0.0000    603.3931      5.6442
  1082.7500    141.7038      0.0000    629.5977      5.8022
  1083.0000    131.0089      0.0000    649.7859      5.9404
  1083.2500    118.3009      0.0000    648.1675      6.0518
  1083.5000    105.6780      0.0000    618.0361      6.1422
  1083.7500     94.8545      0.0000    564.4183      6.2151
  1084.0000     87.2568      0.0000    502.4886      6.2641
  1084.2500     83.8099      0.0000    451.7676      6.2765
  1084.5000     84.3113      0.0000    428.3465      6.2412
  1084.7500     87.1828      0.0000    439.7488      6.1612
  1085.0000     90.3986      0.0000    483.4286      6.0613
  1085.2500     92.8441      0.0000    546.9822      5.9770
  1085.5000     94.5631      0.0000    611.1049      5.9302
  1085.7500     95.8561      0.0000    657.2802      5.9170
  1086.0000     96.6762      0.0000    676.8179      5.9189
  1086.2500     96.8191      0.0000    674.9873      5.9199
  1086.5000     96.1216      0.0000    666.7576      5.9115
  1086.7500     94.3708      0.0000    665.8179      5.8933
  1087.0000     91.5411      0.0000    674.1708      5.8750
  1087.2500     88.2366      0.0000    682.0854      5.8724
  1087.5000     85.6258      0.0000    679.6525      5.8968
  1087.7500     84.9871      0.0000    668.4820      5.9480
  1088.0000     87.3767      0.0000    660.7791      6.0164
  1088.2500     93.4281      0.0000    667.0050      6.0855
  1088.5000    103.1678      0.0000    686.6508      6.1312
  1088.7500    115.7840      0.0000    711.0106      6.1252
  1089.0000    129.3617      0.0000    731.0336      6.0494
  1089.2500    141.4110      0.0000    740.8788      5.9114
  1089.5000    150.4378      0.0000    738.1721      5.7443
  1089.7500    156.9142      0.0000    724.7779      5.5899
  1090.0000    162.4733      0.0000    706.6373      5.4772
  1090.2500    168.3972      0.0000    690.4826      5.4139
  1090.5000    174.5241      0.0000    680.1942      5.3923
  1090.7500    179.0614      0.0000    676.7590      5.3970
  1091.0000    180.0283      0.0000    680.8455      5.4092
  1091.2500    177.3258      0.0000    693.4323      5.4167
  1091.5000    172.7802      0.0000    712.9904      5.4278
  1091.7500    167.9639      0.0000    733.2758      5.4646
  1092.0000    162.7001      0.0000    746.0314      5.5350
  1092.2500    155.9811      0.0000    747.3159      5.6188
  1092.5000    147.8152      0.0000    741.2865      5.6855
  1092.7500    140.0543      0.0000    736.1916      5.7176
  1093.0000    135.5857      0.0000    734.9437      5.7115
  1093.2500    136.2904      0.0000    730.6068      5.6675
  1093.5000    141.3341      0.0000    713.2584      5.5883
  1093.7500    147.8138      0.0000    680.7843      5.4838
  1094.0000    153.1852      0.0000    641.6171      5.3722
  1094.2500    156.5030      0.0000    607.8939      5.2766
  1094.5000    157.6791      0.0000    588.1580      5.2169
  1094.7500    157.0147      0.0000    585.9305      5.2043
  1095.0000    155.7277      0.0000    600.5316      5.2393
  1095.2500    155.5975      0.0000    625.1563      5.3114
  1095.5000    157.2928      0.0000    646.3995      5.3993
  1095.7500    159.6426      0.0000    651.6556      5.4753
  1096.0000    161.0250      0.0000    639.1329      5.5190
  1096.2500    160.8677      0.0000    618.4507      5.5305
  1096.5000    159.4519      0.0000    601.7035      5.5256
  1096.7500    157.3107      0.0000    595.8136      5.5154
  1097.0000    155.3748      0.0000    601.5566      5.4945
