~Version Information
VERS.                      2.0: CWLS Log ASCII Standard - VERSION 2.0
WRAP.                       NO: One line per depth step
~Well Information Block
STRT.FT                -7.0000: 
STOP.FT               867.2500: 
STEP.FT                 0.2500: 
NULL.                -999.2500: 
COMP.          Pioneer Natural Resources: COMPANY
WELL.          Claim Jumper 41-22: WELL
FLD.           Purgatorie River: FIELD
LOC.           1120' FNL & 977' FEL--: LOCATION
PROV.                       CO: PROVINCE
CNTY.               Las Animas: COUNTRY
SRVC.          Patterson Wireline: SERVICE COMPANY
DATE.          Mon Jun 27 12:47:30 2005: LOG DATE
UWI.           05 071 08405 00: UNIQUE WELL ID
~Curve Information Block
DEPT.FT            0 000 00 00: Depth
CCL.                          : Casing Collar Locator
TT3.usec                      : CBL 3' Travel Time
AMP3.mV                       : CBL 3' Amplitude
GR.GAPI                       : Gamma Ray
~Parameter Information Block
~A  Depth       CCL         TT3         AMP3         GR     
# ...
   763.5000      0.0000    787.3364      6.2931     76.1066
   763.7500      0.0000    791.9511      6.2800     74.2438
   764.0000      0.0000    792.0412      6.2571     72.3864
   764.2500      0.0000    787.5967      6.2280     71.4423
   764.5000      0.0000    780.6458      6.1957     71.1851
   764.7500      0.0000    773.8638      6.1593     70.8031
   765.0000      0.0000    768.9716      6.1160     69.8635
   765.2500      0.0000    766.1951      6.0669     68.6807
   765.5000      0.0000    764.8630      6.0231     67.9910
   765.7500      0.0000    764.2054      6.0027     68.3453
   766.0000      0.0000    763.6642      6.0158     69.5365
   766.2500      0.0000    762.7890      6.0549     70.5616
   766.5000      0.0000    761.2100      6.1013     70.5353
   766.7500      0.0000    758.9609      6.1395     69.7922
   767.0000      0.0000    756.8629      6.1660     69.7337
   767.2500      0.0000    756.2660      6.1864     71.3814
   767.5000      0.0000    758.1204      6.2099     74.2912
   767.7500      0.0000    762.3698      6.2466     76.9849
   768.0000      0.0000    768.3004      6.3038     78.2068
   768.2500      0.0000    775.1714      6.3777     77.5928
   768.5000      0.0000    782.4460      6.4479     75.4172
   768.7500      0.0000    789.6198      6.4874     72.2953
   769.0000      0.0000    795.7715      6.4819     69.3172
   769.2500      0.0000    799.4885      6.4385     67.9558
   769.5000      0.0000    800.1320      6.3802     69.2752
   769.7500      0.0000    799.5096      6.3335     73.0320
   770.0000      0.0000    801.3542      6.3167     77.7114
   770.2500      0.0000    808.3547      6.3320     81.4602
   770.5000      0.0000    819.8787      6.3688     82.8657
   770.7500      0.0000    832.6556      6.4157     81.2696
   771.0000      0.0000    843.2802      6.4690     77.2934
   771.2500      0.0000    850.1169      6.5310     73.1899
   771.5000      0.0000    853.5036      6.6070     71.8303
   771.7500      0.0000    854.7402      6.7078     74.8365
   772.0000      0.0000    855.0021      6.8468     81.6959
   772.2500      0.0000    854.8813      7.0252     90.4471
   772.5000      0.0000    854.5520      7.2169     99.0221
   772.7500      0.0000    854.1152      7.3769    106.2086
   773.0000      0.0000    853.7487      7.4687    111.7763
   773.2500      0.0000    853.6047      7.4844    116.0030
   773.5000      0.0000    853.5967      7.4438    119.2674
   773.7500      0.0000    853.2036      7.3755    121.9359
   774.0000      0.0000    851.2898      7.3044    124.1153
   774.2500      0.0000    846.1978      7.2510    125.1373
   774.5000      0.0000    836.7431      7.2344    123.5541
   774.7500      0.0000    823.9463      7.2713    118.2297
   775.0000      0.0000    811.6066      7.3694    109.7151
   775.2500      0.0000    803.9654      7.5213    100.4120
   775.5000      0.0000    802.1403      7.7019     93.0823
   775.7500      0.0000    803.3582      7.8779     89.0574
   776.0000      0.0000    804.0386      8.0211     87.7391
   776.2500      0.0000    803.2778      8.1183     87.5777
   776.5000      0.0000    803.2024      8.1694     87.5689
   776.7500      0.0000    806.4853      8.1804     87.9521
   777.0000      0.0000    813.6246      8.1527     89.3029
   777.2500      0.0000    822.1470      8.0785     90.9810
   777.5000      0.0000    828.6085      7.9488     90.9942
   777.7500      0.0000    831.9238      7.7673     87.8447
   778.0000      0.0000    834.2763      7.5533     82.2502
   778.2500      0.0000    838.2596      7.3326     76.5752
   778.5000      0.0000    843.9534      7.1272     72.6208
   778.7500      0.0000    849.4102      6.9495     70.4148
   779.0000      0.0000    853.0638      6.8004     69.1864
   779.2500      0.0000    854.8019      6.6740     68.9294
   779.5000      0.0000    855.3227      6.5670     70.4534
   779.7500      0.0000    855.3098      6.4815     74.1963
   780.0000      0.0000    855.1688      6.4172     79.4598
   780.2500      0.0000    855.0750      6.3639     84.6207
   780.5000      0.0000    855.0281      6.3073     87.7839
   780.7500      0.0000    854.9345      6.2466     87.5975
   781.0000      0.0000    854.7145      6.2038     84.1640
   781.2500      0.0000    854.3747      6.2085     79.5285
   781.5000      0.0000    853.9582      6.2682     76.8615
   781.7500      0.0000    853.4088      6.3573     78.2799
   782.0000      0.0000    852.4401      6.4358     82.8581
   782.2500      0.0000    850.5458      6.4778     86.9408
   782.5000      0.0000    847.3313      6.4842     86.9642
   782.7500      0.0000    843.0585      6.4741     82.3026
   783.0000      0.0000    838.7643      6.4672     75.5191
   783.2500      0.0000    835.5847      6.4757     70.1321
   783.5000      0.0000    834.0433      6.5086     68.1987
   783.7500      0.0000    834.0472      6.5761     69.4281
   784.0000      0.0000    835.0484      6.6836     71.8167
   784.2500      0.0000    835.9760      6.8204     72.9666
   784.5000      0.0000    835.8111      6.9602     71.3569
   784.7500      0.0000    834.7830      7.0749     67.1305
   785.0000      0.0000    834.3624      7.1486     61.9295
   785.2500      0.0000    835.5599      7.1787     57.6522
   785.5000      0.0000    837.6368      7.1700     54.9518
   785.7500      0.0000    838.7991      7.1350     52.8878
   786.0000      0.0000    837.6727      7.0998     50.2233
   786.2500      0.0000    833.7447      7.0905     46.9983
   786.5000      0.0000    827.2191      7.0957     44.6632
   786.7500      0.0000    819.6761      7.0498     44.7759
   787.0000      0.0000    814.5353      6.8946     47.7825
   787.2500      0.0000    814.9434      6.6654     52.8915
   787.5000      0.0000    820.0018      6.4790     58.7104
   787.7500      0.0000    824.3657      6.4223     63.8765
   788.0000      0.0000    823.3638      6.4818     67.4093
   788.2500      2.0000    818.4483      6.5819     68.7407
   788.5000      2.0000    816.2440      6.6600     67.6534
   788.7500      0.0000    821.7967      6.7046     64.5271
   789.0000      0.0000    833.6973      6.7560     60.5731
   789.2500      0.0000    846.1528      6.8798     57.4267
   789.5000      0.0000    854.5089      7.1124     56.3396
   789.7500      0.0000    858.0373      7.4122     57.6714
   790.0000      0.0000    858.6261      7.6829     60.8600
   790.2500      0.0000    858.2959      7.8541     64.8161
   790.5000      0.0000    858.0310      7.9240     68.5625
   790.7500      0.0000    857.9780      7.9282     71.5205
   791.0000      0.0000    857.9925      7.8946     73.3412
   791.2500      0.0000    857.9627      7.8297     73.8512
   791.5000      0.0000    857.8532      7.7267     73.0946
   791.7500      0.0000    857.6961      7.5834     71.0106
   792.0000      0.0000    857.5633      7.4154     67.2694
   792.2500      0.0000    857.5332      7.2509     61.9845
   792.5000      0.0000    857.6284      7.1141     56.5140
   792.7500      0.0000    857.7868      7.0179     52.9809
   793.0000      0.0000    857.9045      6.9699     52.7863
   793.2500      0.0000    857.9040      6.9727     55.5728
   793.5000      0.0000    857.7625      7.0168     59.5132
   793.7500      0.0000    857.5131      7.0773     62.5854
   794.0000      0.0000    857.2484      7.1261     63.7492
   794.2500      0.0000    857.0906      7.1528     63.1951
   794.5000      0.0000    857.1138      7.1712     61.7928
   794.7500      0.0000    857.2904      7.2030     60.4674
   795.0000      0.0000    857.5345      7.2570     59.9892
   795.2500      0.0000    857.7889      7.3231     60.9110
   795.5000      0.0000    858.0570      7.3838     63.2011
   795.7500      0.0000    858.3644      7.4277     65.9336
   796.0000      0.0000    858.6991      7.4534     67.7801
   796.2500      0.0000    858.9836      7.4650     68.0160
   796.5000      0.0000    859.1179      7.4644     67.0336
   796.7500      0.0000    859.0734      7.4490     65.9630
