~Version Information
VERS.                      2.0: CWLS Log ASCII Standard - VERSION 2.0
WRAP.                       NO: One line per depth step
~Well Information Block
STRT.FT               780.0000: 
STOP.FT              1557.5000: 
STEP.FT                 0.1000: 
NULL.                -999.2500: 
COMP.          Pioneer Natural Resources: COMPANY
WELL.          Bunner's 13-26 Tr: WELL
FLD.           Purgatoire River: FIELD
LOC.           1843' FSL & 456' FWL----: LOCATION
PROV.                 Colorado: PROVINCE
CNTY.               Las Animas: COUNTRY
SRVC.                Patterson: SERVICE COMPANY
DATE.          Tue Mar 29 07:41:16 2005: LOG DATE
UWI.           05 071 08331 00: UNIQUE WELL ID
~Curve Information Block
DEPT.FT            0 000 00 00: Depth
DCAL.in                       : CDL Caliper
RHOB.g/cc                     : CDL Bulk Density
RHOC.g/cc                     : CDL Density Correction
DPOR.pu                       : CDL Density Porosity
NPOR.pu                       : Neutron Porosity
GR.GAPI                       : Gamma Ray
~Parameter Information Block
~A  Depth       DCAL        RHOB        RHOC        DPOR        NPOR         GR     
# ...
  1432.8000      7.8890      2.5206      0.0584      7.8431     18.8850     89.6767
  1432.9000      7.8890      2.5186      0.0778      7.9653     19.4751     87.6819
  1433.0000      7.8895      2.5095      0.0653      8.5168     20.2058     82.5332
  1433.1000      7.8895      2.5013      0.0327      9.0104     20.5051     76.1837
  1433.2000      7.8895      2.4981      0.0603      9.2049     20.4836     72.9716
  1433.3000      7.8876      2.4984      0.0645      9.1899     20.4389     75.1055
  1433.4000      7.8876      2.5054      0.0423      8.7611     20.3103     79.7387
  1433.5000      7.8853      2.5190      0.0733      7.9372     20.0641     83.7816
  1433.6000      7.8853      2.5271      0.0939      7.4490     19.9576     86.7800
  1433.7000      7.8853      2.5182      0.0882      7.9861     20.1736     89.0236
  1433.8000      7.8843      2.4992      0.0655      9.1398     20.4030     92.7330
  1433.9000      7.8843      2.4908      0.0312      9.6461     20.3172    101.6600
  1434.0000      7.8852      2.4973      0.0812      9.2523     20.1435    112.7629
  1434.1000      7.8852      2.5023      0.0627      8.9522     20.1773    118.1917
  1434.2000      7.8852      2.4988      0.0338      9.1643     20.3385    115.1833
  1434.3000      7.8856      2.4936      0.0425      9.4805     20.5046    108.7714
  1434.4000      7.8856      2.4980     -0.0048      9.2126     20.6292    105.0404
  1434.5000      7.8878      2.5156      0.0452      8.1439     20.5595    102.7219
  1434.6000      7.8878      2.5342      0.0468      7.0173     20.2659     97.6184
  1434.7000      7.8878      2.5425      0.0731      6.5169     19.9443     91.2919
  1434.8000      7.8903      2.5418      0.0671      6.5562     19.6137     88.9905
  1434.9000      7.8903      2.5393      0.0599      6.7067     19.1159     90.2512
  1435.0000      7.8891      2.5267      0.0932      7.4731     18.6776     89.7113
  1435.1000      7.8891      2.4945      0.0354      9.4249     18.6339     89.1243
  1435.2000      7.8891      2.4662      0.0213     11.1408     18.6016     92.3691
  1435.3000      7.8873      2.4658      0.0640     11.1626     18.0603     93.6902
  1435.4000      7.8873      2.4801      0.0512     10.2941     17.2948     89.3988
  1435.5000      7.8865      2.4816      0.0838     10.2072     17.0411     86.7719
  1435.6000      7.8865      2.4646      0.0474     11.2337     17.1615     89.3151
  1435.7000      7.8865      2.4459      0.0787     12.3696     16.8034     92.6031
  1435.8000      7.8868      2.4337      0.0611     13.1082     16.2476     92.9178
  1435.9000      7.8868      2.4292      0.0264     13.3819     16.3166     89.8781
  1436.0000      7.8878      2.4354      0.0251     13.0061     16.6705     86.3641
  1436.1000      7.8878      2.4465      0.0598     12.3327     16.6485     82.8692
  1436.2000      7.8878      2.4513      0.0425     12.0432     16.3000     78.0390
  1436.3000      7.8886      2.4457      0.0609     12.3826     16.0853     71.3494
  1436.4000      7.8886      2.4405      0.0253     12.6971     16.3810     64.3746
  1436.5000      7.8900      2.4485      0.0588     12.2106     17.0055     62.5572
  1436.6000      7.8900      2.4613      0.0717     11.4343     17.3003     66.6937
  1436.7000      7.8900      2.4634      0.0656     11.3108     17.0797     70.8756
  1436.8000      7.8899      2.4555      0.0520     11.7877     16.8598     73.0745
  1436.9000      7.8899      2.4554      0.0362     11.7927     17.0392     77.7761
  1437.0000      7.8885      2.4742      0.0652     10.6519     17.5161     83.7950
  1437.1000      7.8885      2.4951      0.1040      9.3900     17.9131     86.0817
  1437.2000      7.8885      2.5007      0.0505      9.0513     17.7987     87.6122
  1437.3000      7.8867      2.4986      0.0531      9.1761     17.3004     91.3109
  1437.4000      7.8867      2.4961      0.0698      9.3296     16.9650     93.0847
  1437.5000      7.8867      2.4870      0.0844      9.8778     16.8750     91.8709
  1437.6000      7.8867      2.4752      0.0183     10.5911     16.7318     90.8472
  1437.7000      7.8867      2.4787      0.0347     10.3796     16.5364     90.6357
  1437.8000      7.8885      2.4979      0.0914      9.2200     16.6679     89.8371
  1437.9000      7.8885      2.5136      0.0856      8.2640     17.3218     88.7162
  1438.0000      7.8893      2.5165      0.0727      8.0909     18.2241     89.3640
  1438.1000      7.8893      2.5158      0.0460      8.1322     18.9776     91.9663
  1438.2000      7.8893      2.5259      0.0551      7.5184     19.2829     92.4294
  1438.3000      7.8903      2.5448      0.0859      6.3773     18.9168     89.0269
  1438.4000      7.8903      2.5492      0.1088      6.1068     18.1978     86.3080
  1438.5000      7.8912      2.5264      0.0696      7.4881     17.8554     86.7201
  1438.6000      7.8912      2.4937      0.0657      9.4729     18.2429     91.4031
  1438.7000      7.8912      2.4713      0.0318     10.8294     18.9268     99.9074
  1438.8000      7.8907      2.4653      0.0144     11.1924     19.2466    102.6839
  1438.9000      7.8907      2.4682      0.0219     11.0179     19.0491     93.7772
  1439.0000      7.8900      2.4699      0.0241     10.9127     18.7501     83.2525
  1439.1000      7.8900      2.4739      0.0369     10.6701     18.5092     82.1635
  1439.2000      7.8900      2.4801      0.0716     10.2967     18.0520     88.6618
  1439.3000      7.8909      2.4810      0.0438     10.2400     17.6759     96.3180
  1439.4000      7.8909      2.4875      0.0360      9.8465     17.8725    100.4301
  1439.5000      7.8916      2.5115      0.0760      8.3918     18.5237     97.9810
  1439.6000      7.8916      2.5400      0.0947      6.6677     19.0748     92.6353
  1439.7000      7.8916      2.5529      0.1191      5.8876     19.2298     90.6618
  1439.8000      7.8920      2.5487      0.0893      6.1374     19.5080     92.3770
  1439.9000      7.8920      2.5420      0.0448      6.5437     20.3834     96.4603
  1440.0000      7.8924      2.5404      0.0561      6.6436     21.3168    103.3077
  1440.1000      7.8924      2.5402      0.0525      6.6557     21.5092    108.8898
  1440.2000      7.8924      2.5392      0.0743      6.7156     21.1034    109.7000
  1440.3000      7.8920      2.5364      0.0823      6.8831     20.7201    109.6260
  1440.4000      7.8920      2.5253      0.0914      7.5547     20.4167    109.0707
  1440.5000      7.8896      2.5052      0.0193      8.7750     19.9750    106.0795
  1440.6000      7.8896      2.4893      0.0601      9.7404     19.4369    103.4809
  1440.7000      7.8896      2.4898     -0.0069      9.7091     18.9861    102.2348
  1440.8000      7.8869      2.5033      0.0726      8.8923     18.9192    100.8855
  1440.9000      7.8869      2.5105      0.0631      8.4538     19.1881     99.6906
  1441.0000      7.8873      2.5066      0.0531      8.6887     19.2117     97.8205
  1441.1000      7.8873      2.5048      0.0508      8.7982     18.9536     94.7288
  1441.2000      7.8873      2.5103      0.0410      8.4656     18.9689     92.3546
  1441.3000      7.8908      2.5169      0.0692      8.0696     19.3790     91.7566
  1441.4000      7.8908      2.5171      0.0913      8.0539     19.7933     91.3996
  1441.5000      7.8927      2.5112      0.0918      8.4099     19.8189     90.9651
  1441.6000      7.8927      2.5076      0.0680      8.6300     19.4406     92.4952
  1441.7000      7.8927      2.5122      0.0731      8.3519     19.0156     94.6509
  1441.8000      7.8914      2.5220      0.0501      7.7599     18.7936     92.8812
  1441.9000      7.8914      2.5303      0.0797      7.2567     18.8160     88.6788
  1442.0000      7.8887      2.5304      0.0602      7.2513     18.9153     87.0119
  1442.1000      7.8887      2.5208      0.0422      7.8295     18.8549     86.9084
  1442.2000      7.8887      2.5072      0.0305      8.6571     18.5638     86.0305
  1442.3000      7.8879      2.4954      0.0574      9.3695     17.9466     83.6928
