~Version Information
VERS.                      2.0: CWLS Log ASCII Standard - VERSION 2.0
WRAP.                       NO: One line per depth step
~Well Information Block
STRT.FT               258.0000: 
STOP.FT              1001.0000: 
STEP.FT                 0.2500: 
NULL.                -999.2500: 
COMP.          Pioneer Natural Resources: COMPANY
WELL.          Piggyback 33-25: WELL
FLD.           Purgatoire River: FIELD
LOC.           1600' FSL & 1800' FEL: LOCATION
PROV.                 Colorado: PROVINCE
CNTY.               Las Animas: COUNTRY
SRVC.                Patterson: SERVICE COMPANY
DATE.          Fri Apr 29 14:22:38 2005: LOG DATE
UWI.           05 071 08233 00: UNIQUE WELL ID
~Curve Information Block
DEPT.FT            0 000 00 00: Depth
SN.Ohm-m                      : IEL Short Normal
SP.mV                         : IEL Spontaneous Potential
DIR.Ohm-m                     : IEL Induction Resistivity
GR.GAPI                       : Gamma Ray
~Parameter Information Block
~A  Depth        SN          SP         DIR          GR     
# ...
   291.5000   2000.0000   2000.0000     27.3073     93.8148
   291.7500   2000.0000   2000.0000     26.9380     94.0677
   292.0000   2000.0000   2000.0000     26.3838     94.8486
   292.2500   2000.0000   2000.0000     25.7368     95.5000
   292.5000   2000.0000   2000.0000     25.0665     96.9595
   292.7500   2000.0000   2000.0000     24.4151     98.7838
   293.0000   2000.0000   2000.0000     23.8021    104.0871
   293.2500   2000.0000   2000.0000     23.2376    109.8028
   293.5000   2000.0000   2000.0000     22.7290    121.0742
   293.7500   2000.0000   2000.0000     22.2749    129.3647
   294.0000   2000.0000   2000.0000     21.8532    141.1132
   294.2500   2000.0000   2000.0000     21.4227    147.7234
   294.5000   2000.0000   2000.0000     20.9459    154.9604
   294.7500   2000.0000   2000.0000     20.4168    157.7055
   295.0000   2000.0000   2000.0000     19.8704    158.6445
   295.2500   2000.0000   2000.0000     19.3660    157.3860
   295.5000   2000.0000   2000.0000     18.9597    153.4324
   295.7500   2000.0000   2000.0000     18.6850    150.0728
   296.0000   2000.0000   2000.0000     18.5486    145.0943
   296.2500   2000.0000   2000.0000     18.5364    142.0947
   296.5000   2000.0000   2000.0000     18.6262    137.7144
   296.7500   2000.0000   2000.0000     18.8006    134.6308
   297.0000   2000.0000   2000.0000     19.0534    130.0804
   297.2500   2000.0000   2000.0000     19.3838    127.5582
   297.5000   2000.0000   2000.0000     19.7857    124.9309
   297.7500   2000.0000   2000.0000     20.2358    123.8078
   298.0000   2000.0000   2000.0000     20.6902    122.8372
   298.2500   2000.0000   2000.0000     21.0817    122.8512
   298.5000   2000.0000   2000.0000     21.3231    124.2604
   298.7500   2000.0000   2000.0000     21.3255    125.8921
   299.0000   2000.0000   2000.0000     21.0392    128.2200
   299.2500   2000.0000   2000.0000     20.4922    129.1999
   299.5000   2000.0000   2000.0000     19.7844    130.1775
   299.7500   2000.0000   2000.0000     19.0369    131.2425
   300.0000   2000.0000   2000.0000     18.3418    134.6736
   300.2500   2000.0000   2000.0000     17.7423    138.5300
   300.5000   2000.0000   2000.0000     17.2393    146.5800
   300.7500   2000.0000   2000.0000     16.8082    153.0627
   301.0000   2000.0000   2000.0000     16.4173    163.1120
   301.2500   2000.0000   2000.0000     16.0424    168.8269
   301.5000   2000.0000   2000.0000     15.6718    173.7255
   301.7500   2000.0000   2000.0000     15.3028    173.8679
   302.0000   2000.0000   2000.0000     14.9371    170.1498
   302.2500   2000.0000   2000.0000     14.5826    166.2913
   302.5000   2000.0000   2000.0000     14.2592    160.4807
   302.7500   2000.0000   2000.0000     13.9956    157.2801
   303.0000   2000.0000   2000.0000     13.8182    153.9207
   303.2500   2000.0000   2000.0000     13.7385    152.7362
   303.5000   2000.0000   2000.0000     13.7490    152.7559
   303.7500   2000.0000   2000.0000     13.8300    153.9953
   304.0000   2000.0000   2000.0000     13.9604    157.0411
   304.2500   2000.0000   2000.0000     14.1278    159.0974
   304.5000   2000.0000   2000.0000     14.3296    161.1114
   304.7500   2000.0000   2000.0000     14.5692    161.5362
   305.0000   2000.0000   2000.0000     14.8500    160.9130
   305.2500   2000.0000   2000.0000     15.1739    159.7375
   305.5000   2000.0000   2000.0000     15.5421    157.1117
   305.7500   2000.0000   2000.0000     15.9570    155.2200
   306.0000   2000.0000   2000.0000     16.4229    153.1694
   306.2500   2000.0000   2000.0000     16.9466    152.6110
   306.5000   2000.0000   2000.0000     17.5388    152.3009
   306.7500   2000.0000   2000.0000     18.2132    151.4170
   307.0000   2000.0000   2000.0000     18.9787    147.1689
   307.2500   2000.0000   2000.0000     19.8262    141.8338
   307.5000   2000.0000   2000.0000     20.7223    130.6916
   307.7500   2000.0000   2000.0000     21.6164    122.2189
   308.0000   2000.0000   2000.0000     22.4642    109.8604
   308.2500   2000.0000   2000.0000     23.2517    102.5737
   308.5000   2000.0000   2000.0000     24.0016     93.4397
   308.7500   2000.0000   2000.0000     24.7554     88.4726
   309.0000   2000.0000   2000.0000     25.5434     82.5273
   309.2500   2000.0000   2000.0000     26.3640     79.5204
   309.5000   2000.0000   2000.0000     27.1841     76.3841
   309.7500   2000.0000   2000.0000     27.9616     75.1226
   310.0000   2000.0000   2000.0000     28.6713     74.1655
   310.2500   2000.0000   2000.0000     29.3079     73.8740
   310.5000   2000.0000   2000.0000     29.8621     73.5063
   310.7500   2000.0000   2000.0000     30.3060     73.2437
   311.0000   2000.0000   2000.0000     30.6184     73.1287
   311.2500   2000.0000   2000.0000     30.8241     73.3934
   311.5000   2000.0000   2000.0000     30.9855     74.0332
   311.7500   2000.0000   2000.0000     31.1484     74.2993
   312.0000   2000.0000   2000.0000     31.3080     74.3564
   312.2500   2000.0000   2000.0000     31.4417     74.4879
   312.5000   2000.0000   2000.0000     31.5667     75.4499
   312.7500   2000.0000   2000.0000     31.7486     76.6343
   313.0000   2000.0000   2000.0000     32.0579     78.5779
   313.2500   2000.0000   2000.0000     32.5270     79.5049
   313.5000   2000.0000   2000.0000     33.1549     80.1476
   313.7500   2000.0000   2000.0000     33.9428     80.3989
   314.0000   2000.0000   2000.0000     34.9133     81.0192
   314.2500   2000.0000   2000.0000     36.0747     81.5190
   314.5000   2000.0000   2000.0000     37.3444     81.9244
   314.7500   2000.0000   2000.0000     38.5059     81.8091
   315.0000   2000.0000   2000.0000     39.2811     81.0858
   315.2500   2000.0000   2000.0000     39.5165     80.3066
   315.5000   2000.0000   2000.0000     39.3085     78.7701
   315.7500   2000.0000   2000.0000     38.9248     77.4979
   316.0000   2000.0000   2000.0000     38.6211     75.3011
   316.2500   2000.0000   2000.0000     38.5372     73.9654
   316.5000   2000.0000   2000.0000     38.7054     73.1492
   316.7500   2000.0000   2000.0000     39.0919     73.7520
   317.0000   2000.0000   2000.0000     39.6113     75.7386
   317.2500   2000.0000   2000.0000     40.1241     76.8766
   317.5000   2000.0000   2000.0000     40.4663     77.1329
   317.7500   2000.0000   2000.0000     40.5278     76.3306
   318.0000   2000.0000   2000.0000     40.3278     74.5267
   318.2500   2000.0000   2000.0000     40.0011     73.4821
   318.5000   2000.0000   2000.0000     39.7123     72.7470
   318.7500   2000.0000   2000.0000     39.5610     72.9457
   319.0000   2000.0000   2000.0000     39.5476     74.1186
   319.2500   2000.0000   2000.0000     39.5986     75.1532
   319.5000   2000.0000   2000.0000     39.6273     76.5086
   319.7500   2000.0000   2000.0000     39.5887     77.2197
   320.0000   2000.0000   2000.0000     39.4986     78.1334
   320.2500   2000.0000   2000.0000     39.4170     78.4939
   320.5000   2000.0000   2000.0000     39.4143     78.0311
   320.7500   2000.0000   2000.0000     39.5482     76.8871
   321.0000   2000.0000   2000.0000     39.8539     74.4419
   321.2500   2000.0000   2000.0000     40.3420     72.8605
   321.5000   2000.0000   2000.0000     41.0008     71.1355
   321.7500   2000.0000   2000.0000     41.7876     70.4198
   322.0000   2000.0000   2000.0000     42.6009     69.6984
   322.2500   2000.0000   2000.0000     43.2499     69.2990
   322.5000   2000.0000   2000.0000     43.4773     68.7917
   322.7500   2000.0000   2000.0000     43.0939     68.6221
   323.0000   2000.0000   2000.0000     42.1486     68.7614
   323.2500   2000.0000   2000.0000     40.9524     69.0766
   323.5000   2000.0000   2000.0000     39.9118     69.7081
   323.7500   2000.0000   2000.0000     39.3286     70.1477
   324.0000   2000.0000   2000.0000     39.3090     70.6634
   324.2500   2000.0000   2000.0000     39.7788     70.8213
   324.5000   2000.0000   2000.0000     40.5601     70.8082
   324.7500   2000.0000   2000.0000     41.4700     70.6657
