~Version Information
VERS.                      2.0: CWLS Log ASCII Standard - VERSION 2.0
WRAP.                       NO: One line per depth step
~Well Information Block
STRT.FT               392.5000: 
STOP.FT              2252.6000: 
STEP.FT                 0.1000: 
NULL.                -999.2500: 
COMP.          Petrogulf Corporation: COMPANY
WELL.          Alexander 9-43V: WELL
FLD.           Purgatorie River: FIELD
LOC.           1651' FSL & 1081' FEL: LOCATION
CNTY.               Las Animas: COUNTY
SRVC.                         : SERVICE COMPANY
DATE.          Mon Mar 17 08:48:25 2003: LOG DATE
UWI.           05 071 07727 00: UNIQUE WELL ID
STAT.                 Colorado: STATE
~Curve Information Block
DEPT.FT            0 000 00 00: Depth
DCAL.in                       : CDL Caliper
RHOB.g/cc                     : CDL Bulk Density
RHOC.g/cc                     : CDL Density Correction
DPOR.pu                       : CDL Density Porosity
GR.GAPI                       : Gamma Ray
NPOR.pu                       : Neutron Porosity
~Parameter Information Block
~A  Depth       DCAL        RHOB        RHOC        DPOR         GR         NPOR    
# ...
  1640.5000      7.9473      2.4324      0.0673     13.1866     59.2253     16.6423
  1640.6000      7.9473      2.4311      0.0664     13.2662     59.2253     16.4008
  1640.7000      7.9473      2.4304      0.0654     13.3075     59.2253     16.2026
  1640.8000      7.9445      2.4304      0.0641     13.3092     54.6648     16.0506
  1640.9000      7.9445      2.4310      0.0627     13.2704     54.6648     15.9481
  1641.0000      7.9427      2.4324      0.0615     13.1905     51.0264     15.8982
  1641.1000      7.9427      2.4344      0.0605     13.0690     51.0264     15.9045
  1641.2000      7.9427      2.4370      0.0599     12.9062     51.0264     15.9704
  1641.3000      7.9435      2.4404      0.0598     12.7028     48.6395     16.0993
  1641.4000      7.9435      2.4444      0.0603     12.4603     48.6395     16.2942
  1641.5000      7.9463      2.4490      0.0615     12.1811     47.8987     16.5576
  1641.6000      7.9463      2.4542      0.0634     11.8684     47.8987     16.8916
  1641.7000      7.9463      2.4598      0.0659     11.5265     47.8987     17.2969
  1641.8000      7.9466      2.4659      0.0689     11.1603     49.1547     17.7727
  1641.9000      7.9466      2.4722      0.0724     10.7756     49.1547     18.3160
  1642.0000      7.9456      2.4788      0.0760     10.3786     52.7924     18.9214
  1642.1000      7.9456      2.4854      0.0795      9.9760     52.7924     19.5804
  1642.2000      7.9456      2.4920      0.0828      9.5744     52.7924     20.2821
  1642.3000      7.9452      2.4985      0.0857      9.1800     59.4278     21.0133
  1642.4000      7.9452      2.5048      0.0880      8.7985     59.4278     21.7596
  1642.5000      7.9403      2.5108      0.0895      8.4346     69.7205     22.5063
  1642.6000      7.9403      2.5165      0.0904      8.0920     69.7205     23.2393
  1642.7000      7.9403      2.5217      0.0905      7.7731     69.7205     23.9462
  1642.8000      7.9346      2.5266      0.0900      7.4788     83.6034     24.6160
  1642.9000      7.9346      2.5310      0.0891      7.2093     83.6034     25.2403
  1643.0000      7.9394      2.5351      0.0880      6.9633     99.6092     25.8123
  1643.1000      7.9394      2.5388      0.0869      6.7390     99.6092     26.3277
  1643.2000      7.9394      2.5422      0.0859      6.5344     99.6092     26.7839
  1643.3000      7.9498      2.5453      0.0851      6.3472    115.0948     27.1801
  1643.4000      7.9498      2.5481      0.0847      6.1756    115.0948     27.5165
  1643.5000      7.9563      2.5507      0.0846      6.0185    127.3833     27.7950
  1643.6000      7.9563      2.5531      0.0847      5.8754    127.3833     28.0176
  1643.7000      7.9563      2.5552      0.0851      5.7468    127.3833     28.1869
  1643.8000      7.9575      2.5570      0.0855      5.6339    135.0836     28.3051
  1643.9000      7.9575      2.5586      0.0859      5.5384    135.0836     28.3747
  1644.0000      7.9560      2.5599      0.0862      5.4624    138.7208     28.3982
  1644.1000      7.9560      2.5608      0.0864      5.4076    138.7208     28.3790
  1644.2000      7.9560      2.5613      0.0863      5.3755    138.7208     28.3212
  1644.3000      7.9507      2.5615      0.0861      5.3664    140.2871     28.2300
  1644.4000      7.9507      2.5612      0.0859      5.3800    140.2871     28.1117
  1644.5000      7.9402      2.5607      0.0857      5.4148    142.0752     27.9736
  1644.6000      7.9402      2.5598      0.0858      5.4679    142.0752     27.8228
  1644.7000      7.9402      2.5587      0.0862      5.5362    142.0752     27.6664
  1644.8000      7.9269      2.5573      0.0870      5.6156    145.5894     27.5099
  1644.9000      7.9269      2.5559      0.0882      5.7020    145.5894     27.3580
  1645.0000      7.9134      2.5544      0.0897      5.7917    151.0589     27.2131
  1645.1000      7.9134      2.5530      0.0913      5.8811    151.0589     27.0766
  1645.2000      7.9134      2.5515      0.0927      5.9676    151.0589     26.9489
  1645.3000      7.9086      2.5502      0.0938      6.0493    157.6000     26.8301
  1645.4000      7.9086      2.5489      0.0943      6.1253    157.6000     26.7202
  1645.5000      7.9261      2.5478      0.0941      6.1953    163.7775     26.6202
  1645.6000      7.9261      2.5467      0.0930      6.2594    163.7775     26.5317
  1645.7000      7.9261      2.5457      0.0910      6.3183    163.7775     26.4569
  1645.8000      7.9633      2.5449      0.0883      6.3727    168.3346     26.3982
  1645.9000      7.9633      2.5440      0.0850      6.4234    168.3346     26.3572
  1646.0000      7.9951      2.5432      0.0813      6.4710    170.9197     26.3346
  1646.1000      7.9951      2.5425      0.0778      6.5163    170.9197     26.3289
  1646.2000      7.9951      2.5418      0.0746      6.5598    170.9197     26.3366
  1646.3000      8.0135      2.5411      0.0720      6.6021    172.4656     26.3522
  1646.4000      8.0135      2.5404      0.0703      6.6441    172.4656     26.3689
  1646.5000      8.0276      2.5397      0.0694      6.6866    174.7388     26.3793
  1646.6000      8.0276      2.5389      0.0695      6.7309    174.7388     26.3769
  1646.7000      8.0276      2.5382      0.0702      6.7782    174.7388     26.3572
  1646.8000      8.0366      2.5373      0.0714      6.8296    179.2245     26.3183
  1646.9000      8.0366      2.5364      0.0730      6.8861    179.2245     26.2611
  1647.0000      8.0398      2.5354      0.0747      6.9485    186.2111     26.1893
  1647.1000      8.0398      2.5342      0.0764      7.0165    186.2111     26.1087
  1647.2000      8.0398      2.5330      0.0781      7.0896    186.2111     26.0252
  1647.3000      8.0426      2.5318      0.0797      7.1662    194.5548     25.9443
  1647.4000      8.0426      2.5305      0.0815      7.2440    194.5548     25.8696
  1647.5000      8.0417      2.5292      0.0834      7.3202    201.9463     25.8026
  1647.6000      8.0417      2.5280      0.0856      7.3915    201.9463     25.7421
  1647.7000      8.0417      2.5270      0.0881      7.4545    201.9463     25.6858
  1647.8000      8.0360      2.5262      0.0910      7.5060    205.6803     25.6304
  1647.9000      8.0360      2.5255      0.0943      7.5433    205.6803     25.5726
  1648.0000      8.0361      2.5252      0.0980      7.5649    203.9768     25.5103
  1648.1000      8.0361      2.5251      0.1020      7.5701    203.9768     25.4420
  1648.2000      8.0361      2.5253      0.1061      7.5593    203.9768     25.3675
  1648.3000      8.0501      2.5257      0.1103      7.5345    197.0415     25.2870
  1648.4000      8.0501      2.5263      0.1143      7.4985    197.0415     25.2009
  1648.5000      8.0721      2.5270      0.1179      7.4552    186.8515     25.1099
  1648.6000      8.0721      2.5278      0.1210      7.4088    186.8515     25.0147
  1648.7000      8.0721      2.5285      0.1232      7.3637    186.8515     24.9168
  1648.8000      8.0912      2.5292      0.1246      7.3237    175.9501     24.8183
  1648.9000      8.0912      2.5297      0.1249      7.2923    175.9501     24.7226
  1649.0000      8.0984      2.5300      0.1242      7.2716    166.3714     24.6341
  1649.1000      8.0984      2.5302      0.1226      7.2623    166.3714     24.5585
  1649.2000      8.0984      2.5301      0.1203      7.2641    166.3714     24.5012
  1649.3000      8.0968      2.5300      0.1175      7.2749    159.1368     24.4678
  1649.4000      8.0968      2.5297      0.1145      7.2919    159.1368     24.4629
  1649.5000      8.0970      2.5294      0.1116      7.3110    154.2026     24.4902
  1649.6000      8.0970      2.5291      0.1090      7.3275    154.2026     24.5523
  1649.7000      8.0970      2.5289      0.1069      7.3366    154.2026     24.6504
  1649.8000      8.1111      2.5290      0.1055      7.3334    150.8344     24.7847
  1649.9000      8.1111      2.5293      0.1049      7.3134    150.8344     24.9541
  1650.0000      8.1392      2.5300      0.1050      7.2728    148.2005     25.1566
