~Version Information
VERS.                      2.0: CWLS Log ASCII Standard - VERSION 2.0
WRAP.                       NO: One line per depth step
~Well Information Block
STRT.FT               395.0000: 
STOP.FT              1998.0000: 
STEP.FT                 0.2500: 
NULL.                -999.2500: 
COMP.          Pioneer Natural Resources: COMPANY
WELL.          Easton 12-30 Tr: WELL
FLD.           Purgatoire River: FIELD
LOC.           549' FWL & 2416' FNL--: LOCATION
PROV.                 Colorado: PROVINCE
CNTY.               Las Animas: COUNTRY
SRVC.                Patterson: SERVICE COMPANY
DATE.          Wed Jun 01 17:36:02 2005: LOG DATE
UWI.           05 071 08379 00: UNIQUE WELL ID
~Curve Information Block
DEPT.FT            0 000 00 00: Depth
SN.Ohm-m                      : IEL Short Normal
SP.mV                         : IEL Spontaneous Potential
DIR.Ohm-m                     : IEL Induction Resistivity
GR.GAPI                       : Gamma Ray
~Parameter Information Block
~A  Depth        SN          SP         DIR          GR     
# ...
   830.5000   2000.0000   -999.2500     11.2338    112.6113
   830.7500   2000.0000   -999.2500     11.9944    107.3480
   831.0000   2000.0000   -999.2500     12.8508     98.8346
   831.2500   2000.0000   -999.2500     13.8049     92.7814
   831.5000   2000.0000   -999.2500     14.8572     83.6485
   831.7500   2000.0000   -999.2500     16.0003     78.0668
   832.0000   2000.0000   -999.2500     17.2078     71.3816
   832.2500   2000.0000   -999.2500     18.4238     68.4409
   832.5000   2000.0000   -999.2500     19.5596     66.6914
   832.7500   2000.0000   -999.2500     20.5078     67.2437
   833.0000   2000.0000   -999.2500     21.1769     69.7605
   833.2500   2000.0000   -999.2500     21.5277     71.7370
   833.5000   2000.0000   -999.2500     21.5828     74.0992
   833.7500   2000.0000   -999.2500     21.4019     75.2139
   834.0000   2000.0000   -999.2500     21.0481     76.8853
   834.2500   2000.0000   -999.2500     20.5710     78.5923
   834.5000   2000.0000   -999.2500     20.0083     82.9768
   834.7500   2000.0000   -999.2500     19.3888     87.3600
   835.0000   2000.0000   -999.2500     18.7311     95.5046
   835.2500   2000.0000   -999.2500     18.0416    100.9971
   835.5000   2000.0000   -999.2500     17.3158    107.3966
   835.7500   2000.0000   -999.2500     16.5459    109.7210
   836.0000   2000.0000   -999.2500     15.7316    110.1339
   836.2500   2000.0000   -999.2500     14.8896    108.7595
   836.5000   2000.0000   -999.2500     14.0554    105.5016
   836.7500   2000.0000   -999.2500     13.2730    103.4394
   837.0000   2000.0000   -999.2500     12.5808    101.6769
   837.2500   2000.0000   -999.2500     12.0017    101.6304
   837.5000   2000.0000   -999.2500     11.5429    103.2910
   837.7500   2000.0000   -999.2500     11.2007    105.5937
   838.0000   2000.0000   -999.2500     10.9671    110.5897
   838.2500   2000.0000   -999.2500     10.8333    114.2766
   838.5000   2000.0000   -999.2500     10.7902    118.5468
   838.7500   2000.0000   -999.2500     10.8279    119.7528
   839.0000   2000.0000   -999.2500     10.9344    119.0525
   839.2500   2000.0000   -999.2500     11.0972    117.5799
   839.5000   2000.0000   -999.2500     11.3039    115.1973
   839.7500   2000.0000   -999.2500     11.5448    113.8617
   840.0000   2000.0000   -999.2500     11.8160    111.9770
   840.2500   2000.0000   -999.2500     12.1220    110.4131
   840.5000   2000.0000   -999.2500     12.4775    107.1757
   840.7500   2000.0000   -999.2500     12.9061    104.5119
   841.0000   2000.0000   -999.2500     13.4368    100.6172
   841.2500   2000.0000   -999.2500     14.0975     98.8339
   841.5000   2000.0000   -999.2500     14.9093     98.2272
   841.7500   2000.0000   -999.2500     15.8769     99.0701
   842.0000   2000.0000   -999.2500     16.9810    101.3134
   842.2500   2000.0000   -999.2500     18.1719    103.1327
   842.5000   2000.0000   -999.2500     19.3720    106.3331
   842.7500   2000.0000   -999.2500     20.4897    108.6029
   843.0000   2000.0000   -999.2500     21.4392    111.0727
   843.2500   2000.0000   -999.2500     22.1610    111.3966
   843.5000   2000.0000   -999.2500     22.6327    109.9308
   843.7500   2000.0000   -999.2500     22.8678    108.4463
   844.0000   2000.0000   -999.2500     22.9041    106.9145
   844.2500   2000.0000   -999.2500     22.7831    106.5961
   844.5000   2000.0000   -999.2500     22.5327    106.5343
   844.7500   2000.0000   -999.2500     22.1611    106.3349
   845.0000   2000.0000   -999.2500     21.6645    105.8381
   845.2500   2000.0000   -999.2500     21.0438    105.8570
   845.5000   2000.0000   -999.2500     20.3198    107.1688
   845.7500   2000.0000   -999.2500     19.5378    108.8257
   846.0000   2000.0000   -999.2500     18.7572    111.5532
   846.2500   2000.0000   -999.2500     18.0339    113.0990
   846.5000   2000.0000   -999.2500     17.4026    115.3177
   846.7500   2000.0000   -999.2500     16.8714    117.3117
   847.0000   2000.0000   -999.2500     16.4249    121.5134
   847.2500   2000.0000   -999.2500     16.0328    124.7200
   847.5000   2000.0000   -999.2500     15.6607    128.9945
   847.7500   2000.0000   -999.2500     15.2799    131.1550
   848.0000   2000.0000   -999.2500     14.8755    133.5675
   848.2500   2000.0000   -999.2500     14.4489    134.7720
   848.5000   2000.0000   -999.2500     14.0149    135.6703
   848.7500   2000.0000   -999.2500     13.5943    135.4072
   849.0000   2000.0000   -999.2500     13.2083    133.9923
   849.2500   2000.0000   -999.2500     12.8746    132.9394
   849.5000   2000.0000   -999.2500     12.6044    132.0147
   849.7500   2000.0000   -999.2500     12.4007    131.9247
   850.0000   2000.0000   -999.2500     12.2559    132.3686
   850.2500   2000.0000   -999.2500     12.1527    133.0138
   850.5000   2000.0000   -999.2500     12.0668    134.6618
   850.7500   2000.0000   -999.2500     11.9742    136.1758
   851.0000   2000.0000   -999.2500     11.8580    138.3857
   851.2500   2000.0000   -999.2500     11.7129    139.2526
   851.5000   2000.0000   -999.2500     11.5450    139.2637
   851.7500   2000.0000   -999.2500     11.3662    138.7347
   852.0000   2000.0000   -999.2500     11.1891    138.1075
   852.2500   2000.0000   -999.2500     11.0230    138.2043
   852.5000   2000.0000   -999.2500     10.8750    139.1321
   852.7500   2000.0000   -999.2500     10.7517    139.8866
   853.0000   2000.0000   -999.2500     10.6604    140.3604
   853.2500   2000.0000   -999.2500     10.6084    139.9857
   853.5000   2000.0000   -999.2500     10.6001    138.5837
   853.7500   2000.0000   -999.2500     10.6348    137.3937
   854.0000   2000.0000   -999.2500     10.7072    135.8522
   854.2500   2000.0000   -999.2500     10.8111    135.3461
   854.5000   2000.0000   -999.2500     10.9421    135.5421
   854.7500   2000.0000   -999.2500     11.0993    135.9512
   855.0000   2000.0000   -999.2500     11.2837    136.0013
   855.2500   2000.0000   -999.2500     11.4946    135.3183
   855.5000   2000.0000   -999.2500     11.7283    133.2985
   855.7500   2000.0000   -999.2500     11.9801    131.5495
   856.0000   2000.0000   -999.2500     12.2483    129.0257
   856.2500   2000.0000   -999.2500     12.5363    127.9762
   856.5000   2000.0000   -999.2500     12.8523    128.0283
   856.7500   2000.0000   -999.2500     13.2058    128.9502
   857.0000   2000.0000   -999.2500     13.6051    130.4797
   857.2500   2000.0000   -999.2500     14.0541    130.9931
   857.5000   2000.0000   -999.2500     14.5515    130.7912
   857.7500   2000.0000   -999.2500     15.0880    130.2127
   858.0000   2000.0000   -999.2500     15.6476    129.1012
   858.2500   2000.0000   -999.2500     16.2121    128.3564
   858.5000   2000.0000   -999.2500     16.7680    127.1297
   858.7500   2000.0000   -999.2500     17.3103    125.9467
   859.0000   2000.0000   -999.2500     17.8405    123.1960
   859.2500   2000.0000   -999.2500     18.3630    120.7216
   859.5000   2000.0000   -999.2500     18.8826    116.3531
   859.7500   2000.0000   -999.2500     19.4039    113.2463
   860.0000   2000.0000   -999.2500     19.9302    108.9345
   860.2500   2000.0000   -999.2500     20.4600    106.7663
   860.5000   2000.0000   -999.2500     20.9873    105.1317
   860.7500   2000.0000   -999.2500     21.5034    105.0573
   861.0000   2000.0000   -999.2500     22.0025    105.6733
   861.2500   2000.0000   -999.2500     22.4835    106.0109
   861.5000   2000.0000   -999.2500     22.9498    106.0392
   861.7500   2000.0000   -999.2500     23.4044    106.0215
   862.0000   2000.0000   -999.2500     23.8461    106.8204
   862.2500   2000.0000   -999.2500     24.2693    108.2101
   862.5000   2000.0000   -999.2500     24.6734    111.2552
   862.7500   2000.0000   -999.2500     25.0730    113.3424
   863.0000   2000.0000   -999.2500     25.4996    115.4168
   863.2500   2000.0000   -999.2500     25.9899    115.5343
   863.5000   2000.0000   -999.2500     26.5675    113.2613
   863.7500   2000.0000   -999.2500     27.2309    110.1804
