~Version Information
VERS.                      2.0: CWLS Log ASCII Standard - VERSION 2.0
WRAP.                       NO: One line per depth step
~Well Information Block
STRT.FT               -10.0000: 
STOP.FT              2184.0000: 
STEP.FT                 0.2500: 
NULL.                -999.2500: 
COMP.          Petrogulf Corporation: COMPANY
WELL.              Silva 1-43R: WELL
FLD.           Purgatorie River: FIELD
LOC.           1971' FSL & 526' FEL--: LOCATION
CNTY.               Las Animas: COUNTY
SRVC.          Patterson Wireline: SERVICE COMPANY
DATE.          Thu Jul 13 13:08:17 2006: LOG DATE
UWI.           05 072 08372 00: UNIQUE WELL ID
STAT.                       CO: STATE
~Curve Information Block
DEPT.FT            0 000 00 00: Depth
CCL.                          : Casing Collar Locator
TT3.usec                      : CBL 3' Travel Time
AMP3.mV                       : CBL 3' Amplitude
GR.GAPI                       : Gamma Ray
~Parameter Information Block
~A  Depth       CCL         TT3         AMP3         GR     
# ...
   425.5000      0.0000    600.7623      4.2044     89.5075
   425.7500      0.0000    597.8705      4.0977     90.6682
   426.0000      0.0000    594.6719      4.0092     92.1321
   426.2500      0.0000    592.6282      3.9451     93.9674
   426.5000      0.0000    592.7734      3.9048     96.4782
   426.7500      0.0000    595.1273      3.8828     99.3208
   427.0000      0.0000    599.1854      3.8717    101.4163
   427.2500      0.0000    604.4641      3.8688    101.6790
   427.5000      0.0000    610.1215      3.8787    100.1278
   427.7500      0.0000    614.6608      3.9089     98.4296
   428.0000      0.0000    617.0156      3.9635     98.8013
   428.2500      0.0000    617.9283      4.0410    101.9536
   428.5000      0.0000    619.5875      4.1349    106.3078
   428.7500      0.0000    623.9554      4.2331    109.3724
   429.0000      0.0000    631.7498      4.3196    109.7036
   429.2500      0.0000    642.1506      4.3802    107.4820
   429.5000      0.0000    652.4651      4.4092    103.6774
   429.7500      0.0000    658.9519      4.4105     99.2320
   430.0000      0.0000    659.5045      4.3942     94.9681
   430.2500      0.0000    655.4056      4.3701     91.6611
   430.5000      0.0000    649.7021      4.3446     89.8956
   430.7500      0.0000    644.3947      4.3228     89.9123
   431.0000      0.0000    639.8426      4.3109     91.6209
   431.2500      0.0000    636.0512      4.3124     94.6816
   431.5000      0.0000    633.4460      4.3233     98.4850
   431.7500      0.0000    632.6301      4.3289    102.2740
   432.0000      0.0000    634.0892      4.3078    105.6385
   432.2500      0.0000    637.9697      4.2390    108.7923
   432.5000      0.0000    643.6624      4.1123    112.0647
   432.7500      0.0000    649.7773      3.9362    115.2569
   433.0000      0.0000    655.0171      3.7352    117.7400
   433.2500      0.0000    658.9737      3.5379    118.8685
   433.5000      0.0000    661.6763      3.3635    117.9449
   433.7500      0.0000    662.7388      3.2150    114.1826
   434.0000      0.0000    661.8079      3.0798    107.3749
   434.2500      0.0000    660.0179      2.9364     98.7369
   434.5000      0.0000    660.2489      2.7636     90.7187
   434.7500      0.0000    665.0463      2.5491     85.3677
   435.0000      0.0000    673.9496      2.2987     82.6804
   435.2500      0.0000    683.2172      2.0399     80.9352
   435.5000      0.0000    688.5936      1.8131     78.7804
   435.7500      0.0000    688.5437      1.6491     76.6188
   436.0000      0.0000    684.9713      1.5523     75.9538
   436.2500      0.0000    681.0192      1.5035     77.8661
   436.5000      0.0000    678.1173      1.4783     82.2046
   436.7500      0.0000    674.7255      1.4628     87.7825
   437.0000      0.0000    666.8499      1.4538     93.0740
   437.2500      0.0000    648.8737      1.4510     97.0683
   437.5000      0.0000    615.2505      1.4502     99.8813
   437.7500      0.0000    564.8400      1.4446    102.4734
   438.0000      0.0000    505.0388      1.4282    105.3813
   438.2500      0.0000    449.3398      1.3975    107.8261
   438.5000      0.0000    408.6963      1.3545    108.5930
   438.7500      0.0000    385.4397      1.3076    107.6593
   439.0000      0.0000    375.0042      1.2692    106.2235
   439.2500      0.0000    371.4147      1.2490    105.1768
   439.5000      0.0000    370.7230      1.2483    104.4352
   439.7500      0.0000    371.5517      1.2627    103.9482
   440.0000      0.0000    374.6642      1.2874    104.4609
   440.2500      0.0000    382.5421      1.3198    106.6948
   440.5000      0.0000    397.7407      1.3571    110.2580
   440.7500      0.0000    419.0833      1.3960    113.8616
   441.0000      0.0000    438.6993      1.4356    116.4125
   441.2500      0.0000    445.6964      1.4788    117.6307
   441.5000      0.0000    435.5299      1.5295    117.8142
   441.7500      0.0000    414.5693      1.5882    117.2729
   442.0000      0.0000    393.8675      1.6480    115.7805
   442.2500      0.0000    380.0975      1.6971    112.6399
   442.5000      0.0000    373.3239      1.7251    107.9082
   442.7500      0.0000    370.6584      1.7305    103.4124
   443.0000      0.0000    369.6808      1.7224    101.5663
   443.2500      0.0000    369.2700      1.7149    102.9985
   443.5000      0.0000    369.1210      1.7210    106.1383
   443.7500      0.0000    369.3042      1.7522    109.1542
   444.0000      0.0000    370.1216      1.8195    111.3347
   444.2500      0.0000    372.3132      1.9306    112.3885
   444.5000      0.0000    377.4113      2.0840    111.4331
   444.7500      0.0000    387.9929      2.2671    107.3209
   445.0000      0.0000    407.0759      2.4612     99.7299
   445.2500      0.0000    436.0449      2.6482     89.7453
   445.5000      0.0000    472.1548      2.8150     79.4627
   445.7500      0.0000    508.6217      2.9614     71.0439
   446.0000      0.0000    538.8569      3.1115     65.8273
   446.2500      0.0000    561.2122      3.3177     63.8891
   446.5000      0.0000    578.8224      3.6414     64.1446
   446.7500      0.0000    594.8573      4.1080     64.9781
   447.0000      0.0000    609.2813      4.6690     65.2353
   447.2500      0.0000    620.7786      5.2157     64.7908
   447.5000      0.0000    630.1854      5.6556     63.9521
   447.7500      0.0000    639.8856      5.9817     62.3443
   448.0000      0.0000    649.9691      6.2467     58.8197
   448.2500      0.0000    657.1407      6.4749     52.7278
   448.5000      0.0000    658.4200      6.6379     45.2064
   448.7500      2.0000    654.9253      6.7265     38.9639
   449.0000     -2.0000    651.1122      6.8014     36.4592
   449.2500      0.0000    650.8530      6.9445     37.9970
   449.5000      0.0000    654.9469      7.1684     41.4932
   449.7500      0.0000    662.0208      7.3850     44.2128
   450.0000      0.0000    670.6564      7.4679     44.7757
   450.2500      0.0000    679.8545      7.3598     43.5825
   450.5000      0.0000    688.2530      7.1292     41.7757
   450.7500      0.0000    694.6248      6.9050     40.2885
   451.0000      0.0000    699.4479      6.7515     39.7333
   451.2500      0.0000    704.5994      6.6390     40.6006
   451.5000      0.0000    710.8513      6.5289     43.0970
   451.7500      0.0000    716.6490      6.4344     46.6265
   452.0000      0.0000    720.0657      6.3878     49.5922
   452.2500      0.0000    721.0829      6.3909     50.2708
   452.5000      0.0000    720.9793      6.4165     48.3653
   452.7500      0.0000    720.1981      6.4362     45.4915
   453.0000      0.0000    718.1542      6.4340     43.7323
   453.2500      0.0000    714.9586      6.4063     43.7744
   453.5000      0.0000    711.9913      6.3618     44.7122
   453.7500      0.0000    710.4898      6.3182     45.5025
   454.0000      0.0000    710.4211      6.2930     46.1747
   454.2500      0.0000    710.9672      6.2935     47.6056
   454.5000      0.0000    711.5288      6.3141     50.4891
   454.7500      0.0000    712.0432      6.3444     54.5707
   455.0000      0.0000    712.7614      6.3786     58.5952
   455.2500      0.0000    714.0767      6.4170     60.9392
   455.5000      0.0000    716.4951      6.4604     60.5734
   455.7500      0.0000    720.4281      6.5027     57.7453
   456.0000      0.0000    725.7209      6.5291     53.8338
   456.2500      0.0000    731.3713      6.5222     50.4895
   456.5000      0.0000    735.9210      6.4728     48.7012
   456.7500      0.0000    738.2128      6.3819     48.4128
   457.0000      0.0000    737.7816      6.2545     49.0530
   457.2500      0.0000    734.8037      6.0928     50.4576
   457.5000      0.0000    730.1049      5.8984     53.0156
   457.7500      0.0000    725.1298      5.6811     56.8348
   458.0000      0.0000    721.2705      5.4618     61.3525
   458.2500      0.0000    718.8637      5.2642     66.2840
   458.5000      0.0000    717.0981      5.1005     72.5429
   458.7500      0.0000    715.0915      4.9680     81.2853
