~Version Information
VERS.                      2.0: CWLS Log ASCII Standard - VERSION 2.0
WRAP.                       NO: One line per depth step
~Well Information Block
STRT.FT               545.0000: 
STOP.FT              1922.0000: 
STEP.FT                 0.2500: 
NULL.                -999.2500: 
COMP.          Pioneer Natural Resources: COMPANY
WELL.            Summers 21-19: WELL
FLD.           Purgatoire River: FIELD
LOC.           900' FNL & 1950' FWL: LOCATION
PROV.                 Colorado: PROVINCE
CNTY.               Las Animas: COUNTRY
SRVC.                Patterson: SERVICE COMPANY
DATE.          Sat Oct 15 03:34:13 2005: LOG DATE
UWI.           05 071 08315 00: UNIQUE WELL ID
~Curve Information Block
DEPT.FT            0 000 00 00: Depth
SN.Ohm-m                      : IEL Short Normal
SP.mV                         : IEL Spontaneous Potential
DIR.Ohm-m                     : IEL Induction Resistivity
GR.GAPI                       : Gamma Ray
~Parameter Information Block
~A  Depth        SN          SP         DIR          GR     
# ...
   813.0000   2000.0000   2000.0000     18.7895    128.4145
   813.2500   2000.0000   2000.0000     19.5707    129.4940
   813.5000   2000.0000   2000.0000     20.3804    128.1783
   813.7500   2000.0000   2000.0000     21.1696    125.3065
   814.0000   2000.0000   2000.0000     21.9010    119.5242
   814.2500   2000.0000   2000.0000     22.5315    115.9630
   814.5000   2000.0000   2000.0000     23.0057    112.6022
   814.7500   2000.0000   2000.0000     23.2723    112.0693
   815.0000   2000.0000   2000.0000     23.3033    113.8585
   815.2500   2000.0000   2000.0000     23.0897    116.3191
   815.5000   2000.0000   2000.0000     22.6250    120.1995
   815.7500   2000.0000   2000.0000     21.9042    121.7419
   816.0000   2000.0000   2000.0000     20.9504    121.2714
   816.2500   2000.0000   2000.0000     19.8433    119.1629
   816.5000   2000.0000   2000.0000     18.7113    114.4793
   816.7500   2000.0000   2000.0000     17.6837    111.2256
   817.0000   2000.0000   2000.0000     16.8427    107.1939
   817.2500   2000.0000   2000.0000     16.2083    105.2019
   817.5000   2000.0000   2000.0000     15.7638    103.1060
   817.7500   2000.0000   2000.0000     15.5073    102.5252
   818.0000   2000.0000   2000.0000     15.5191    104.0479
   818.2500   2000.0000   2000.0000     16.0569    107.1749
   818.5000   2000.0000   2000.0000     17.7850    114.3796
   818.7500   2000.0000   2000.0000     22.7606    119.7324
   819.0000   2000.0000   2000.0000     42.7749    126.7068
   819.2500   2000.0000   2000.0000 100000.0000    129.9559
   819.5000   2000.0000   2000.0000 100000.0000    131.9019
   819.7500   2000.0000   2000.0000 100000.0000    130.9194
   820.0000   2000.0000   2000.0000 100000.0000    126.2939
   820.2500   2000.0000   2000.0000 100000.0000    121.9878
   820.5000   2000.0000   2000.0000 100000.0000    115.7276
   820.7500   2000.0000   2000.0000 100000.0000    112.4067
   821.0000   2000.0000   2000.0000 100000.0000    108.7126
   821.2500   2000.0000   2000.0000 100000.0000    107.0311
   821.5000   2000.0000   2000.0000 100000.0000    106.4217
   821.7500   2000.0000   2000.0000 100000.0000    107.8830
   822.0000   2000.0000   2000.0000 100000.0000    112.8893
   822.2500   2000.0000   2000.0000 100000.0000    117.3817
   822.5000   2000.0000   2000.0000 100000.0000    124.2635
   822.7500   2000.0000   2000.0000 100000.0000    128.3982
   823.0000   2000.0000   2000.0000 100000.0000    133.7456
   823.2500   2000.0000   2000.0000 100000.0000    136.6165
   823.5000   2000.0000   2000.0000 100000.0000    139.2484
   823.7500   2000.0000   2000.0000 100000.0000    139.7618
   824.0000   2000.0000   2000.0000 100000.0000    139.5253
   824.2500   2000.0000   2000.0000 100000.0000    139.2215
   824.5000   2000.0000   2000.0000 100000.0000    138.0263
   824.7500   2000.0000   2000.0000 100000.0000    135.7874
   825.0000   2000.0000   2000.0000 100000.0000    129.4272
   825.2500   2000.0000   2000.0000      7.9736    123.8102
   825.5000   2000.0000   2000.0000      1.8016    115.5742
   825.7500   2000.0000   2000.0000      0.7356    111.2980
   826.0000   2000.0000   2000.0000      0.3538    107.2259
   826.2500   2000.0000   2000.0000      0.1797    105.7463
   826.5000   2000.0000   2000.0000      0.0996    104.3963
   826.7500   2000.0000   2000.0000      0.0653    103.4134
   827.0000   2000.0000   2000.0000      0.0528    100.5883
   827.2500   2000.0000   2000.0000      0.0517     97.2034
   827.5000   2000.0000   2000.0000      0.0591     89.6764
   827.7500   2000.0000   2000.0000      0.0759     83.6514
   828.0000   2000.0000   2000.0000      0.1067     75.0796
   828.2500   2000.0000   2000.0000      0.1622     70.7021
   828.5000   2000.0000   2000.0000      0.2629     66.6558
   828.7500   2000.0000   2000.0000      0.4494     65.2068
   829.0000   2000.0000   2000.0000      0.8296     63.7277
   829.2500   2000.0000   2000.0000      1.8089     62.7441
   829.5000   2000.0000   2000.0000      6.1327     61.4336
   829.7500   2000.0000   2000.0000 100000.0000     61.2764
   830.0000   2000.0000   2000.0000 100000.0000     63.0727
   830.2500   2000.0000   2000.0000 100000.0000     65.4983
   830.5000   2000.0000   2000.0000 100000.0000     69.4239
   830.7500   2000.0000   2000.0000 100000.0000     71.1020
   831.0000   2000.0000   2000.0000 100000.0000     70.9934
   831.2500   2000.0000   2000.0000 100000.0000     69.1085
   831.5000   2000.0000   2000.0000 100000.0000     64.4746
   831.7500   2000.0000   2000.0000 100000.0000     61.0659
   832.0000   2000.0000   2000.0000 100000.0000     56.7376
   832.2500   2000.0000   2000.0000 100000.0000     54.5675
   832.5000   2000.0000   2000.0000 100000.0000     51.8905
   832.7500   2000.0000   2000.0000     17.3732     50.1335
   833.0000   2000.0000   2000.0000      3.0023     47.3980
   833.2500   2000.0000   2000.0000      1.1977     45.7833
   833.5000   2000.0000   2000.0000      0.6028     44.6695
   833.7500   2000.0000   2000.0000      0.3327     45.4880
   834.0000   2000.0000   2000.0000      0.1899     49.7106
   834.2500   2000.0000   2000.0000      0.1120     54.3207
   834.5000   2000.0000   2000.0000      0.0705     62.8607
   834.7500   2000.0000   2000.0000      0.0492     68.9936
   835.0000   2000.0000   2000.0000      0.0397     78.1213
   835.2500   2000.0000   2000.0000      0.0386     83.8963
   835.5000   2000.0000   2000.0000      0.0470     91.7455
   835.7500   2000.0000   2000.0000      0.0728     96.2944
   836.0000   2000.0000   2000.0000      0.1376    102.1228
   836.2500   2000.0000   2000.0000      0.2870    105.5632
   836.5000   2000.0000   2000.0000      0.6176    110.4140
   836.7500   2000.0000   2000.0000      1.5021    113.3499
   837.0000   2000.0000   2000.0000      5.8364    116.7938
   837.2500   2000.0000   2000.0000 100000.0000    118.3948
   837.5000   2000.0000   2000.0000 100000.0000    120.5036
   837.7500   2000.0000   2000.0000 100000.0000    122.3003
   838.0000   2000.0000   2000.0000 100000.0000    125.9388
   838.2500   2000.0000   2000.0000 100000.0000    128.7383
   838.5000   2000.0000   2000.0000 100000.0000    132.8011
   838.7500   2000.0000   2000.0000 100000.0000    135.0793
   839.0000   2000.0000   2000.0000 100000.0000    137.3855
   839.2500   2000.0000   2000.0000 100000.0000    138.0295
   839.5000   2000.0000   2000.0000 100000.0000    137.9275
   839.7500   2000.0000   2000.0000 100000.0000    137.5909
   840.0000   2000.0000   2000.0000 100000.0000    137.2181
   840.2500   2000.0000   2000.0000 100000.0000    136.8629
   840.5000   2000.0000   2000.0000 100000.0000    135.1989
   840.7500   2000.0000   2000.0000 100000.0000    133.0477
   841.0000   2000.0000   2000.0000 100000.0000    129.2399
   841.2500   2000.0000   2000.0000 100000.0000    127.4605
   841.5000   2000.0000   2000.0000 100000.0000    126.9211
   841.7500   2000.0000   2000.0000 100000.0000    127.4065
   842.0000   2000.0000   2000.0000 100000.0000    127.6041
   842.2500   2000.0000   2000.0000 100000.0000    126.8063
   842.5000   2000.0000   2000.0000 100000.0000    124.3199
   842.7500   2000.0000   2000.0000 100000.0000    122.0726
   843.0000   2000.0000   2000.0000     25.2911    118.3686
   843.2500   2000.0000   2000.0000     13.6391    116.1975
   843.5000   2000.0000   2000.0000     10.3087    114.4302
   843.7500   2000.0000   2000.0000      8.9800    114.4886
   844.0000   2000.0000   2000.0000      8.4019    115.6752
   844.2500   2000.0000   2000.0000      8.1506    116.2222
   844.5000   2000.0000   2000.0000      8.0568    114.9081
   844.7500   2000.0000   2000.0000      8.0660    112.0388
   845.0000   2000.0000   2000.0000      8.1781    105.4439
   845.2500   2000.0000   2000.0000      8.4102    100.9468
   845.5000   2000.0000   2000.0000      8.7732     97.0271
   845.7500   2000.0000   2000.0000      9.2584     97.4193
   846.0000   2000.0000   2000.0000      9.8337    102.4735
   846.2500   2000.0000   2000.0000     10.4466    107.7580
