~Version Information
VERS.                      2.0: CWLS Log ASCII Standard - VERSION 2.0
WRAP.                       NO: One line per depth step
~Well Information Block
STRT.FT                15.0000: 
STOP.FT              1891.7500: 
STEP.FT                 0.2500: 
NULL.                -999.2500: 
COMP.          Pioneer Natural Resources: COMPANY
WELL.          Oink Oink 14-36 Tr: WELL
FLD.           Purgatoire River: FIELD
LOC.           236' FSL & 164' FWL: LOCATION
PROV.                 Colorado: PROVINCE
CNTY.               Las Animas: COUNTRY
SRVC.                Patterson: SERVICE COMPANY
DATE.          Wed Jun 22 11:40:13 2005: LOG DATE
UWI.           05 071 08393 00: UNIQUE WELL ID
~Curve Information Block
DEPT.FT            0 000 00 00: Depth
GR.GAPI                       : Gamma Ray
CCL.                          : Casing Collar Locator
TT3.usec                      : CBL 3' Travel Time
AMP3.mV                       : CBL 3' Amplitude
~Parameter Information Block
~A  Depth        GR         CCL         TT3         AMP3    
    15.0000   -999.2500      0.0000    276.1966     56.6538
    15.2500   -999.2500      0.0000    269.5257     55.4400
    15.5000   -999.2500      0.0000    269.2591     53.0080
    15.7500   -999.2500      0.0000    271.6194     49.7676
    16.0000   -999.2500      0.0000    275.3051     46.0836
    16.2500   -999.2500      0.0000    279.1072     42.3597
    16.5000   -999.2500      0.0000    281.5659     39.0556
    16.7500   -999.2500      0.0000    281.8928     36.5689
    17.0000   -999.2500      0.0000    280.5827     35.0438
    17.2500   -999.2500      2.7644    278.8404     34.3435
    17.5000   -999.2500      3.0000    277.5225     34.2704
    17.7500   -999.2500      0.0000    276.7453     34.8297
    18.0000   -999.2500      0.0000    276.1984     36.2980
    18.2500   -999.2500      0.0000    275.5377     38.9838
    18.5000   -999.2500      0.0000    274.5654     42.8129
    18.7500   -999.2500      0.0000    273.2585     47.1868
    19.0000   -999.2500      0.0000    271.7291     51.3696
    19.2500     78.2463      0.0000    270.1621     54.9501
    19.5000     80.6945      0.0000    268.7702     57.8346
    19.7500     81.7745      0.0000    267.7249     59.9896
    20.0000     81.6139      0.0000    267.0810     61.4088
    20.2500     80.7155      0.0000    266.7647     62.2205
    20.5000     79.8157      0.0000    266.6457     62.6510
    20.7500     79.3698      0.0000    266.6127     62.8873
    21.0000     79.0023      0.0000    266.6025     63.0226
    21.2500     77.7220      0.0000    266.5912     63.0934
    21.5000     74.9388      0.0000    266.5779     63.1198
    21.7500     71.1810      0.0000    266.5685     63.1215
    22.0000     67.6076      0.0000    266.5658     63.1160
    22.2500     64.9264      0.0000    266.5670     63.1098
    22.5000     63.0260      0.0000    266.5674     63.0965
    22.7500     61.5927      0.0000    266.5645     63.0659
    23.0000     60.7301      0.0000    266.5599     63.0140
    23.2500     60.8020      0.0000    266.5545     62.9435
    23.5000     61.7969      0.0000    266.5456     62.8607
    23.7500     63.1019      0.0000    266.5296     62.7806
    24.0000     64.0087      0.0000    266.5060     62.7257
    24.2500     64.3482      0.0000    266.4797     62.7105
    24.5000     64.5015      0.0000    266.4584     62.7315
    24.7500     64.9870      0.0000    266.4466     62.7772
    25.0000     66.2208      0.0000    266.4426     62.8434
    25.2500     68.3333      0.0000    266.4426     62.9309
    25.5000     70.8627      0.0000    266.4437     63.0304
    25.7500     72.8450      0.0000    266.4434     63.1185
    26.0000     73.4129      0.0000    266.4401     63.1718
    26.2500     72.2127      0.0000    266.4372     63.1836
    26.5000     69.3903      0.0000    266.4385     63.1651
    26.7500     65.6705      0.0000    266.4416     63.1350
    27.0000     62.4128      0.0000    266.4414     63.1107
    27.2500     60.9063      0.0000    266.4389     63.1046
    27.5000     61.2200      0.0000    266.4383     63.1214
    27.7500     62.0330      0.0000    266.4398     63.1499
    28.0000     61.9461      0.0000    266.4417     63.1425
    28.2500     60.8844      0.0000    266.4537     62.9821
    28.5000     59.9919      0.0000    266.5192     62.4637
    28.7500     60.2856      0.0000    266.7679     61.3438
    29.0000     61.6681      0.0000    267.4971     59.4356
    29.2500     63.1732      0.0000    269.2486     56.6367
    29.5000     63.8950      0.0000    272.7553     52.8745
    29.7500     63.5906      0.0000    278.6021     48.1507
    30.0000     62.5317      0.0000    286.6811     42.7230
    30.2500     61.0151      0.0000    296.2883     37.1290
    30.5000     59.1305      0.0000    307.7019     31.8918
    30.7500     56.9297      0.0000    324.6780     27.2390
    31.0000     54.6384      1.9611    354.9815     23.1497
    31.2500     52.6255     -3.0000    405.6060     19.5677
    31.5000     51.1968     -3.0000    474.0937     16.4884
    31.7500     50.4616      0.0000    545.1088     13.9245
    32.0000     50.3159      0.0000    599.9012     11.8865
    32.2500     50.4789      0.0000    630.9610     10.3763
    32.5000     50.5948      0.0000    645.5258      9.3447
    32.7500     50.4101      0.0000    655.3875      8.6568
    33.0000     50.0002      0.0000    666.6251      8.1382
    33.2500     49.8348      0.0000    678.7969      7.6656
    33.5000     50.3574      0.0000    689.5248      7.2079
    33.7500     51.4065      0.0000    697.2835      6.7952
    34.0000     52.2993      0.0000    701.2825      6.4663
    34.2500     52.4512      0.0000    701.3741      6.2370
    34.5000     51.6938      0.0000    698.8817      6.0946
    34.7500     50.2413      0.0000    696.3043      6.0119
    35.0000     48.7006      0.0000    695.1760      5.9627
    35.2500     47.9529      0.0000    694.8334      5.9282
    35.5000     48.7123      0.0000    693.8235      5.8962
    35.7500     51.1433      0.0000    691.7205      5.8637
    36.0000     54.8612      0.0000    689.1725      5.8371
    36.2500     59.2071      0.0000    687.0771      5.8257
    36.5000     63.5208      0.0000    686.1378      5.8301
    36.7500     67.2824      0.0000    686.6308      5.8359
    37.0000     70.1054      0.0000    688.4507      5.8190
    37.2500     71.6783      0.0000    691.6163      5.7616
    37.5000     71.8074      0.0000    696.2196      5.6687
    37.7500     70.6431      0.0000    701.2510      5.5665
    38.0000     68.8409      0.0000    703.9893      5.4836
    38.2500     67.2145      0.0000    701.8043      5.4336
    38.5000     66.1265      0.0000    695.1138      5.4129
    38.7500     65.4947      0.0000    687.9637      5.4071
    39.0000     65.3338      0.0000    684.9196      5.3983
    39.2500     65.6985      0.0000    687.4061      5.3747
    39.5000     66.0895      0.0000    693.2454      5.3374
    39.7500     65.6934      0.0000    699.1527      5.2982
    40.0000     64.3878      0.0000    703.1346      5.2710
    40.2500     62.9001      0.0000    704.9594      5.2638
    40.5000     61.9372      0.0000    705.3074      5.2760
    40.7500     61.6922      0.0000    704.9308      5.3012
    41.0000     62.1013      0.0000    704.3373      5.3348
    41.2500     62.9199      0.0000    703.7964      5.3769
    41.5000     63.5571      0.0000    703.3518      5.4266
    41.7500     63.4088      0.0000    702.7267      5.4785
    42.0000     62.3785      0.0000    701.1503      5.5272
    42.2500     60.7314      0.0000    697.3666      5.5701
    42.5000     58.6167      0.0000    690.2247      5.6058
    42.7500     56.0960      0.0000    679.6885      5.6324
    43.0000     53.5436      0.0000    667.2563      5.6490
    43.2500     51.6940      0.0000    655.2279      5.6544
    43.5000     51.1307      0.0000    645.7113      5.6453
    43.7500     51.6961      0.0000    640.4041      5.6216
    44.0000     52.4969      0.0000    640.7593      5.5924
    44.2500     52.6370      0.0000    647.5452      5.5710
    44.5000     51.9595      0.0000    659.7998      5.5654
    44.7500     51.1061      0.0000    674.4176      5.5740
    45.0000     50.9758      0.0000    687.4728      5.5903
    45.2500     52.0710      0.0000    696.4497      5.6057
    45.5000     54.1415      0.0000    701.2564      5.6135
    45.7500     56.3233      0.0000    703.4122      5.6123
    46.0000     57.7159      0.0000    704.8152      5.6053
    46.2500     58.0509      0.0000    707.3235      5.5947
    46.5000     57.9574      0.0000    712.6947      5.5783
    46.7500     58.5330      0.0000    721.6755      5.5554
    47.0000     60.5108      0.0000    732.3449      5.5302
    47.2500     63.7755      0.0000    740.0196      5.5096
    47.5000     67.6473      0.0000    740.4244      5.4956
    47.7500     71.5783      0.0000    733.6480      5.4831
    48.0000     75.5709      0.0000    724.4426      5.4603
    48.2500     79.9879      0.0000    718.8466      5.4136
