~Version Information
VERS.                      2.0: CWLS Log ASCII Standard - VERSION 2.0
WRAP.                       NO: One line per depth step
~Well Information Block
STRT.FT               221.2000: 
STOP.FT              2260.4000: 
STEP.FT                 0.1000: 
NULL.                -999.2500: 
COMP.          Petrogulf Corporation: COMPANY
WELL.          Anderson 18-43V: WELL
FLD.           Purgatorie River: FIELD
LOC.           1782' FSL & 887' FEL--: LOCATION
CNTY.               Las Animas: COUNTY
SRVC.                         : SERVICE COMPANY
DATE.          Mon Sep 13 14:11:09 2004: LOG DATE
UWI.                          : UNIQUE WELL ID
STAT.                       CO: STATE
~Curve Information Block
DEPT.FT            0 000 00 00: Depth
TT3.usec                      : CBL 3' Travel Time
AMP3.mV                       : CBL 3' Amplitude
GR.GAPI                       : Gamma Ray
CCL.                          : Casing Collar Locator
~Parameter Information Block
~A  Depth       TT3         AMP3         GR         CCL     
# ...
  1842.6000    631.2767      3.4719    125.9957      0.0000
  1842.7000    631.2767      3.4719    125.9957      0.0000
  1842.8000    618.3344      3.5166    116.2058      0.0000
  1842.9000    618.3344      3.5166    116.2058      0.0000
  1843.0000    606.8053      3.6428    108.7705      0.0000
  1843.1000    606.8053      3.6428    108.7705      0.0000
  1843.2000    606.8053      3.6428    108.7705      0.0000
  1843.3000    603.0605      3.8333    105.2902      0.0000
  1843.4000    603.0605      3.8333    105.2902      0.0000
  1843.5000    610.5648      4.0337    104.6714      0.0000
  1843.6000    610.5648      4.0337    104.6714      0.0000
  1843.7000    610.5648      4.0337    104.6714      0.0000
  1843.8000    625.0862      4.1810    105.3278      0.0000
  1843.9000    625.0862      4.1810    105.3278      0.0000
  1844.0000    635.5488      4.2386    106.5943      0.0000
  1844.1000    635.5488      4.2386    106.5943      0.0000
  1844.2000    635.5488      4.2386    106.5943      0.0000
  1844.3000    632.2835      4.2174    108.2152      0.0000
  1844.4000    632.2835      4.2174    108.2152      0.0000
  1844.5000    615.8610      4.1648    109.6649      0.0000
  1844.6000    615.8610      4.1648    109.6649      0.0000
  1844.7000    615.8610      4.1648    109.6649      0.0000
  1844.8000    596.9948      4.1332    110.3471      0.0000
  1844.9000    596.9948      4.1332    110.3471      0.0000
  1845.0000    587.5508      4.1556    110.0652      0.0000
  1845.1000    587.5508      4.1556    110.0652      0.0000
  1845.2000    587.5508      4.1556    110.0652      0.0000
  1845.3000    592.0480      4.2400    109.2186      0.0000
  1845.4000    592.0480      4.2400    109.2186      0.0000
  1845.5000    606.2653      4.3691    108.6659      0.0000
  1845.6000    606.2653      4.3691    108.6659      0.0000
  1845.7000    606.2653      4.3691    108.6659      0.0000
  1845.8000    621.5090      4.4992    109.1555      0.0000
  1845.9000    621.5090      4.4992    109.1555      0.0000
  1846.0000    630.3425      4.5736    110.6340      0.0000
  1846.1000    630.3425      4.5736    110.6340      0.0000
  1846.2000    630.3425      4.5736    110.6340      0.0000
  1846.3000    630.4235      4.5574    111.9932      0.0000
  1846.4000    630.4235      4.5574    111.9932      0.0000
  1846.5000    624.4483      4.4634    111.7667      0.0000
  1846.6000    624.4483      4.4634    111.7667      0.0000
  1846.7000    624.4483      4.4634    111.7667      0.0000
  1846.8000    616.7338      4.3437    109.6279      0.0000
  1846.9000    616.7338      4.3437    109.6279      0.0000
  1847.0000    609.5391      4.2569    107.2306      0.0000
  1847.1000    609.5391      4.2569    107.2306      0.0000
  1847.2000    609.5391      4.2569    107.2306      0.0000
  1847.3000    601.8909      4.2423    106.8722      0.0000
  1847.4000    601.8909      4.2423    106.8722      0.0000
  1847.5000    591.2375      4.3103    109.1449      0.0000
  1847.6000    591.2375      4.3103    109.1449      0.0000
  1847.7000    591.2375      4.3103    109.1449      0.0000
  1847.8000    576.1636      4.4410    112.3749      0.0000
  1847.9000    576.1636      4.4410    112.3749      0.0000
  1848.0000    558.2584      4.5861    114.3157      0.0000
  1848.1000    558.2584      4.5861    114.3157      0.0000
  1848.2000    558.2584      4.5861    114.3157      0.0000
  1848.3000    541.8766      4.6807    113.9734      0.0000
  1848.4000    541.8766      4.6807    113.9734      0.0000
  1848.5000    531.9589      4.6706    112.0326      0.0000
  1848.6000    531.9589      4.6706    112.0326      0.0000
  1848.7000    531.9589      4.6706    112.0326      0.0000
  1848.8000    531.3848      4.5447    110.1096      0.0000
  1848.9000    531.3848      4.5447    110.1096      0.0000
  1849.0000    539.9624      4.3480    109.7149      0.0000
  1849.1000    539.9624      4.3480    109.7149      0.0000
  1849.2000    539.9624      4.3480    109.7149      0.0000
  1849.3000    555.7813      4.1564    111.4314      0.0000
  1849.4000    555.7813      4.1564    111.4314      0.0000
  1849.5000    577.2841      4.0287    114.5031      0.0000
  1849.6000    577.2841      4.0287    114.5031      0.0000
  1849.7000    577.2841      4.0287    114.5031      0.0000
  1849.8000    603.6772      3.9729    117.1482      0.0000
  1849.9000    603.6772      3.9729    117.1482      0.0000
  1850.0000    633.3007      3.9556    117.8254      0.0000
  1850.1000    633.3007      3.9556    117.8254      0.0000
  1850.2000    633.3007      3.9556    117.8254      0.0000
  1850.3000    662.1127      3.9378    116.4886      0.0000
  1850.4000    662.1127      3.9378    116.4886      0.0000
  1850.5000    684.7083      3.9025    114.3201      0.0000
  1850.6000    684.7083      3.9025    114.3201      0.0000
  1850.7000    684.7083      3.9025    114.3201      0.0000
  1850.8000    697.7628      3.8516    112.2143      0.0000
  1850.9000    697.7628      3.8516    112.2143      0.0000
  1851.0000    702.5412      3.7934    110.0041      0.0000
  1851.1000    702.5412      3.7934    110.0041      0.0000
  1851.2000    702.5412      3.7934    110.0041      0.0000
  1851.3000    703.2589      3.7470    107.1762      0.0000
  1851.4000    703.2589      3.7470    107.1762      0.0000
  1851.5000    702.9357      3.7539    103.8968      0.0000
  1851.6000    702.9357      3.7539    103.8968      0.0000
  1851.7000    702.9357      3.7539    103.8968      0.0000
  1851.8000    701.6758      3.8642    101.1383      0.0000
  1851.9000    701.6758      3.8642    101.1383      0.0000
  1852.0000    698.6055      4.0973     99.9659      0.0000
  1852.1000    698.6055      4.0973     99.9659      0.0000
  1852.2000    698.6055      4.0973     99.9659      0.0000
  1852.3000    694.0683      4.4249    100.7663      0.0000
  1852.4000    694.0683      4.4249    100.7663      0.0000
  1852.5000    689.5557      4.8045    103.0359      0.0000
  1852.6000    689.5557      4.8045    103.0359      0.0000
  1852.7000    689.5557      4.8045    103.0359      0.0000
  1852.8000    685.9908      5.2199    105.6536      0.0000
  1852.9000    685.9908      5.2199    105.6536      0.0000
  1853.0000    681.8996      5.6780    107.2615      0.0000
  1853.1000    681.8996      5.6780    107.2615      0.0000
  1853.2000    681.8996      5.6780    107.2615      0.0000
  1853.3000    673.3399      6.1655    106.7187      0.0000
  1853.4000    673.3399      6.1655    106.7187      0.0000
  1853.5000    656.8033      6.6285    103.7587      0.0000
  1853.6000    656.8033      6.6285    103.7587      0.0000
  1853.7000    656.8033      6.6285    103.7587      0.0000
  1853.8000    632.7930      7.0042     99.2624      0.0000
  1853.9000    632.7930      7.0042     99.2624      0.0000
  1854.0000    605.5982      7.2797     94.4999      0.0000
  1854.1000    605.5982      7.2797     94.4999      0.0000
  1854.2000    605.5982      7.2797     94.4999      0.0000
  1854.3000    579.0550      7.5173     90.0568      0.0000
  1854.4000    579.0550      7.5173     90.0568      0.0000
  1854.5000    553.6125      7.8141     85.6996      0.0000
  1854.6000    553.6125      7.8141     85.6996      0.0000
  1854.7000    553.6125      7.8141     85.6996      0.0000
  1854.8000    528.3320      8.2109     81.1471      0.0000
  1854.9000    528.3320      8.2109     81.1471      0.0000
  1855.0000    505.1490      8.6295     76.6665      0.0000
  1855.1000    505.1490      8.6295     76.6665      0.0000
  1855.2000    505.1490      8.6295     76.6665      0.0000
  1855.3000    490.4367      8.9048     72.8712      0.0000
  1855.4000    490.4367      8.9048     72.8712      0.0000
  1855.5000    491.6359      8.8904     70.1550      0.0000
  1855.6000    491.6359      8.8904     70.1550      0.0000
  1855.7000    491.6359      8.8904     70.1550      0.0000
  1855.8000    510.9242      8.5388     68.5188      0.0000
  1855.9000    510.9242      8.5388     68.5188      0.0000
