~Version Information
VERS.                      2.0: CWLS Log ASCII Standard - VERSION 2.0
WRAP.                       NO: One line per depth step
~Well Information Block
STRT.FT               235.0000: 
STOP.FT              1633.0000: 
STEP.FT                 0.1000: 
NULL.                -999.2500: 
COMP.          Petrogulf Corporation: COMPANY
WELL.             State 16-41R: WELL
FLD.           Purgatorie River: FIELD
LOC.           280' FNL & 907' FEL: LOCATION
PROV.                 Colorado: PROVINCE
CNTY.               Las Animas: COUNTRY
SRVC.                Patterson: SERVICE COMPANY
DATE.          Wed Oct 19 07:05:20 2005: LOG DATE
API.           05-071-08345    : API
~Curve Information Block
DEPT.FT            0 000 00 00: Depth
DCAL.in                       : CDL Caliper
RHOB.g/cc                     : CDL Bulk Density
RHOC.g/cc                     : CDL Density Correction
DPOR.pu                       : CDL Density Porosity
GR.GAPI                       : Gamma Ray
NPOR.pu                       : Neutron Porosity
~Parameter Information Block
~A  Depth       DCAL        RHOB        RHOC        DPOR         GR         NPOR    
   235.0000      8.1438      2.2424     -0.4089     24.7041     71.4441     40.3317
   235.1000      8.1438      2.2396     -0.4779     24.8740     71.1995     40.1229
   235.2000      8.1438      2.2475     -0.4969     24.3967     71.1522     39.9646
   235.3000      8.1476      2.2656     -0.4008     23.2951     71.3029     40.0739
   235.4000      8.1476      2.2750     -0.4573     22.7298     73.6070     40.3491
   235.5000      8.1396      2.2718     -0.4336     22.9230     76.3419     40.5312
   235.6000      8.1396      2.2614     -0.4250     23.5509     76.5650     40.5072
   235.7000      8.1396      2.2429     -0.4437     24.6745     74.8465     40.2778
   235.8000      8.1430      2.2234     -0.4758     25.8550     74.5483     40.0129
   235.9000      8.1430      2.2168     -0.5137     26.2562     76.3971     39.9570
   236.0000      8.1463      2.2214     -0.4770     25.9759     76.1461     40.0370
   236.1000      8.1463      2.2226     -0.4615     25.9008     72.4301     40.1043
   236.2000      8.1463      2.2152     -0.4464     26.3513     69.1547     40.2301
   236.3000      8.1371      2.2121     -0.5308     26.5395     68.7857     40.4374
   236.4000      8.1371      2.2245     -0.4552     25.7866     70.2980     40.4958
   236.5000      8.1401      2.2449     -0.4788     24.5490     72.0742     40.3660
   236.6000      8.1401      2.2633     -0.4502     23.4390     72.7340     40.2648
   236.7000      8.1401      2.2753     -0.4537     22.7117     71.6753     40.1250
   236.8000      8.1431      2.2811     -0.4333     22.3587     70.4617     39.8734
   236.9000      8.1431      2.2813     -0.4883     22.3425     69.9639     39.8035
   237.0000      8.1461      2.2782     -0.4574     22.5314     69.4614     40.0695
   237.1000      8.1461      2.2809     -0.4563     22.3670     68.9370     40.4044
   237.2000      8.1461      2.2970     -0.4383     21.3946     69.1832     40.5549
   237.3000      8.1441      2.3152     -0.4192     20.2899     69.9367     40.6391
   237.4000      8.1441      2.3180     -0.4335     20.1182     70.7889     40.7581
   237.5000      8.1480      2.3092     -0.4982     20.6534     70.2768     40.8054
   237.6000      8.1480      2.3079     -0.4577     20.7356     67.5003     40.7209
   237.7000      8.1480      2.3220     -0.4255     19.8758     65.9215     40.6006
   237.8000      8.1421      2.3428     -0.4259     18.6197     67.5160     40.7366
   237.9000      8.1421      2.3569     -0.4231     17.7628     69.5314     41.1258
   238.0000      8.1393      2.3563     -0.4192     17.8025     70.4484     41.2399
   238.1000      8.1393      2.3432     -0.4354     18.5944     71.0603     40.9049
   238.2000      8.1393      2.3224     -0.4154     19.8553     70.1029     40.5140
   238.3000      8.1463      2.2992     -0.4604     21.2587     67.4827     40.3176
   238.4000      8.1463      2.2904     -0.4517     21.7945     66.1428     40.2457
   238.5000      8.1416      2.3031     -0.4423     21.0214     66.8057     40.2143
   238.6000      8.1416      2.3178     -0.4339     20.1346     67.9067     40.2478
   238.7000      8.1416      2.3161     -0.4410     20.2376     67.6703     40.3291
   238.8000      8.1436      2.3023     -0.4193     21.0732     65.7527     40.4651
   238.9000      8.1436      2.2898     -0.5069     21.8296     64.9603     40.5780
   239.0000      8.1418      2.2854     -0.4518     22.0968     67.1922     40.3767
   239.1000      8.1418      2.2839     -0.4621     22.1851     70.5632     39.9445
   239.2000      8.1418      2.2745     -0.4063     22.7552     73.3326     39.7770
   239.3000      8.1406      2.2578     -0.5111     23.7705     75.8443     40.1072
   239.4000      8.1406      2.2521     -0.4880     24.1135     78.1962     40.6052
   239.5000      8.1413      2.2651     -0.5036     23.3260     79.5473     40.7759
   239.6000      8.1413      2.2858     -0.4526     22.0721     79.7461     40.5701
   239.7000      8.1413      2.2968     -0.4172     21.4087     79.5603     40.3983
   239.8000      8.1399      2.2917     -0.4687     21.7151     77.7174     40.5006
   239.9000      8.1399      2.2800     -0.4694     22.4239     73.4375     40.7102
   240.0000      8.1439      2.2652     -0.4439     23.3224     70.2042     40.7589
   240.1000      8.1439      2.2489     -0.4632     24.3108     69.8211     40.6056
   240.2000      8.1439      2.2424     -0.4784     24.7051     69.8803     40.5191
   240.3000      8.1441      2.2494     -0.4418     24.2814     70.8024     40.6436
   240.4000      8.1441      2.2596     -0.4462     23.6604     73.9560     40.8739
   240.5000      8.1349      2.2643     -0.4237     23.3771     77.5397     41.1967
   240.6000      8.1349      2.2627     -0.4765     23.4748     79.9286     41.4668
   240.7000      8.1349      2.2579     -0.4724     23.7611     81.9616     41.5046
   240.8000      8.1404      2.2468     -0.4360     24.4386     84.2478     41.4635
   240.9000      8.1404      2.2330     -0.5105     25.2736     87.5612     41.4325
   241.0000      8.1392      2.2250     -0.4363     25.7589     92.2018     41.3979
   241.1000      8.1392      2.2076     -0.3949     26.8130     95.5958     41.4785
   241.2000      8.1392      2.1694     -0.4787     29.1288     96.1119     41.6587
   241.3000      8.1377      2.1333     -0.5414     31.3172     94.6950     41.8373
   241.4000      8.1377      2.1211     -0.5064     32.0559     90.9387     42.0801
   241.5000      8.1368      2.1228     -0.4484     31.9494     85.5755     42.3766
   241.6000      8.1368      2.1245     -0.4945     31.8465     82.2273     42.6401
   241.7000      8.1368      2.1327     -0.4893     31.3494     81.6606     42.8301
   241.8000      8.1389      2.1528     -0.4695     30.1324     81.7247     42.8767
   241.9000      8.1389      2.1726     -0.4242     28.9340     81.6517     42.7936
   242.0000      8.1402      2.1764     -0.4723     28.7019     81.1084     42.7910
   242.1000      8.1402      2.1694     -0.4910     29.1247     79.1552     43.0083
   242.2000      8.1402      2.1744     -0.4967     28.8267     76.2116     43.2234
   242.3000      8.1398      2.1924     -0.4248     27.7362     73.3191     43.1632
   242.4000      8.1398      2.1942     -0.4574     27.6244     70.2405     42.8647
   242.5000      8.1366      2.1692     -0.4711     29.1370     68.4409     42.5344
   242.6000      8.1366      2.1463     -0.5322     30.5284     69.7074     42.3994
   242.7000      8.1366      2.1474     -0.4843     30.4604     71.8917     42.4918
   242.8000      8.1425      2.1562     -0.4441     29.9282     72.4628     42.5127
   242.9000      8.1425      2.1575     -0.4852     29.8462     71.8053     42.2795
   243.0000      8.1375      2.1640     -0.4926     29.4556     71.5171     41.9090
   243.1000      8.1375      2.1839     -0.4969     28.2481     72.5887     41.6573
   243.2000      8.1375      2.2040     -0.4153     27.0325     74.1112     41.7372
   243.3000      8.1386      2.2141     -0.4523     26.4210     74.1330     42.0927
   243.4000      8.1386      2.2240     -0.4655     25.8202     73.7389     42.4674
   243.5000      8.1379      2.2371     -0.4167     25.0229     75.5497     42.7466
   243.6000      8.1379      2.2345     -0.4007     25.1822     79.2542     42.9485
   243.7000      8.1379      2.2083     -0.5059     26.7677     82.6012     42.9798
   243.8000      8.1379      2.1790     -0.4866     28.5456     85.3342     42.8443
   243.9000      8.1379      2.1595     -0.4356     29.7289     87.8557     42.7560
   244.0000      8.1378      2.1505     -0.4769     30.2698     90.1356     42.7838
   244.1000      8.1378      2.1604     -0.4515     29.6756     92.3754     42.9412
   244.2000      8.1378      2.1787     -0.4094     28.5640     95.4665     43.2080
   244.3000      8.1302      2.1770     -0.4288     28.6677     99.9365     43.3106
   244.4000      8.1302      2.1488     -0.5019     30.3782    104.2746     43.1765
   244.5000      8.1339      2.1152     -0.5218     32.4100    106.7366     43.1876
