~Version Information
VERS.                      2.0: CWLS Log ASCII Standard - VERSION 2.0
WRAP.                       NO: One line per depth step
~Well Information Block
STRT.FT               234.0000: 
STOP.FT              1773.2000: 
STEP.FT                 0.1000: 
NULL.                -999.2500: 
COMP.          Pioneer Natural Resources: COMPANY
WELL.             Tami J 23-18: WELL
FLD.           Purgatorie River: FIELD
LOC.           2250' FSL & 2400' FWL: LOCATION
PROV.                 Colorado: PROVINCE
CNTY.               Las Animas: COUNTRY
SRVC.                         : SERVICE COMPANY
DATE.          Mon Dec 13 07:02:50 2004: LOG DATE
UWI.           05 071 08073 00: UNIQUE WELL ID
~Curve Information Block
DEPT.FT            0 000 00 00: Depth
LTEN.lb                       : Surface Line Tension
DCAL.in                       : CDL Caliper
RHOB.g/cc                     : CDL Bulk Density
RHOC.g/cc                     : CDL Density Correction
DPOR.pu                       : CDL Density Porosity
GR.GAPI                       : Gamma Ray
NPOR.pu                       : Neutron Porosity
~Parameter Information Block
~A  Depth       LTEN        DCAL        RHOB        RHOC        DPOR         GR         NPOR    
# ...
   645.6000    879.3960      7.8960      2.5745      0.0413      4.5783    110.7927     23.4915
   645.7000    879.3960      7.8960      2.5805      0.1331      4.2110    115.8705     23.4110
   645.8000    820.6293      7.8976      2.5726      0.0862      4.6890    115.0412     23.0244
   645.9000    820.6293      7.8976      2.5591      0.0780      5.5095    111.5647     23.0654
   646.0000    818.6503      7.8969      2.5504      0.0756      6.0349    112.3385     23.4861
   646.1000    818.6503      7.8969      2.5506      0.1005      6.0231    119.1540     23.7583
   646.2000    818.6503      7.8969      2.5618      0.1181      5.3447    129.1968     23.6720
   646.3000    839.2725      7.8945      2.5675      0.1571      5.0012    135.7301     23.4636
   646.4000    839.2725      7.8945      2.5529      0.0546      5.8825    135.3774     23.3690
   646.5000    875.8439      7.8938      2.5339      0.0758      7.0380    134.1371     23.3684
   646.6000    875.8439      7.8938      2.5251      0.0591      7.5722    136.7849     23.5084
   646.7000    875.8439      7.8938      2.5266      0.0302      7.4762    139.0626     23.8910
   646.8000    834.3911      7.8969      2.5332      0.0783      7.0800    137.0170     24.2685
   646.9000    834.3911      7.8969      2.5379      0.0919      6.7950    132.4521     24.4479
   647.0000    836.8920      7.9009      2.5479      0.0753      6.1866    127.1445     24.7277
   647.1000    836.8920      7.9009      2.5632      0.1115      5.2585    123.3707     24.9649
   647.2000    836.8920      7.9009      2.5639      0.1373      5.2187    123.9526     24.7597
   647.3000    814.7502      7.8996      2.5507      0.1080      6.0192    127.2550     24.4291
   647.4000    814.7502      7.8996      2.5409      0.1562      6.6125    126.8309     24.2584
   647.5000    802.3680      7.8913      2.5406      0.1130      6.6317    121.2739     24.1973
   647.6000    802.3680      7.8913      2.5515      0.1162      5.9719    115.8161     24.0185
   647.7000    802.3680      7.8913      2.5710      0.0902      4.7900    113.2767     23.4612
   647.8000    847.4594      7.8858      2.5968      0.0913      3.2254    112.8704     22.9074
   647.9000    847.4594      7.8858      2.6222      0.1410      1.6865    112.5581     22.8895
   648.0000    902.7715      7.8878      2.6355      0.1385      0.8799    112.1558     23.1893
   648.1000    902.7715      7.8878      2.6355      0.1606      0.8768    112.8595     23.4290
   648.2000    902.7715      7.8878      2.6270      0.1384      1.3939    113.9621     23.5254
   648.3000    883.3460      7.9086      2.6102      0.1429      2.4116    113.4549     23.5165
   648.4000    883.3460      7.9086      2.5915      0.0743      3.5473    110.6989     23.4473
   648.5000    802.7902      7.9361      2.5856      0.0535      3.9038    106.8805     23.4142
   648.6000    802.7902      7.9361      2.5947      0.0858      3.3500    102.7170     23.5419
   648.7000    802.7902      7.9361      2.6058      0.0891      2.6813    101.0290     23.7576
   648.8000    797.1317      7.9425      2.6059      0.0857      2.6725    106.5881     23.8444
   648.9000    797.1317      7.9425      2.5924      0.0896      3.4916    114.9735     23.6370
   649.0000    890.6266      7.9353      2.5733      0.1074      4.6465    115.6241     23.2844
   649.1000    890.6266      7.9353      2.5601      0.1070      5.4456    108.4857     23.2300
   649.2000    890.6266      7.9353      2.5514      0.0882      5.9761    101.7671     23.6571
   649.3000    869.5576      7.9324      2.5316      0.0571      7.1772    101.3253     24.2164
   649.4000    869.5576      7.9324      2.5007      0.0153      9.0510    106.1598     24.3372
   649.5000    842.8773      7.9401      2.4788      0.0138     10.3764    109.7366     23.8057
   649.6000    842.8773      7.9401      2.4667      0.0697     11.1066    109.3037     23.2661
   649.7000    842.8773      7.9401      2.4449      0.0219     12.4317    109.1386     23.2100
   649.8000    813.1781      7.9485      2.4165     -0.0393     14.1486    112.5441     23.0507
   649.9000    813.1781      7.9485      2.3995      0.0047     15.1803    117.7737     22.4382
   650.0000    863.8640      7.9433      2.3954      0.0316     15.4315    120.3766     21.6752
   650.1000    863.8640      7.9433      2.4042      0.0190     14.8957    119.1306     20.8598
   650.2000    863.8640      7.9433      2.4375      0.0175     12.8805    119.2684     20.1224
   650.3000    893.6987      7.9335      2.4907      0.1297      9.6558    125.5321     19.4530
   650.4000    893.6987      7.9335      2.5370      0.1887      6.8488    132.6822     18.5871
   650.5000    885.7842      7.9397      2.5645      0.1893      5.1838    132.1591     17.5924
   650.6000    885.7842      7.9397      2.5784      0.2397      4.3388    124.9173     16.5840
   650.7000    885.7842      7.9397      2.5748      0.2265      4.5562    119.7686     15.4872
   650.8000    864.4924      7.9969      2.5472      0.1682      6.2323    119.7391     14.3133
   650.9000    864.4924      7.9969      2.4903      0.1681      9.6762    118.4217     13.1679
   651.0000    829.1577      8.1190      2.3945      0.1038     15.4840    110.7741     12.2385
   651.1000    829.1577      8.1190      2.2672      0.0525     23.2011    100.5059     11.7469
   651.2000    829.1577      8.1190      2.1289      0.0334     31.5788     97.1330     11.7533
   651.3000    860.6218      8.2490      1.9854      0.0067     40.2774    102.3852     12.1280
   651.4000    860.6218      8.2490      1.8402     -0.0018     49.0801    107.2101     12.8507
   651.5000    859.6255      8.3229      1.7123     -0.0189     56.8314    107.0917     13.8658
   651.6000    859.6255      8.3229      1.6211     -0.0274     62.3587    105.7948     15.0506
   651.7000    859.6255      8.3229      1.5859     -0.0384     64.4912    104.6944     16.3610
   651.8000    845.1337      8.3514      1.6245      0.0584     62.1490    101.2267     17.6443
   651.9000    845.1337      8.3514      1.7253      0.1470     56.0431     97.0532     18.8549
   652.0000    846.3510      8.3628      1.8525      0.2328     48.3315     95.0675     20.0677
   652.1000    846.3510      8.3628      1.9731      0.3262     41.0254     93.8224     21.1441
   652.2000    846.3510      8.3628      2.0705      0.3326     35.1199     91.3238     21.9058
   652.3000    822.3242      8.3340      2.1519      0.2592     30.1883     88.9929     22.4478
   652.4000    822.3242      8.3340      2.2252      0.2852     25.7474     90.7029     23.0934
   652.5000    839.1259      8.2662      2.2783      0.2345     22.5248     97.5113     23.7879
   652.6000    839.1259      8.2662      2.3043      0.1386     20.9523    103.4058     24.0379
   652.7000    839.1259      8.2662      2.3156      0.0856     20.2692    104.9956     23.7796
   652.8000    890.3641      8.2152      2.3327      0.0602     19.2327    108.5032     23.4186
   652.9000    890.3641      8.2152      2.3701      0.1022     16.9618    115.3324     23.2168
   653.0000    920.5215      8.1980      2.4220      0.1739     13.8201    119.5370     22.9830
   653.1000    920.5215      8.1980      2.4671      0.2064     11.0848    120.2068     22.3406
   653.2000    920.5215      8.1980      2.4784      0.2487     10.3978    118.6340     21.4175
   653.3000    866.1310      8.2017      2.4360      0.2230     12.9700    115.0534     20.7165
   653.4000    866.1310      8.2017      2.3538      0.1868     17.9499    112.6895     20.5156
   653.5000    776.4943      8.2076      2.2711      0.1417     22.9640    114.7570     20.8212
   653.6000    776.4943      8.2076      2.2135      0.1009     26.4568    119.9016     21.3685
   653.7000    776.4943      8.2076      2.1857      0.0095     28.1373    123.1852     21.8003
   653.8000    807.9784      8.1785      2.1887     -0.0238     27.9582    120.7077     21.8709
   653.9000    807.9784      8.1785      2.2123      0.0390     26.5277    114.4842     21.6737
