~Version Information
 VERS.                      2.0: CWLS Log ASCII Standard - VERSION 2.0
 WRAP.                       NO: One line per depth step
 ~Well Information Block
 STRT.FT               886.1000: 
 STOP.FT              2599.0000: 
 STEP.FT                 0.1000: 
 NULL.                -999.2500: 
 COMP.          Petrogulf Corporation: COMPANY
 WELL.               YWAM 7-23V: WELL
 FLD.           Purgatorie River: FIELD
 LOC.           230' FSL & 225' FWL: LOCATION
 CNTY.               Las Animas: COUNTY
 SRVC.                         : SERVICE COMPANY
 DATE.          Sat Oct 30 10:42:52 2004: LOG DATE
 UWI.           05 071 08227 00: UNIQUE WELL ID
 STAT.                 Colorado: STATE
 PROV.                         :Province
 ~Curve Information Block
 DEPT.FT            0 000 00 00: Depth
 DCAL.in                       : CDL Caliper
 RHOB.g/cc                     : CDL Bulk Density
 RHOC.g/cc                     : CDL Density Correction
 DPOR.pu                       : CDL Density Porosity
 GR.GAPI                       : Gamma Ray
 NPOR.pu                       : Neutron Porosity
 ~Parameter Information Block
 ~A  Depth       DCAL        RHOB        RHOC        DPOR         GR         NPOR    
# ...
  2134.1000      7.9718      2.4945      0.0569      9.4256     23.5587     16.3629
  2134.2000      7.9718      2.4821      0.0584     10.1733     23.9219     17.1139
  2134.3000      7.9790      2.4740      0.0324     10.6640     26.9257     17.9630
  2134.4000      7.9790      2.4772      0.0310     10.4717     30.9178     18.6492
  2134.5000      8.0062      2.4889      0.0697      9.7647     32.6835     19.3006
  2134.6000      8.0062      2.4982      0.0581      9.1999     32.5589     19.9995
  2134.7000      8.0062      2.5037      0.0490      8.8693     32.6830     20.5905
  2134.8000      8.0593      2.5026      0.0703      8.9359     32.5703     20.5506
  2134.9000      8.0593      2.4901      0.0598      9.6927     32.1376     20.0717
  2135.0000      8.0865      2.4846      0.0238     10.0242     32.5286     19.8637
  2135.1000      8.0865      2.5075      0.0738      8.6380     33.4423     19.7413
  2135.2000      8.0865      2.5412      0.0877      6.5955     34.2167     19.5088
  2135.3000      8.0879      2.5546      0.1092      5.7819     36.1850     19.4256
  2135.4000      8.0879      2.5468      0.1110      6.2517     38.8726     19.4758
  2135.5000      8.0955      2.5360      0.1090      6.9097     39.0946     19.4160
  2135.6000      8.0955      2.5264      0.1491      7.4916     37.4410     19.3105
  2135.7000      8.0955      2.5159      0.1099      8.1271     37.4691     19.5743
  2135.8000      8.1053      2.5083      0.1263      8.5865     38.7633     20.1852
  2135.9000      8.1053      2.4932      0.1425      9.5031     38.7570     20.8505
  2136.0000      8.1084      2.4636      0.0735     11.2993     36.2509     21.1784
  2136.1000      8.1084      2.4455      0.0306     12.3946     33.6898     20.8780
  2136.2000      8.1084      2.4489      0.1228     12.1896     34.9059     20.3642
  2136.3000      8.1075      2.4388      0.0557     12.7995     39.3602     20.2957
  2136.4000      8.1075      2.3926      0.0199     15.6014     45.3457     21.1990
  2136.5000      8.0754      2.3252      0.0237     19.6845     52.1830     22.6220
  2136.6000      8.0754      2.2674     -0.0060     23.1884     60.7740     22.8895
  2136.7000      8.0754      2.2474      0.0429     24.4015     71.8064     21.8755
  2136.8000      7.9243      2.2669      0.1005     23.2170     80.8419     21.5935
  2136.9000      7.9243      2.2984      0.1152     21.3088     85.9587     23.0731
  2137.0000      7.8755      2.3293      0.1313     19.4383     93.4087     24.9920
  2137.1000      7.8755      2.3837      0.1718     16.1381    106.8684     25.7417
  2137.2000      7.8755      2.4726      0.3317     10.7496    120.6375     25.8762
  2137.3000      7.8700      2.5622      0.4289      5.3211    127.4180     26.7908
  2137.4000      7.8700      2.6176      0.4648      1.9610    129.0662     28.4810
  2137.5000      7.8551      2.6349      0.4423      0.9129    130.6598     29.9960
  2137.6000      7.8551      2.6223      0.3600      1.6778    130.5090     30.4143
  2137.7000      7.8551      2.5871      0.2526      3.8108    126.5517     29.5907
  2137.8000      7.8966      2.5391      0.2045      6.7213    121.2072     28.5963
  2137.9000      7.8966      2.4933      0.1044      9.4998    115.2400     28.2037
  2138.0000      8.0445      2.4632      0.1011     11.3223    112.0912     28.1203
  2138.1000      8.0445      2.4516      0.0975     12.0228    115.0115     28.1904
  2138.2000      8.0445      2.4608      0.0791     11.4651    119.8280     27.9218
  2138.3000      8.0142      2.4838      0.1155     10.0716    122.2178     27.0757
  2138.4000      8.0142      2.4974      0.0939      9.2461    122.8836     26.2163
  2138.5000      7.9737      2.4950      0.0441      9.3917    122.4715     25.4767
  2138.6000      7.9737      2.4856      0.1097      9.9645    118.9501     24.9239
  2138.7000      7.9737      2.4695      0.0821     10.9424    113.3362     24.9482
  2138.8000      7.9236      2.4499      0.0742     12.1301    108.8487     25.2446
  2138.9000      7.9236      2.4390      0.0249     12.7901    104.6565     25.5994
  2139.0000      7.9225      2.4418      0.0544     12.6172    100.3561     26.0256
  2139.1000      7.9225      2.4468      0.0641     12.3171    101.6722     26.4594
  2139.2000      7.9225      2.4432      0.0658     12.5343    111.1534     26.8929
  2139.3000      7.9196      2.4342      0.0320     13.0790    121.6277     27.0088
  2139.4000      7.9196      2.4257      0.0453     13.5913    123.5690     26.8165
  2139.5000      7.9216      2.4212      0.0722     13.8638    116.7284     27.0733
  2139.6000      7.9216      2.4240      0.0660     13.6950    112.1603     27.9591
  2139.7000      7.9216      2.4363      0.0801     12.9527    115.2663     28.6959
  2139.8000      7.9340      2.4580      0.0756     11.6372    119.3042     28.8473
  2139.9000      7.9340      2.4814      0.1308     10.2164    119.2333     28.2781
  2140.0000      7.9375      2.4872      0.1412      9.8664    115.7288     27.0132
  2140.1000      7.9375      2.4650      0.1009     11.2099    112.8996     26.4996
  2140.2000      7.9375      2.4335      0.0530     13.1192    116.2825     27.7309
  2140.3000      7.9106      2.4206      0.0458     13.9011    122.2743     29.1899
  2140.4000      7.9106      2.4244      0.0867     13.6708    124.3471     29.3277
  2140.5000      7.9074      2.4201      0.1316     13.9328    126.6877     28.4308
  2140.6000      7.9074      2.4094      0.0700     14.5839    130.5992     27.6489
  2140.7000      7.9074      2.4211      0.0527     13.8748    128.4392     27.8906
  2140.8000      7.9048      2.4561      0.1313     11.7509    122.0539     28.8961
  2140.9000      7.9048      2.4812      0.1773     10.2300    116.4351     29.6272
  2141.0000      7.9095      2.4766      0.1440     10.5085    110.2483     29.9202
  2141.1000      7.9095      2.4520      0.1742     11.9977    104.4983     30.3541
  2141.2000      7.9095      2.4186      0.1731     14.0241    100.2933     30.7098
  2141.3000      7.9099      2.3720      0.1529     16.8489     96.3060     30.7277
  2141.4000      7.9099      2.3066      0.1199     20.8114     95.5720     30.8317
  2141.5000      7.9148      2.2355      0.0687     25.1202    100.6809     31.0035
  2141.6000      7.9148      2.1729      0.0794     28.9154    106.6361     31.0625
  2141.7000      7.9148      2.1100      0.0356     32.7279    106.7975     31.0886
  2141.8000      7.9220      2.0327      0.0372     37.4146    100.4830     31.0013
  2141.9000      7.9220      1.9433      0.0135     42.8284     93.0757     30.9770
  2142.0000      7.9357      1.8606      0.0246     47.8396     89.2376     31.4209
  2142.1000      7.9357      1.8020      0.0192     51.3953     88.1972     31.9068
  2142.2000      7.9357      1.7787     -0.0450     52.8070     86.4788     31.8070
  2142.3000      7.9945      1.7998     -0.0075     51.5287     81.5804     31.5131
  2142.4000      7.9945      1.8587      0.0872     47.9555     74.8353     31.3918
  2142.5000      8.0609      1.9343      0.1033     43.3744     71.0497     31.3323
  2142.6000      8.0609      2.0076      0.1623     38.9320     72.8630     31.3765
  2142.7000      8.0609      2.0789      0.2004     34.6114     76.0290     31.4175
  2142.8000      8.0156      2.1699      0.1789     29.0953     77.2237     31.0552
  2142.9000      8.0156      2.2889      0.2394     21.8848     77.0459     30.3909
  2143.0000      7.9613      2.4073      0.2345     14.7089     75.2106     29.8712
  2143.1000      7.9613      2.4949      0.1640      9.3998     72.8001     29.5182
  2143.2000      7.9613      2.5414      0.1946      6.5835     72.2453     29.0196
  2143.3000      7.9669      2.5473      0.1721      6.2249     74.4305     28.2303
  2143.4000      7.9669      2.5364      0.1028      6.8822     79.5101     27.2238
  2143.5000      7.9509      2.5443      0.0772      6.4042     83.3593     26.2608
  2143.6000      7.9509      2.5691      0.1203      4.9041     81.6942     26.1686
