~Version Information
VERS.                      2.0: CWLS Log ASCII Standard - VERSION 2.0
WRAP.                       NO: One line per depth step
~Well Information Block
STRT.FT                -7.5000: 
STOP.FT              1877.2500: 
STEP.FT                 0.2500: 
NULL.                -999.2500: 
COMP.          Pioneer Natural Resources: COMPANY
WELL.            Nova 11-14 Tr: WELL
FLD.           Purgatorie River: FIELD
LOC.           706' FNL & 1109' FWL--: LOCATION
PROV.                       CO: PROVINCE
CNTY.               Las Animas: COUNTRY
SRVC.          Patterson Wireline: SERVICE COMPANY
DATE.          Tue Jul 26 15:08:01 2005: LOG DATE
UWI.           05 071 08434 00: UNIQUE WELL ID
~Curve Information Block
DEPT.FT            0 000 00 00: Depth
CCL.                          : Casing Collar Locator
TT3.usec                      : CBL 3' Travel Time
AMP3.mV                       : CBL 3' Amplitude
GR.GAPI                       : Gamma Ray
~Parameter Information Block
~A  Depth       CCL         TT3         AMP3         GR     
# ...
  1332.5000      0.0000    800.3098      5.9638    138.2708
  1332.7500      0.0000    803.9131      5.9393    143.1157
  1333.0000      0.0000    804.0706      5.9205    145.5094
  1333.2500      0.0000    796.1786      5.8831    144.6808
  1333.5000      0.0000    778.3298      5.7946    141.6766
  1333.7500      0.0000    753.5178      5.6250    138.1609
  1334.0000      0.0000    727.9390      5.3663    135.1416
  1334.2500      0.0000    707.1885      5.0423    132.9498
  1334.5000      0.0000    693.9637      4.6946    131.7714
  1334.7500      0.0000    688.0367      4.3606    131.6003
  1335.0000      0.0000    687.1575      4.0644    131.7702
  1335.2500      0.0000    688.4102      3.8239    131.0807
  1335.5000      0.0000    689.7997      3.6570    128.8377
  1335.7500      0.0000    690.8926      3.5771    125.6700
  1336.0000      0.0000    691.9987      3.5827    122.9339
  1336.2500      0.0000    693.0629      3.6525    121.2533
  1336.5000      0.0000    693.7484      3.7533    119.9413
  1336.7500      0.0000    694.5134      3.8561    117.8751
  1337.0000      0.0000    696.8612      3.9448    114.5557
  1337.2500      0.0000    701.8336      4.0151    110.2379
  1337.5000      0.0000    708.4781      4.0687    105.4319
  1337.7500      0.0000    714.5582      4.1138    100.6745
  1338.0000      0.0000    718.9700      4.1669     96.8042
  1338.2500      0.0000    722.9712      4.2466     95.0362
  1338.5000      0.0000    728.3500      4.3582     96.2380
  1338.7500      0.0000    734.2482      4.4827    100.1374
  1339.0000      0.0000    736.7485      4.5844    105.6289
  1339.2500      0.0000    732.8049      4.6313    111.8509
  1339.5000      0.0000    724.2836      4.6125    118.5115
  1339.7500      0.0000    716.9746      4.5434    124.9656
  1340.0000      0.0000    715.4780      4.4597    129.2057
  1340.2500      0.0000    719.2886      4.4024    128.3028
  1340.5000      0.0000    723.4651      4.4015    120.5183
  1340.7500      0.0000    723.2629      4.4649    107.2820
  1341.0000      0.0000    718.9112      4.5792     92.7035
  1341.2500      0.0000    715.5298      4.7183     80.6728
  1341.5000      0.0000    717.7289      4.8570     72.5263
  1341.7500      0.0000    724.8851      4.9817     67.6060
  1342.0000      0.0000    732.1592      5.0917     65.3964
  1342.2500      0.0000    735.0245      5.1900     66.3383
  1342.5000      0.0000    731.9195      5.2786     70.7871
  1342.7500      0.0000    724.0128      5.3598     78.1143
  1343.0000      0.0000    715.1110      5.4310     87.2041
  1343.2500      0.0000    711.6087      5.4686     97.1902
  1343.5000      0.0000    718.8790      5.4362    106.9963
  1343.7500      0.0000    735.6202      5.3265    114.5007
  1344.0000      0.0000    753.3771      5.1812    117.2873
  1344.2500      0.0000    763.1828      5.0533    114.7105
  1344.5000      0.0000    762.4299      4.9629    108.7290
  1344.7500     -2.0000    755.4148      4.8950    102.3818
  1345.0000      0.0000    748.2501      4.8255     97.6357
  1345.2500      0.0000    743.5939      4.7460     94.7044
  1345.5000      0.0000    739.9470      4.6715     92.9639
  1345.7500      0.0000    735.3396      4.6205     91.9499
  1346.0000      0.0000    730.3620      4.5757     91.4728
  1346.2500      0.0000    726.8132      4.4805     91.3471
  1346.5000      0.0000    724.7332      4.2973     91.3320
  1346.7500      0.0000    722.0392      4.0571     91.0570
  1347.0000      0.0000    716.4587      3.8336     89.8883
  1347.2500      0.0000    706.5383      3.6835     87.3908
  1347.5000      0.0000    691.4389      3.6210     84.2452
  1347.7500      0.0000    671.8836      3.6272     82.2082
  1348.0000      0.0000    652.1962      3.6662     82.5527
  1348.2500      0.0000    638.7245      3.7009     84.6822
  1348.5000      0.0000    634.0550      3.7090     86.8036
  1348.7500      0.0000    635.3497      3.6896     87.9592
  1349.0000      0.0000    640.6884      3.6553     88.8103
  1349.2500      0.0000    652.8066      3.6225     90.2648
  1349.5000      0.0000    672.4568      3.6052     91.9447
  1349.7500      0.0000    691.9493      3.6127     92.5799
  1350.0000      0.0000    700.5115      3.6453     91.7725
  1350.2500      0.0000    695.1491      3.6898     90.7820
  1350.5000      0.0000    683.4934      3.7221     91.2305
  1350.7500      0.0000    676.4246      3.7206     93.3179
  1351.0000      0.0000    679.2665      3.6808     95.8063
  1351.2500      0.0000    690.0035      3.6207     97.6720
  1351.5000      0.0000    704.9334      3.5714     99.1219
  1351.7500      0.0000    724.0946      3.5604    100.7339
  1352.0000      0.0000    750.1674      3.5986    102.1795
  1352.2500      0.0000    782.7504      3.6790    102.4455
  1352.5000      0.0000    814.6111      3.7890    101.1417
  1352.7500      0.0000    833.5581      3.9231     98.8965
  1353.0000      0.0000    829.8370      4.0818     96.4373
  1353.2500      0.0000    804.4779      4.2575     93.8363
  1353.5000      0.0000    769.9563      4.4299     90.7246
  1353.7500      0.0000    740.9928      4.5813     86.9653
  1354.0000      0.0000    724.9907      4.7149     83.0309
  1354.2500      0.0000    720.4872      4.8553     79.7764
  1354.5000      0.0000    721.2803      5.0293     77.8318
  1354.7500      0.0000    721.0055      5.2428     77.3180
  1355.0000      0.0000    716.5135      5.4704     78.2103
  1355.2500      0.0000    709.1488      5.6662     80.6733
  1355.5000      0.0000    702.6250      5.7884     84.5977
  1355.7500      0.0000    699.2366      5.8186     88.8869
  1356.0000      0.0000    698.0660      5.7590     91.6584
  1356.2500      0.0000    696.3272      5.6167     91.5062
  1356.5000      0.0000    691.9866      5.4015     88.6534
  1356.7500      0.0000    685.4348      5.1390     84.8453
  1357.0000      0.0000    679.2919      4.8797     82.1414
  1357.2500      0.0000    676.7316      4.6863     81.7057
  1357.5000      0.0000    679.6479      4.6104     83.4514
  1357.7500      0.0000    687.9190      4.6799     86.6454
  1358.0000      0.0000    699.8273      4.9057     90.8958
  1358.2500      0.0000    712.8708      5.2914     96.4977
  1358.5000      0.0000    724.2732      5.8311    103.6778
  1358.7500      0.0000    731.4623      6.5014    111.7754
  1359.0000      0.0000    733.0303      7.2694    119.4810
  1359.2500      0.0000    729.7284      8.1190    125.7513
  1359.5000      0.0000    724.2711      9.0646    130.2331
  1359.7500      0.0000    719.5638     10.1314    133.0124
  1360.0000      0.0000    716.6852     11.3207    134.4426
  1360.2500      0.0000    714.6793     12.5946    135.2985
  1360.5000      0.0000    712.3089     13.8839    136.4818
  1360.7500      0.0000    709.6109     15.1036    138.2297
  1361.0000      0.0000    707.5802     16.1671    139.9150
  1361.2500      0.0000    706.8836     17.0073    140.6681
  1361.5000      0.0000    707.3210     17.6043    140.1065
  1361.7500      0.0000    708.2867     18.0072    138.8055
  1362.0000      0.0000    709.4370     18.3278    138.0893
  1362.2500      0.0000    710.8023     18.6940    138.8601
  1362.5000      0.0000    711.9533     19.1860    140.5844
  1362.7500      0.0000    710.2748     19.7966    141.8518
  1363.0000      0.0000    700.0683     20.4434    141.7679
  1363.2500      0.0000    676.2805     21.0099    140.2594
  1363.5000      0.0000    642.8188     21.3849    137.2557
  1363.7500      0.0000    615.8114     21.4913    132.4698
  1364.0000      0.0000    612.6551     21.3061    126.1698
  1364.2500      0.0000    636.1202     20.8693    119.3878
  1364.5000      0.0000    672.9745     20.2821    113.0408
  1364.7500      0.0000    707.9844     19.6871    107.4919
  1365.0000      0.0000    734.7507     19.2186    103.1069
  1365.2500      0.0000    753.5574     18.9434    100.4581
  1365.5000      0.0000    764.8313     18.8397     99.7775
  1365.7500      0.0000    768.0822     18.8313    100.7418
