~Version Information
VERS.                      2.0: CWLS Log ASCII Standard - VERSION 2.0
WRAP.                       NO: One line per depth step
~Well Information Block
STRT.FT               -16.5000: 
STOP.FT              1695.5000: 
STEP.FT                 0.2500: 
NULL.                -999.2500: 
COMP.          Pioneer Natural Resources: COMPANY
WELL.          Rancher 12-35 Tr: WELL
FLD.           Purgatorie River: FIELD
LOC.           2242' FNL & 308' FWL SWNW 35 32S 67W: LOCATION
PROV.                       CO: PROVINCE
CNTY.               Las Animas: COUNTRY
SRVC.                         : SERVICE COMPANY
DATE.         Fri Jul 08 09:39:00 2005: LOG DATE
UWI.                071 08430 : UNIQUE WELL ID
~Curve Information Block
DEPT.FT            0 000 00 00: Depth
CCL.                          : Casing Collar Locator
TT3.usec                      : CBL 3' Travel Time
AMP3.mV                       : CBL 3' Amplitude
GR.GAPI                       : Gamma Ray
~Parameter Information Block
~A  Depth       CCL         TT3         AMP3         GR     
# ...
  1323.5000      0.0000    767.6579      6.6295    106.6006
  1323.7500      0.0000    767.7608      7.0284    106.4417
  1324.0000      0.0000    768.7153      7.6286    106.7257
  1324.2500      0.0000    771.8806      8.3688    107.9710
  1324.5000      0.0000    776.9373      9.0330    109.8165
  1324.7500      0.0000    781.4420      9.4535    111.4775
  1325.0000      0.0000    782.9454      9.6472    112.5047
  1325.2500      0.0000    781.0577      9.7555    113.1054
  1325.5000      0.0000    777.1627      9.8997    113.9951
  1325.7500      0.0000    772.6503     10.0987    116.1567
  1326.0000      0.0000    767.8863     10.2844    120.3204
  1326.2500      0.0000    762.6172     10.3696    125.7926
  1326.5000      0.0000    756.7321     10.3181    129.8837
  1326.7500      0.0000    750.4749     10.1609    129.4393
  1327.0000      0.0000    744.3670      9.9548    123.4733
  1327.2500      0.0000    739.1462      9.7412    114.2216
  1327.5000      0.0000    735.5166      9.5495    105.4413
  1327.7500      0.0000    733.7711      9.4219     99.6308
  1328.0000      0.0000    733.7738      9.4014     97.0020
  1328.2500      0.0000    735.1978      9.4805     96.8069
  1328.5000      0.0000    737.4980      9.5691     98.7079
  1328.7500      0.0000    739.6589      9.5319    102.6106
  1329.0000      0.0000    740.4439      9.2722    108.2641
  1329.2500      0.0000    739.3176      8.7916    115.5672
  1329.5000      0.0000    736.9672      8.1916    124.3071
  1329.7500      0.0000    734.6745      7.6340    133.0789
  1330.0000      0.0000    733.3217      7.2783    139.3144
  1330.2500      0.0000    733.1507      7.2078    140.9486
  1330.5000      0.0000    734.1356      7.3924    137.8274
  1330.7500      0.0000    736.1542      7.7317    131.4789
  1331.0000      0.0000    738.8738      8.1393    123.9497
  1331.2500      0.0000    741.9849      8.5757    116.8882
  1331.5000      0.0000    745.8152      9.0171    111.1363
  1331.7500      0.0000    751.3596      9.4281    106.6780
  1332.0000      0.0000    759.5579      9.7740    102.9810
  1332.2500      0.0000    770.9062     10.0430     99.6904
  1332.5000      0.0000    785.4852     10.2589     97.1262
  1332.7500      0.0000    802.3718     10.4726     96.0282
  1333.0000      0.0000    819.0992     10.7127     96.8306
  1333.2500      0.0000    832.9064     10.9175     99.3127
  1333.5000      0.0000    842.7585     10.9358    102.9556
  1333.7500      0.0000    849.4070     10.6344    107.4392
  1334.0000      0.0000    853.6642     10.0219    112.6508
  1334.2500      0.0000    855.5741      9.2615    118.1729
  1334.5000      0.0000    855.2404      8.5611    122.9390
  1334.7500      0.0000    853.6125      8.0495    125.8836
  1335.0000      0.0000    851.8859      7.7432    127.0851
  1335.2500      0.0000    850.1695      7.6036    127.6858
  1335.5000      0.0000    847.2556      7.5992    128.5250
  1335.7500      0.0000    842.1467      7.7059    129.4627
  1336.0000      0.0000    835.6269      7.8703    129.9649
  1336.2500      0.0000    829.9828      8.0067    129.5728
  1336.5000      0.0000    827.2471      8.0377    128.0193
  1336.7500      0.0000    827.6990      7.9233    125.5965
  1337.0000      0.0000    829.3940      7.6510    123.1435
  1337.2500      0.0000    828.9507      7.2278    121.3961
  1337.5000      0.0000    823.7219      6.7085    120.7334
  1337.7500      0.0000    813.9694      6.2162    121.4512
  1338.0000      0.0000    802.8398      5.8948    123.6089
  1338.2500      0.0000    794.3791      5.8233    126.6947
  1338.5000      0.0000    791.6943      5.9793    129.8192
  1338.7500      0.0000    795.6583      6.2726    132.1591
  1339.0000      0.0000    804.0187      6.5866    133.2442
  1339.2500      0.0000    812.5334      6.8002    133.2238
  1339.5000      0.0000    818.0357      6.8225    132.9469
  1339.7500      0.0000    820.1784      6.6400    133.4585
  1340.0000      0.0000    820.3747      6.3246    135.3580
  1340.2500      0.0000    819.9983      5.9841    138.6391
  1340.5000      0.0000    819.6837      5.7151    142.6632
  1340.7500      0.0000    819.5376      5.5893    145.9412
  1341.0000      0.0000    819.4637      5.6419    146.6584
  1341.2500      0.0000    819.3745      5.8406    144.2490
  1341.5000      0.0000    819.2854      6.0793    140.1767
  1341.7500      0.0000    819.2805      6.2333    136.4634
  1342.0000      0.0000    819.3888      6.2316    133.5642
  1342.2500      0.0000    819.5151      6.0830    130.3447
  1342.5000      0.0000    819.5425      5.8549    126.0229
  1342.7500      0.0000    819.4777      5.6389    121.3814
  1343.0000      0.0000    819.4440      5.5123    117.9544
  1343.2500      0.0000    819.5385      5.5094    116.8036
  1343.5000      0.0000    819.7308      5.6246    118.3810
  1343.7500      0.0000    819.9105      5.8355    122.8263
  1344.0000      0.0000    820.0010      6.1106    129.7265
  1344.2500      0.0000    820.0091      6.3979    137.6823
  1344.5000      0.0000    819.9382      6.6308    144.6319
  1344.7500      0.0000    819.6406      6.7633    149.1181
  1345.0000      0.0000    818.7392      6.8015    151.3707
  1345.2500      0.0000    816.7787      6.7918    152.6688
  1345.5000      0.0000    813.7068      6.7723    153.4127
  1345.7500      0.0000    810.3027      6.7356    152.3648
  1346.0000      0.0000    807.9257      6.6394    148.2097
  1346.2500      0.0000    807.6089      6.4569    141.4162
  1346.5000      0.0000    809.3543      6.2229    134.2909
  1346.7500      0.0000    812.0321      6.0406    129.4419
  1347.0000      0.0000    813.7561      6.0286    128.1215
  1347.2500      0.0000    812.9785      6.2239    129.5750
  1347.5000      0.0000    809.8284      6.5224    131.8075
  1347.7500      0.0000    806.0572      6.7390    133.0668
  1348.0000      0.0000    803.4534      6.7578    132.8100
  1348.2500      0.0000    802.7160      6.6347    131.6078
  1348.5000      0.0000    803.5916      6.5469    130.2919
  1348.7500      0.0000    805.0207      6.6325    129.0593
  1349.0000      0.0000    804.9766      6.8667    127.4626
  1349.2500      0.0000    801.1370      7.0818    125.4115
  1349.5000      0.0000    792.4116      7.1177    123.7562
  1349.7500      0.0000    779.8633      6.9731    123.3813
  1350.0000      0.0000    766.2494      6.8049    124.1160
  1350.2500      0.0000    754.6765      6.7602    125.1663
  1350.5000      0.0000    747.2398      6.8207    126.4572
  1350.7500      0.0000    744.4000      6.8308    128.9764
  1351.0000      0.0000    745.7277      6.6586    133.8167
  1351.2500      0.0000    751.2870      6.3012    141.1697
  1351.5000      0.0000    761.6310      5.8618    150.1830
  1351.7500      0.0000    776.0087      5.4655    159.3766
  1352.0000      0.0000    791.3230      5.1957    166.7482
  1352.2500      0.0000    803.8370      5.0691    169.7843
  1352.5000      0.0000    812.0042      5.0443    166.7098
  1352.7500      0.0000    817.2154      5.0672    158.5621
  1353.0000      0.0000    821.7759      5.1255    149.2634
  1353.2500      0.0000    826.7451      5.2639    142.7588
  1353.5000      0.0000    831.9025      5.5267    140.2323
  1353.7500      0.0000    836.7935      5.8757    140.2076
  1354.0000      0.0000    841.0560      6.1727    140.5460
  1354.2500      0.0000    844.3467      6.2684    140.0174
  1354.5000      0.0000    846.4417      6.1223    138.6996
  1354.7500      0.0000    847.0096      5.8425    137.2505
  1355.0000      0.0000    845.4167      5.6059    135.6124
  1355.2500      0.0000    841.5333      5.5356    132.6839
  1355.5000      0.0000    836.6569      5.6406    127.6751
  1355.7500      0.0000    832.7709      5.8478    121.3928
  1356.0000      0.0000    830.7390      6.0697    115.7651
  1356.2500      0.0000    829.8152      6.2415    112.4410
  1356.5000      0.0000    829.0547      6.3352    111.9810
  1356.7500      0.0000    828.5584      6.3603    113.9016
