~Version Information
VERS.                      2.0: CWLS Log ASCII Standard - VERSION 2.0
WRAP.                       NO: One line per depth step
~Well Information Block
STRT.FT               -10.0000: 
STOP.FT              2184.0000: 
STEP.FT                 0.2500: 
NULL.                -999.2500: 
COMP.          Petrogulf Corporation: COMPANY
WELL.              Silva 1-43R: WELL
FLD.           Purgatorie River: FIELD
LOC.           1971' FSL & 526' FEL--: LOCATION
CNTY.               Las Animas: COUNTY
SRVC.          Patterson Wireline: SERVICE COMPANY
DATE.          Thu Jul 13 13:08:17 2006: LOG DATE
UWI.           05 072 08372 00: UNIQUE WELL ID
STAT.                       CO: STATE
~Curve Information Block
DEPT.FT            0 000 00 00: Depth
CCL.                          : Casing Collar Locator
TT3.usec                      : CBL 3' Travel Time
AMP3.mV                       : CBL 3' Amplitude
GR.GAPI                       : Gamma Ray
~Parameter Information Block
~A  Depth       CCL         TT3         AMP3         GR     
# ...
   861.0000      0.0000    744.2568      5.9188    148.4758
   861.2500      0.0000    734.1356      5.9052    158.8624
   861.5000      0.0000    717.4597      6.0031    168.4615
   861.7500      0.0000    702.4354      6.2280    173.4778
   862.0000      0.0000    694.7657      6.5374    172.1765
   862.2500      0.0000    694.8123      6.8286    166.0610
   862.5000      0.0000    698.5787      7.0102    158.5151
   862.7500      0.0000    701.8533      7.0551    152.3388
   863.0000     -2.0000    703.8588      6.9864    148.4619
   863.2500      2.0000    706.4060      6.8437    146.3307
   863.5000      0.0000    709.8620      6.6701    144.6910
   863.7500     -2.0000    711.2538      6.5222    142.3360
   864.0000      0.0000    706.8327      6.4787    139.2120
   864.2500      0.0000    696.3278      6.6150    136.8861
   864.5000      0.0000    684.0908      6.9363    137.0069
   864.7500      0.0000    675.5020      7.3438    139.4453
   865.0000      0.0000    672.6295      7.7083    142.8505
   865.2500      0.0000    673.4310      7.9832    146.7153
   865.5000      0.0000    673.3826      8.2210    151.8121
   865.7500      0.0000    666.3842      8.4971    158.6684
   866.0000      0.0000    645.1149      8.8508    166.4225
   866.2500      0.0000    603.8497      9.2870    173.2083
   866.5000      0.0000    543.9112      9.7931    177.2495
   866.7500      0.0000    476.4674     10.3308    177.9422
   867.0000      0.0000    417.2604     10.8216    176.6293
   867.2500      0.0000    376.7229     11.1613    176.0673
   867.5000      0.0000    355.1936     11.2710    178.0979
   867.7500      0.0000    346.6346     11.1469    181.6182
   868.0000      0.0000    345.0753     10.8642    183.4218
   868.2500      0.0000    348.0711     10.5338    181.1430
   868.5000      0.0000    356.6281     10.2451    174.7654
   868.7500      0.0000    373.0943     10.0302    165.4474
   869.0000      0.0000    398.6375      9.8678    154.0287
   869.2500      0.0000    432.3782      9.7162    141.2998
   869.5000      0.0000    472.6213      9.5424    129.0377
   869.7500      0.0000    517.3464      9.3288    119.5462
   870.0000      0.0000    562.7700      9.0672    113.7262
   870.2500      0.0000    603.0966      8.7590    110.2236
   870.5000      0.0000    632.8844      8.4222    107.1779
   870.7500      0.0000    648.7250      8.0929    104.6414
   871.0000      0.0000    649.1874      7.8095    104.9006
   871.2500      0.0000    635.8207      7.5900    110.4948
   871.5000      0.0000    614.6854      7.4242    121.8762
   871.7500      0.0000    594.5070      7.2894    136.3101
   872.0000      0.0000    581.8755      7.1712    148.6576
   872.2500      0.0000    578.8141      7.0722    154.1693
   872.5000      0.0000    583.0262      7.0069    151.8614
   872.7500      0.0000    586.8232      6.9931    145.4010
   873.0000      0.0000    578.3105      7.0448    140.0480
   873.2500      0.0000    550.3876      7.1572    138.3421
   873.5000      0.0000    510.0198      7.2914    138.7194
   873.7500      0.0000    474.4849      7.3810    138.1610
   874.0000      0.0000    456.3075      7.3714    135.8290
   874.2500      0.0000    452.8352      7.2580    133.7976
   874.5000      0.0000    451.0313      7.0871    134.4165
   874.7500      0.0000    441.3509      6.9228    137.5926
   875.0000      0.0000    425.8458      6.8137    140.7582
   875.2500      0.0000    414.0207      6.7792    140.8027
   875.5000      0.0000    413.4889      6.8115    135.8487
   875.7500      0.0000    424.2054      6.8858    125.9980
   876.0000      0.0000    438.2228      6.9736    113.1145
   876.2500      0.0000    444.7411      7.0522     99.8205
   876.5000      0.0000    438.3002      7.0991     88.2845
   876.7500      0.0000    422.8383      7.0780     79.6127
   877.0000      0.0000    406.9526      6.9417     74.0288
   877.2500      0.0000    396.5209      6.6713     71.3325
   877.5000      0.0000    393.0186      6.3178     71.0629
   877.7500      0.0000    397.0668      5.9927     72.2680
   878.0000      0.0000    411.3425      5.8040     73.4363
   878.2500      0.0000    438.9380      5.7985     73.1361
   878.5000      0.0000    478.0405      5.9619     71.0529
   878.7500      0.0000    518.1110      6.2662     68.1736
   879.0000      0.0000    542.9280      6.7177     65.6341
   879.2500      0.0000    539.7964      7.3700     63.7719
   879.5000      0.0000    507.7641      8.3018     62.6268
   879.7500      0.0000    458.2648      9.5850     62.7150
   880.0000      0.0000    407.5686     11.2722     64.5903
   880.2500      0.0000    367.1371     13.4023     67.9418
   880.5000      0.0000    339.6588     15.9835     71.7083
   880.7500      0.0000    322.2595     18.9193     74.9359
   881.0000      0.0000    311.4172     21.9344     77.2130
   881.2500      0.0000    304.9576     24.6124     78.4795
   881.5000      0.0000    301.5756     26.5781     78.7657
   881.7500      0.0000    300.2120     27.6830     78.2153
   882.0000      0.0000    300.0227     28.0239     77.2120
   882.2500      0.0000    300.5701     27.7955     76.2891
   882.5000      0.0000    302.2202     27.1407     75.8262
   882.7500      0.0000    306.9570     26.1301     75.7964
   883.0000      0.0000    319.5005     24.8263     75.8221
   883.2500      0.0000    347.1623     23.3213     75.5317
   883.5000      0.0000    396.0530     21.7158     74.8191
   883.7500      0.0000    464.3830     20.1033     73.7685
   884.0000      0.0000    539.4503     18.5992     72.6210
   884.2500      0.0000    604.0491     17.3675     71.9683
   884.5000      0.0000    647.3689     16.5883     72.5194
   884.7500      0.0000    669.3050     16.3662     74.2183
   885.0000      0.0000    675.3099     16.6473     75.8731
   885.2500      0.0000    669.2531     17.2145     76.0371
   885.5000      0.0000    651.4817     17.7637     74.1991
   885.7500      0.0000    622.5276     18.0130     71.0467
   886.0000      0.0000    587.8752     17.7988     67.7189
   886.2500      0.0000    558.4450     17.1255     64.9232
   886.5000      0.0000    545.3679     16.1368     62.8573
   886.7500      0.0000    553.2515     15.0164     61.8358
   887.0000      0.0000    577.7026     13.8953     62.3984
   887.2500      0.0000    608.7379     12.8260     64.5496
   887.5000      0.0000    636.7992     11.8045     67.4610
   887.7500      0.0000    656.7592     10.8033     70.1897
   888.0000      0.0000    668.0552      9.8037     72.2775
   888.2500      0.0000    672.4296      8.8222     73.6420
   888.5000      0.0000    671.3690      7.9085     74.3370
   888.7500      0.0000    664.4728      7.1181     74.3897
   889.0000      0.0000    649.4468      6.4816     73.6237
   889.2500      0.0000    623.9103      5.9969     71.7366
   889.5000      0.0000    587.9795      5.6421     68.7452
   889.7500      0.0000    545.8423      5.3955     65.1808
   890.0000      0.0000    505.2331      5.2418     61.7394
   890.2500      0.0000    475.4273      5.1655     58.9680
   890.5000      0.0000    465.0199      5.1444     57.2526
   890.7500      0.0000    479.3432      5.1565     56.7024
   891.0000      0.0000    516.7751      5.1991     57.0716
   891.2500      0.0000    566.8135      5.2967     58.1232
   891.5000      0.0000    614.4368      5.4790     60.0129
   891.7500      0.0000    648.3638      5.7419     63.1988
   892.0000      0.0000    664.9907      6.0351     68.1656
   892.2500      0.0000    665.3258      6.2967     75.2461
   892.5000      0.0000    650.7086      6.4978     84.3861
   892.7500      0.0000    623.4349      6.6489     94.8188
   893.0000      0.0000    591.4565      6.7724    104.9995
   893.2500      0.0000    569.3246      6.8798    113.0635
   893.5000      0.0000    569.4348      6.9703    117.7107
   893.7500      0.0000    590.9228      7.0357    118.8042
   894.0000      0.0000    620.2661      7.0620    117.1962
   894.2500      0.0000    643.7912      7.0326    114.1885
