~Version Information
VERS.                      2.0: CWLS Log ASCII Standard - VERSION 2.0
WRAP.                       NO: One line per depth step
~Well Information Block
STRT.FT               545.0000: 
STOP.FT              1922.0000: 
STEP.FT                 0.2500: 
NULL.                -999.2500: 
COMP.          Pioneer Natural Resources: COMPANY
WELL.            Summers 21-19: WELL
FLD.           Purgatoire River: FIELD
LOC.           900' FNL & 1950' FWL: LOCATION
PROV.                 Colorado: PROVINCE
CNTY.               Las Animas: COUNTRY
SRVC.                Patterson: SERVICE COMPANY
DATE.          Sat Oct 15 03:34:13 2005: LOG DATE
UWI.           05 071 08315 00: UNIQUE WELL ID
~Curve Information Block
DEPT.FT            0 000 00 00: Depth
SN.Ohm-m                      : IEL Short Normal
SP.mV                         : IEL Spontaneous Potential
DIR.Ohm-m                     : IEL Induction Resistivity
GR.GAPI                       : Gamma Ray
~Parameter Information Block
~A  Depth        SN          SP         DIR          GR     
# ...
   645.5000   2000.0000   2000.0000     17.2892    126.4385
   645.7500   2000.0000   2000.0000     16.4928    131.9848
   646.0000   2000.0000   2000.0000     15.6950    138.3104
   646.2500   2000.0000   2000.0000     14.9228    141.0085
   646.5000   2000.0000   2000.0000     14.1990    142.8521
   646.7500   2000.0000   2000.0000     13.5440    143.2607
   647.0000   2000.0000   2000.0000     12.9753    144.1496
   647.2500   2000.0000   2000.0000     12.5045    145.2894
   647.5000   2000.0000   2000.0000     12.1329    147.2195
   647.7500   2000.0000   2000.0000     11.8505    148.0765
   648.0000   2000.0000   2000.0000     11.6392    148.1358
   648.2500   2000.0000   2000.0000     11.4816    147.2269
   648.5000   2000.0000   2000.0000     11.3734    144.3834
   648.7500   2000.0000   2000.0000     11.3297    141.7881
   649.0000   2000.0000   2000.0000     11.3784    138.3412
   649.2500   2000.0000   2000.0000     11.5444    137.4692
   649.5000   2000.0000   2000.0000     11.8349    139.1059
   649.7500   2000.0000   2000.0000     12.2355    141.4194
   650.0000   2000.0000   2000.0000     12.7200    144.0915
   650.2500   2000.0000   2000.0000     13.2658    143.9149
   650.5000   2000.0000   2000.0000     13.8647    139.4956
   650.7500   2000.0000   2000.0000     14.5207    133.7775
   651.0000   2000.0000   2000.0000     15.2395    121.9236
   651.2500   2000.0000   2000.0000     16.0255    112.7701
   651.5000   2000.0000   2000.0000     16.8941     99.2574
   651.7500   2000.0000   2000.0000     17.8867     91.5420
   652.0000   2000.0000   2000.0000     19.0659     82.9052
   652.2500   2000.0000   2000.0000     20.4856     78.9219
   652.5000   2000.0000   2000.0000     22.1608     74.5301
   652.7500   2000.0000   2000.0000     24.0657     72.0471
   653.0000   2000.0000   2000.0000     26.1514     68.3920
   653.2500   2000.0000   2000.0000     28.3457     65.9186
   653.5000   2000.0000   2000.0000     30.5156     62.4435
   653.7500   2000.0000   2000.0000     32.4379     60.6629
   654.0000   2000.0000   2000.0000     33.8370     59.5223
   654.2500   2000.0000   2000.0000     34.4821     60.1457
   654.5000   2000.0000   2000.0000     34.2713     63.6587
   654.7500   2000.0000   2000.0000     33.2578     67.8084
   655.0000   2000.0000   2000.0000     31.6124     76.0692
   655.2500   2000.0000   2000.0000     29.5492     82.0940
   655.5000   2000.0000   2000.0000     27.2663     90.5454
   655.7500   2000.0000   2000.0000     24.9362     95.4422
   656.0000   2000.0000   2000.0000     22.7178    101.6723
   656.2500   2000.0000   2000.0000     20.7453    105.0841
   656.5000   2000.0000   2000.0000     19.0959    109.1025
   656.7500   2000.0000   2000.0000     17.7751    111.4317
   657.0000   2000.0000   2000.0000     16.7347    115.8350
   657.2500   2000.0000   2000.0000     15.9065    120.0464
   657.5000   2000.0000   2000.0000     15.2318    127.7442
   657.7500   2000.0000   2000.0000     14.6707    132.5703
   658.0000   2000.0000   2000.0000     14.1969    137.4991
   658.2500   2000.0000   2000.0000     13.7888    139.1910
   658.5000   2000.0000   2000.0000     13.4275    140.6288
   658.7500   2000.0000   2000.0000     13.1013    141.4128
   659.0000   2000.0000   2000.0000     12.8093    141.9091
   659.2500   2000.0000   2000.0000     12.5617    141.2038
   659.5000   2000.0000   2000.0000     12.3772    138.6062
   659.7500   2000.0000   2000.0000     12.2801    136.6890
   660.0000   2000.0000   2000.0000     12.2958    135.1898
   660.2500   2000.0000   2000.0000     12.4435    135.3427
   660.5000   2000.0000   2000.0000     12.7306    136.1999
   660.7500   2000.0000   2000.0000     13.1490    136.3229
   661.0000   2000.0000   2000.0000     13.6776    135.1932
   661.2500   2000.0000   2000.0000     14.2886    133.7264
   661.5000   2000.0000   2000.0000     14.9572    130.9010
   661.7500   2000.0000   2000.0000     15.6687    128.6510
   662.0000   2000.0000   2000.0000     16.4184    124.5746
   662.2500   2000.0000   2000.0000     17.2066    121.4384
   662.5000   2000.0000   2000.0000     18.0348    116.5889
   662.7500   2000.0000   2000.0000     18.9059    113.5675
   663.0000   2000.0000   2000.0000     19.8237    109.5848
   663.2500   2000.0000   2000.0000     20.7831    107.3236
   663.5000   2000.0000   2000.0000     21.7553    104.5724
   663.7500   2000.0000   2000.0000     22.6828    103.1415
   664.0000   2000.0000   2000.0000     23.4990    101.4118
   664.2500   2000.0000   2000.0000     24.1719    100.5104
   664.5000   2000.0000   2000.0000     24.7366     99.9092
   664.7500   2000.0000   2000.0000     25.2870    100.3227
   665.0000   2000.0000   2000.0000     25.9251    102.2401
   665.2500   2000.0000   2000.0000     26.7016    103.9993
   665.5000   2000.0000   2000.0000     27.5881    106.3508
   665.7500   2000.0000   2000.0000     28.4858    107.3546
   666.0000   2000.0000   2000.0000     29.2623    108.1113
   666.2500   2000.0000   2000.0000     29.7964    108.3322
   666.5000   2000.0000   2000.0000     30.0192    108.2309
   666.7500   2000.0000   2000.0000     29.9489    107.7825
   667.0000   2000.0000   2000.0000     29.6934    106.9007
   667.2500   2000.0000   2000.0000     29.4030    106.6333
   667.5000   2000.0000   2000.0000     29.2003    107.1581
   667.7500   2000.0000   2000.0000     29.1411    107.9713
   668.0000   2000.0000   2000.0000     29.2255    109.1065
   668.2500   2000.0000   2000.0000     29.4318    109.2499
   668.5000   2000.0000   2000.0000     29.7396    107.9533
   668.7500   2000.0000   2000.0000     30.1317    106.3039
   669.0000   2000.0000   2000.0000     30.5841    104.0903
   669.2500   2000.0000   2000.0000     31.0583    103.7127
   669.5000   2000.0000   2000.0000     31.5003    105.1509
   669.7500   2000.0000   2000.0000     31.8538    106.6586
   670.0000   2000.0000   2000.0000     32.0875    107.5345
   670.2500   2000.0000   2000.0000     32.2200    106.2323
   670.5000   2000.0000   2000.0000     32.3176    101.5490
   670.7500   2000.0000   2000.0000     32.4601     97.7189
   671.0000   2000.0000   2000.0000     32.7110     93.2859
   671.2500   2000.0000   2000.0000     33.1077     91.8561
   671.5000   2000.0000   2000.0000     33.6634     91.2108
   671.7500   2000.0000   2000.0000     34.3622     90.7859
   672.0000   2000.0000   2000.0000     35.1365     88.9156
   672.2500   2000.0000   2000.0000     35.8547     86.6155
   672.5000   2000.0000   2000.0000     36.3508     81.7298
   672.7500   2000.0000   2000.0000     36.5015     77.7896
   673.0000   2000.0000   2000.0000     36.2900     71.6805
   673.2500   2000.0000   2000.0000     35.7900     68.1678
   673.5000   2000.0000   2000.0000     35.0928     64.9729
   673.7500   2000.0000   2000.0000     34.2551     64.6765
   674.0000   2000.0000   2000.0000     33.3078     67.1442
   674.2500   2000.0000   2000.0000     32.2921     70.7168
   674.5000   2000.0000   2000.0000     31.2732     78.9686
   674.7500   2000.0000   2000.0000     30.3142     86.1539
   675.0000   2000.0000   2000.0000     29.4356     98.3307
   675.2500   2000.0000   2000.0000     28.6037    106.6025
   675.5000   2000.0000   2000.0000     27.7628    118.2706
   675.7500   2000.0000   2000.0000     26.8833    125.0376
   676.0000   2000.0000   2000.0000     25.9817    132.4039
   676.2500   2000.0000   2000.0000     25.0992    134.7713
   676.5000   2000.0000   2000.0000     24.2715    134.4617
   676.7500   2000.0000   2000.0000     23.5199    132.4426
   677.0000   2000.0000   2000.0000     22.8625    128.5715
   677.2500   2000.0000   2000.0000     22.3272    126.4210
   677.5000   2000.0000   2000.0000     21.9545    124.9377
   677.7500   2000.0000   2000.0000     21.7912    125.2210
   678.0000   2000.0000   2000.0000     21.8762    126.5727
   678.2500   2000.0000   2000.0000     22.2229    126.8745
   678.5000   2000.0000   2000.0000     22.8019    123.9294
   678.7500   2000.0000   2000.0000     23.5341    118.6507
