~Version Information
VERS.                      2.0: CWLS Log ASCII Standard - VERSION 2.0
WRAP.                       NO: One line per depth step
~Well Information Block
STRT.FT               258.0000: 
STOP.FT              1001.0000: 
STEP.FT                 0.2500: 
NULL.                -999.2500: 
COMP.          Pioneer Natural Resources: COMPANY
WELL.          Piggyback 33-25: WELL
FLD.           Purgatoire River: FIELD
LOC.           1600' FSL & 1800' FEL: LOCATION
PROV.                 Colorado: PROVINCE
CNTY.               Las Animas: COUNTRY
SRVC.                Patterson: SERVICE COMPANY
DATE.          Fri Apr 29 14:22:38 2005: LOG DATE
UWI.           05 071 08233 00: UNIQUE WELL ID
~Curve Information Block
DEPT.FT            0 000 00 00: Depth
SN.Ohm-m                      : IEL Short Normal
SP.mV                         : IEL Spontaneous Potential
DIR.Ohm-m                     : IEL Induction Resistivity
GR.GAPI                       : Gamma Ray
~Parameter Information Block
~A  Depth        SN          SP         DIR          GR     
# ...
   593.0000     10.1942     32.7581      9.1747    138.8186
   593.2500     10.3219     32.9424      9.2739    139.3681
   593.5000     10.4234     33.0893      9.3587    139.1334
   593.7500     10.4501     33.2048      9.4264    138.4607
   594.0000     10.4205     33.3084      9.4805    136.7969
   594.2500     10.3995     33.4188      9.5298    135.3453
   594.5000     10.4241     33.5399      9.5858    133.0220
   594.7500     10.4814     33.6592      9.6584    131.6175
   595.0000     10.5468     33.7559      9.7526    129.7361
   595.2500     10.6085     33.8092      9.8663    128.3155
   595.5000     10.6726     33.8019      9.9933    125.3582
   595.7500     10.7574     33.7220     10.1259    122.8560
   596.0000     10.8756     33.5641     10.2579    119.0099
   596.2500     11.0088     33.3311     10.3861    116.8479
   596.5000     11.1119     33.0373     10.5097    114.5164
   596.7500     11.1555     32.7106     10.6313    113.4344
   597.0000     11.1523     32.3903     10.7579    112.0893
   597.2500     11.1606     32.1174     10.9001    111.2178
   597.5000     11.2616     31.9182     11.0690    110.0336
   597.7500     11.4781     31.7917     11.2714    109.5284
   598.0000     11.7347     31.7077     11.5072    109.4427
   598.2500     11.9466     31.6230     11.7710    109.7846
   598.5000     12.0973     31.5073     12.0556    110.6778
   598.7500     12.2220     31.3585     12.3555    111.4694
   599.0000     12.3715     31.1999     12.6700    112.7017
   599.2500     12.5783     31.0638     13.0013    113.1210
   599.5000     12.8578     30.9764     13.3488    112.3554
   599.7500     13.2552     30.9487     13.7028    110.9047
   600.0000     13.8460     30.9760     14.0414    108.1529
   600.2500     14.6592     31.0439     14.3373    106.4172
   600.5000     15.6379     31.1351     14.5670    104.0388
   600.7500     16.6626     31.2377     14.7191    102.2966
   601.0000     17.5483     31.3506     14.7947     98.9966
   601.2500     18.0579     31.4826     14.8037     96.4292
   601.5000     18.0568     31.6423     14.7598     93.0385
   601.7500     17.6778     31.8263     14.6756     92.0234
   602.0000     17.1895     32.0162     14.5603     93.6373
   602.2500     16.7013     32.1845     14.4201     96.8323
   602.5000     16.1667     32.3072     14.2574    103.5093
   602.7500     15.5827     32.3724     14.0705    108.0541
   603.0000     15.0253     32.3815     13.8558    113.1764
   603.2500     14.5828     32.3410     13.6143    114.8361
   603.5000     14.2874     32.2581     13.3588    114.7165
   603.7500     14.0746     32.1447     13.1145    113.5106
   604.0000     13.8613     32.0230     12.9137    111.6412
   604.2500     13.6312     31.9249     12.7860    111.2031
   604.5000     13.4147     31.8826     12.7514    111.9906
   604.7500     13.2615     31.9167     12.8188    112.6458
   605.0000     13.2385     32.0286     12.9889    111.6742
   605.2500     13.3871     32.2014     13.2593    109.0127
   605.5000     13.6992     32.4090     13.6268    102.6341
   605.7500     14.1554     32.6289     14.0854     97.8798
   606.0000     14.7469     32.8501     14.6263     91.7650
   606.2500     15.4931     33.0753     15.2407     88.8984
   606.5000     16.4857     33.3163     15.9266     86.4157
   606.7500     17.8704     33.5864     16.6911     85.5905
   607.0000     19.7350     33.8927     17.5471     84.4851
   607.2500     21.9812     34.2290     18.5074     83.0579
   607.5000     24.3424     34.5698     19.5834     79.0503
   607.7500     26.5857     34.8772     20.7819     75.3670
   608.0000     28.6351     35.1252     22.0962     69.7769
   608.2500     30.4702     35.3189     23.4899     66.8762
   608.5000     31.9610     35.4890     24.8920     64.5177
   608.7500     32.8635     35.6689     26.2150     64.3563
   609.0000     33.0562     35.8779     27.3868     66.0760
   609.2500     32.7526     36.1183     28.3652     68.2018
   609.5000     32.3363     36.3814     29.1240     71.6822
   609.7500     32.0215     36.6551     29.6364     73.3589
   610.0000     31.8380     36.9308     29.8843     74.0500
   610.2500     31.8069     37.2068     29.8847     73.3911
   610.5000     31.8895     37.4825     29.6971     71.6759
   610.7500     31.9666     37.7484     29.3972     70.8040
   611.0000     32.0661     37.9840     29.0396     71.1748
   611.2500     32.3400     38.1716     28.6450     72.9633
   611.5000     32.7379     38.3146     28.2211     77.3993
   611.7500     32.9555     38.4378     27.7859     80.4434
   612.0000     32.7242     38.5708     27.3676     83.1507
   612.2500     32.0308     38.7319     26.9811     83.2256
   612.5000     31.0703     38.9219     26.6132     81.4499
   612.7500     30.0190     39.1276     26.2371     79.9520
   613.0000     28.9393     39.3302     25.8441     78.6123
   613.2500     27.9461     39.5163     25.4595     78.4468
   613.5000     27.2237     39.6877     25.1242     78.3060
   613.7500     26.7945     39.8643     24.8591     77.6156
   614.0000     26.4870     40.0757     24.6454     75.5699
   614.2500     26.1612     40.3474     24.4354     74.1152
   614.5000     25.8358     40.6891     24.1837     72.9917
   614.7500     25.5775     41.0905     23.8695     73.2753
   615.0000     25.3539     41.5224     23.4913     74.9297
   615.2500     25.0682     41.9451     23.0453     76.3129
   615.5000     24.7454     42.3197     22.5115     77.7498
   615.7500     24.5688     42.6167     21.8640     77.8101
   616.0000     24.6499     42.8228     21.0973     76.3922
   616.2500     24.8370     42.9440     20.2442     74.9284
   616.5000     24.7915     43.0001     19.3683     73.7433
   616.7500     24.2111     43.0095     18.5357     74.7883
   617.0000     23.0055     42.9823     17.7883     80.2775
   617.2500     21.3503     42.9268     17.1351     86.4606
   617.5000     19.6070     42.8568     16.5603     98.0634
   617.7500     18.1108     42.7851     16.0396    105.9258
   618.0000     16.9874     42.7101     15.5532    115.2230
   618.2500     16.1845     42.6137     15.0914    118.6137
   618.5000     15.6261     42.4722     14.6550    119.1244
   618.7500     15.2649     42.2738     14.2526    117.2050
   619.0000     15.0494     42.0290     13.8973    113.3291
   619.2500     14.9448     41.7698     13.6053    111.4474
   619.5000     14.9537     41.5401     13.3933    110.7924
   619.7500     15.0697     41.3836     13.2770    111.4824
   620.0000     15.2483     41.3303     13.2685    112.7947
   620.2500     15.4368     41.3850     13.3743    113.3070
   620.5000     15.6125     41.5268     13.5929    113.6586
   620.7500     15.7855     41.7255     13.9163    113.9744
   621.0000     15.9833     41.9608     14.3337    114.7406
   621.2500     16.2628     42.2295     14.8368    115.0971
   621.5000     16.7130     42.5370     15.4216    114.4432
   621.7500     17.4010     42.8862     16.0872    112.8722
   622.0000     18.3308     43.2729     16.8327    108.9698
   622.2500     19.4578     43.6861     17.6564    105.6619
   622.5000     20.7334     44.1087     18.5570    100.0978
   622.7500     22.1595     44.5210     19.5343     96.2123
   623.0000     23.7959     44.9077     20.5896     90.7176
   623.2500     25.6672     45.2651     21.7187     87.7334
   623.5000     27.7093     45.5996     22.8994     84.9136
   623.7500     29.8887     45.9203     24.0754     84.2282
   624.0000     32.2219     46.2322     25.1577     84.4217
   624.2500     34.5699     46.5351     26.0514     84.6524
   624.5000     36.6536     46.8231     26.6909     83.7899
   624.7500     38.2928     47.0866     27.0452     81.8885
   625.0000     39.3899     47.3127     27.0948     77.0910
   625.2500     39.7496     47.4887     26.8239     73.2439
   625.5000     39.0264     47.6039     26.2522     68.4685
   625.7500     36.9042     47.6524     25.4650     67.2806
   626.0000     33.5557     47.6327     24.5895     70.2049
   626.2500     29.8325     47.5479     23.7312     75.4491
