~Version Information
VERS.                      2.0: CWLS Log ASCII Standard - VERSION 2.0
WRAP.                       NO: One line per depth step
~Well Information Block
STRT.FT               -13.0000: 
STOP.FT              1411.2500: 
STEP.FT                 0.2500: 
NULL.                -999.2500: 
COMP.                         : COMPANY
WELL.                         : WELL
FLD.                          : FIELD
LOC.                          : LOCATION
CNTY.                         : COUNTY
SRVC.                         : SERVICE COMPANY
DATE.          Sat Jan 17 07:25:27 2004: LOG DATE
UWI.                          : UNIQUE WELL ID
STAT.                         : STATE
~Curve Information Block
DEPT.FT            0 000 00 00: Depth
CCL.                          : Casing Collar Locator
TT3.usec                      : CBL 3' Travel Time
AMP3.mV                       : CBL 3' Amplitude
GR.GAPI                       : Gamma Ray
~Parameter Information Block
~A  Depth       CCL         TT3         AMP3         GR     
# ...
   456.0000      0.0000    552.4325     16.6241     86.1951
   456.2500      0.0000    615.5518     14.1860     83.9917
   456.5000      0.0000    673.3042     12.2775     80.0433
   456.7500      0.0000    719.8900     10.8444     76.2149
   457.0000      0.0000    751.7186      9.8368     73.5167
   457.2500      0.0000    769.5990      9.2226     72.1643
   457.5000      0.0000    776.7480      8.9666     72.3562
   457.7500      0.0000    775.3293      9.0345     74.3645
   458.0000      0.0000    766.0308      9.4197     77.8163
   458.2500      0.0000    750.3574     10.1461     81.4324
   458.5000      0.0000    731.0363     11.2236     83.7340
   458.7500      0.0000    709.1736     12.5894     83.7442
   459.0000      0.0000    681.6006     14.0928     80.9917
   459.2500      0.0000    641.7663     15.5351     75.4495
   459.5000      0.0000    584.4639     16.7433     67.9544
   459.7500      0.0000    512.0913     17.6388     60.4514
   460.0000      0.0000    436.7574     18.2671     55.2711
   460.2500      0.0000    373.8950     18.7579     53.7766
   460.5000      0.0000    332.3436     19.2227     55.5138
   460.7500      0.0000    310.7004     19.6735     58.5980
   461.0000      0.0000    301.8561     20.0350     61.0659
   461.2500      0.0000    299.0861     20.2270     62.1489
   461.5000      0.0000    298.5381     20.2323     62.5119
   461.7500      0.0000    298.6360     20.1087     63.4272
   462.0000      0.0000    298.8450     19.9559     65.7166
   462.2500      0.0000    298.9685     19.8761     69.2812
   462.5000      0.0000    298.9379     19.9549     73.4182
   462.7500      0.0000    298.7781     20.2444     77.4714
   463.0000      0.0000    298.5576     20.7218     81.0648
   463.2500      0.0000    298.3391     21.2625     83.6981
   463.5000      0.0000    298.1523     21.7050     84.4778
   463.7500      0.0000    297.9931     21.9811     82.6734
   464.0000      0.0000    297.8435     22.1789     78.5354
   464.2500      0.0000    297.7012     22.4641     73.4146
   464.5000      0.0000    297.5884     22.9468     69.1378
   464.7500      0.0000    297.5216     23.6343     67.1176
   465.0000      0.0000    297.4783     24.4943     67.5976
   465.2500      0.0000    297.4113     25.5200     69.5989
   465.5000      0.0000    297.2970     26.7156     71.9075
   465.7500      0.0000    297.1474     28.0516     74.1420
   466.0000      0.0000    296.9698     29.4815     76.5516
   466.2500      0.0000    296.7078     31.0160     78.9254
   466.5000      0.0000    296.1717     32.7460     80.4094
   466.7500      0.0000    294.9297     34.7538     80.4559
   467.0000      0.0000    292.2654     37.0021     79.3224
   467.2500      0.0000    287.4909     39.3161     77.5639
   467.5000      0.0000    280.6515     41.4574     75.6338
   467.7500      0.0000    272.9959     43.2030     73.9967
   468.0000      0.0000    266.5129     44.3950     73.0051
   468.2500      0.0000    262.9445     44.9716     72.4995
   468.5000      0.0000    263.3167     44.9295     72.0261
   468.7500      0.0000    268.4482     44.2013     71.7301
   469.0000      0.0000    279.7482     42.5806     72.6813
   469.2500      0.0000    299.7681     39.8350     75.7223
   469.5000      0.0000    331.2200     35.9458     79.9777
   469.7500      0.0000    373.0605     31.2865     83.0283
   470.0000      0.0000    417.1180     26.5777     82.8413
   470.2500      0.0000    452.8307     22.5673     79.4213
   470.5000      0.0000    478.0187     19.6288     74.6792
   470.7500      0.0000    500.5139     17.6315     70.9240
   471.0000      4.0000    525.9123     16.1898     69.4049
   471.2500      0.0000    548.6170     15.0020     69.8982
   471.5000      0.0000    558.2966     13.9946     71.3444
   471.7500      0.0000    550.6247     13.2614     72.7970
   472.0000      0.0000    529.0193     12.9202     73.8638
   472.2500      0.0000    500.6680     12.9827     74.4215
   472.5000      0.0000    475.3337     13.3171     74.2139
   472.7500      0.0000    465.5175     13.7442     73.0084
   473.0000      0.0000    481.8381     14.1378     71.0704
   473.2500      0.0000    525.0625     14.4046     69.0865
   473.5000      0.0000    583.0366     14.4382     67.4833
   473.7500      0.0000    637.7838     14.1867     66.1908
   474.0000      0.0000    677.0134     13.7295     65.2819
   474.2500      0.0000    699.0282     13.2147     65.3288
   474.5000      0.0000    708.4971     12.7334     66.6649
   474.7500      0.0000    710.4448     12.2923     68.6639
   475.0000      0.0000    708.1334     11.8796     70.2950
   475.2500      0.0000    703.5688     11.5023     71.2327
   475.5000      0.0000    697.7221     11.1742     71.9901
   475.7500      0.0000    690.1248     10.9089     73.0698
   476.0000      0.0000    678.8553     10.7198     74.2791
   476.2500      0.0000    661.2997     10.6009     74.9441
   476.5000      0.0000    636.0724     10.5142     74.6492
   476.7500      0.0000    605.4933     10.4143     73.5981
   477.0000      0.0000    575.7551     10.2792     72.2739
   477.2500      0.0000    553.3275     10.1145     71.0097
   477.5000      0.0000    540.9800      9.9437     70.0654
   477.7500      0.0000    537.1493      9.8003     70.0195
   478.0000      0.0000    538.3248      9.7187     71.7805
   478.2500      0.0000    541.8908      9.7211     75.9001
   478.5000      0.0000    547.6136      9.8020     81.8002
   478.7500      0.0000    556.9810      9.9175     87.9137
   479.0000      0.0000    570.6627      9.9927     92.7442
   479.2500      0.0000    586.5245      9.9524     95.6509
   479.5000      0.0000    601.5176      9.7597     96.6495
   479.7500      0.0000    616.0439      9.4424     95.9222
   480.0000      0.0000    634.0598      9.0839     93.8467
   480.2500      0.0000    657.1912      8.7747     91.1818
   480.5000      0.0000    681.0484      8.5639     88.6700
   480.7500      0.0000    699.3245      8.4523     86.4612
   481.0000      0.0000    709.7278      8.4119     84.2690
   481.2500      0.0000    714.5156      8.3913     81.9970
   481.5000      0.0000    716.8242      8.3208     79.9100
   481.7500      0.0000    717.6169      8.1452     78.3655
   482.0000      0.0000    714.8313      7.8692     77.7953
   482.2500      0.0000    704.3144      7.5688     78.8399
   482.5000      0.0000    682.7304      7.3498     81.9138
   482.7500      0.0000    651.3120      7.2751     86.3135
   483.0000      0.0000    616.9412      7.3187     90.0436
   483.2500      0.0000    588.2368      7.3913     91.0439
   483.5000      0.0000    569.7571      7.4129     88.8459
   483.7500      0.0000    560.1663      7.3661     84.8661
   484.0000      0.0000    555.7191      7.2919     80.9527
   484.2500      0.0000    554.6641      7.2414     77.9293
   484.5000      0.0000    558.5083      7.2186     75.7574
   484.7500      0.0000    570.1769      7.1645     74.5788
   485.0000      0.0000    591.1105      7.0015     74.8268
   485.2500      0.0000    619.2057      6.6911     76.2827
   485.5000      0.0000    649.1047      6.2519     77.7004
   485.7500      0.0000    674.9432      5.7341     77.7521
   486.0000      0.0000    693.4590      5.1866     76.3136
   486.2500      0.0000    704.9964      4.6496     74.7454
   486.5000      0.0000    711.9057      4.1721     74.8142
   486.7500      0.0000    716.1210      3.8091     77.2765
   487.0000      0.0000    718.1135      3.5782     81.5884
   487.2500      0.0000    717.7050      3.4338     86.7529
   487.5000      0.0000    715.1952      3.3033     91.9310
   487.7500      0.0000    711.4790      3.1423     96.2032
   488.0000      0.0000    707.6108      2.9501     98.3713
   488.2500      0.0000    704.4617      2.7571     97.6079
   488.5000      0.0000    702.0110      2.6087     94.2799
   488.7500      0.0000    698.6115      2.5399     89.8797
   489.0000      0.0000    692.0792      2.5445     86.1607
   489.2500      0.0000    682.5375      2.5764     84.1914
