~Version Information
VERS.                      2.0: CWLS Log ASCII Standard - VERSION 2.0
WRAP.                       NO: One line per depth step
~Well Information Block
STRT.FT               743.8000: 
STOP.FT              1975.8000: 
STEP.FT                 0.1000: 
NULL.                -999.2500: 
COMP.          Petrogulf Corporation: COMPANY
WELL.            Montoya 6-14V: WELL
FLD.           Purgatorie River: FIELD
LOC.           318' FSL & 882' FWL: LOCATION
CNTY.               Las Animas: COUNTY
SRVC.                         : SERVICE COMPANY
DATE.          Sat Aug 14 09:19:43 2004: LOG DATE
UWI.           05 071 08020 00: UNIQUE WELL ID
STAT.                 Colorado: STATE
~Curve Information Block
DEPT.FT            0 000 00 00: Depth
DCAL.in                       : CDL Caliper
RHOB.g/cc                     : CDL Bulk Density
RHOC.g/cc                     : CDL Density Correction
DPOR.pu                       : CDL Density Porosity
GR.GAPI                       : Gamma Ray
NPOR.pu                       : Neutron Porosity
~Parameter Information Block
~A  Depth       DCAL        RHOB        RHOC        DPOR         GR         NPOR    
# ...
  1175.8000      8.0406      2.5868      0.2712      3.8312    107.7716     28.2895
  1175.9000      8.0406      2.6159      0.2688      2.0673    111.3241     27.6100
  1176.0000      8.1335      2.6073      0.2125      2.5882    117.6213     26.3206
  1176.1000      8.1335      2.5890      0.1602      3.6943    118.6661     25.6638
  1176.2000      8.1335      2.5957      0.1551      3.2934    122.3127     26.1264
  1176.3000      8.3438      2.6209      0.1937      1.7616    131.6476     27.0619
  1176.4000      8.3438      2.6331      0.1490      1.0268    139.0334     27.6474
  1176.5000      8.2561      2.6246      0.1365      1.5397    138.3981     27.2162
  1176.6000      8.2561      2.6104      0.1436      2.4001    134.4626     26.1295
  1176.7000      8.2561      2.6016      0.1579      2.9342    133.7672     25.5300
  1176.8000      8.1664      2.5962      0.2061      3.2582    133.0191     25.4530
  1176.9000      8.1664      2.5869      0.1943      3.8250    128.6968     25.3232
  1177.0000      8.1817      2.5706      0.1885      4.8134    125.8067     24.9514
  1177.1000      8.1817      2.5453      0.1239      6.3432    125.7727     24.4984
  1177.2000      8.1817      2.5200      0.0410      7.8813    124.6184     24.4433
  1177.3000      8.1838      2.5145      0.0594      8.2102    122.6354     25.0880
  1177.4000      8.1838      2.5327      0.0846      7.1105    123.0137     26.2198
  1177.5000      8.2001      2.5521      0.1610      5.9364    127.0115     27.0037
  1177.6000      8.2001      2.5525      0.1383      5.9113    130.3332     26.7475
  1177.7000      8.2001      2.5483      0.1345      6.1634    128.3785     26.1135
  1177.8000      8.2046      2.5663      0.1470      5.0717    122.2685     26.2800
  1177.9000      8.2046      2.6063      0.1943      2.6502    115.9598     26.9714
  1178.0000      8.1898      2.6447      0.1861      0.3211    112.9686     27.1787
  1178.1000      8.1898      2.6665      0.1531     -0.9998    113.4561     26.6725
  1178.2000      8.1898      2.6721      0.1751     -1.3405    115.1656     25.9691
  1178.3000      8.1944      2.6604      0.1990     -0.6326    116.3000     25.5427
  1178.4000      8.1944      2.6346      0.1196      0.9340    115.3040     25.5554
  1178.5000      8.3542      2.6089      0.0904      2.4893    111.6749     25.5955
  1178.6000      8.3542      2.5893      0.0385      3.6761    105.8977     25.0478
  1178.7000      8.3542      2.5749      0.0145      4.5543     96.6363     23.9665
  1178.8000      8.2153      2.5737     -0.0097      4.6213     88.3832     22.7957
  1178.9000      8.2153      2.5899      0.0551      3.6446     87.9224     22.0899
  1179.0000      8.1387      2.6070      0.0592      2.6079     91.1852     22.2959
  1179.1000      8.1387      2.6102      0.0399      2.4107     93.1354     22.8879
  1179.2000      8.1387      2.6052      0.0181      2.7156     94.7465     22.9378
  1179.3000      8.1366      2.6016      0.0356      2.9309     96.8963     22.2242
  1179.4000      8.1366      2.5999      0.0174      3.0390     99.0050     21.4753
  1179.5000      8.1446      2.5996      0.0126      3.0526    100.9184     21.3557
  1179.6000      8.1446      2.6042     -0.0132      2.7744    103.3844     21.5355
  1179.7000      8.1446      2.6140     -0.0016      2.1801    108.6508     21.5896
  1179.8000      8.1473      2.6167      0.0503      2.0172    116.2644     21.7862
  1179.9000      8.1473      2.5996      0.0056      3.0528    120.8229     22.2790
  1180.0000      8.1916      2.5710     -0.0009      4.7881    119.2534     22.8631
  1180.1000      8.1916      2.5469      0.0156      6.2509    114.5135     23.4947
  1180.2000      8.1916      2.5331      0.0212      7.0861    113.1140     24.1181
  1180.3000      8.1761      2.5271      0.0315      7.4465    118.7534     24.4403
  1180.4000      8.1761      2.5261      0.0524      7.5106    129.4105     24.6300
  1180.5000      8.2652      2.5322      0.0322      7.1380    141.3614     24.7968
  1180.6000      8.2652      2.5429      0.0688      6.4929    146.6880     24.6870
  1180.7000      8.2652      2.5433      0.0713      6.4672    140.3370     24.8562
  1180.8000      8.2439      2.5302      0.0213      7.2617    133.4679     25.8532
  1180.9000      8.2439      2.5220      0.0147      7.7558    134.5052     26.9994
  1181.0000      8.3680      2.5397      0.0052      6.6830    134.7790     27.5009
  1181.1000      8.3680      2.5810      0.1164      4.1789    128.3754     27.2843
  1181.2000      8.3680      2.6264      0.0929      1.4328    122.4883     26.8834
  1181.3000      8.4547      2.6716      0.1303     -1.3073    124.0936     26.8312
  1181.4000      8.4547      2.7200      0.1479     -4.2446    128.7749     26.8546
  1181.5000      8.2631      2.7637      0.1581     -6.8893    128.1821     26.5317
  1181.6000      8.2631      2.7925      0.1053     -8.6363    122.9551     26.0440
  1181.7000      8.2631      2.7903      0.1464     -8.5052    117.5339     25.6606
  1181.8000      8.2080      2.7371      0.1322     -5.2777    115.1892     25.4810
  1181.9000      8.2080      2.6405      0.0747      0.5769    116.6179     25.2264
  1182.0000      8.1413      2.5359     -0.0537      6.9177    116.0779     24.6323
  1182.1000      8.1413      2.4552     -0.1225     11.8034    111.5008     24.2563
  1182.2000      8.1413      2.4128     -0.1352     14.3744    108.4571     24.3460
  1182.3000      8.1079      2.4094     -0.1802     14.5847    108.4661     24.6429
  1182.4000      8.1079      2.4351     -0.1012     13.0229    108.7594     25.0392
  1182.5000      8.1114      2.4702      0.0095     10.8947    109.4700     25.1691
  1182.6000      8.1114      2.5087      0.0514      8.5628    112.1599     25.0294
  1182.7000      8.1114      2.5594      0.1419      5.4928    117.8614     24.9085
  1182.8000      8.1576      2.6033      0.3083      2.8319    127.6275     25.0229
  1182.9000      8.1576      2.6053      0.2448      2.7071    139.1013     25.5575
  1183.0000      8.2202      2.5596      0.2166      5.4775    144.1865     25.8598
  1183.1000      8.2202      2.4819      0.1757     10.1870    138.9662     25.3964
  1183.2000      8.2202      2.3993      0.0253     15.1929    132.9299     24.8737
  1183.3000      8.2160      2.3469     -0.0456     18.3680    133.8255     24.8537
  1183.4000      8.2160      2.3425     -0.0550     18.6374    134.1425     25.1826
  1183.5000      8.1995      2.3806     -0.0218     16.3250    128.6070     25.7409
  1183.6000      8.1995      2.4499      0.0128     12.1260    124.4015     26.3495
  1183.7000      8.1995      2.5321      0.1318      7.1446    128.5428     26.9184
  1183.8000      8.2416      2.5999      0.2630      3.0362    136.3664     27.4690
  1183.9000      8.2416      2.6312      0.3334      1.1365    139.9514     27.9483
  1184.0000      8.3810      2.6096      0.3357      2.4468    142.4995     28.3107
  1184.1000      8.3810      2.5401      0.1665      6.6611    147.8613     28.1909
  1184.2000      8.3810      2.4728      0.0333     10.7404    151.3388     27.6582
  1184.3000      8.2377      2.4517      0.0411     12.0200    146.7434     27.5153
  1184.4000      8.2377      2.4692     -0.0003     10.9606    136.1934     27.9476
  1184.5000      8.2026      2.5047      0.0219      8.8058    127.9614     28.1446
  1184.6000      8.2026      2.5439      0.0996      6.4327    127.6620     27.6581
  1184.7000      8.2026      2.5756      0.0714      4.5110    128.7906     26.8391
  1184.8000      8.1947      2.6034      0.1322      2.8264    124.2208     26.1607
  1184.9000      8.1947      2.6301      0.1906      1.2068    120.8468     26.0593
  1185.0000      8.2348      2.6473      0.1534      0.1633    123.4008     26.3327
  1185.1000      8.2348      2.6456      0.1170      0.2655    123.9099     26.1610
  1185.2000      8.2348      2.6297      0.0321      1.2308    116.8508     25.7977
  1185.3000      8.3407      2.6150      0.0298      2.1230    109.7351     25.5704
