~Version Information
VERS.                      2.0: CWLS Log ASCII Standard - VERSION 2.0
WRAP.                       NO: One line per depth step
~Well Information Block
STRT.FT               454.0000: 
STOP.FT              1389.0000: 
STEP.FT                 0.1000: 
NULL.                -999.2500: 
COMP.          Pioneer Natural Resources: COMPANY
WELL.          Lorencito 6-3-34-66: WELL
FLD.           Purgatoire River: FIELD
LOC.           2545' FNL & 1914' FWL: LOCATION
STAT.                 Colorado: State
CNTY.               Las Animas: COUNTY
CTRY. USA : Country
SECT. 3 : Section
TOWN. 34S : Township
RANG. 66W : Range
SRVC.                Patterson: SERVICE COMPANY
DATE.          Mon Sep 12 07:20:37 2005: LOG DATE
API.        05 071 08369 00: UNIQUE WELL ID
~Curve Information Block
DEPT.FT            0 000 00 00: Depth
DCAL.in                       : CDL Caliper
RHOB.g/cc                     : CDL Bulk Density
RHOC.g/cc                     : CDL Density Correction
DPOR.pu                       : CDL Density Porosity
GR.GAPI                       : Gamma Ray
NPOR.pu                       : Neutron Porosity
~Parameter Information Block
~A  Depth       DCAL        RHOB        RHOC        DPOR         GR         NPOR    
# ...
  1250.8000      8.0039      2.5135      0.0834      8.2706     60.9217     16.5772
  1250.9000      8.0039      2.5095      0.0442      8.5167     61.8089     16.6633
  1251.0000      7.9642      2.4923      0.0617      9.5546     60.4835     15.7911
  1251.1000      7.9642      2.4673      0.0101     11.0743     57.1186     15.3827
  1251.2000      7.9642      2.4547      0.0143     11.8383     54.3034     15.6812
  1251.3000      7.9816      2.4705      0.0543     10.8783     53.3275     15.7062
  1251.4000      7.9816      2.5030      0.0435      8.9095     53.8821     15.2930
  1251.5000      7.9695      2.5297      0.1032      7.2936     57.0882     14.7223
  1251.6000      7.9695      2.5458      0.0643      6.3153     60.3098     14.2493
  1251.7000      7.9695      2.5628      0.1023      5.2870     59.0930     14.3179
  1251.8000      7.9773      2.5796      0.0893      4.2656     55.6571     15.1266
  1251.9000      7.9773      2.5802      0.1239      4.2307     54.6992     16.2026
  1252.0000      8.0009      2.5624      0.0923      5.3072     55.2492     16.6538
  1252.1000      8.0009      2.5459      0.0613      6.3090     53.9154     15.9953
  1252.2000      8.0009      2.5407      0.0880      6.6246     52.7084     15.0219
  1252.3000      7.9749      2.5369      0.0632      6.8525     54.5090     14.7847
  1252.4000      7.9749      2.5296      0.0437      7.2977     55.9259     14.8670
  1252.5000      7.9392      2.5248      0.0342      7.5880     55.5392     14.5820
  1252.6000      7.9392      2.5223      0.0100      7.7402     54.8975     14.1080
  1252.7000      7.9392      2.5158      0.0331      8.1330     53.4340     13.8253
  1252.8000      8.0484      2.5081      0.0488      8.5989     52.7943     14.3722
  1252.9000      8.0484      2.5073      0.0328      8.6480     54.7536     15.6810
  1253.0000      8.0527      2.5152      0.0280      8.1688     56.9413     16.3843
  1253.1000      8.0527      2.5220      0.0430      7.7546     57.1601     15.9805
  1253.2000      8.0527      2.5139      0.0455      8.2507     54.2857     15.5904
  1253.3000      8.0329      2.5007     -0.0152      9.0461     49.4417     16.0278
  1253.4000      8.0329      2.5062      0.0253      8.7171     48.1865     16.9478
  1253.5000      8.0587      2.5208      0.0524      7.8293     53.9063     17.3837
  1253.6000      8.0587      2.5157      0.0940      8.1412     61.1757     16.6585
  1253.7000      8.0587      2.4931     -0.0083      9.5096     63.9129     15.2682
  1253.8000      8.0631      2.4786      0.0373     10.3901     62.4449     14.2565
  1253.9000      8.0631      2.4732      0.0500     10.7139     58.7760     13.9382
  1254.0000      8.0318      2.4681      0.0023     11.0243     54.9622     14.2636
  1254.1000      8.0318      2.4723     -0.0224     10.7698     52.4637     15.1933
  1254.2000      8.0318      2.4854      0.0739      9.9749     52.3158     16.4722
  1254.3000      8.0495      2.4869      0.0377      9.8825     56.0472     17.7136
  1254.4000      8.0495      2.4762      0.0099     10.5315     62.4944     18.2918
  1254.5000      7.9377      2.4738      0.0323     10.6802     66.3692     17.8201
  1254.6000      7.9377      2.4817      0.0973     10.1985     65.1111     16.8303
  1254.7000      7.9377      2.4872      0.0719      9.8665     62.8968     16.1273
  1254.8000      8.0365      2.4964     -0.0115      9.3076     62.0987     16.0741
  1254.9000      8.0365      2.5191      0.0625      7.9329     58.6529     16.6110
  1255.0000      8.0193      2.5374      0.0891      6.8222     52.8168     17.3540
  1255.1000      8.0193      2.5361      0.0522      6.9052     50.7512     17.7308
  1255.2000      8.0193      2.5182      0.0879      7.9852     53.0881     17.4627
  1255.3000      8.0152      2.4910      0.0018      9.6335     56.8879     17.1002
  1255.4000      8.0152      2.4674      0.0156     11.0675     61.3882     17.0911
  1255.5000      7.9878      2.4561     -0.0166     11.7544     63.9308     17.0179
  1255.6000      7.9878      2.4575      0.0113     11.6665     62.3608     16.6008
  1255.7000      7.9878      2.4684     -0.0083     11.0077     59.6547     16.2506
  1255.8000      8.0065      2.4815      0.0633     10.2129     59.1712     16.1103
  1255.9000      8.0065      2.4921      0.0328      9.5691     59.9195     15.6628
  1256.0000      8.0231      2.5002      0.0612      9.0770     60.1842     14.5602
  1256.1000      8.0231      2.5085      0.0166      8.5750     60.2657     13.3946
  1256.2000      8.0231      2.5277      0.0008      7.4147     59.4560     13.0662
  1256.3000      8.0478      2.5532      0.0913      5.8673     58.1283     13.8685
  1256.4000      8.0478      2.5642      0.0737      5.1970     59.0020     15.1250
  1256.5000      7.9867      2.5585      0.0592      5.5440     62.0802     15.6610
  1256.6000      7.9867      2.5456      0.0259      6.3303     64.1006     15.2829
  1256.7000      7.9867      2.5277      0.0541      7.4097     64.8149     14.8091
  1256.8000      7.9898      2.5086      0.0476      8.5713     66.4818     14.9714
  1256.9000      7.9898      2.4993     -0.0188      9.1335     68.0330     15.7933
  1257.0000      8.0167      2.5019      0.0405      8.9753     66.7720     16.5830
  1257.1000      8.0167      2.5035     -0.0085      8.8760     64.6674     16.8230
  1257.2000      8.0167      2.4993      0.0024      9.1345     63.6301     16.7406
  1257.3000      8.0084      2.4992      0.0057      9.1424     61.5406     17.0791
  1257.4000      8.0084      2.5112      0.0539      8.4109     59.0007     17.6713
  1257.5000      8.0032      2.5281      0.0518      7.3871     60.5465     17.3424
  1257.6000      8.0032      2.5408      0.0476      6.6168     63.9623     16.2498
  1257.7000      8.0032      2.5527      0.0706      5.8977     62.1308     15.5252
  1257.8000      8.0391      2.5625      0.1255      5.3018     56.6175     15.3423
  1257.9000      8.0391      2.5563      0.0880      5.6814     52.6914     15.4266
  1258.0000      8.0222      2.5332      0.0316      7.0812     50.7876     15.9773
  1258.1000      8.0222      2.5095      0.0225      8.5161     51.4290     16.9436
  1258.2000      8.0222      2.4984      0.0272      9.1855     54.6628     17.3371
  1258.3000      7.9417      2.5010      0.0479      9.0317     56.3828     16.7659
  1258.4000      7.9417      2.5087      0.0352      8.5636     53.7506     16.2218
  1258.5000      8.0117      2.5116      0.0739      8.3892     48.3544     16.2032
  1258.6000      8.0117      2.5035      0.0384      8.8801     42.0980     16.2752
  1258.7000      8.0117      2.4935      0.0378      9.4860     37.9738     15.9811
  1258.8000      8.0100      2.4968      0.0476      9.2820     39.8456     15.5798
  1258.9000      8.0100      2.5068      0.0494      8.6805     45.4010     15.7387
  1259.0000      8.0128      2.5004      0.0449      9.0659     48.3679     16.4674
  1259.1000      8.0128      2.4773      0.0004     10.4676     48.8993     16.8015
  1259.2000      8.0128      2.4634      0.0030     11.3075     51.0771     16.2687
  1259.3000      8.0344      2.4693      0.0075     10.9494     53.9205     16.0076
  1259.4000      8.0344      2.4779      0.0477     10.4311     56.9958     16.4734
  1259.5000      8.0243      2.4785      0.0392     10.3953     63.8222     16.9140
  1259.6000      8.0243      2.4782      0.0562     10.4099     71.0492     17.3840
  1259.7000      8.0243      2.4861      0.0475      9.9330     70.8624     18.2033
  1259.8000      8.0128      2.5027      0.0506      8.9269     63.2293     18.4440
  1259.9000      8.0128      2.5200      0.0406      7.8763     56.5413     17.7647
  1260.0000      8.0213      2.5272      0.0911      7.4416     54.4372     17.0116
  1260.1000      8.0213      2.5183      0.0595      7.9812     54.7715     16.7029
  1260.2000      8.0213      2.5009      0.0062      9.0371     59.0153     16.8112
  1260.3000      8.0242      2.4856      0.0159      9.9643     64.6796     16.7180
