~Version Information
VERS.                      2.0: CWLS Log ASCII Standard - VERSION 2.0
WRAP.                       NO: One line per depth step
~Well Information Block
STRT.FT               -14.5000: 
STOP.FT              2676.5000: 
STEP.FT                 0.1000: 
NULL.                -999.2500: 
COMP.          Petrogulf Corporation: COMPANY
WELL.          Latiluppe 8-13V: WELL
FLD.           Purgatorie River: FIELD
LOC.           1069' FWL & 1647' FSL: LOCATION
CNTY.               Las Animas: COUNTY
SRVC.                         : SERVICE COMPANY
DATE.          Tue Nov 18 16:12:50 2003: LOG DATE
UWI.                          : UNIQUE WELL ID
STAT.                 Colorado: STATE
~Curve Information Block
DEPT.FT            0 000 00 00: Depth
CCL.                          : Casing Collar Locator
TT3.usec                      : CBL 3' Travel Time
AMP3.mV                       : CBL 3' Amplitude
GR.GAPI                       : Gamma Ray
~Parameter Information Block
~A  Depth       CCL         TT3         AMP3         GR     
# ...
  1057.5000      0.0000    807.0068      3.2766    152.1261
  1057.6000      0.0000    807.0068      3.2766    152.1261
  1057.7000      0.0000    807.0068      3.2766    152.1261
  1057.8000      0.0000    785.8237      3.7227    155.8163
  1057.9000      0.0000    785.8237      3.7227    155.8163
  1058.0000      0.0000    760.4517      4.0789    154.3000
  1058.1000      0.0000    760.4517      4.0789    154.3000
  1058.2000      0.0000    760.4517      4.0789    154.3000
  1058.3000      0.0000    744.3625      4.3067    150.2069
  1058.4000      0.0000    744.3625      4.3067    150.2069
  1058.5000      0.0000    747.9998      4.4596    145.8848
  1058.6000      0.0000    747.9998      4.4596    145.8848
  1058.7000      0.0000    747.9998      4.4596    145.8848
  1058.8000      0.0000    771.7319      4.6572    142.5517
  1058.9000      0.0000    771.7319      4.6572    142.5517
  1059.0000      0.0000    806.0832      4.9864    140.5895
  1059.1000      0.0000    806.0832      4.9864    140.5895
  1059.2000      0.0000    806.0832      4.9864    140.5895
  1059.3000      0.0000    837.6244      5.4017    139.9670
  1059.4000      0.0000    837.6244      5.4017    139.9670
  1059.5000      0.0000    856.5347      5.7449    140.5018
  1059.6000      0.0000    856.5347      5.7449    140.5018
  1059.7000      2.0000    856.5347      5.7449    140.5018
  1059.8000     -2.0000    861.2276      5.8843    142.1966
  1059.9000     -2.0000    861.2276      5.8843    142.1966
  1060.0000      2.0000    856.8644      5.8248    145.2592
  1060.1000     -2.0000    856.8644      5.8248    145.2592
  1060.2000      0.0000    856.8644      5.8248    145.2592
  1060.3000      0.0000    850.2525      5.6977    149.4717
  1060.4000      0.0000    850.2525      5.6977    149.4717
  1060.5000      0.0000    846.2705      5.6637    153.8482
  1060.6000      0.0000    846.2705      5.6637    153.8482
  1060.7000      0.0000    846.2705      5.6637    153.8482
  1060.8000      0.0000    846.6064      5.7989    157.4272
  1060.9000      0.0000    846.6064      5.7989    157.4272
  1061.0000      0.0000    849.2867      6.0210    160.0963
  1061.1000      0.0000    849.2867      6.0210    160.0963
  1061.2000      0.0000    849.2867      6.0210    160.0963
  1061.3000      0.0000    850.6610      6.1267    161.9599
  1061.4000      0.0000    850.6610      6.1267    161.9599
  1061.5000      0.0000    849.6194      5.9588    162.0852
  1061.6000      0.0000    849.6194      5.9588    162.0852
  1061.7000      0.0000    849.6194      5.9588    162.0852
  1061.8000      0.0000    847.9868      5.5621    158.7932
  1061.9000      0.0000    847.9868      5.5621    158.7932
  1062.0000      0.0000    845.7941      5.1456    151.4988
  1062.1000      0.0000    845.7941      5.1456    151.4988
  1062.2000      0.0000    845.7941      5.1456    151.4988
  1062.3000      0.0000    839.5350      4.8735    141.8655
  1062.4000      0.0000    839.5350      4.8735    141.8655
  1062.5000      0.0000    827.2402      4.7211    133.0230
  1062.6000      0.0000    827.2402      4.7211    133.0230
  1062.7000      0.0000    827.2402      4.7211    133.0230
  1062.8000      0.0000    812.9736      4.5539    127.5244
  1062.9000      0.0000    812.9736      4.5539    127.5244
  1063.0000      0.0000    803.8983      4.3209    125.6641
  1063.1000      0.0000    803.8983      4.3209    125.6641
  1063.2000      0.0000    803.8983      4.3209    125.6641
  1063.3000      0.0000    803.5045      4.1237    125.7781
  1063.4000      0.0000    803.5045      4.1237    125.7781
  1063.5000      0.0000    808.9921      4.0949    126.3390
  1063.6000      0.0000    808.9921      4.0949    126.3390
  1063.7000      0.0000    808.9921      4.0949    126.3390
  1063.8000      0.0000    814.7737      4.2434    127.3529
  1063.9000      0.0000    814.7737      4.2434    127.3529
  1064.0000      0.0000    816.8516      4.4390    129.5073
  1064.1000      0.0000    816.8516      4.4390    129.5073
  1064.2000      0.0000    816.8516      4.4390    129.5073
  1064.3000      0.0000    813.8193      4.5276    132.6193
  1064.4000      0.0000    813.8193      4.5276    132.6193
  1064.5000      0.0000    806.2244      4.4510    135.5232
  1064.6000      0.0000    806.2244      4.4510    135.5232
  1064.7000      0.0000    806.2244      4.4510    135.5232
  1064.8000      0.0000    796.8259      4.2837    137.1802
  1064.9000      0.0000    796.8259      4.2837    137.1802
  1065.0000      0.0000    789.8289      4.1722    137.4327
  1065.1000      0.0000    789.8289      4.1722    137.4327
  1065.2000      0.0000    789.8289      4.1722    137.4327
  1065.3000      0.0000    787.5674      4.2104    136.8272
  1065.4000      0.0000    787.5674      4.2104    136.8272
  1065.5000      0.0000    788.0674      4.3426    136.0546
  1065.6000      0.0000    788.0674      4.3426    136.0546
  1065.7000      0.0000    788.0674      4.3426    136.0546
  1065.8000      0.0000    787.0306      4.4031    135.6091
  1065.9000      0.0000    787.0306      4.4031    135.6091
  1066.0000      0.0000    782.1870      4.2824    135.7925
  1066.1000      0.0000    782.1870      4.2824    135.7925
  1066.2000      0.0000    782.1870      4.2824    135.7925
  1066.3000      0.0000    774.9789      4.0554    136.6949
  1066.4000      0.0000    774.9789      4.0554    136.6949
  1066.5000      0.0000    768.3234      3.9283    138.0061
  1066.6000      0.0000    768.3234      3.9283    138.0061
  1066.7000      0.0000    768.3234      3.9283    138.0061
  1066.8000      0.0000    763.8660      4.0478    139.2656
  1066.9000      0.0000    763.8660      4.0478    139.2656
  1067.0000      0.0000    761.4761      4.3650    140.5231
  1067.1000      0.0000    761.4761      4.3650    140.5231
  1067.2000      0.0000    761.4761      4.3650    140.5231
  1067.3000      0.0000    760.3027      4.6944    142.0904
  1067.4000      0.0000    760.3027      4.6944    142.0904
  1067.5000      0.0000    759.6140      4.8949    143.4057
  1067.6000      0.0000    759.6140      4.8949    143.4057
  1067.7000      0.0000    759.6140      4.8949    143.4057
  1067.8000      0.0000    758.8861      4.9785    143.1586
  1067.9000      0.0000    758.8861      4.9785    143.1586
  1068.0000      0.0000    757.5284      5.0530    141.1509
  1068.1000      0.0000    757.5284      5.0530    141.1509
  1068.2000      0.0000    757.5284      5.0530    141.1509
  1068.3000      0.0000    754.7111      5.1876    139.1427
  1068.4000      0.0000    754.7111      5.1876    139.1427
  1068.5000      0.0000    749.6846      5.3462    139.1383
  1068.6000      0.0000    749.6846      5.3462    139.1383
  1068.7000      0.0000    749.6846      5.3462    139.1383
  1068.8000      0.0000    742.6149      5.4370    141.4809
  1068.9000      0.0000    742.6149      5.4370    141.4809
  1069.0000      0.0000    735.1170      5.4117    145.1813
  1069.1000      0.0000    735.1170      5.4117    145.1813
  1069.2000      0.0000    735.1170      5.4117    145.1813
  1069.3000      0.0000    729.5538      5.3182    149.4581
  1069.4000      0.0000    729.5538      5.3182    149.4581
  1069.5000      0.0000    727.2518      5.2595    154.2383
  1069.6000      0.0000    727.2518      5.2595    154.2383
  1069.7000      0.0000    727.2518      5.2595    154.2383
  1069.8000      0.0000    727.2940      5.2886    159.4523
  1069.9000      0.0000    727.2940      5.2886    159.4523
  1070.0000      0.0000    727.4704      5.3408    164.5996
  1070.1000      0.0000    727.4704      5.3408    164.5996
  1070.2000      0.0000    727.4704      5.3408    164.5996
  1070.3000      0.0000    726.8083      5.2993    169.0436
  1070.4000      0.0000    726.8083      5.2993    169.0436
  1070.5000      0.0000    726.8156      5.1453    172.1558
  1070.6000      0.0000    726.8156      5.1453    172.1558
  1070.7000      0.0000    726.8156      5.1453    172.1558
  1070.8000      0.0000    729.7182      5.0113    173.1861
