~Version Information
VERS.                      2.0: CWLS Log ASCII Standard - VERSION 2.0
WRAP.                       NO: One line per depth step
~Well Information Block
STRT.FT               563.6000: 
STOP.FT              2133.0000: 
STEP.FT                 0.1000: 
NULL.                -999.2500: 
COMP.          Petrogulf Corporation: COMPANY
WELL.             State 16-43V: WELL
FLD.           Purgatorie River: FIELD
LOC.           2437' FSL & 734' FEL: LOCATION
CNTY.               Las Animas: COUNTY
SRVC.                         : SERVICE COMPANY
DATE.          Mon Dec 06 06:01:26 2004: LOG DATE
UWI.           05 071 08015 00: UNIQUE WELL ID
STAT.                 Colorado: STATE
~Curve Information Block
DEPT.FT            0 000 00 00: Depth
DCAL.in                       : CDL Caliper
RHOB.g/cc                     : CDL Bulk Density
RHOC.g/cc                     : CDL Density Correction
DPOR.pu                       : CDL Density Porosity
GR.GAPI                       : Gamma Ray
NPOR.pu                       : Neutron Porosity
~Parameter Information Block
~A  Depth       DCAL        RHOB        RHOC        DPOR         GR         NPOR    
# ...
  1610.0000      7.9416      2.6122      0.0932      2.2936    121.3601     25.6691
  1610.1000      7.9416      2.5990      0.0619      3.0893    120.8399     25.1565
  1610.2000      7.9416      2.5844      0.1150      3.9745    121.0526     24.8242
  1610.3000      8.0011      2.5747      0.1137      4.5656    123.2753     24.4980
  1610.4000      8.0011      2.5780      0.0550      4.3665    124.0215     24.1215
  1610.5000      7.9887      2.5902      0.1218      3.6273    123.3023     24.1023
  1610.6000      7.9887      2.5890      0.1397      3.6997    123.5732     24.4988
  1610.7000      7.9887      2.5705      0.0999      4.8164    126.1683     24.8190
  1610.8000      7.9672      2.5555      0.1089      5.7250    128.8797     24.8203
  1610.9000      7.9672      2.5544      0.2083      5.7922    129.5622     24.6747
  1611.0000      7.9813      2.5699      0.2039      4.8525    130.3553     24.4530
  1611.1000      7.9813      2.6086      0.2041      2.5118    129.7191     24.0823
  1611.2000      7.9813      2.6581      0.1858     -0.4882    125.6201     23.8583
  1611.3000      8.0375      2.6939      0.1705     -2.6592    122.2001     24.2100
  1611.4000      8.0375      2.7045      0.1967     -3.3013    122.7934     24.7663
  1611.5000      8.0524      2.6938      0.1952     -2.6530    125.8815     24.6297
  1611.6000      8.0524      2.6724      0.1923     -1.3556    125.8843     23.6817
  1611.7000      8.0524      2.6509      0.1774     -0.0550    121.6179     22.4807
  1611.8000      8.0110      2.6295      0.2244      1.2433    119.4038     21.3608
  1611.9000      8.0110      2.5854      0.1358      3.9174    122.2470     20.2670
  1612.0000      8.0021      2.5015      0.0972      9.0005    129.2494     18.9761
  1612.1000      8.0021      2.3946      0.0440     15.4793    136.3416     17.3642
  1612.2000      8.0021      2.3013      0.0008     21.1351    137.5882     15.5747
  1612.3000      7.9919      2.2368      0.0956     25.0445    132.2701     13.7813
  1612.4000      7.9919      2.1779      0.0530     28.6139    124.4928     12.1881
  1612.5000      7.9595      2.0956      0.0421     33.6010    120.3257     11.1939
  1612.6000      7.9595      1.9817      0.0484     40.5019    121.3584     10.9438
  1612.7000      7.9595      1.8599      0.0082     47.8868    122.5696     11.1034
  1612.8000      7.9893      1.7679     -0.0011     53.4621    120.7033     11.3118
  1612.9000      7.9893      1.7099      0.0609     56.9766    116.7669     11.3883
  1613.0000      7.9552      1.6599      0.0863     60.0035    113.6305     11.3224
  1613.1000      7.9552      1.6092      0.0963     63.0805    112.9369     11.2673
  1613.2000      7.9552      1.5673      0.0599     65.6179    112.3689     11.3597
  1613.3000      7.9587      1.5338      0.0370     67.6462    108.1259     11.5425
  1613.4000      7.9587      1.4929      0.0153     70.1285     99.6589     11.5578
  1613.5000      8.0868      1.4331     -0.0013     73.7538     89.6889     11.3236
  1613.6000      8.0868      1.3696     -0.0802     77.6029     79.6900     10.9659
  1613.7000      8.0868      1.3296     -0.0538     80.0257     68.9724     10.5793
  1613.8000      8.2273      1.3106     -0.0185     81.1787     59.6127     10.2741
  1613.9000      8.2273      1.2894     -0.0355     82.4621     53.9036     10.0492
  1614.0000      8.2923      1.2631     -0.0135     84.0531     50.2625      9.6792
  1614.1000      8.2923      1.2509      0.0182     84.7949     47.1810      9.0519
  1614.2000      8.2923      1.2637      0.1110     84.0175     43.4860      8.3532
  1614.3000      8.1286      1.2928      0.1294     82.2535     37.9332      7.7768
  1614.4000      8.1286      1.3352      0.1525     79.6825     32.0925      7.3139
  1614.5000      8.1141      1.3988      0.1727     75.8284     27.7119      6.8500
  1614.6000      8.1141      1.4686      0.3092     71.5974     25.5296      6.3966
  1614.7000      8.1141      1.5114      0.2986     69.0090     25.6246      6.0860
  1614.8000      8.2024      1.5214      0.2740     68.4012     26.8952      5.9608
  1614.9000      8.2024      1.5149      0.2900     68.7925     27.9682      5.9971
  1615.0000      8.2053      1.4954      0.2787     69.9783     27.3233      6.1937
  1615.1000      8.2053      1.4534      0.2718     72.5217     24.3387      6.5030
  1615.2000      8.2053      1.3888      0.1434     76.4374     20.4082      6.7445
  1615.3000      8.3425      1.3238      0.0449     80.3770     17.5788      6.8777
  1615.4000      8.3425      1.2803      0.0111     83.0101     17.2282      7.1598
  1615.5000      8.9776      1.2582      0.0112     84.3512     18.5265      7.8582
  1615.6000      8.9776      1.2552     -0.0572     84.5313     19.7714      8.9773
  1615.7000      8.9776      1.2807      0.0430     82.9869     21.0682     10.2405
  1615.8000      9.4056      1.3474      0.0368     78.9465     22.8380     11.6443
  1615.9000      9.4056      1.4803      0.0518     70.8935     24.8034     13.5229
  1616.0000      9.5557      1.6924      0.1894     58.0339     26.6873     15.8348
  1616.1000      9.5557      1.9477      0.3391     42.5614     27.8828     18.0058
  1616.2000      9.5557      2.1802      0.4633     28.4752     29.0903     19.6317
  1616.3000      9.3968      2.3464      0.4883     18.3997     32.2623     21.0272
  1616.4000      9.3968      2.4592      0.4698     11.5645     36.2973     22.5924
  1616.5000      8.3707      2.5589      0.4651      5.5185     38.8895     23.9880
  1616.6000      8.3707      2.6527      0.4342     -0.1665     40.5986     24.6858
  1616.7000      8.3707      2.7065      0.3343     -3.4251     44.0888     25.0892
  1616.8000      8.1150      2.7079      0.1373     -3.5090     51.2987     25.5601
  1616.9000      8.1150      2.6889      0.1733     -2.3579     59.3725     25.5035
  1617.0000      7.9877      2.6767      0.1223     -1.6161     64.2303     24.9022
  1617.1000      7.9877      2.6728      0.1231     -1.3832     66.9890     24.6194
  1617.2000      7.9877      2.6658      0.1047     -0.9551     71.4012     24.8576
  1617.3000      7.9106      2.6533      0.1072     -0.1993     76.0058     24.8124
  1617.4000      7.9106      2.6448      0.0841      0.3157     77.0497     24.1842
  1617.5000      7.8488      2.6329      0.0773      1.0394     77.3058     23.5987
  1617.6000      7.8488      2.6085     -0.0154      2.5144     79.7666     23.2444
  1617.7000      7.8488      2.5876      0.0258      3.7804     82.9374     22.8883
  1617.8000      7.8438      2.5817      0.0324      4.1364     86.5557     22.5107
  1617.9000      7.8438      2.5869     -0.0020      3.8237     91.8686     22.1294
  1618.0000      7.8483      2.5964      0.0213      3.2496     98.5959     22.0611
  1618.1000      7.8483      2.5959      0.0680      3.2763    105.2578     22.5346
  1618.2000      7.8483      2.5765     -0.0141      4.4524    110.6960     23.0106
  1618.3000      7.8871      2.5504      0.0081      6.0353    113.0362     23.0397
  1618.4000      7.8871      2.5291     -0.0232      7.3245    113.4315     23.0081
  1618.5000      7.9267      2.5209     -0.0430      7.8244    113.7775     23.3339
  1618.6000      7.9267      2.5342      0.0215      7.0189    111.6263     23.9067
  1618.7000      7.9267      2.5690     -0.0041      4.9086    108.2475     24.4845
  1618.8000      7.9680      2.6110      0.0987      2.3661    110.2588     24.7749
  1618.9000      7.9680      2.6295      0.0681      1.2430    116.9290     24.6215
  1619.0000      7.9757      2.6068      0.0738      2.6156    118.5776     24.2264
  1619.1000      7.9757      2.5598     -0.0075      5.4647    116.2864     23.7944
  1619.2000      7.9757      2.5191      0.0311      7.9308    118.3205     23.7726
  1619.3000      7.9917      2.5009     -0.0263      9.0373    121.5972     24.6087
  1619.4000      7.9917      2.5094      0.0154      8.5205    118.4392     25.6889
  1619.5000      7.9853      2.5309      0.0554      7.2197    111.1460     25.9775
