~Version Information
VERS.                      2.0: CWLS Log ASCII Standard - VERSION 2.0
WRAP.                       NO: One line per depth step
~Well Information Block
STRT.FT               400.0000: 
STOP.FT              2201.0000: 
STEP.FT                 0.1000: 
NULL.                -999.2500: 
COMP.          Evergreen Operating Corporation: COMPANY
WELL.            Triumph 13-10: WELL
FLD.           Purgatorie River: FIELD
LOC.           1551' FSL & 522' FWL: LOCATION
PROV.                 Colorado: PROVINCE
CNTY.               Las Animas: COUNTRY
SRVC.                Patterson: SERVICE COMPANY
DATE.          Mon Jul 26 07:55:18 2004: LOG DATE
UWI.           05 071 08108 00: UNIQUE WELL ID
~Curve Information Block
DEPT.FT            0 000 00 00: Depth
DCAL.in                       : CDL Caliper
RHOB.g/cc                     : CDL Bulk Density
RHOC.g/cc                     : CDL Density Correction
DPOR.pu                       : CDL Density Porosity
NPOR.pu                       : Neutron Porosity
GR.GAPI                       : Gamma Ray
~Parameter Information Block
~A  Depth       DCAL        RHOB        RHOC        DPOR        NPOR         GR     
# ...
   755.2000      8.2129      2.5976      0.0151      3.1777     28.1956    112.1810
   755.3000      8.2147      2.5900      0.0492      3.6345     28.6640    114.4476
   755.4000      8.2147      2.5644     -0.0025      5.1874     29.0666    115.8510
   755.5000      8.2083      2.5449     -0.0258      6.3673     29.3231    117.8529
   755.6000      8.2083      2.5464      0.0079      6.2777     29.4200    118.7912
   755.7000      8.2083      2.5532      0.0395      5.8637     29.5908    117.3248
   755.8000      8.2162      2.5481      0.0117      6.1737     29.7056    115.5213
   755.9000      8.2162      2.5342     -0.0286      7.0185     29.4825    116.4414
   756.0000      8.2583      2.5267     -0.0672      7.4701     29.3500    118.9784
   756.1000      8.2583      2.5348     -0.0032      6.9822     29.7410    121.2507
   756.2000      8.2583      2.5541     -0.0492      5.8114     30.2849    123.2388
   756.3000      8.2454      2.5786      0.0256      4.3299     30.4097    123.6729
   756.4000      8.2454      2.5974      0.0321      3.1869     30.0880    123.8304
   756.5000      8.2524      2.6047      0.0257      2.7452     29.8301    125.8011
   756.6000      8.2524      2.6049      0.0329      2.7304     29.9760    131.1709
   756.7000      8.2524      2.5940      0.0408      3.3910     30.2098    138.8484
   756.8000      8.2210      2.5681     -0.0001      4.9612     30.1367    142.4194
   756.9000      8.2210      2.5372      0.0094      6.8383     29.8702    141.8482
   757.0000      8.2079      2.5105      0.0042      8.4536     29.6669    143.2635
   757.1000      8.2079      2.5021     -0.0324      8.9654     29.3875    143.4117
   757.2000      8.2079      2.5276     -0.0428      7.4197     28.9007    138.2552
   757.3000      8.2067      2.5710      0.0046      4.7862     28.3819    133.4472
   757.4000      8.2067      2.5969      0.0068      3.2155     28.2953    132.4803
   757.5000      8.2119      2.6007     -0.0316      2.9883     28.8945    132.3538
   757.6000      8.2119      2.6023      0.0254      2.8923     29.7375    132.5585
   757.7000      8.2119      2.6075     -0.0063      2.5741     30.2716    134.4998
   757.8000      8.2043      2.6102      0.0259      2.4097     30.2916    137.1232
   757.9000      8.2043      2.6032      0.0283      2.8375     29.7701    135.8614
   758.0000      8.2096      2.5843     -0.0086      3.9804     28.8975    126.6875
   758.1000      8.2096      2.5712     -0.0741      4.7785     28.1786    114.4386
   758.2000      8.2096      2.5792      0.0182      4.2899     27.9054    108.0340
   758.3000      8.2101      2.5828      0.0663      4.0712     27.8665    108.6014
   758.4000      8.2101      2.5601     -0.0019      5.4484     27.6462    112.2583
   758.5000      8.2078      2.5394     -0.0341      6.7061     27.2668    116.2249
   758.6000      8.2078      2.5463      0.0100      6.2822     27.0565    116.8018
   758.7000      8.2078      2.5682      0.0437      4.9590     26.9623    114.1011
   758.8000      8.2108      2.5842      0.0432      3.9908     26.9158    111.7707
   758.9000      8.2108      2.5843      0.0716      3.9800     26.8283    109.7685
   759.0000      8.2069      2.5725      0.0083      4.6961     26.5226    105.3058
   759.1000      8.2069      2.5642     -0.0041      5.1974     26.2845     98.7553
   759.2000      8.2069      2.5573      0.0150      5.6164     26.3803     94.6130
   759.3000      8.1944      2.5385      0.0207      6.7560     26.4954     92.4205
   759.4000      8.1944      2.5241     -0.0384      7.6314     26.2244     91.1520
   759.5000      8.1875      2.5491     -0.0261      6.1121     25.9355     94.6715
   759.6000      8.1875      2.6057      0.0741      2.6859     26.1157    102.2827
   759.7000      8.1875      2.6410      0.1273      0.5479     26.3474    107.8869
   759.8000      8.1896      2.6364      0.0567      0.8219     26.2148    108.0143
   759.9000      8.1896      2.6250     -0.0083      1.5132     26.0578    103.8570
   760.0000      8.1973      2.6303      0.0527      1.1938     26.2047     98.2017
   760.1000      8.1973      2.6405      0.0962      0.5741     26.4746     93.6203
   760.2000      8.1973      2.6397      0.0477      0.6257     26.6165     90.7172
   760.3000      8.1979      2.6310      0.0426      1.1512     26.6043     89.9674
   760.4000      8.1979      2.6223      0.0389      1.6796     26.5933     94.3340
   760.5000      8.2017      2.6116      0.0783      2.3303     26.5600    103.0753
   760.6000      8.2017      2.5933      0.0618      3.4336     26.2362    108.3387
   760.7000      8.2017      2.5797     -0.0140      4.2603     25.8761    108.1458
   760.8000      8.2041      2.5858     -0.0068      3.8901     25.9702    109.0061
   760.9000      8.2041      2.5968      0.0859      3.2245     26.2413    111.2767
   761.0000      8.2113      2.5884      0.0396      3.7318     26.2528    110.4408
   761.1000      8.2113      2.5667     -0.0054      5.0456     26.2146    106.6923
   761.2000      8.2113      2.5560     -0.0209      5.6949     26.4186    100.7321
   761.3000      8.2154      2.5698      0.0007      4.8595     26.8668     94.5041
   761.4000      8.2154      2.6010      0.0325      2.9698     27.3795     94.7120
   761.5000      8.2113      2.6246      0.0728      1.5421     27.5991    102.6245
   761.6000      8.2113      2.6211      0.0620      1.7527     27.6438    109.4365
   761.7000      8.2113      2.5999      0.0332      3.0338     27.9701    107.7022
   761.8000      8.2097      2.5844     -0.0136      3.9737     28.5444    101.0417
   761.9000      8.2097      2.5808      0.0142      4.1944     29.1173     99.4924
   762.0000      8.1969      2.5804     -0.0074      4.2210     29.6187    103.9332
   762.1000      8.1969      2.5840     -0.0245      3.9989     29.9456    106.4577
   762.2000      8.1969      2.6051     -0.0171      2.7196     29.9080    105.5832
   762.3000      8.2047      2.6570      0.0081     -0.4259     29.7463    106.0541
   762.4000      8.2047      2.7313      0.0361     -4.9288     29.9883    110.7394
   762.5000      8.2077      2.7937      0.1044     -8.7105     30.6801    117.2096
   762.6000      8.2077      2.8130      0.1072     -9.8778     31.3013    119.4939
   762.7000      8.2077      2.7860      0.0924     -8.2400     31.5273    117.4654
   762.8000      8.2070      2.7397      0.0216     -5.4365     31.7809    116.0345
   762.9000      8.2070      2.7074     -0.0162     -3.4804     32.1112    116.8689
   763.0000      8.2061      2.6916      0.0090     -2.5229     31.9544    118.4972
   763.1000      8.2061      2.6739     -0.0318     -1.4459     31.5182    119.7825
   763.2000      8.2061      2.6522     -0.0574     -0.1332     31.2455    121.8465
   763.3000      8.2035      2.6401     -0.0472      0.5987     31.0104    125.4938
   763.4000      8.2035      2.6401     -0.0342      0.6015     30.8113    128.2066
   763.5000      8.2260      2.6401      0.0156      0.6000     30.7596    128.1036
   763.6000      8.2260      2.6276      0.0380      1.3594     30.6717    127.7740
   763.7000      8.2260      2.6051     -0.0252      2.7238     30.6784    129.0365
   763.8000      8.2308      2.5876     -0.0224      3.7827     30.9998    130.2186
   763.9000      8.2308      2.5766      0.0168      4.4494     31.2885    131.0045
   764.0000      8.2179      2.5633      0.0025      5.2539     31.4247    131.6717
   764.1000      8.2179      2.5449     -0.0307      6.3684     31.7008    132.0163
   764.2000      8.2179      2.5220     -0.0312      7.7566     31.9573    134.1176
   764.3000      8.2259      2.4985     -0.0092      9.1814     31.8629    140.9731
   764.4000      8.2259      2.4856     -0.0400      9.9616     31.3967    151.4942
   764.5000      8.2118      2.4863     -0.0057      9.9206     30.7325    161.1891
   764.6000      8.2118      2.4934     -0.0629      9.4928     30.3776    166.3657
   764.7000      8.2118      2.5069      0.0020      8.6707     30.6869    167.2442
