~Version Information
 VERS.                                  2.0 : CWLS LAS VERSION
 WRAP.                                   NO : WRAPING MODE
 SWARE .                 MController 2.5.0N : SOFTWARE VERSION
~Well Information
 WELL.                         Vector 33-23 : WELL
 COMP.    Pioneer Natural Resources USA Inc : COMPANY
 FLD.                      Purgatoire River : FIELD
 LOC.                NW/SE Sec 23 T32S R66W : LOCATION
 DATE.                              3/25/05 : DATE(S) LOGGED
 SRVC.       Blanco Geological Services LLC : SERVICE COMPANY
 STAT.                                   CO : STATE
 CNTY.                           Las Animas : COUNTY
 CTRY.                                  USA : COUNTRY
 API.                       05-071-08336-00 : API NUMBER
 STRT.FT                             770.00 : START DEPTH
 STOP.FT                            2300.00 : STOP DEPTH
 STEP.FT                               1.00 : DEPTH INCREMENT
 NULL.                                -9999 : NULL VALUE
~Curve information
 DEPTH.FT                                   :
 ROP.MIN/FT                                 :
 GAS.UNITS                                  :
~ASCII Log data
# ...
      1570.0         0.33         37.8 
      1571.0         0.27         39.8 
      1572.0         0.30         40.1 
      1573.0         0.35         40.3 
      1574.0         0.43         40.6 
      1575.0         0.40         39.4 
      1576.0         0.37         36.7 
      1577.0         0.37         38.3 
      1578.0         0.37         41.0 
      1579.0         0.27         42.3 
      1580.0         0.43         42.2 
      1581.0         0.40         38.3 
      1582.0         0.38         36.4 
      1583.0         0.27         33.5 
      1584.0         0.20         35.9 
      1585.0         0.30         47.5 
      1586.0         2.85        126.7 
      1587.0         0.40         59.0 
      1588.0         0.37         49.2 
      1589.0         0.40         44.3 
      1590.0         0.50         48.9 
      1591.0         0.37         59.9 
      1592.0         0.17         60.3 
      1593.0         0.20         59.9 
      1594.0         0.17         57.5 
      1595.0         0.35         54.4 
      1596.0         0.33         49.6 
      1597.0         0.17         46.8 
      1598.0         0.23         45.8 
      1599.0         0.20         45.2 
      1600.0         0.20         44.5 
      1601.0         0.20         42.4 
      1602.0         0.33         42.4 
      1603.0         0.27         42.5 
      1604.0         0.23         42.4 
      1605.0         0.23         43.1 
      1606.0         0.20         43.5 
      1607.0         0.23         43.5 
      1608.0         0.20         43.7 
      1609.0         0.28         45.0 
      1610.0         0.30         44.8 
      1611.0         0.23         43.1 
      1612.0         0.33         38.4 
      1613.0         0.33         30.6 
      1614.0         0.27         36.5 
      1615.0         1.98        159.3 
      1616.0         0.67        117.5 
      1617.0         0.70         90.3 
      1618.0         0.43         59.8 
      1619.0         0.43         49.7 
      1620.0         0.37         48.4 
      1621.0         0.20         50.1 
      1622.0         0.23         51.0 
      1623.0         0.22         51.2 
      1624.0         0.23         50.2 
      1625.0         0.20         49.6 
      1626.0         0.23         48.0 
      1627.0         0.23         46.3 
      1628.0         0.23         44.1 
      1629.0         0.17         42.5 
      1630.0         0.20         42.3 
      1631.0         0.23         42.4 
      1632.0         0.27         41.9 
      1633.0         0.20         41.5 
      1634.0         0.13         40.8 
      1635.0         0.27         40.9 
      1636.0         0.30         40.9 
      1637.0         0.32         40.5 
      1638.0         0.27         40.1 
      1639.0         0.23         39.2 
      1640.0         0.23         37.8 
      1641.0         0.17         34.9 
      1642.0         0.20         32.4 
      1643.0         0.20         27.5 
      1644.0         0.23         27.0 
      1645.0         0.20         37.2 
      1646.0         2.05        127.2 
      1647.0         0.50         99.5 
      1648.0         0.47         70.0 
      1649.0         0.30         49.2 
      1650.0         0.33         42.1 
      1651.0         0.50         39.6 
      1652.0         0.27         42.1 
      1653.0         0.33         42.5 
      1654.0         0.22         41.6 
      1655.0         0.27         41.0 
      1656.0         0.27         39.5 
      1657.0         0.23         38.9 
      1658.0         0.27         38.4 
      1659.0         0.23         38.1 
      1660.0         0.27         37.9 
      1661.0         0.23         37.2 
      1662.0         0.23         36.7 
      1663.0         0.20         36.2 
      1664.0         0.27         36.1 
      1665.0         0.20         35.5 
      1666.0         0.30         34.2 
      1667.0         0.30         31.8 
      1668.0         0.35         29.9 
      1669.0         0.23         31.3 
      1670.0         0.23         31.3 
      1671.0         0.20         29.9 
      1672.0         0.20         26.9 
      1673.0         0.20         22.2 
      1674.0         0.23         20.6 
      1675.0         0.23         21.6 
      1676.0         2.98        125.6 
      1677.0         0.47         81.6 
      1678.0         0.33         58.9 
      1679.0         0.37         48.2 
      1680.0         0.30         40.2 
      1681.0         0.30         38.2 
      1682.0         0.28         36.9 
      1683.0         0.27         36.5 
      1684.0         0.27         39.2 
      1685.0         0.30         41.4 
      1686.0         0.30         42.0 
      1687.0         0.17         40.4 
      1688.0         0.20         36.9 
      1689.0         0.20         35.0 
      1690.0         0.20         35.0 
      1691.0         0.20         35.6 
      1692.0         0.20         35.8 
      1693.0         0.20         36.7 
      1694.0         0.17         36.9 
      1695.0         0.20         35.7 
      1696.0         0.38         34.3 
      1697.0         0.37         33.0 
      1698.0         0.20         31.9 
      1699.0         0.20         32.0 
      1700.0         0.23         31.5 
      1701.0         0.23         30.1 
      1702.0         0.20         27.4 
      1703.0         0.20         24.3 
      1704.0         0.23         23.7 
      1705.0         0.20         23.6 
      1706.0         3.18        171.9 
      1707.0         0.60        105.4 
      1708.0         0.40         65.3 
      1709.0         0.27         48.8 
      1710.0         0.42         41.7 
      1711.0         0.30         35.9 
      1712.0         0.27         36.5 
      1713.0         0.30         39.9 
      1714.0         0.37         42.1 
      1715.0         0.30         42.1 
      1716.0         0.27         41.6 
      1717.0         0.23         40.9 
      1718.0         0.30         40.3 
      1719.0         0.30         47.0 
      1720.0         0.30         51.1 
      1721.0         0.32         50.4 
      1722.0         0.27         46.4 
      1723.0         0.30         43.4 
      1724.0         0.43         40.4 
      1725.0         0.33         37.9 
      1726.0         0.20         39.3 
      1727.0         0.27         41.9 
      1728.0         0.20         42.7 
      1729.0         0.23         42.7 
      1730.0         0.47         40.5 
      1731.0         0.38         36.6 
      1732.0         0.20         32.6 
      1733.0         0.23         30.0 
      1734.0         0.23         27.5 
      1735.0         0.23         28.5 
      1736.0         3.18        135.0 
      1737.0         0.33         69.6 
      1738.0         0.27         57.3 
      1739.0         0.33         50.2 
      1740.0         0.23         42.5 
      1741.0         0.23         39.4 
      1742.0         0.23         42.6 
      1743.0         0.20         47.6 
      1744.0         0.23         51.7 
      1745.0         0.20         52.1 
      1746.0         0.17         52.3 
      1747.0         0.25         52.1 
      1748.0         0.20         51.6 
      1749.0         0.20         48.3 
      1750.0         0.20         45.1 
      1751.0         0.23         43.0 
      1752.0         0.23         40.5 
      1753.0         0.20         39.1 
      1754.0         0.20         38.7 
      1755.0         0.23         38.5 
      1756.0         0.20         39.0 
      1757.0         0.20         38.5 
      1758.0         0.20         38.6 
      1759.0         0.23         38.1 
      1760.0         0.20         37.6 
      1761.0         0.23         35.1 
      1762.0         0.25         29.5 
      1763.0         0.23         27.4 
      1764.0         0.23         29.1 
      1765.0         0.33         31.7 
      1766.0         4.52        174.6 
      1767.0         0.27         52.5 
      1768.0         0.47         50.5 
      1769.0         0.23         52.2 
