~Version Information
VERS.                      2.0: CWLS Log ASCII Standard - VERSION 2.0
WRAP.                       NO: One line per depth step
~Well Information Block
STRT.FT               860.0000: 
STOP.FT              2733.7500: 
STEP.FT                 0.2500: 
NULL.                -999.2500: 
COMP.          Pioneer Natural Resources: COMPANY
WELL.          Beacon 11-18 Tr: WELL
FLD.           Purgatoire River: FIELD
LOC.           409' FNL & 203' FWL: LOCATION
PROV.                 Colorado: PROVINCE
CNTY.               Las Animas: COUNTRY
SRVC.                Patterson: SERVICE COMPANY
DATE.          Sun Jan 16 19:36:19 2005: LOG DATE
UWI.           05 071 08251 00: UNIQUE WELL ID
~Curve Information Block
DEPT.FT            0 000 00 00: Depth
SN.Ohm-m                      : IEL Short Normal
SP.mV                         : IEL Spontaneous Potential
DIR.Ohm-m                     : IEL Induction Resistivity
GR.GAPI                       : Gamma Ray
~Parameter Information Block
~A  Depth        SN          SP         DIR          GR     
# ...
  1965.5000     29.3312    -50.0412     33.8452     48.9410
  1965.7500     28.1892    -49.8300     32.6165     52.1413
  1966.0000     26.8981    -49.5816     31.0980     59.3017
  1966.2500     25.5843    -49.3091     29.3770     65.8450
  1966.5000     24.3492    -49.0328     27.6120     78.1000
  1966.7500     23.2470    -48.7745     25.9726     87.2602
  1967.0000     22.2820    -48.5507     24.5715    100.5754
  1967.2500     21.4238    -48.3672     23.4347    107.9321
  1967.5000     20.6258    -48.2177     22.5138    115.2625
  1967.7500     19.8442    -48.0870     21.7204    117.5593
  1968.0000     19.0573    -47.9564     20.9685    118.0234
  1968.2500     18.2795    -47.8093     20.2093    117.2435
  1968.5000     17.5581    -47.6362     19.4464    116.1333
  1968.7500     16.9474    -47.4373     18.7240    116.2735
  1969.0000     16.4788    -47.2227     18.0965    118.5839
  1969.2500     16.1470    -47.0107     17.6012    121.5491
  1969.5000     15.9191    -46.8227     17.2448    127.6795
  1969.7500     15.7593    -46.6780     17.0087    132.3931
  1970.0000     15.6525    -46.5890     16.8626    139.0629
  1970.2500     15.6151    -46.5595     16.7802    142.1878
  1970.5000     15.6861    -46.5865     16.7494    143.1469
  1970.7500     15.9072    -46.6640     16.7776    140.8242
  1971.0000     16.3019    -46.7861     16.8928    133.7615
  1971.2500     16.8662    -46.9491     17.1399    127.9746
  1971.5000     17.5739    -47.1513     17.5720    119.8045
  1971.7500     18.3946    -47.3912     18.2347    115.1269
  1972.0000     19.3128    -47.6662     19.1503    108.6158
  1972.2500     20.3340    -47.9706     20.3064    104.0598
  1972.5000     21.4729    -48.2962     21.6541     96.7652
  1972.7500     22.7264    -48.6309     23.1131     92.0620
  1973.0000     24.0463    -48.9598     24.5834     86.1144
  1973.2500     25.3277    -49.2646     25.9588     82.9543
  1973.5000     26.4286    -49.5251     27.1474     79.0134
  1973.7500     27.2144    -49.7215     28.0893     76.8993
  1974.0000     27.6110    -49.8384     28.7645     75.0691
  1974.2500     27.6319    -49.8685     29.1879     75.1114
  1974.5000     27.3580    -49.8155     29.4015     77.4214
  1974.7500     26.8829    -49.6929     29.4597     80.5436
  1975.0000     26.2642    -49.5203     29.4000     87.2400
  1975.2500     25.5160    -49.3159     29.2082     92.2516
  1975.5000     24.6368    -49.0905     28.8099     98.5918
  1975.7500     23.6458    -48.8450     28.1186    101.2765
  1976.0000     22.6022    -48.5724     27.1197    103.3289
  1976.2500     21.5997    -48.2646     25.9111    104.1787
  1976.5000     20.7390    -47.9191     24.6578    105.8143
  1976.7500     20.0914    -47.5436     23.5076    107.3906
  1977.0000     19.6732    -47.1558     22.5391    110.2960
  1977.2500     19.4460    -46.7790     21.7621    112.2278
  1977.5000     19.3439    -46.4368     21.1486    114.5040
  1977.7500     19.3084    -46.1478     20.6693    115.5436
  1978.0000     19.3102    -45.9226     20.3156    116.5588
  1978.2500     19.3471    -45.7637     20.0977    116.6532
  1978.5000     19.4292    -45.6666     20.0259    114.8825
  1978.7500     19.5682    -45.6222     20.0968    112.0076
  1979.0000     19.7727    -45.6194     20.2929    105.6444
  1979.2500     20.0437    -45.6473     20.5927    100.8807
  1979.5000     20.3764    -45.6982     20.9726     94.5368
  1979.7500     20.7704    -45.7691     21.4013     91.5721
  1980.0000     21.2354    -45.8626     21.8355     89.7313
  1980.2500     21.7815    -45.9859     22.2298     90.2565
  1980.5000     22.4040    -46.1493     22.5560     92.9797
  1980.7500     23.0751    -46.3622     22.8145     95.4821
  1981.0000     23.7428    -46.6307     23.0252     99.6788
  1981.2500     24.3330    -46.9541     23.2051    102.8648
  1981.5000     24.7605    -47.3239     23.3564    108.1780
  1981.7500     24.9481    -47.7236     23.4790    111.2781
  1982.0000     24.8471    -48.1299     23.5984    112.9982
  1982.2500     24.4492    -48.5150     23.7731    111.3760
  1982.5000     23.7855    -48.8496     24.0548    105.3570
  1982.7500     22.9249    -49.1061     24.4180    100.0446
  1983.0000     21.9770    -49.2605     24.7130     92.0413
  1983.2500     21.0751    -49.2943     24.7084     87.5985
  1983.5000     20.3225    -49.1971     24.2394     83.6283
  1983.7500     19.7411    -48.9698     23.3443     83.3227
  1984.0000     19.2753    -48.6266     22.2316     86.3494
  1984.2500     18.8529    -48.1963     21.1210     90.0552
  1984.5000     18.4443    -47.7178     20.1313     96.4684
  1984.7500     18.0706    -47.2339     19.2812    100.2880
  1985.0000     17.7650    -46.7822     18.5453    103.9574
  1985.2500     17.5326    -46.3886     17.9024    104.6602
  1985.5000     17.3420    -46.0641     17.3548    103.2529
  1985.7500     17.1518    -45.8064     16.9222    101.0459
  1986.0000     16.9452    -45.6033     16.6242     96.8451
  1986.2500     16.7447    -45.4389     16.4661     94.3086
  1986.5000     16.5974    -45.2974     16.4324     92.3136
  1986.7500     16.5416    -45.1664     16.4923     92.4363
  1987.0000     16.5773    -45.0375     16.6113     93.9599
  1987.2500     16.6588    -44.9066     16.7579     95.0793
  1987.5000     16.7134    -44.7732     16.8969     95.8721
  1987.7500     16.6730    -44.6392     16.9809     95.4520
  1988.0000     16.5036    -44.5089     16.9538     93.3386
  1988.2500     16.2171    -44.3884     16.7753     91.4500
  1988.5000     15.8628    -44.2844     16.4476     89.6823
  1988.7500     15.5014    -44.2022     16.0180     90.2863
  1989.0000     15.1723    -44.1419     15.5525     94.5014
  1989.2500     14.8721    -44.0971     15.1029     98.8768
  1989.5000     14.5640    -44.0547     14.6902    105.6404
  1989.7500     14.2148    -43.9999     14.3091    109.2752
  1990.0000     13.8289    -43.9221     13.9439    113.2920
  1990.2500     13.4502    -43.8199     13.5835    115.6138
  1990.5000     13.1350    -43.7017     13.2309    119.0435
  1990.7500     12.9242    -43.5811     12.9035    120.7347
  1991.0000     12.8322    -43.4707     12.6289    120.8192
  1991.2500     12.8502    -43.3752     12.4377    118.8082
  1991.5000     12.9585    -43.2892     12.3557    113.3178
  1991.7500     13.1408    -43.1993     12.3992    108.8161
  1992.0000     13.3883    -43.0905     12.5736    101.9672
  1992.2500     13.6941    -42.9527     12.8744     97.5552
  1992.5000     14.0466    -42.7851     13.2906     90.8359
  1992.7500     14.4321    -42.5965     13.8067     86.0840
  1993.0000     14.8439    -42.4011     14.4046     78.8363
  1993.2500     15.2865    -42.2142     15.0649     74.3658
  1993.5000     15.7677    -42.0485     15.7676     68.7354
  1993.7500     16.2823    -41.9132     16.4905     65.7533
  1994.0000     16.8061    -41.8147     17.2070     62.4031
  1994.2500     17.3072    -41.7558     17.8831     60.9360
  1994.5000     17.7626    -41.7341     18.4791     59.9473
  1994.7500     18.1605    -41.7392     18.9585     60.1301
  1995.0000     18.4868    -41.7509     19.2982     61.6092
  1995.2500     18.7085    -41.7419     19.4919     63.1798
  1995.5000     18.7738    -41.6846     19.5375     65.7829
  1995.7500     18.6330    -41.5600     19.4213     67.3865
  1996.0000     18.2689    -41.3654     19.1192     69.5266
  1996.2500     17.7138    -41.1163     18.6213     71.0437
  1996.5000     17.0379    -40.8425     17.9583     74.3123
  1996.7500     16.3165    -40.5811     17.2020     77.6775
  1997.0000     15.6009    -40.3692     16.4380     84.9374
  1997.2500     14.9168    -40.2380     15.7347     91.1491
  1997.5000     14.2853    -40.2079     15.1273    101.7677
  1997.7500     13.7419    -40.2847     14.6196    108.8116
  1998.0000     13.3308    -40.4577     14.1954    117.0828
  1998.2500     13.0817    -40.7027     13.8319    120.0174
  1998.5000     12.9905    -40.9896     13.5105    120.6298
  1998.7500     13.0200    -41.2912     13.2223    119.6507
