~Version Information
 VERS.                      2.0: CWLS Log ASCII Standard - VERSION 2.0
 WRAP.                       NO: One line per depth step
 ~Well Information Block
 STRT.FT                -8.0000: 
 STOP.FT              2581.0000: 
 STEP.FT                 0.2500: 
 NULL.                -999.2500: 
 COMP.          Petrogulf Corporation: COMPANY
 WELL.               YWAM 7-23V: WELL
 FLD.           Purgatorie River: FIELD
 LOC.           230' FSL & 225' FWL: LOCATION
 CNTY.               Las Animas: COUNTY
 SRVC.                         : SERVICE COMPANY
 DATE.          Mon Nov 22 10:51:24 2004: LOG DATE
 UWI.           05-071-08227-00: UNIQUE WELL ID
 STAT.                 Colorado: STATE
 PROV.                         :Province
 ~Curve Information Block
 DEPT.FT            0 000 00 00: Depth
 TT3.usec                      : CBL 3' Travel Time
 AMP3.mV                       : CBL 3' Amplitude
 GR.GAPI                       : Gamma Ray
 CCL.                          : Casing Collar Locator
 ~Parameter Information Block
 ~A  Depth       TT3         AMP3         GR         CCL     
# ...
  1164.5000    638.1945      5.7425    148.1765      0.0000
  1164.7500    640.1619      5.5776    147.6974      0.0000
  1165.0000    627.5585      5.3650    146.5972      0.0000
  1165.2500    609.5138      5.0977    144.2852      0.0000
  1165.5000    593.4744      4.7879    140.5440      0.0000
  1165.7500    579.3778      4.4640    135.8948      0.0000
  1166.0000    562.9914      4.1589    131.5567      0.0000
  1166.2500    542.4702      3.8984    128.9296      0.0000
  1166.5000    520.8361      3.6955    128.4742      0.0000
  1166.7500    503.4379      3.5520    128.9652      0.0000
  1167.0000    494.2096      3.4658    128.3807      0.0000
  1167.2500    494.0424      3.4346    125.8252      0.0000
  1167.5000    501.3379      3.4556    122.2171      0.0000
  1167.7500    513.0215      3.5279    118.9477      0.0000
  1168.0000    525.2206      3.6593    116.4180      0.0000
  1168.2500    534.0609      3.8699    114.2329      0.0000
  1168.5000    537.3167      4.1826    112.2809      0.0000
  1168.7500    536.8353      4.6006    111.1957      0.0000
  1169.0000    540.4131      5.0927    112.1875      0.0000
  1169.2500    559.4196      5.6005    116.6908      0.0000
  1169.5000    600.4164      6.0658    125.5618      0.0000
  1169.7500    657.3027      6.4564    137.9445      0.0000
  1170.0000    713.7859      6.7756    150.9086      0.0000
  1170.2500    755.0104      7.0508    160.8349      0.0000
  1170.5000    776.3438      7.3069    165.8562      0.0000
  1170.7500    782.2878      7.5467    167.1287      0.0000
  1171.0000    779.5490      7.7570    167.4377      0.0000
  1171.2500    770.6426      7.9296    168.6465      0.0000
  1171.5000    751.7245      8.0727    170.8629      0.0000
  1171.7500    716.6295      8.2035    173.4827      0.0000
  1172.0000    664.9908      8.3334    175.9564      0.0000
  1172.2500    606.7625      8.4608    177.5918      0.0000
  1172.5000    557.6586      8.5759    177.5142      0.0000
  1172.7500    530.2883      8.6679    175.2227      0.0000
  1173.0000    529.4844      8.7239    171.1421      0.0000
  1173.2500    552.0803      8.7266    166.6684      0.0000
  1173.5000    586.5596      8.6612    163.4574      0.0000
  1173.7500    615.0098      8.5311    162.3135      0.0000
  1174.0000    622.6847      8.3653    162.8001      0.0000
  1174.2500    608.6943      8.2062    163.9441      0.0000
  1174.5000    585.1024      8.0824    164.9724      0.0000
  1174.7500    565.7454      7.9946    165.3157      0.0000
  1175.0000    558.6284      7.9231    164.5700      0.0000
  1175.2500    566.9768      7.8449    162.9361      0.0000
  1175.5000    591.3755      7.7429    161.2490      0.0000
  1175.7500    628.1431      7.6104    160.0810      0.0000
  1176.0000    668.3548      7.4498    159.0719      0.0000
  1176.2500    702.0555      7.2667    157.2857      0.0000
  1176.5000    724.4376      7.0605    154.1216      0.0000
  1176.7500    737.6342      6.8255    150.0767      0.0000
  1177.0000    747.3071      6.5596    146.6216      0.0000
  1177.2500    758.4382      6.2686    144.8988      0.0000
  1177.5000    773.3538      5.9584    144.4526      0.0000
  1177.7500    791.4128      5.6274    143.7755      0.0000
  1178.0000    809.5591      5.2714    142.2547      0.0000
  1178.2500    824.0116      4.8954    140.9574      0.0000
  1178.5000    832.4681      4.5163    141.3368      0.0000
  1178.7500    834.9488      4.1558    143.8841      0.0000
  1179.0000    832.8895      3.8330    148.1616      0.0000
  1179.2500    827.9705      3.5617    153.0820      0.0000
  1179.5000    821.6158      3.3496    156.6077      0.0000
  1179.7500    814.7161      3.1981    156.0878      0.0000
  1180.0000    807.1166      3.1042    149.8900      0.0000
  1180.2500    797.3962      3.0621    138.5473      0.0000
  1180.5000    783.7866      3.0673    123.9772      0.0000
  1180.7500    766.0914      3.1195    107.9466      0.0000
  1181.0000    746.9234      3.2255     91.6382      0.0000
  1181.2500    730.6008      3.3972     76.3062      0.0000
  1181.5000    720.5726      3.6419     63.5678      0.0000
  1181.7500    717.8361      3.9500     54.6541      0.0000
  1182.0000    721.1481      4.2887     49.5294      0.0000
  1182.2500    728.2353      4.6128     46.9301      0.0000
  1182.5000    737.4670      4.8988     45.1461      0.0000
  1182.7500    749.2540      5.1786     42.7509      0.0000
  1183.0000    765.3475      5.5189     39.0927      0.0000
  1183.2500    786.3080      5.9452     34.6110      0.0000
  1183.5000    810.0441      6.3962     30.6290      0.0000
  1183.7500    832.6287      6.7672     28.5630      3.5202
  1184.0000    849.5145      6.9892     29.2156      0.0000
  1184.2500    856.4541      7.0619     32.6176      0.0000
  1184.5000    851.2089      7.0343     38.1549      0.0000
  1184.7500    835.2721      6.9714     44.6347      0.0000
  1185.0000    813.6798      6.9185     50.3605      0.0000
  1185.2500    792.7841      6.8646     53.4677      0.0000
  1185.5000    777.1165      6.7465     52.6639      0.0000
  1185.7500    766.8119      6.5011     48.1899      0.0000
  1186.0000    758.1830      6.1201     42.2948      0.0000
  1186.2500    748.2840      5.6634     38.4149      0.0000
  1186.5000    738.9590      5.2299     39.2674      0.0000
  1186.7500    736.1407      4.9019     45.3945      0.0000
  1187.0000    745.5668      4.7022     55.2992      0.0000
  1187.2500    768.0577      4.6004     66.4207      0.0000
  1187.5000    796.4734      4.5609     75.6778      0.0000
  1187.7500    818.0935      4.5783     79.9467      0.0000
  1188.0000    823.3944      4.6627     77.4384      0.0000
  1188.2500    813.3038      4.8033     69.0817      0.0000
  1188.5000    796.6522      4.9556     58.0993      0.0000
  1188.7500    781.3214      5.0682     47.8928      0.0000
  1189.0000    769.0508      5.1232     40.2679      0.0000
  1189.2500    757.5654      5.1530     35.3563      0.0000
  1189.5000    745.6168      5.2148     32.7381      0.0000
  1189.7500    735.0602      5.3454     32.3642      0.0000
  1190.0000    728.9758      5.5418     34.5122      0.0000
  1190.2500    729.1757      5.7773     39.1961      0.0000
  1190.5000    735.3939      6.0244     45.9267      0.0000
  1190.7500    745.6996      6.2624     54.0803      0.0000
  1191.0000    757.4354      6.4732     63.3015      0.0000
  1191.2500    768.6909      6.6412     73.4855      0.0000
  1191.5000    779.6027      6.7574     84.5548      0.0000
  1191.7500    792.8474      6.8246     96.4396      0.0000
  1192.0000    813.3411      6.8581    109.1489      0.0000
  1192.2500    846.0656      6.8832    122.5645      0.0000
  1192.5000    890.8539      6.9236    136.0315      0.0000
  1192.7500    937.4966      6.9859    148.1817      0.0000
  1193.0000    968.0631      7.0585    157.3590      0.0000
  1193.2500    967.6199      7.1302    162.5930      0.0000
  1193.5000    934.0755      7.2088    164.4547      0.0000
  1193.7500    877.5478      7.3160    164.8804      0.0000
  1194.0000    812.0021      7.4612    165.7996      0.0000
  1194.2500    749.0071      7.6194    167.6869      0.0000
  1194.5000    696.0490      7.7285    169.5287      0.0000
  1194.7500    654.8979      7.7096    170.2326      0.0000
  1195.0000    621.3027      7.5079    169.7762      0.0000
  1195.2500    590.6743      7.1275    168.7690      0.0000
  1195.5000    564.9393      6.6277    167.2320      0.0000
  1195.7500    551.8986      6.0852    164.3027      0.0000
  1196.0000    558.8964      5.5610    159.0952      0.0000
  1196.2500    588.1795      5.0921    151.6429      0.0000
  1196.5000    635.2839      4.6911    143.2567      0.0000
  1196.7500    689.3643      4.3435    136.2126      0.0000
  1197.0000    737.1116      4.0153    132.7160      0.0000
  1197.2500    768.9755      3.6732    133.4462      0.0000
  1197.5000    782.0278      3.3049    136.7944      0.0000
  1197.7500    777.7992      2.9259    139.8073      0.0000
