~Version Information
VERS.                      2.0: CWLS Log ASCII Standard - VERSION 2.0
WRAP.                       NO: One line per depth step
~Well Information Block
STRT.FT               928.1000: 
STOP.FT              2417.7000: 
STEP.FT                 0.1000: 
NULL.                -999.2500: 
COMP.          Pioneer Natural Resources: COMPANY
WELL.            Chevron 13-13: WELL
FLD.           Purgatoire River: FIELD
LOC.           1560' FSL & 711' FWL--: LOCATION
CNTY.               Las Animas: COUNTY
SRVC.          Superior Well Services: SERVICE COMPANY
DATE.          Mon Feb 12 14:51:53 2007: LOG DATE
UWI.           05 071 08319 00: UNIQUE WELL ID
STAT.                 Colorado: STATE
~Curve Information Block
DEPT.FT            0 000 00 00: Depth
DIR.Ohm-m                     : IEL Induction Resistivity
GR.GAPI                       : Gamma Ray
SN.Ohm-m                      : IEL Short Normal
SP.mV                         : IEL Spontaneous Potential
~Parameter Information Block
~A  Depth       DIR          GR          SN          SP     
# ...
  1142.5000     23.9952    108.9451     32.6726   -109.4563
  1142.6000     23.9952    102.9123     32.6726   -109.4563
  1142.7000     23.9952     96.7904     32.6726   -109.4563
  1142.8000     24.4500     90.7981     33.0440   -110.2413
  1142.9000     24.4500     85.1199     33.0440   -110.2413
  1143.0000     24.9816     79.8937     33.1430   -110.9748
  1143.1000     24.9816     75.2088     33.1430   -110.9748
  1143.2000     24.9816     71.1096     33.1430   -110.9748
  1143.3000     25.4984     67.6044     33.3696   -111.5334
  1143.4000     25.4984     64.6834     33.3696   -111.5334
  1143.5000     25.9087     62.3335     34.3851   -111.8128
  1143.6000     25.9087     60.5484     34.3851   -111.8128
  1143.7000     25.9087     59.3321     34.3851   -111.8128
  1143.8000     26.1307     58.7053     35.6873   -111.7414
  1143.9000     26.1307     58.6971     35.6873   -111.7414
  1144.0000     26.1042     59.3408     36.4200   -111.2861
  1144.1000     26.1042     60.6616     36.4200   -111.2861
  1144.2000     26.1042     62.6673     36.4200   -111.2861
  1144.3000     25.7963     65.3420     36.3042   -110.4541
  1144.4000     25.7963     68.6340     36.3042   -110.4541
  1144.5000     25.2005     72.4567     35.1803   -109.2881
  1144.6000     25.2005     76.6886     35.1803   -109.2881
  1144.7000     25.2005     81.1799     35.1803   -109.2881
  1144.8000     24.3319     85.7622     33.5757   -107.8572
  1144.9000     24.3319     90.2656     33.5757   -107.8572
  1145.0000     23.2295     94.5289     32.2838   -106.2462
  1145.1000     23.2295     98.4180     32.2838   -106.2462
  1145.2000     23.2295    101.8315     32.2838   -106.2462
  1145.3000     21.9611    104.7063     30.5243   -104.5444
  1145.4000     21.9611    107.0190     30.5243   -104.5444
  1145.5000     20.6197    108.7803     28.4212   -102.8362
  1145.6000     20.6197    110.0322     28.4212   -102.8362
  1145.7000     20.6197    110.8394     28.4212   -102.8362
  1145.8000     19.3060    111.2883     25.9895   -101.1948
  1145.9000     19.3060    111.4762     25.9895   -101.1948
  1146.0000     18.1075    111.5127     23.7418    -99.6778
  1146.1000     18.1075    111.5062     23.7418    -99.6778
  1146.2000     18.1075    111.5621     23.7418    -99.6778
  1146.3000     17.0867    111.7732     21.7488    -98.3262
  1146.4000     17.0867    112.2086     21.7488    -98.3262
  1146.5000     16.2800    112.9129     19.9992    -97.1649
  1146.6000     16.2800    113.9010     19.9992    -97.1649
  1146.7000     16.2800    115.1565     19.9992    -97.1649
  1146.8000     15.7009    116.6403     19.0890    -96.2044
  1146.9000     15.7009    118.2905     19.0890    -96.2044
  1147.0000     15.3408    120.0379     18.5561    -95.4430
  1147.1000     15.3408    121.8044     18.5561    -95.4430
  1147.2000     15.3408    123.5160     18.5561    -95.4430
  1147.3000     15.1706    125.1070     18.2559    -94.8699
  1147.4000     15.1706    126.5205     18.2559    -94.8699
  1147.5000     15.1444    127.7121     18.7089    -94.4674
  1147.6000     15.1444    128.6509     18.7089    -94.4674
  1147.7000     15.1444    129.3154     18.7089    -94.4674
  1147.8000     15.2073    129.6959     19.4196    -94.2137
  1147.9000     15.2073    129.7892     19.4196    -94.2137
  1148.0000     15.3067    129.5997     19.9292    -94.0856
  1148.1000     15.3067    129.1364     19.9292    -94.0856
  1148.2000     15.3067    128.4156     19.9292    -94.0856
  1148.3000     15.4041    127.4596     20.2408    -94.0610
  1148.4000     15.4041    126.2992     20.2408    -94.0610
  1148.5000     15.4847    124.9738     20.4039    -94.1206
  1148.6000     15.4847    123.5297     20.4039    -94.1206
  1148.7000     15.4847    122.0240     20.4039    -94.1206
  1148.8000     15.5607    120.5225     20.5431    -94.2497
  1148.9000     15.5607    119.1003     20.5431    -94.2497
  1149.0000     15.6633    117.8356     20.8937    -94.4384
  1149.1000     15.6633    116.8113     20.8937    -94.4384
  1149.2000     15.6633    116.1036     20.8937    -94.4384
  1149.3000     15.8262    115.7777     21.5016    -94.6815
  1149.4000     15.8262    115.8748     21.5016    -94.6815
  1149.5000     16.0690    116.4063     21.9722    -94.9773
  1149.6000     16.0690    117.3409     21.9722    -94.9773
  1149.7000     16.0690    118.6049     21.9722    -94.9773
  1149.8000     16.3900    120.0845     22.2837    -95.3258
  1149.9000     16.3900    121.6333     22.2837    -95.3258
  1150.0000     16.7720    123.0919     22.5140    -95.7271
  1150.1000     16.7720    124.3060     22.5140    -95.7271
  1150.2000     16.7720    125.1507     22.5140    -95.7271
  1150.3000     17.1941    125.5457     22.6623    -96.1787
  1150.4000     17.1941    125.4652     22.6623    -96.1787
  1150.5000     17.6430    124.9451     22.7908    -96.6749
  1150.6000     17.6430    124.0661     22.7908    -96.6749
  1150.7000     17.6430    122.9441     22.7908    -96.6749
  1150.8000     18.1152    121.7071     22.9296    -97.2051
  1150.9000     18.1152    120.4728     22.9296    -97.2051
  1151.0000     18.6143    119.3355     23.1973    -97.7546
  1151.1000     18.6143    118.3504     23.1973    -97.7546
  1151.2000     18.6143    117.5392     23.1973    -97.7546
  1151.3000     19.1465    116.8838     23.5826    -98.3051
  1151.4000     19.1465    116.3426     23.5826    -98.3051
  1151.5000     19.7151    115.8591     23.8295    -98.8364
  1151.6000     19.7151    115.3736     23.8295    -98.8364
  1151.7000     19.7151    114.8321     23.8295    -98.8364
  1151.8000     20.3144    114.1946     24.1599    -99.3290
  1151.9000     20.3144    113.4378     24.1599    -99.3290
  1152.0000     20.9222    112.5549     24.6714    -99.7659
  1152.1000     20.9222    111.5531     24.6714    -99.7659
  1152.2000     20.9222    110.4495     24.6714    -99.7659
  1152.3000     21.4968    109.2650     25.2540   -100.1348
  1152.4000     21.4968    108.0195     25.2540   -100.1348
  1152.5000     21.9820    106.7327     25.4790   -100.4293
  1152.6000     21.9820    105.4242     25.4790   -100.4293
  1152.7000     21.9820    104.1157     25.4790   -100.4293
  1152.8000     22.3251    102.8332     25.4692   -100.6490
  1152.9000     22.3251    101.6109     25.4692   -100.6490
  1153.0000     22.4946    100.4902     25.5043   -100.7992
  1153.1000     22.4946     99.5173     25.5043   -100.7992
  1153.2000     22.4946     98.7382     25.5043   -100.7992
  1153.3000     22.4882     98.1913     25.4540   -100.8893
  1153.4000     22.4882     97.9039     25.4540   -100.8893
  1153.5000     22.3277     97.8867     25.6215   -100.9311
  1153.6000     22.3277     98.1343     25.6215   -100.9311
  1153.7000     22.3277     98.6255     25.6215   -100.9311
  1153.8000     22.0458     99.3256     25.6287   -100.9361
  1153.9000     22.0458    100.1902     25.6287   -100.9361
  1154.0000     21.6746    101.1686     25.2888   -100.9136
  1154.1000     21.6746    102.2096     25.2888   -100.9136
  1154.2000     21.6746    103.2624     25.2888   -100.9136
  1154.3000     21.2379    104.2835     25.0360   -100.8690
  1154.4000     21.2379    105.2379     25.0360   -100.8690
  1154.5000     20.7493    106.1042     24.8436   -100.8025
  1154.6000     20.7493    106.8735     24.8436   -100.8025
  1154.7000     20.7493    107.5527     24.8436   -100.8025
  1154.8000     20.2157    108.1584     24.2144   -100.7090
  1154.9000     20.2157    108.7220     24.2144   -100.7090
  1155.0000     19.6436    109.2810     23.2440   -100.5785
  1155.1000     19.6436    109.8787     23.2440   -100.5785
  1155.2000     19.6436    110.5602     23.2440   -100.5785
  1155.3000     19.0452    111.3688     22.4760   -100.3975
  1155.4000     19.0452    112.3391     22.4760   -100.3975
  1155.5000     18.4377    113.4930     21.8151   -100.1510
  1155.6000     18.4377    114.8339     21.8151   -100.1510
  1155.7000     18.4377    116.3445     21.8151   -100.1510
  1155.8000     17.8394    117.9897     21.1760    -99.8251
