~Version Information
VERS.                      2.0: CWLS Log ASCII Standard - VERSION 2.0
WRAP.                       NO: One line per depth step
~Well Information Block
STRT.FT               221.2000: 
STOP.FT              2260.4000: 
STEP.FT                 0.1000: 
NULL.                -999.2500: 
COMP.          Petrogulf Corporation: COMPANY
WELL.          Anderson 18-43V: WELL
FLD.           Purgatorie River: FIELD
LOC.           1782' FSL & 887' FEL--: LOCATION
CNTY.               Las Animas: COUNTY
SRVC.                         : SERVICE COMPANY
DATE.          Mon Sep 13 14:11:09 2004: LOG DATE
UWI.                          : UNIQUE WELL ID
STAT.                       CO: STATE
~Curve Information Block
DEPT.FT            0 000 00 00: Depth
TT3.usec                      : CBL 3' Travel Time
AMP3.mV                       : CBL 3' Amplitude
GR.GAPI                       : Gamma Ray
CCL.                          : Casing Collar Locator
~Parameter Information Block
~A  Depth       TT3         AMP3         GR         CCL     
# ...
  1172.6000    720.7382      4.2004    144.9449      0.0000
  1172.7000    720.7382      4.2004    144.9449      0.0000
  1172.8000    714.9611      4.0503    159.2984      0.0000
  1172.9000    714.9611      4.0503    159.2984      0.0000
  1173.0000    709.3848      3.8710    170.5924      0.0000
  1173.1000    709.3848      3.8710    170.5924      0.0000
  1173.2000    709.3848      3.8710    170.5924      0.0000
  1173.3000    703.0438      3.7085    175.6174      0.0000
  1173.4000    703.0438      3.7085    175.6174      0.0000
  1173.5000    694.9652      3.6059    173.9691      0.0000
  1173.6000    694.9652      3.6059    173.9691      0.0000
  1173.7000    694.9652      3.6059    173.9691      0.0000
  1173.8000    685.1666      3.5585    167.4867      0.0000
  1173.9000    685.1666      3.5585    167.4867      0.0000
  1174.0000    675.0250      3.5182    158.4660      0.0000
  1174.1000    675.0250      3.5182    158.4660      0.0000
  1174.2000    675.0250      3.5182    158.4660      0.0000
  1174.3000    666.7268      3.4420    148.8647      0.0000
  1174.4000    666.7268      3.4420    148.8647      0.0000
  1174.5000    662.1022      3.3253    140.7700      0.0000
  1174.6000    662.1022      3.3253    140.7700      0.0000
  1174.7000    662.1022      3.3253    140.7700      0.0000
  1174.8000    661.7151      3.1883    136.0796      0.0000
  1174.9000    661.7151      3.1883    136.0796      0.0000
  1175.0000    664.6716      3.0516    134.7865      0.0000
  1175.1000    664.6716      3.0516    134.7865      0.0000
  1175.2000    664.6716      3.0516    134.7865      0.0000
  1175.3000    669.0103      2.9360    134.3988      0.0000
  1175.4000    669.0103      2.9360    134.3988      0.0000
  1175.5000    672.5226      2.8688    132.1199      0.0000
  1175.6000    672.5226      2.8688    132.1199      0.0000
  1175.7000    672.5226      2.8688    132.1199      0.0000
  1175.8000    673.5889      2.8663    127.5088      0.0000
  1175.9000    673.5889      2.8663    127.5088      0.0000
  1176.0000    671.4169      2.9069    122.5249      0.0000
  1176.1000    671.4169      2.9069    122.5249      0.0000
  1176.2000    671.4169      2.9069    122.5249      0.0000
  1176.3000    665.7324      2.9389    119.2560      0.0000
  1176.4000    665.7324      2.9389    119.2560      0.0000
  1176.5000    656.4969      2.9229    118.1015      0.0000
  1176.6000    656.4969      2.9229    118.1015      0.0000
  1176.7000    656.4969      2.9229    118.1015      0.0000
  1176.8000    643.7379      2.8632    117.9258      0.0000
  1176.9000    643.7379      2.8632    117.9258      0.0000
  1177.0000    627.2424      2.8032    117.2524      0.0000
  1177.1000    627.2424      2.8032    117.2524      0.0000
  1177.2000    627.2424      2.8032    117.2524      0.0000
  1177.3000    606.5060      2.7983    115.2464      0.0000
  1177.4000    606.5060      2.7983    115.2464      0.0000
  1177.5000    581.3340      2.8858    112.1764      0.0000
  1177.6000    581.3340      2.8858    112.1764      0.0000
  1177.7000    581.3340      2.8858    112.1764      0.0000
  1177.8000    552.5137      3.0655    109.2203      0.0000
  1177.9000    552.5137      3.0655    109.2203      0.0000
  1178.0000    522.1368      3.3056    107.5129      0.0000
  1178.1000    522.1368      3.3056    107.5129      0.0000
  1178.2000    522.1368      3.3056    107.5129      0.0000
  1178.3000    494.0579      3.5689    107.2101      0.0000
  1178.4000    494.0579      3.5689    107.2101      0.0000
  1178.5000    473.9869      3.8280    107.5240      0.0000
  1178.6000    473.9869      3.8280    107.5240      0.0000
  1178.7000    473.9869      3.8280    107.5240      0.0000
  1178.8000    467.7235      4.0590    107.4350      0.0000
  1178.9000    467.7235      4.0590    107.4350      0.0000
  1179.0000    477.7306      4.2318    106.2483      0.0000
  1179.1000    477.7306      4.2318    106.2483      0.0000
  1179.2000    477.7306      4.2318    106.2483      0.0000
  1179.3000    500.4470      4.3209    103.9416      0.0000
  1179.4000    500.4470      4.3209    103.9416      0.0000
  1179.5000    526.7361      4.3272    101.3851      0.0000
  1179.6000    526.7361      4.3272    101.3851      0.0000
  1179.7000    526.7361      4.3272    101.3851      0.0000
  1179.8000    546.2934      4.2810     99.9891      0.0000
  1179.9000    546.2934      4.2810     99.9891      0.0000
  1180.0000    553.5110      4.2249    100.6429      0.0000
  1180.1000    553.5110      4.2249    100.6429      0.0000
  1180.2000    553.5110      4.2249    100.6429      0.0000
  1180.3000    549.5721      4.1906    102.9166      0.0000
  1180.4000    549.5721      4.1906    102.9166      0.0000
  1180.5000    539.0006      4.1828    105.6094      0.0000
  1180.6000    539.0006      4.1828    105.6094      0.0000
  1180.7000    539.0006      4.1828    105.6094      0.0000
  1180.8000    525.4089      4.1804    107.9653      0.0000
  1180.9000    525.4089      4.1804    107.9653      0.0000
  1181.0000    510.9832      4.1620    109.8081      0.0000
  1181.1000    510.9832      4.1620    109.8081      0.0000
  1181.2000    510.9832      4.1620    109.8081      0.0000
  1181.3000    498.5595      4.1307    110.9181      0.0000
  1181.4000    498.5595      4.1307    110.9181      0.0000
  1181.5000    492.6796      4.1081    111.3802      0.0000
  1181.6000    492.6796      4.1081    111.3802      0.0000
  1181.7000    492.6796      4.1081    111.3802      0.0000
  1181.8000    498.0019      4.1094    112.3125      0.0000
  1181.9000    498.0019      4.1094    112.3125      0.0000
  1182.0000    515.7632      4.1352    115.0390      0.0000
  1182.1000    515.7632      4.1352    115.0390      0.0000
  1182.2000    515.7632      4.1352    115.0390      0.0000
  1182.3000    540.9443      4.1823    119.5545      0.0000
  1182.4000    540.9443      4.1823    119.5545      0.0000
  1182.5000    563.7272      4.2432    124.3122      0.0000
  1182.6000    563.7272      4.2432    124.3122      0.0000
  1182.7000    563.7272      4.2432    124.3122      0.0000
  1182.8000    575.7474      4.2848    127.2349      0.0000
  1182.9000    575.7474      4.2848    127.2349      0.0000
  1183.0000    575.7714      4.2492    126.9826      0.0000
  1183.1000    575.7714      4.2492    126.9826      0.0000
  1183.2000    575.7714      4.2492    126.9826      0.0000
  1183.3000    569.0942      4.0975    123.8703      0.0000
  1183.4000    569.0942      4.0975    123.8703      0.0000
  1183.5000    562.1616      3.8569    119.8187      0.0000
  1183.6000    562.1616      3.8569    119.8187      0.0000
  1183.7000    562.1616      3.8569    119.8187      0.0000
  1183.8000    558.6547      3.6076    117.4664      0.0000
  1183.9000    558.6547      3.6076    117.4664      0.0000
  1184.0000    559.1010      3.4181    118.9562      0.0000
  1184.1000    559.1010      3.4181    118.9562      0.0000
  1184.2000    559.1010      3.4181    118.9562      0.0000
  1184.3000    562.0342      3.2983    124.4864      0.0000
  1184.4000    562.0342      3.2983    124.4864      0.0000
  1184.5000    566.0649      3.2164    131.5649      0.0000
  1184.6000    566.0649      3.2164    131.5649      0.0000
  1184.7000    566.0649      3.2164    131.5649      0.0000
  1184.8000    572.1224      3.1482    136.5310      0.0000
  1184.9000    572.1224      3.1482    136.5310      0.0000
  1185.0000    582.7152      3.0978    137.4216      0.0000
  1185.1000    582.7152      3.0978    137.4216      0.0000
  1185.2000    582.7152      3.0978    137.4216      0.0000
  1185.3000    598.1030      3.0789    135.1573      0.0000
  1185.4000    598.1030      3.0789    135.1573      0.0000
  1185.5000    614.5413      3.0926    131.9716      0.0000
  1185.6000    614.5413      3.0926    131.9716      0.0000
  1185.7000    614.5413      3.0926    131.9716      0.0000
  1185.8000    627.2664      3.1237    129.1015      0.0000
  1185.9000    627.2664      3.1237    129.1015      0.0000
