~Version Information
VERS.                      2.0: CWLS Log ASCII Standard - VERSION 2.0
WRAP.                       NO: One line per depth step
~Well Information Block
STRT.FT               241.5000: 
STOP.FT              2340.7500: 
STEP.FT                 0.2500: 
NULL.                -999.2500: 
COMP.          Petrogulf Corporation: COMPANY
WELL.            Montoya 1-24V: WELL
FLD.           Purgatorie River: FIELD
LOC.           605' FSL & 2557' FWL: LOCATION
CNTY.               Las Animas: COUNTY
SRVC.                         : SERVICE COMPANY
DATE.          Tue Nov 30 10:28:39 2004: LOG DATE
UWI.           05 071 08194 00: UNIQUE WELL ID
STAT.                 Colorado: STATE
~Curve Information Block
DEPT.FT            0 000 00 00: Depth
GR.GAPI                       : Gamma Ray
CCL.                          : Casing Collar Locator
TT3.usec                      : CBL 3' Travel Time
AMP3.mV                       : CBL 3' Amplitude
~Parameter Information Block
~A  Depth        GR         CCL         TT3         AMP3    
# ...
   509.5000    137.9994      0.0000    720.2186     14.9648
   509.7500    132.3817      0.0000    721.1852     15.0529
   510.0000    127.4949      0.0000    723.4005     15.1134
   510.2500    123.4811      0.0000    725.6514     15.1598
   510.5000    120.7999      0.0000    727.1547     15.1951
   510.7500    119.8377      0.0000    728.0035     15.2155
   511.0000    120.6415      0.0000    728.9273     15.2220
   511.2500    123.0813      0.0000    731.0878     15.2219
   511.5000    126.8706      0.0000    735.9329     15.2114
   511.7500    131.5168      0.0000    744.4355     15.1599
   512.0000    136.5862      0.0000    755.8478     15.0263
   512.2500    141.9042      0.0000    767.5688     14.7958
   512.5000    147.2221      0.0000    776.9679     14.5027
   512.7500    151.7907      0.0000    782.9609     14.2165
   513.0000    154.5420      0.0000    785.0865     14.0026
   513.2500    154.7797      0.0000    782.0583     13.8910
   513.5000    152.7309      0.0000    772.8683     13.8774
   513.7500    149.4680      0.0000    758.9230     13.9412
   514.0000    146.1872      0.0000    743.6417     14.0522
   514.2500    143.3512      0.0000    730.0329     14.1694
   514.5000    140.5150      0.0000    719.5563     14.2543
   514.7500    137.0974      0.0000    712.7238     14.2904
   515.0000    133.2108      0.0000    709.2178     14.2875
   515.2500    129.6351      0.0000    707.3780     14.2681
   515.5000    127.1146      0.0000    705.0644     14.2496
   515.7500    125.8674      0.0000    701.7711     14.2347
   516.0000    125.5847      0.0000    699.3489     14.2176
   516.2500    125.6433      0.0000    700.2284     14.1982
   516.5000    125.4398      0.0000    705.1030     14.1851
   516.7500    124.8092      0.0000    712.3269     14.1797
   517.0000    124.1689      0.0000    719.3080     14.1584
   517.2500    124.2747      0.0000    724.4462     14.0761
   517.5000    125.8955      0.0000    728.0976     13.8952
   517.7500    129.4284      0.0000    732.2999     13.6169
   518.0000    134.3911      0.0000    739.7217     13.2820
   518.2500    139.4123      0.0000    751.8082     12.9375
   518.5000    143.0779      0.0000    766.6343     12.6059
   518.7500    144.4880      0.0000    779.1034     12.2952
   519.0000    142.8843      0.0000    785.0569     12.0360
   519.2500    137.5451      0.0000    785.0001     11.8928
   519.5000    128.5376      0.0000    781.9252     11.9175
   519.7500    117.1282      0.0000    776.0709     12.0824
   520.0000    105.1556      0.0000    764.6769     12.2685
   520.2500     94.2318      0.0000    747.0358     12.3424
   520.5000     85.4517      0.0000    727.1297     12.2643
   520.7500     79.3416      0.0000    710.4071     12.1301
   521.0000     75.9070      0.0000    699.4537     12.1081
   521.2500     74.7051      0.0000    693.4936     12.3229
   521.5000     74.7516      0.0000    690.9706     12.7804
   521.7500     74.5751      0.0000    691.4488     13.3837
   522.0000     72.8992      0.0000    695.1448     14.0038
   522.2500     69.5690      0.0000    701.4093     14.5253
   522.5000     65.7660      0.0000    708.1833     14.8460
   522.7500     63.0686      0.0000    713.1800     14.8828
   523.0000     62.0166      0.0000    715.5708     14.6201
   523.2500     61.6127      0.0000    716.0917     14.1494
   523.5000     60.4316      0.0000    715.3843     13.6302
   523.7500     58.1831      0.0000    712.8798     13.1818
   524.0000     55.9887      0.0000    707.8483     12.8137
   524.2500     55.2163      0.0000    701.0507     12.4807
   524.5000     56.2519      0.0000    694.6740     12.1921
   524.7500     58.3127      0.0000    690.7516     12.0207
   525.0000     60.2228      0.0000    689.9490     11.9976
   525.2500     61.3661      0.0000    691.4741     12.0455
   525.5000     62.1011      0.0000    693.5845     12.0459
   525.7500     63.2999      0.0000    694.4365     11.9478
   526.0000     65.3783      0.0000    693.1893     11.7821
   526.2500     67.8062      0.0000    690.4770     11.5900
   526.5000     69.6856      0.0000    687.6690     11.3824
   526.7500     70.5789      0.0000    685.8005     11.1715
   527.0000     70.4983      0.0000    685.3057     11.0039
   527.2500     69.4088      0.0000    686.2923     10.9323
   527.5000     67.3220      0.0000    688.4769     10.9579
   527.7500     64.8890      0.0000    690.8304     11.0209
   528.0000     63.3197      0.0000    691.8790     11.0501
   528.2500     63.3614      0.0000    690.8545     11.0131
   528.5000     64.5041      0.0000    688.4074     10.9214
   528.7500     65.4188      0.0000    685.9398     10.8011
   529.0000     65.1410      0.0000    684.4555     10.6645
   529.2500     63.7022      0.0000    684.2679     10.5107
   529.5000     61.7889      0.0000    685.5424     10.3426
   529.7500     60.2769      0.0000    688.7153     10.1794
   530.0000     60.1530      0.0000    694.1794     10.0554
   530.2500     62.1839      0.0000    701.4410     10.0084
   530.5000     66.2056      0.0000    708.7998     10.0601
   530.7500     71.1627      0.0000    714.3849     10.2046
   531.0000     76.3672      0.0000    717.7088     10.4130
   531.2500     82.4432      0.0000    719.6981     10.6383
   531.5000     90.4767      0.0000    720.9576     10.8042
   531.7500    100.4743      0.0000    721.1161     10.8012
   532.0000    111.3685      0.0000    721.3116     10.5239
   532.2500    122.2094      0.0000    726.9263      9.9383
   532.5000    132.3439      0.0000    745.0181      9.1217
   532.7500    140.5425      0.0000    776.7879      8.2449
   533.0000    145.1124      0.0000    814.3324      7.5054
   533.2500    145.3991      0.0000    848.1412      7.0393
   533.5000    142.8581     -3.0000    876.7310      6.8603
   533.7500    140.4240      3.0000    904.1320      6.8812
   534.0000    140.7209      3.0000    928.4172      7.0019
   534.2500    144.5302      0.0000    939.2053      7.1865
   534.5000    150.5921      0.0000    928.5627      7.4756
   534.7500    156.7327      0.0000    899.4977      7.9381
   535.0000    161.2675      0.0000    861.7983      8.5947
   535.2500    163.5398      0.0000    823.4647      9.3724
   535.5000    163.2646      0.0000    788.0289     10.1467
   535.7500    159.7312      0.0000    756.8864     10.8359
   536.0000    152.2736      0.0000    731.2194     11.4330
   536.2500    141.6579      0.0000    712.0047     11.9493
   536.5000    130.5655      0.0000    699.3264     12.3644
   536.7500    122.3783      0.0000    692.1094     12.6464
   537.0000    119.3017      0.0000    688.5900     12.7924
   537.2500    121.2378      0.0000    687.0989     12.8302
   537.5000    126.1880      0.0000    686.5470     12.7858
   537.7500    131.7846      0.0000    686.3655     12.6688
   538.0000    136.4585      0.0000    686.2923     12.5089
   538.2500    139.4106      0.0000    686.2151     12.3838
   538.5000    140.3231      0.0000    686.1089     12.3658
   538.7500    139.5844      0.0000    685.9747     12.4394
   539.0000    138.2357      0.0000    685.7985     12.5167
   539.2500    137.2694      0.0000    685.5418     12.5493
   539.5000    137.2240      0.0000    685.1699     12.5867
   539.7500    138.4715      0.0000    684.7001     12.6877
   540.0000    141.2856      0.0000    684.2278     12.8105
   540.2500    145.2985      0.0000    683.8914     12.8379
   540.5000    149.2499      0.0000    683.7961     12.7109
   540.7500    151.6823      0.0000    683.9493     12.4979
   541.0000    151.9061      0.0000    684.2441     12.3215
   541.2500    150.1484      0.0000    684.5250     12.2353
   541.5000    146.9987      0.0000    684.7063     12.1945
   541.7500    143.1852      0.0000    684.8245     12.1394
   542.0000    139.7183      0.0000    684.9568     12.0702
   542.2500    137.4457      0.0000    685.1179     12.0283
   542.5000    136.3269      0.0000    685.2646     12.0406
   542.7500    135.7793      0.0000    685.3711     12.1093
