~Version Information
VERS.                      2.0: CWLS Log ASCII Standard - VERSION 2.0
WRAP.                       NO: One line per depth step
~Well Information Block
STRT.FT               -10.0000: 
STOP.FT              2184.0000: 
STEP.FT                 0.2500: 
NULL.                -999.2500: 
COMP.          Petrogulf Corporation: COMPANY
WELL.              Silva 1-43R: WELL
FLD.           Purgatorie River: FIELD
LOC.           1971' FSL & 526' FEL--: LOCATION
CNTY.               Las Animas: COUNTY
SRVC.          Patterson Wireline: SERVICE COMPANY
DATE.          Thu Jul 13 13:08:17 2006: LOG DATE
UWI.           05 072 08372 00: UNIQUE WELL ID
STAT.                       CO: STATE
~Curve Information Block
DEPT.FT            0 000 00 00: Depth
CCL.                          : Casing Collar Locator
TT3.usec                      : CBL 3' Travel Time
AMP3.mV                       : CBL 3' Amplitude
GR.GAPI                       : Gamma Ray
~Parameter Information Block
~A  Depth       CCL         TT3         AMP3         GR     
# ...
   559.5000      0.0000    668.4140      5.8460    144.0080
   559.7500      0.0000    648.2462      5.8055    141.4867
   560.0000      0.0000    628.6470      5.7649    137.6414
   560.2500      0.0000    617.4261      5.6996    132.2994
   560.5000      0.0000    620.1412      5.5913    126.1651
   560.7500      0.0000    634.6611      5.4700    119.6125
   561.0000      0.0000    651.5251      5.3923    112.0006
   561.2500      0.0000    659.8889      5.3847    103.0067
   561.5000      2.0000    654.2597      5.4299     94.0106
   561.7500     -2.0000    637.1748      5.4932     87.3721
   562.0000      0.0000    615.6462      5.5430     84.4482
   562.2500      0.0000    595.6480      5.5609     84.7187
   562.5000      0.0000    581.3916      5.5531     86.7008
   562.7500      0.0000    577.7985      5.5477     89.2527
   563.0000      0.0000    588.7678      5.5705     91.8707
   563.2500      0.0000    611.9484      5.6289     94.1253
   563.5000      0.0000    638.5506      5.7129     95.2526
   563.7500      0.0000    659.7982      5.8002     94.3695
   564.0000      0.0000    672.3752      5.8638     91.0543
   564.2500      0.0000    677.9380      5.8871     85.7190
   564.5000      0.0000    679.6614      5.8747     79.4300
   564.7500      0.0000    680.1472      5.8462     73.4915
   565.0000      0.0000    681.3417      5.8226     69.2073
   565.2500      0.0000    685.0306      5.8171     67.7274
   565.5000      0.0000    692.5400      5.8311     69.8603
   565.7500      0.0000    703.4403      5.8532     76.0293
   566.0000      0.0000    714.4452      5.8649     86.2422
   566.2500      0.0000    720.4972      5.8510     99.7216
   566.5000      0.0000    718.0851      5.8107    114.4599
   566.7500      0.0000    707.9864      5.7566    127.7892
   567.0000      0.0000    694.6697      5.7065    138.1118
   567.2500      0.0000    683.0127      5.6754    146.0231
   567.5000      0.0000    675.5245      5.6699    153.3347
   567.7500      0.0000    672.0491      5.6861    161.0980
   568.0000      0.0000    671.1147      5.7118    168.7491
   568.2500      0.0000    671.1710      5.7326    174.7458
   568.5000      0.0000    671.0301      5.7392    177.6310
   568.7500      0.0000    669.9552      5.7312    176.8652
   569.0000      0.0000    667.9504      5.7174    173.1040
   569.2500      0.0000    666.0674      5.7113    167.5462
   569.5000      0.0000    665.9742      5.7208    160.9677
   569.7500      0.0000    668.6004      5.7419    153.7136
   570.0000      0.0000    672.9938      5.7619    146.3910
   570.2500      0.0000    676.5584      5.7692    139.8541
   570.5000      0.0000    676.5378      5.7583    134.6871
   570.7500      0.0000    671.7607      5.7271    131.4774
   571.0000      0.0000    663.6254      5.6752    131.1216
   571.2500      0.0000    655.4512      5.6075    133.8263
   571.5000      0.0000    650.1106      5.5367    138.1441
   571.7500      0.0000    647.5408      5.4772    141.8224
   572.0000      0.0000    644.6701      5.4356    143.5278
   572.2500      0.0000    638.4758      5.4063    143.5935
   572.5000      0.0000    629.3556      5.3766    143.2445
   572.7500      0.0000    621.3189      5.3366    143.2062
   573.0000      0.0000    619.0966      5.2867    143.3309
   573.2500      0.0000    625.1264      5.2378    143.8092
   573.5000      0.0000    638.3517      5.2055    146.0449
   573.7500      0.0000    654.9580      5.2007    151.3251
   574.0000      0.0000    670.6372      5.2242    158.6605
   574.2500      0.0000    682.7687      5.2679    164.8713
   574.5000      0.0000    690.5746      5.3230    167.2851
   574.7500      0.0000    693.7977      5.3836    165.9267
   575.0000      0.0000    692.2189      5.4432    162.8573
   575.2500      0.0000    686.6424      5.4887    160.0934
   575.5000      0.0000    679.8636      5.5067    158.6286
   575.7500      0.0000    676.0377      5.4918    158.7268
   576.0000      0.0000    678.0779      5.4478    160.3128
   576.2500      0.0000    685.1693      5.3830    163.1161
   576.5000      0.0000    693.4919      5.3109    166.8613
   576.7500      0.0000    699.7589      5.2481    171.1988
   577.0000      0.0000    703.4741      5.2053    175.3129
   577.2500      0.0000    705.8389      5.1810    177.9504
   577.5000      0.0000    707.6724      5.1685    178.0667
   577.7500      0.0000    708.9194      5.1649    175.3670
   578.0000      0.0000    709.4094      5.1733    170.1493
   578.2500      0.0000    709.3513      5.1990    162.8145
   578.5000      0.0000    709.2379      5.2438    153.9465
   578.7500      0.0000    709.6669      5.3019    144.9066
   579.0000      0.0000    711.2567      5.3610    137.7194
   579.2500      0.0000    714.4105      5.4090    133.9684
   579.5000      0.0000    718.8890      5.4407    133.9345
   579.7500      0.0000    723.6829      5.4596    136.6511
   580.0000      0.0000    727.5590      5.4730    140.2952
   580.2500      0.0000    729.8579      5.4850    142.7029
   580.5000      0.0000    730.7568      5.4959    142.3955
   580.7500      0.0000    730.8982      5.5050    139.5492
   581.0000      0.0000    730.9285      5.5162    135.5797
   581.2500      0.0000    731.3202      5.5389    131.3115
   581.5000      0.0000    732.4152      5.5847    125.9366
   581.7500      0.0000    734.4152      5.6578    118.3324
   582.0000      0.0000    737.0438      5.7467    108.9584
   582.2500      0.0000    738.9496      5.8288     99.7964
   582.5000      0.0000    737.6580      5.8848     92.8496
   582.7500      0.0000    730.9349      5.9095     89.1822
   583.0000      0.0000    718.8655      5.9120     88.8068
   583.2500      0.0000    704.4463      5.9057     90.7526
   583.5000      0.0000    691.6760      5.8976     93.3420
   583.7500      0.0000    682.9647      5.8861     94.9633
   584.0000      0.0000    678.2421      5.8674     95.0364
   584.2500      0.0000    675.8888      5.8440     94.4891
   584.5000      0.0000    673.9278      5.8240     95.0071
   584.7500      0.0000    670.6516      5.8133     97.3325
   585.0000      0.0000    665.1401      5.8071    100.3566
   585.2500      0.0000    658.0704      5.7928    102.3741
   585.5000      0.0000    652.0605      5.7620    103.1641
   585.7500      0.0000    650.4662      5.7201    104.3259
   586.0000      0.0000    655.0296      5.6801    107.4856
   586.2500      0.0000    664.4639      5.6479    112.6604
   586.5000      0.0000    675.3829      5.6159    118.6565
   586.7500      0.0000    684.5300      5.5733    124.6790
   587.0000      0.0000    690.0057      5.5192    130.9897
   587.2500      0.0000    690.8297      5.4671    137.9990
   587.5000      0.0000    686.3549      5.4357    145.3227
   587.7500      0.0000    676.6579      5.4358    151.9598
   588.0000      0.0000    662.8848      5.4613    157.0991
   588.2500      0.0000    646.4703      5.4937    160.6282
   588.5000      0.0000    628.4136      5.5157    163.0849
   588.7500      0.0000    609.8332      5.5223    165.1310
   589.0000      0.0000    592.6227      5.5200    166.8379
   589.2500      0.0000    578.8507      5.5165    167.6306
   589.5000      0.0000    570.2426      5.5105    167.1965
   589.7500      0.0000    569.0866      5.4965    166.1474
   590.0000      0.0000    578.1815      5.4755    165.2714
   590.2500      0.0000    597.7892      5.4597    164.4604
   590.5000      0.0000    623.2540      5.4630    162.9826
   590.7500      0.0000    647.8045      5.4885    160.5882
   591.0000      0.0000    667.5446      5.5245    157.6809
   591.2500      0.0000    682.3754      5.5512    154.4888
   591.5000      0.0000    693.1666      5.5545    150.7190
   591.7500      0.0000    700.3188      5.5368    146.2316
   592.0000      0.0000    704.7962      5.5141    141.6720
   592.2500      0.0000    708.0772      5.5018    137.9789
   592.5000      0.0000    709.9291      5.5017    135.3807
   592.7500      0.0000    707.0780      5.5031    133.2996
