~Version Information
VERS.                      2.0: CWLS Log ASCII Standard - VERSION 2.0
WRAP.                       NO: One line per depth step
~Well Information Block
STRT.FT               340.0000: 
STOP.FT              1731.0000: 
STEP.FT                 0.1000: 
NULL.                -999.2500: 
COMP.          Pioneer Natural Resources: COMPANY
WELL.          Rancher 12-35 Tr: WELL
FLD.           Purgatoire River: FIELD
LOC.           2242' FNL & 308' FWL SWNW 35 32S 67W: LOCATION
PROV.                 Colorado: PROVINCE
CNTY.               Las Animas: COUNTRY
SRVC.                Patterson: SERVICE COMPANY
DATE.          Tue Jul 05 07:18:22 2005: LOG DATE
UWI.              05 071 08430 00: UNIQUE WELL ID
~Curve Information Block
DEPT.FT            0 000 00 00: Depth
DCAL.in                       : CDL Caliper
RHOB.g/cc                     : CDL Bulk Density
RHOC.g/cc                     : CDL Density Correction
DPOR.pu                       : CDL Density Porosity
GR.GAPI                       : Gamma Ray
NPOR.pu                       : Neutron Porosity
~Parameter Information Block
~A  Depth       DCAL        RHOB        RHOC        DPOR         GR         NPOR    
# ...
  1165.6000      7.9472      2.6323      0.0345      1.0733    100.6353     24.0094
  1165.7000      7.9472      2.6238      0.0633      1.5868     98.8784     25.3225
  1165.8000      8.0037      2.5869      0.0126      3.8270    102.5298     26.6428
  1165.9000      8.0037      2.5470     -0.0221      6.2416    107.7832     27.4870
  1166.0000      8.0624      2.5291      0.0222      7.3289    109.8072     28.0681
  1166.1000      8.0624      2.5279      0.0066      7.3988    108.3811     28.6325
  1166.2000      8.0624      2.5284      0.0199      7.3722    106.0027     28.9759
  1166.3000      8.0530      2.5243      0.0236      7.6194    104.9949     28.9091
  1166.4000      8.0530      2.5130      0.0925      8.3029    109.4219     28.9717
  1166.5000      8.0527      2.4852      0.0288      9.9896    118.2313     29.4739
  1166.6000      8.0527      2.4435      0.0097     12.5179    124.7095     29.8389
  1166.7000      8.0527      2.4086     -0.0397     14.6318    128.9865     29.8125
  1166.8000      8.1147      2.3956      0.0170     15.4193    131.1751     29.7007
  1166.9000      8.1147      2.4009      0.0547     15.0985    128.9315     29.8612
  1167.0000      8.1561      2.4160      0.0596     14.1804    127.9545     30.3805
  1167.1000      8.1561      2.4341      0.0935     13.0874    132.8863     30.9669
  1167.2000      8.1561      2.4458      0.1298     12.3754    138.5401     31.4963
  1167.3000      8.2155      2.4435      0.1546     12.5169    141.1943     32.0275
  1167.4000      8.2155      2.4106      0.1651     14.5082    141.9689     32.3113
  1167.5000      8.3048      2.3256      0.1599     19.6619    142.5499     32.1656
  1167.6000      8.3048      2.2007      0.0496     27.2332    144.5590     31.7810
  1167.7000      8.3048      2.0721      0.0250     35.0232    149.3344     31.2779
  1167.8000      8.3316      1.9379      0.0044     43.1560    154.1826     30.9587
  1167.9000      8.3316      1.7756     -0.0916     52.9933    155.8571     31.3372
  1168.0000      8.2113      1.6050     -0.1282     63.3334    152.7067     32.0750
  1168.1000      8.2113      1.4736     -0.2021     71.2974    143.7316     32.5807
  1168.2000      8.2113      1.3949     -0.1086     76.0695    130.7340     32.9043
  1168.3000      8.1874      1.3404     -0.0704     79.3675    115.2121     33.3804
  1168.4000      8.1874      1.2975     -0.0481     81.9691     99.8457     34.0218
  1168.5000      8.2408      1.2791     -0.0182     83.0856     90.8436     34.7020
  1168.6000      8.2408      1.2904      0.0055     82.3991     89.5469     35.3699
  1168.7000      8.2408      1.3269      0.0428     80.1854     90.7907     35.7836
  1168.8000      8.5271      1.3880      0.0752     76.4838     88.7456     35.7609
  1168.9000      8.5271      1.4774      0.0773     71.0683     82.3063     35.8258
  1169.0000      8.8916      1.5953      0.0688     63.9187     75.2175     36.3834
  1169.1000      8.8916      1.7333      0.1036     55.5560     70.4924     36.8221
  1169.2000      8.8916      1.8748      0.1496     46.9809     68.4031     36.6420
  1169.3000      8.9009      2.0114      0.1714     38.7001     68.2986     36.1094
  1169.4000      8.9009      2.1470      0.2168     30.4850     69.8676     35.6456
  1169.5000      8.7658      2.2718      0.2637     22.9199     71.1177     35.3470
  1169.6000      8.7658      2.3643      0.2327     17.3136     71.7615     34.9014
  1169.7000      8.7658      2.4224      0.1295     13.7945     75.4776     34.0494
  1169.8000      8.6328      2.4613      0.0685     11.4354     83.0913     32.8495
  1169.9000      8.6328      2.4886      0.1045      9.7804     91.3216     31.6542
  1170.0000      8.3430      2.5069      0.1305      8.6725     99.4314     30.5999
  1170.1000      8.3430      2.5256      0.0884      7.5385    108.6296     29.9327
  1170.2000      8.3430      2.5525      0.1137      5.9107    118.1923     29.8757
  1170.3000      7.9949      2.5859      0.1006      3.8863    124.6687     29.6388
  1170.4000      7.9949      2.6238      0.1498      1.5853    126.0032     28.6697
  1170.5000      7.9060      2.6529      0.2020     -0.1748    122.1219     27.7965
  1170.6000      7.9060      2.6449      0.1870      0.3100    114.1270     27.5885
  1170.7000      7.9060      2.5983      0.1101      3.1319    107.0600     27.3980
  1170.8000      7.9022      2.5525     -0.0135      5.9088    103.4074     26.7094
  1170.9000      7.9022      2.5338      0.0504      7.0452    101.4163     25.6751
  1171.0000      7.9280      2.5303     -0.0003      7.2566     98.7365     24.4755
  1171.1000      7.9280      2.5352     -0.0232      6.9550     92.6808     23.2578
  1171.2000      7.9280      2.5516      0.0005      5.9623     82.3000     22.3223
  1171.3000      7.9863      2.5626      0.0333      5.2948     73.8524     22.1167
  1171.4000      7.9863      2.5537     -0.0016      5.8374     71.7118     22.4005
  1171.5000      8.0452      2.5404     -0.0150      6.6406     73.7490     22.1640
  1171.6000      8.0452      2.5403      0.0268      6.6514     76.8325     21.3006
  1171.7000      8.0452      2.5500      0.0554      6.0602     78.4861     20.6097
  1171.8000      8.0589      2.5550      0.0591      5.7572     79.4542     20.5137
  1171.9000      8.0589      2.5471      0.0718      6.2387     78.4067     20.7699
  1172.0000      8.0156      2.5379      0.0465      6.7957     73.0196     21.0107
  1172.1000      8.0156      2.5423      0.0311      6.5298     68.3794     20.9986
  1172.2000      8.0156      2.5562      0.0034      5.6860     67.6425     20.9159
  1172.3000      7.9719      2.5693      0.0264      4.8880     66.1951     21.3231
  1172.4000      7.9719      2.5819      0.0645      4.1250     63.8827     21.9716
  1172.5000      7.9574      2.5854      0.1077      3.9131     65.1814     22.2405
  1172.6000      7.9574      2.5603      0.1130      5.4338     68.4183     22.3528
  1172.7000      7.9574      2.5140      0.0363      8.2447     69.7118     22.8116
  1172.8000      7.9241      2.4769      0.0202     10.4933     70.0458     23.5157
  1172.9000      7.9241      2.4608      0.0206     11.4667     71.6302     24.0283
  1173.0000      7.9110      2.4633      0.0066     11.3172     73.6912     24.2889
  1173.1000      7.9110      2.4847      0.0446     10.0176     74.7122     24.6855
  1173.2000      7.9110      2.5137      0.0790      8.2578     74.4664     25.6342
  1173.3000      7.9162      2.5348      0.1030      6.9826     75.5206     26.9305
  1173.4000      7.9162      2.5460      0.1261      6.3004     80.2671     27.7955
  1173.5000      7.9603      2.5453      0.1749      6.3464     88.6639     28.0730
  1173.6000      7.9603      2.5348      0.1007      6.9817    100.1131     28.5322
  1173.7000      7.9603      2.5277      0.0882      7.4141    113.1761     29.5766
  1173.8000      7.9649      2.5225      0.1236      7.7266    124.2203     30.5386
  1173.9000      7.9649      2.5151      0.0678      8.1734    131.0852     30.8863
  1174.0000      7.9733      2.5119      0.0993      8.3702    134.6841     30.8388
  1174.1000      7.9733      2.5063      0.1225      8.7086    135.6868     30.8146
  1174.2000      7.9733      2.4919      0.0874      9.5835    136.0488     31.0061
  1174.3000      8.0860      2.4805      0.0768     10.2698    140.8331     31.1762
  1174.4000      8.0860      2.4811      0.1022     10.2336    149.8386     31.2156
  1174.5000      8.1241      2.4904      0.1182      9.6714    159.0735     31.2317
  1174.6000      8.1241      2.5015      0.1091      8.9981    164.0563     31.0650
  1174.7000      8.1241      2.5070      0.0754      8.6662    158.8651     30.6637
  1174.8000      8.1001      2.5034      0.1034      8.8877    148.9083     30.4575
  1174.9000      8.1001      2.4943      0.1154      9.4347    144.5170     30.8580
  1175.0000      8.0169      2.4883      0.1323      9.8029    146.1649     31.8387
  1175.1000      8.0169      2.4819      0.1413     10.1909    148.1553     33.0538
