~Version Information
VERS.                      2.0: CWLS Log ASCII Standard - VERSION 2.0
WRAP.                       NO: One line per depth step
~Well Information Block
STRT.FT               -10.0000: 
STOP.FT              2544.2500: 
STEP.FT                 0.2500: 
NULL.                -999.2500: 
COMP.          Pioneer Natural Resources: COMPANY
WELL.            Cortina 23-25: WELL
FLD.           Purgatorie River: FIELD
LOC.           2344' FWL  & 2526' FSL------: LOCATION
PROV.                       CO: PROVINCE
CNTY.               Las Animas: COUNTRY
SRVC.          Patterson Wireline: SERVICE COMPANY
DATE.          Fri Apr 01 11:50:55 2005: LOG DATE
UWI.           05 071 08340 00: UNIQUE WELL ID
~Curve Information Block
DEPT.FT            0 000 00 00: Depth
CCL.                          : Casing Collar Locator
TT3.usec                      : CBL 3' Travel Time
AMP3.mV                       : CBL 3' Amplitude
GR.GAPI                       : Gamma Ray
~Parameter Information Block
~A  Depth       CCL         TT3         AMP3         GR     
# ...
  2167.5000      0.0000    703.6179      5.6840    118.7464
  2167.7500      0.0000    724.3808      5.5668    117.5997
  2168.0000      0.0000    747.4256      5.2753    116.3435
  2168.2500      0.0000    766.8218      4.8645    115.7522
  2168.5000      0.0000    778.0932      4.4748    115.8041
  2168.7500      0.0000    780.2802      4.2696    116.3777
  2169.0000      0.0000    775.4658      4.3560    117.5799
  2169.2500      0.0000    767.2048      4.7242    119.3776
  2169.5000      0.0000    758.9836      5.2500    121.5554
  2169.7500      0.0000    752.9590      5.7657    124.1669
  2170.0000      0.0000    749.2611      6.1422    127.4974
  2170.2500      0.0000    745.9967      6.3236    131.3884
  2170.5000      0.0000    739.5302      6.3109    134.8391
  2170.7500      0.0000    725.5164      6.1314    136.4595
  2171.0000      0.0000    702.2081      5.8179    135.4566
  2171.2500      0.0000    674.7685      5.4062    132.3567
  2171.5000      0.0000    654.6948      4.9491    128.7457
  2171.7500      0.0000    651.5275      4.5361    126.3114
  2172.0000      0.0000    664.8223      4.2879    126.1093
  2172.2500      0.0000    686.1380      4.3039    128.1944
  2172.5000      0.0000    708.0046      4.5947    131.4024
  2172.7500      0.0000    728.7033      5.0645    133.7302
  2173.0000      0.0000    749.2774      5.5664    133.5570
  2173.2500      0.0000    768.9750      5.9745    130.7939
  2173.5000      0.0000    784.8019      6.2150    126.8944
  2173.7500      0.0000    794.3589      6.2570    123.6533
  2174.0000      0.0000    797.8638      6.0990    121.6670
  2174.2500      0.0000    797.4451      5.7675    119.7565
  2174.5000      0.0000    794.6999      5.3216    116.2062
  2174.7500      0.0000    788.7058      4.8546    111.0292
  2175.0000      0.0000    776.4932      4.4848    106.9232
  2175.2500      0.0000    756.2990      4.3229    107.4740
  2175.5000      0.0000    730.7083      4.4239    114.1694
  2175.7500      0.0000    706.0432      4.7550    125.2569
  2176.0000      0.0000    688.2167      5.2085    137.2318
  2176.2500      0.0000    679.0943      5.6483    146.7527
  2176.5000      0.0000    676.3564      5.9569    151.5055
  2176.7500      0.0000    676.1560      6.0613    150.8726
  2177.0000      0.0000    675.9683      5.9428    146.5665
  2177.2500      0.0000    675.5328      5.6349    141.7246
  2177.5000      0.0000    675.5989      5.2122    138.6164
  2177.7500      0.0000    676.2180      4.7731    137.4546
  2178.0000      0.0000    676.5416      4.4261    137.4989
  2178.2500      0.0000    676.0975      4.2726    138.5614
  2178.5000      0.0000    675.6148      4.3727    140.9730
  2178.7500      0.0000    676.2402      4.7078    144.5591
  2179.0000      0.0000    678.3273      5.1782    148.3076
  2179.2500      0.0000    681.5045      5.6473    151.3469
  2179.5000      0.0000    685.6854      5.9973    154.0424
  2179.7500      0.0000    691.2302      6.1578    157.3943
  2180.0000      0.0000    697.9310      6.1062    161.2442
  2180.2500      0.0000    704.5454      5.8600    164.0128
  2180.5000      0.0000    709.7031      5.4688    164.6435
  2180.7500      0.0000    712.8621      5.0072    164.0293
  2181.0000      0.0000    714.2136      4.5717    163.9858
  2181.2500      0.0000    714.0288      4.2733    165.2963
  2181.5000      0.0000    712.4150      4.2052    167.1765
  2181.7500      0.0000    709.7123      4.3929    168.0803
  2182.0000      0.0000    707.0313      4.7709    166.1528
  2182.2500      0.0000    706.1733      5.2128    159.2646
  2182.5000      0.0000    708.9117      5.5926    146.1759
  2182.7500      0.0000    716.4125      5.8316    128.3742
  2183.0000      0.0000    728.8674      5.9107    109.8640
  2183.2500      0.0000    744.5275      5.8476     94.4907
  2183.5000      0.0000    759.0005      5.6549     83.7365
  2183.7500      0.0000    767.0543      5.3287     76.9449
  2184.0000      0.0000    766.1910      4.8949     72.8500
  2184.2500      0.0000    757.8753      4.4609     70.5844
  2184.5000      0.0000    744.9324      4.1772     69.6534
  2184.7500      0.0000    728.9203      4.1203     69.5063
  2185.0000      0.0000    710.6997      4.2258     69.5317
  2185.2500      0.0000    692.2319      4.3613     69.5465
  2185.5000      0.0000    676.4794      4.4571     69.9484
  2185.7500      0.0000    665.8217      4.5595     71.1134
  2186.0000      0.0000    660.9788      4.7663     72.7758
  2186.2500      0.0000    660.8717      5.1276     74.2295
  2186.5000      0.0000    663.1839      5.5997     75.1317
  2186.7500      0.0000    665.5728      6.0705     75.9309
  2187.0000      0.0000    666.8760      6.4144     77.3790
  2187.2500      0.0000    667.3718      6.5390     79.6596
  2187.5000      0.0000    668.1711      6.4106     82.1405
  2187.7500      0.0000    670.4819      6.0621     84.0161
  2188.0000      0.0000    675.0078      5.5827     85.0206
  2188.2500      0.0000    681.5265      5.0865     85.4766
  2188.5000      0.0000    689.0526      4.6679     85.8104
  2188.7500      0.0000    696.6142      4.3724     86.0399
  2189.0000      0.0000    703.6595      4.2069     85.6773
  2189.2500      0.0000    709.4391      4.1768     84.3076
  2189.5000      0.0000    712.4188      4.2976     82.3218
  2189.7500      0.0000    710.4013      4.5585     80.6834
  2190.0000      0.0000    701.2944      4.8825     79.8497
  2190.2500      0.0000    685.1552      5.1440     79.3524
  2190.5000      0.0000    666.7945      5.2363     78.5302
  2190.7500      0.0000    654.6051      5.1248     77.3058
  2191.0000      0.0000    654.1536      4.8530     76.2540
  2191.2500      0.0000    663.5008      4.5170     76.1879
  2191.5000      0.0000    676.2213      4.2301     77.6679
  2191.7500      0.0000    687.4781      4.0873     80.6614
  2192.0000      0.0000    695.9348      4.1397     84.4777
  2192.2500      0.0000    701.9745      4.3814     88.0456
  2192.5000      0.0000    706.2935      4.7444     90.4783
  2192.7500      0.0000    709.8380      5.1114     91.5365
  2193.0000      0.0000    713.7306      5.3600     91.4832
  2193.2500      0.0000    718.6444      5.4151     90.5206
  2193.5000      0.0000    724.2618      5.2733     88.6579
  2193.7500      0.0000    729.3877      4.9913     86.2132
  2194.0000      0.0000    732.6366      4.6635     84.0939
  2194.2500      0.0000    732.7999      4.4028     83.3349
  2194.5000      0.0000    728.6280      4.3065     84.3644
  2194.7500      0.0000    719.0133      4.4062     86.5867
  2195.0000      0.0000    703.8657      4.6460     88.5023
  2195.2500      0.0000    684.8353      4.9228     88.5305
  2195.5000      0.0000    665.3500      5.1463     86.3201
  2195.7500      0.0000    650.2309      5.2602     83.3948
  2196.0000      0.0000    644.2004      5.2332     82.2008
  2196.2500      2.0000    649.1995      5.0592     84.2417
  2196.5000      0.0000    663.1859      4.7732     88.9255
  2196.7500      0.0000    682.0650      4.4575     93.9775
  2197.0000      0.0000    702.2245      4.2173     97.0448
  2197.2500      0.0000    721.1580      4.1219     97.3057
  2197.5000      0.0000    736.9022      4.1570     95.7800
  2197.7500      0.0000    747.9628      4.2366     94.1528
  2198.0000      0.0000    753.6796      4.2684     93.4534
  2198.2500      0.0000    754.1456      4.2204     93.8852
  2198.5000      0.0000    749.8541      4.1497     95.4754
  2198.7500      0.0000    741.9656      4.1724     98.4552
  2199.0000      0.0000    732.8581      4.3773    102.8828
  2199.2500      0.0000    725.8974      4.7398    108.0135
  2199.5000      0.0000    724.2042      5.1203    112.3655
  2199.7500      0.0000    729.3787      5.3525    114.6954
  2200.0000      0.0000    740.7511      5.3401    114.7953
  2200.2500      0.0000    755.4167      5.0913    113.2146
  2200.5000      0.0000    769.3625      4.7019    110.6419
  2200.7500      0.0000    779.0247      4.3195    107.9672
