~Version Information
VERS.                      2.0: CWLS Log ASCII Standard - VERSION 2.0
WRAP.                       NO: One line per depth step
~Well Information Block
STRT.FT               240.0000: 
STOP.FT               966.2000: 
STEP.FT                 0.1000: 
NULL.                -999.2500: 
COMP.          Pioneer Natural Resources: COMPANY
WELL.          New Mexico 21-5: WELL
FLD.           Purgatoire River: FIELD
LOC.           175' FNL & 1700' FWL: LOCATION
PROV.                 Colorado: PROVINCE
CNTY.               Las Animas: COUNTRY
SRVC.                Patterson: SERVICE COMPANY
DATE.          Mon Dec 13 06:55:26 2004: LOG DATE
UWI.           05 071 08234 00: UNIQUE WELL ID
~Curve Information Block
DEPT.FT            0 000 00 00: Depth
DCAL.in                       : CDL Caliper
RHOB.g/cc                     : CDL Bulk Density
RHOC.g/cc                     : CDL Density Correction
DPOR.pu                       : CDL Density Porosity
NPOR.pu                       : Neutron Porosity
GR.GAPI                       : Gamma Ray
~Parameter Information Block
~A  Depth       DCAL        RHOB        RHOC        DPOR        NPOR         GR     
# ...
   662.4000      7.9105      2.6029      0.0832      2.8523     23.3765    172.4017
   662.5000      7.9003      2.6218      0.1191      1.7078     23.4220    169.3477
   662.6000      7.9003      2.6231      0.0739      1.6290     23.3161    166.9338
   662.7000      7.9003      2.6086      0.1222      2.5071     23.1379    162.9359
   662.8000      7.8963      2.5895      0.0370      3.6659     22.9449    157.7593
   662.9000      7.8963      2.5869      0.0546      3.8253     22.6470    156.1481
   663.0000      7.8986      2.6060      0.0617      2.6687     22.3443    157.4696
   663.1000      7.8986      2.6264      0.1267      1.4331     22.2965    156.1934
   663.2000      7.8986      2.6321      0.0641      1.0874     22.5627    149.9927
   663.3000      7.9105      2.6275      0.0764      1.3655     23.0137    147.9581
   663.4000      7.9105      2.6125      0.1017      2.2708     23.3829    156.2269
   663.5000      7.9280      2.5868      0.0532      3.8285     23.6115    165.0845
   663.6000      7.9280      2.5672      0.0322      5.0199     23.8090    165.0424
   663.7000      7.9280      2.5657      0.0348      5.1097     23.9398    161.2939
   663.8000      7.9285      2.5787      0.0633      4.3199     23.8118    160.6314
   663.9000      7.9285      2.5964      0.0843      3.2459     23.3129    161.8031
   664.0000      7.9217      2.6068      0.0931      2.6174     22.7158    160.8022
   664.1000      7.9217      2.6041      0.0820      2.7824     22.3220    154.6582
   664.2000      7.9217      2.5924      0.0508      3.4934     22.1125    146.6757
   664.3000      7.9368      2.5712      0.0733      4.7745     22.1476    142.8982
   664.4000      7.9368      2.5431      0.0080      6.4810     22.4953    141.6236
   664.5000      7.9512      2.5280      0.0031      7.3936     22.9205    139.6922
   664.6000      7.9512      2.5379      0.0568      6.7913     23.0737    138.3716
   664.7000      7.9512      2.5619      0.0443      5.3416     22.8746    139.2878
   664.8000      7.9382      2.5869      0.0701      3.8213     22.5818    141.8655
   664.9000      7.9382      2.6025      0.0934      2.8761     22.4285    143.5674
   665.0000      7.9228      2.5983      0.0915      3.1330     22.6137    144.9356
   665.1000      7.9228      2.5775      0.0519      4.3932     23.0569    149.0892
   665.2000      7.9228      2.5575      0.0278      5.6065     23.1911    151.9329
   665.3000      7.9215      2.5472      0.0564      6.2307     22.8041    146.9908
   665.4000      7.9215      2.5409      0.0392      6.6111     22.3950    139.1224
   665.5000      7.9260      2.5325      0.0623      7.1193     22.3151    136.5148
   665.6000      7.9260      2.5151      0.0750      8.1767     22.1533    140.4568
   665.7000      7.9260      2.4863      0.0327      9.9237     21.6201    150.7320
   665.8000      7.9242      2.4621     -0.0205     11.3871     21.1676    159.7933
   665.9000      7.9242      2.4633     -0.0016     11.3127     21.0677    156.8239
   666.0000      7.9227      2.4907      0.0227      9.6524     21.1122    144.5981
   666.1000      7.9227      2.5215      0.0616      7.7862     20.9931    135.2099
   666.2000      7.9227      2.5311      0.0778      7.2044     20.6433    131.9810
   666.3000      7.9246      2.5177      0.0534      8.0191     20.4335    127.5526
   666.4000      7.9246      2.5003      0.0443      9.0747     20.4418    122.6253
   666.5000      7.9191      2.4950      0.0880      9.3930     20.3824    123.0414
   666.6000      7.9191      2.5019      0.0909      8.9745     20.1138    127.3359
   666.7000      7.9191      2.5142      0.1218      8.2289     19.7347    130.7531
   666.8000      7.9137      2.5233      0.1239      7.6816     19.5204    130.7570
   666.9000      7.9137      2.5227      0.0938      7.7178     19.5060    126.8203
   667.0000      7.9172      2.5115      0.1308      8.3958     19.5610    120.7130
   667.1000      7.9172      2.4941      0.0685      9.4455     19.6579    115.3152
   667.2000      7.9172      2.4781      0.0730     10.4162     19.6471    110.0202
   667.3000      7.9276      2.4600      0.0677     11.5172     19.4836    104.9422
   667.4000      7.9276      2.4329      0.0855     13.1572     19.4046    102.2386
   667.5000      7.9406      2.4147      0.0215     14.2588     19.2747    100.2839
   667.6000      7.9406      2.4236      0.0971     13.7195     18.6977     99.7755
   667.7000      7.9406      2.4440      0.0021     12.4854     17.8987    106.8712
   667.8000      7.9488      2.4638      0.0605     11.2876     17.4967    120.0854
   667.9000      7.9488      2.4813      0.0784     10.2220     17.8078    128.6937
   668.0000      7.9511      2.4896      0.0822      9.7238     18.4205    124.1102
   668.1000      7.9511      2.4823      0.0737     10.1645     18.6792    112.3636
   668.2000      7.9511      2.4628      0.0416     11.3447     18.5883    106.2363
   668.3000      7.9511      2.4475      0.0220     12.2754     18.2287    108.4868
   668.4000      7.9511      2.4521      0.0486     11.9926     17.4239    110.9409
   668.5000      7.9504      2.4703      0.0981     10.8902     16.5769    106.7433
   668.6000      7.9504      2.4855      0.0889      9.9725     16.3042    100.1632
   668.7000      7.9504      2.4967      0.0766      9.2895     16.5442     99.4419
   668.8000      7.9483      2.5038      0.0945      8.8609     16.8907    103.1715
   668.9000      7.9483      2.4959      0.1047      9.3403     17.1991    104.0159
   669.0000      7.9412      2.4772      0.0456     10.4751     17.4439    101.4364
   669.1000      7.9412      2.4654      0.0450     11.1863     17.6688    100.9849
   669.2000      7.9412      2.4646      0.0758     11.2352     17.9708    105.4698
   669.3000      7.9301      2.4716      0.0354     10.8140     18.3244    110.5738
   669.4000      7.9301      2.4885      0.0740      9.7893     18.7113    111.3628
   669.5000      7.9232      2.5063      0.0717      8.7062     19.0754    108.4413
   669.6000      7.9232      2.5088      0.0593      8.5556     19.1822    104.2764
   669.7000      7.9232      2.4924      0.0694      9.5488     19.0007    102.8893
   669.8000      7.9212      2.4694      0.0443     10.9444     18.5999    107.3680
   669.9000      7.9212      2.4578      0.0110     11.6477     17.9743    113.3152
   670.0000      7.9218      2.4625      0.0345     11.3643     17.4140    116.6128
   670.1000      7.9218      2.4715      0.0576     10.8209     17.4031    120.2616
   670.2000      7.9218      2.4757      0.0634     10.5649     18.0003    126.2933
   670.3000      7.9268      2.4741      0.0797     10.6593     18.5839    130.9151
   670.4000      7.9268      2.4678      0.0836     11.0430     18.7524    129.7055
   670.5000      7.9406      2.4614      0.0628     11.4293     18.7343    124.8268
   670.6000      7.9406      2.4575      0.0813     11.6673     18.6482    121.2031
   670.7000      7.9406      2.4552      0.0540     11.8054     18.4543    120.0649
   670.8000      7.9519      2.4583      0.0823     11.6210     18.1547    118.7316
   670.9000      7.9519      2.4698      0.0906     10.9219     17.8590    113.8310
   671.0000      7.9437      2.4896      0.0742      9.7240     17.7971    107.7606
   671.1000      7.9437      2.5089      0.0956      8.5534     17.9127    105.5157
   671.2000      7.9437      2.5128      0.0959      8.3173     17.9274    105.1531
   671.3000      7.9294      2.5022      0.0654      8.9570     17.8521    105.9443
   671.4000      7.9294      2.4968      0.0506      9.2847     17.8307    111.6448
   671.5000      7.9223      2.5070      0.0722      8.6658     17.9472    118.3271
   671.6000      7.9223      2.5226      0.0799      7.7227     18.2192    117.4438
   671.7000      7.9223      2.5342      0.0740      7.0208     18.4178    109.4355
   671.8000      7.9204      2.5452      0.0783      6.3545     18.4394    102.3160
   671.9000      7.9204      2.5603      0.0829      5.4392     18.5988    102.6511
