~Version Information
VERS.                      2.0: CWLS Log ASCII Standard - VERSION 2.0
WRAP.                       NO: One line per depth step
~Well Information Block
STRT.FT               811.0000: 
STOP.FT              2507.0000: 
STEP.FT                 0.1000: 
NULL.                -999.2500: 
COMP.          Petrogulf Corporation: COMPANY
WELL.               YWAM 7-32V: WELL
FLD.           Purgatoire River: FIELD
LOC.           2423' FNL & 2412' FEL: LOCATION
PROV.                 Colorado: PROVINCE
CNTY.               Las Animas: COUNTRY
SRVC.                Patterson: SERVICE COMPANY
DATE.          Mon Dec 15 07:18:47 2003: LOG DATE
UWI.                          : UNIQUE WELL ID
~Curve Information Block
DEPT.FT            0 000 00 00: Depth
DCAL.in                       : CDL Caliper
RHOB.g/cc                     : CDL Bulk Density
RHOC.g/cc                     : CDL Density Correction
DPOR.pu                       : CDL Density Porosity
NPOR.pu                       : Neutron Porosity
GR.GAPI                       : Gamma Ray
~Parameter Information Block
~A  Depth       DCAL        RHOB        RHOC        DPOR        NPOR         GR     
# ...
  1934.2000      8.1394      2.4977     -0.0076      9.2331      8.3057     50.5263
  1934.3000      8.1410      2.4948      0.0325      9.4039      8.5400     49.3005
  1934.4000      8.1410      2.4959      0.0172      9.3376      8.8851     51.9695
  1934.5000      8.1420      2.4909      0.0505      9.6452      9.6464     56.5538
  1934.6000      8.1420      2.4704      0.0318     10.8830     10.5253     59.5561
  1934.7000      8.1420      2.4478     -0.0322     12.2564     11.0038     62.1935
  1934.8000      8.1422      2.4418      0.0265     12.6202     10.8154     64.8889
  1934.9000      8.1422      2.4454      0.0148     12.4015     10.2499     65.4729
  1935.0000      8.1442      2.4389      0.0280     12.7950     10.1415     63.9701
  1935.1000      8.1442      2.4205     -0.0183     13.9097     10.5726     61.2398
  1935.2000      8.1442      2.4077     -0.0112     14.6836     10.6314     57.7110
  1935.3000      8.1530      2.4082      0.0097     14.6544     10.1190     55.4841
  1935.4000      8.1530      2.4156      0.0268     14.2034      9.5889     54.8301
  1935.5000      8.1447      2.4230      0.0461     13.7591      9.2806     53.2846
  1935.6000      8.1447      2.4285      0.0168     13.4235      9.2282     50.0589
  1935.7000      8.1447      2.4349      0.0672     13.0335      9.2505     46.9328
  1935.8000      8.1422      2.4432      0.0614     12.5346      8.9451     45.2559
  1935.9000      8.1422      2.4547      0.0675     11.8376      8.4679     44.5567
  1936.0000      8.1522      2.4627      0.0546     11.3487      8.1539     44.5383
  1936.1000      8.1522      2.4577      0.0400     11.6534      7.7586     43.6490
  1936.2000      8.1522      2.4422      0.0504     12.5969      7.1766     41.1495
  1936.3000      8.1466      2.4281      0.0042     13.4456      6.7605     40.4158
  1936.4000      8.1466      2.4275      0.0440     13.4869      6.6326     41.9076
  1936.5000      8.1455      2.4374      0.0480     12.8851      6.6999     42.1978
  1936.6000      8.1455      2.4505      0.0697     12.0933      6.8032     40.7681
  1936.7000      8.1455      2.4656      0.0604     11.1737      6.8258     38.5471
  1936.8000      8.1447      2.4724      0.0923     10.7654      6.8430     36.6005
  1936.9000      8.1447      2.4581      0.0524     11.6332      6.8656     35.5421
  1937.0000      8.1492      2.4347      0.0564     13.0513      6.8860     34.1164
  1937.1000      8.1492      2.4227      0.0378     13.7735      6.8582     32.3010
  1937.2000      8.1492      2.4281      0.0429     13.4488      6.6486     30.9243
  1937.3000      8.1477      2.4417      0.0711     12.6253      6.3364     29.1775
  1937.4000      8.1477      2.4514      0.0677     12.0353      6.2370     27.4555
  1937.5000      8.1467      2.4600      0.0679     11.5176      6.6645     27.7403
  1937.6000      8.1467      2.4795      0.0703     10.3319      7.6994     31.8459
  1937.7000      8.1467      2.5096      0.0922      8.5085      9.0108     39.1450
  1937.8000      8.1465      2.5380      0.0874      6.7896      9.9115     47.4876
  1937.9000      8.1465      2.5535      0.1192      5.8503     10.1279     55.2138
  1938.0000      8.1458      2.5560      0.0520      5.6992      9.9642     61.6935
  1938.1000      8.1458      2.5523      0.0862      5.9226      9.7168     65.7208
  1938.2000      8.1458      2.5427      0.0550      6.5008      9.7283     67.3145
  1938.3000      8.1457      2.5365      0.0321      6.8809     10.1450     71.4059
  1938.4000      8.1457      2.5399      0.0819      6.6747     10.6667     78.1899
  1938.5000      8.1454      2.5366      0.0837      6.8750     11.0455     80.8574
  1938.6000      8.1454      2.5181      0.0420      7.9941     11.0810     79.1143
  1938.7000      8.1454      2.4977      0.0102      9.2325     10.7183     81.2239
  1938.8000      8.1435      2.4911      0.0150      9.6312     10.4122     87.8995
  1938.9000      8.1435      2.5028      0.0095      8.9211     10.4848     90.3508
  1939.0000      8.1442      2.5202      0.0787      7.8681     10.7727     87.3393
  1939.1000      8.1442      2.5271      0.0494      7.4479     11.0569     83.3494
  1939.2000      8.1442      2.5223      0.0665      7.7400     11.1204     78.7808
  1939.3000      8.1418      2.5055      0.0518      8.7581     10.7860     75.2118
  1939.4000      8.1418      2.4779      0.0619     10.4316     10.1080     71.8327
  1939.5000      8.1423      2.4515      0.0383     12.0308      9.3601     64.8211
  1939.6000      8.1423      2.4399      0.0309     12.7335      8.7484     56.4257
  1939.7000      8.1423      2.4468      0.0212     12.3146      8.4208     51.4593
  1939.8000      8.1395      2.4634      0.0630     11.3086      8.5277     48.8997
  1939.9000      8.1395      2.4746      0.0340     10.6314      9.0955     44.9205
  1940.0000      8.1436      2.4684      0.0845     11.0073      9.8094     41.3912
  1940.1000      8.1436      2.4450      0.0369     12.4261     10.2087     41.6941
  1940.2000      8.1436      2.4241      0.0013     13.6915     10.1941     42.8014
  1940.3000      8.1461      2.4231      0.0219     13.7498      9.8097     39.9175
  1940.4000      8.1461      2.4410      0.0172     12.6641      9.1068     33.4538
  1940.5000      8.1389      2.4634      0.0557     11.3070      8.5769     27.5573
  1940.6000      8.1389      2.4732      0.0762     10.7175      8.7030     25.4830
  1940.7000      8.1389      2.4683      0.0473     11.0125      9.2584     27.8622
  1940.8000      8.0994      2.4598      0.0603     11.5292      9.7050     32.7868
  1940.9000      8.0994      2.4570      0.0589     11.6958      9.6731     36.4871
  1941.0000      8.1386      2.4624      0.0726     11.3674      9.1379     36.1355
  1941.1000      8.1386      2.4683      0.0514     11.0128      8.3584     33.9021
  1941.2000      8.1386      2.4666      0.0583     11.1152      7.4346     36.0411
  1941.3000      8.1544      2.4624      0.0348     11.3677      6.5758     41.8418
  1941.4000      8.1544      2.4693      0.0345     10.9516      6.0840     44.1427
  1941.5000      8.1462      2.4875      0.0345      9.8508      6.0622     42.4043
  1941.6000      8.1462      2.5010      0.0653      9.0300      6.3610     42.0824
  1941.7000      8.1462      2.4998      0.0401      9.1012      6.5292     45.0198
  1941.8000      8.1430      2.4873      0.0474      9.8585      6.3811     47.0875
  1941.9000      8.1430      2.4687      0.0458     10.9880      6.1597     46.9043
  1942.0000      8.1254      2.4528      0.0276     11.9544      6.0795     47.4165
  1942.1000      8.1254      2.4490      0.0403     12.1840      6.1986     47.3017
  1942.2000      8.1254      2.4535      0.0247     11.9062      6.3373     43.5430
  1942.3000      8.1340      2.4569      0.0539     11.7017      6.3596     39.9140
  1942.4000      8.1340      2.4575      0.0260     11.6656      6.6946     40.6889
  1942.5000      8.1452      2.4629      0.0100     11.3405      7.6857     43.5208
  1942.6000      8.1452      2.4734      0.0466     10.7010      8.9048     46.8550
  1942.7000      8.1452      2.4759      0.0664     10.5539      9.6261     49.5994
  1942.8000      8.1464      2.4656      0.0457     11.1760      9.5579     48.2404
  1942.9000      8.1464      2.4555      0.0296     11.7903      9.2052     46.7878
  1943.0000      8.1454      2.4529      0.0415     11.9450      9.1389     53.3217
  1943.1000      8.1454      2.4544      0.0207     11.8562      9.3567     65.8622
  1943.2000      8.1454      2.4659     -0.0070     11.1587      9.6173     76.2621
  1943.3000      8.1479      2.4927      0.0461      9.5329      9.7113     79.4238
  1943.4000      8.1479      2.5222      0.0584      7.7451      9.4533     77.5294
  1943.5000      8.1424      2.5426      0.0734      6.5078      8.8982     76.1338
  1943.6000      8.1424      2.5520      0.0516      5.9412      8.5057     73.4340
  1943.7000      8.1424      2.5538      0.0627      5.8308      8.6454     67.5742
