~Version Information
VERS.                      2.0: CWLS Log ASCII Standard - VERSION 2.0
WRAP.                       NO: One line per depth step
~Well Information Block
STRT.FT                -9.7500: 
STOP.FT              2374.2500: 
STEP.FT                 0.2500: 
NULL.                -999.2500: 
COMP.          Pioneer Natural Resources: COMPANY
WELL.            Chevron 13-13: WELL
FLD.           Purgatorie River: FIELD
LOC.           1560' FSL & 711' FWL--: LOCATION
CNTY.               Las Animas: COUNTY
SRVC.          Superior Well Services: SERVICE COMPANY
DATE.          Wed Apr 11 08:47:55 2007: LOG DATE
UWI.           05 071 08319 00: UNIQUE WELL ID
STAT.                       CO: STATE
~Curve Information Block
DEPT.FT            0 000 00 00: Depth
CCL.                          : Casing Collar Locator
TT3.usec                      : CBL 3' Travel Time
AMP3.mV                       : CBL 3' Amplitude
GR.GAPI                       : Gamma Ray
~Parameter Information Block
~A  Depth       CCL         TT3         AMP3         GR     
# ...
  1229.7500      0.0000    699.8651      4.9435    141.7717
  1230.0000      0.0000    699.8188      4.9440    141.5133
  1230.2500      0.0000    699.8355      4.9445    139.1580
  1230.5000      0.0000    699.8651      4.9446    134.0306
  1230.7500      0.0000    699.5646      4.9521    127.1543
  1231.0000      0.0000    697.9814      4.9717    121.1642
  1231.2500      0.0000    693.1991      5.0023    118.8008
  1231.5000      0.0000    682.8300      5.0404    121.1742
  1231.7500      0.0000    666.2476      5.0830    127.0731
  1232.0000      0.0000    646.7921      5.1271    133.6702
  1232.2500      0.0000    630.3403      5.1723    138.3145
  1232.5000      0.0000    620.9656      5.2222    140.2768
  1232.7500      0.0000    619.3309      5.2787    140.8412
  1233.0000      0.0000    624.5461      5.3353    141.5899
  1233.2500      0.0000    633.4064      5.3819    142.7533
  1233.5000      0.0000    637.2927      5.4181    143.3013
  1233.7500      0.0000    624.9379      5.4582    142.0660
  1234.0000      0.0000    592.6405      5.5199    138.3779
  1234.2500      0.0000    551.2567      5.6115    132.2020
  1234.5000      0.0000    519.9996      5.7285    124.3940
  1234.7500     -2.0000    511.2836      5.8569    116.7168
  1235.0000      0.0000    521.5562      5.9754    111.1493
  1235.2500      0.0000    536.8678      6.0639    109.0362
  1235.5000      0.0000    547.1506      6.1172    110.6995
  1235.7500      0.0000    555.1234      6.1424    115.2409
  1236.0000      0.0000    570.8928      6.1400    120.5526
  1236.2500      0.0000    598.8406      6.1012    124.2332
  1236.5000      0.0000    632.3974      6.0325    125.0957
  1236.7500      0.0000    660.9932      5.9635    123.7444
  1237.0000      0.0000    677.9987      5.9232    121.7658
  1237.2500      0.0000    680.8016      5.9217    120.6003
  1237.5000      0.0000    666.8155      5.9529    120.8615
  1237.7500      0.0000    633.0289      5.9974    122.0991
  1238.0000      0.0000    580.7012      6.0251    123.0198
  1238.2500      0.0000    519.3121      6.0094    122.1571
  1238.5000      0.0000    463.4127      5.9462    118.7181
  1238.7500      0.0000    424.3318      5.8548    113.1425
  1239.0000      0.0000    405.2884      5.7621    106.8966
  1239.2500      0.0000    403.6201      5.6870    101.4844
  1239.5000      0.0000    414.8139      5.6379     97.5618
  1239.7500      0.0000    432.9159      5.6188     94.9758
  1240.0000      0.0000    449.0945      5.6361     93.5063
  1240.2500      0.0000    453.9999      5.6951     93.4122
  1240.5000      0.0000    444.2015      5.7916     95.1028
  1240.7500      0.0000    425.3790      5.9078     98.2716
  1241.0000      0.0000    407.5701      6.0224    101.7204
  1241.2500      0.0000    397.7371      6.1238    104.2820
  1241.5000      0.0000    397.0159      6.2122    105.7287
  1241.7500      0.0000    402.6545      6.2900    106.7898
  1242.0000      0.0000    410.6000      6.3539    108.6422
  1242.2500      0.0000    417.0571      6.3994    112.2017
  1242.5000      0.0000    419.4290      6.4294    117.2370
  1242.7500      0.0000    416.8448      6.4546    122.0456
  1243.0000      0.0000    410.2365      6.4846    124.4714
  1243.2500      0.0000    402.0775      6.5193    123.5665
  1243.5000      0.0000    395.5836      6.5495    120.2747
  1243.7500      0.0000    393.5617      6.5658    116.4798
  1244.0000      0.0000    397.4090      6.5677    113.4810
  1244.2500      0.0000    406.4756      6.5656    111.4036
  1244.5000      0.0000    418.1599      6.5748    109.8005
  1244.7500      0.0000    429.3979      6.6031    108.3415
  1245.0000      0.0000    438.7196      6.6427    106.7030
  1245.2500      0.0000    446.5342      6.6751    104.1949
  1245.5000      0.0000    453.3041      6.6874    100.0278
  1245.7500      0.0000    458.3224      6.6840     94.0833
  1246.0000      0.0000    460.7732      6.6805     87.3610
  1246.2500      0.0000    461.2501      6.6868     81.6501
  1246.5000      0.0000    461.3852      6.6972     78.6739
  1246.7500      0.0000    461.9436      6.6965     79.1820
  1247.0000      0.0000    461.8082      6.6744     82.3821
  1247.2500      0.0000    459.2130      6.6336     86.1631
  1247.5000      0.0000    453.9766      6.5834     88.2403
  1247.7500      0.0000    448.3647      6.5294     87.5791
  1248.0000      0.0000    445.5157      6.4713     85.0043
  1248.2500      0.0000    446.7178      6.4104     82.4365
  1248.5000      0.0000    450.1765      6.3528     81.3522
  1248.7500      0.0000    452.6893      6.3013     81.8152
  1249.0000      0.0000    452.6172      6.2453     82.9424
  1249.2500      0.0000    450.9548      6.1665     84.2281
  1249.5000      0.0000    449.3915      6.0563     86.0485
  1249.7500      0.0000    447.9616      5.9241     88.6802
  1250.0000      0.0000    445.3097      5.7863     91.2968
  1250.2500      0.0000    440.8974      5.6520     92.4657
  1250.5000      0.0000    435.9573      5.5208     91.5648
  1250.7500      0.0000    432.2028      5.3923     89.3394
  1251.0000      0.0000    430.3395      5.2709     86.9639
  1251.2500      0.0000    429.9506      5.1607     84.7592
  1251.5000      0.0000    430.2506      5.0585     82.0978
  1251.7500      0.0000    430.6712      4.9538     78.5341
  1252.0000      0.0000    430.9944      4.8373     74.5850
  1252.2500      0.0000    431.2233      4.7107     71.2818
  1252.5000      0.0000    431.4000      4.5888     69.4509
  1252.7500      0.0000    431.5041      4.4908     69.5031
  1253.0000      0.0000    431.4814      4.4280     71.1907
  1253.2500      0.0000    431.3372      4.3997     73.2562
  1253.5000      0.0000    431.1689      4.3974     73.9870
  1253.7500      0.0000    431.0776      4.4134     72.6234
  1254.0000      0.0000    431.0635      4.4459     69.9025
  1254.2500      0.0000    431.0295      4.4973     67.1750
  1254.5000      0.0000    430.8735      4.5712     65.4131
  1254.7500      0.0000    430.5541      4.6673     65.0600
  1255.0000      0.0000    430.0949      4.7782     66.1084
  1255.2500      0.0000    429.5619      4.8885     67.8355
  1255.5000      0.0000    429.0448      4.9798     68.7747
  1255.7500      0.0000    428.6458      5.0393     67.7247
  1256.0000      0.0000    428.4574      5.0654     65.1711
  1256.2500      0.0000    428.5125      5.0639     63.2060
  1256.5000      0.0000    428.7335      5.0427     63.3805
  1256.7500      0.0000    428.9529      5.0101     64.9286
  1257.0000      0.0000    429.0206      4.9765     65.8109
  1257.2500      0.0000    428.9088      4.9517     65.4017
  1257.5000      0.0000    428.7270      4.9423     65.3795
  1257.7500      0.0000    428.6470      4.9516     67.7654
  1258.0000      0.0000    428.7959      4.9804     72.6454
  1258.2500      0.0000    429.1671      5.0266     77.9535
  1258.5000      0.0000    429.6012      5.0848     80.9248
  1258.7500      0.0000    429.8434      5.1505     79.7314
  1259.0000      0.0000    429.6303      5.2231     74.4372
  1259.2500      0.0000    428.7222      5.3032     66.9310
  1259.5000      0.0000    426.9586      5.3869     59.9379
  1259.7500      0.0000    424.5275      5.4640     55.8205
  1260.0000      0.0000    422.2748      5.5229     55.7643
  1260.2500      0.0000    421.4091      5.5592     59.4725
  1260.5000      0.0000    422.5065      5.5779     65.4480
  1260.7500      0.0000    424.8988      5.5874     71.7982
  1261.0000      0.0000    427.2812      5.5947     77.0858
  1261.2500      0.0000    428.7969      5.6038     80.6529
  1261.5000      0.0000    429.4220      5.6152     82.2683
  1261.7500      0.0000    429.5760      5.6246     81.7555
  1262.0000      0.0000    429.6314      5.6262     79.2314
  1262.2500      0.0000    429.7314      5.6172     75.5029
  1262.5000      0.0000    429.8749      5.5985     71.8264
  1262.7500      0.0000    430.0574      5.5716     69.2207
  1263.0000      0.0000    430.3164      5.5382     68.1566
