~Version Information
VERS.                      2.0: CWLS Log ASCII Standard - VERSION 2.0
WRAP.                       NO: One line per depth step
~Well Information Block
STRT.FT               546.2500: 
STOP.FT              2488.5000: 
STEP.FT                 0.2500: 
NULL.                -999.2500: 
COMP.          Petrogulf Corporation: COMPANY
WELL.               Egan 9-11V: WELL
FLD.           Purgatorie River: FIELD
LOC.           724' FNL & 1379' FWL: LOCATION
PROV.                 Colorado: PROVINCE
CNTY.               Las Animas: COUNTRY
SRVC.          Patterson Wireline: SERVICE COMPANY
DATE.          Fri Jul 11 23:16:48 2003: LOG DATE
UWI.           05 071 07875 00: UNIQUE WELL ID
~Curve Information Block
DEPT.FT            0 000 00 00: Depth
DCAL.in                       : CDL Caliper
RHOB.g/cc                     : CDL Bulk Density
RHOC.g/cc                     : CDL Density Correction
DPOR.pu                       : CDL Density Porosity
GR.GAPI                       : Gamma Ray
NPOR.pu                       : Neutron Porosity
~Parameter Information Block
~A  Depth       DCAL        RHOB        RHOC        DPOR         GR         NPOR    
# ...
  1074.2500      8.3338      2.4393      0.0366     12.7719     51.8850     13.1201
  1074.5000      8.3330      2.4314      0.0388     13.2489     48.6961     12.9121
  1074.7500      8.3316      2.4276      0.0399     13.4803     46.7295     12.9199
  1075.0000      8.3300      2.4259      0.0444     13.5806     44.5989     13.1975
  1075.2500      8.3290      2.4290      0.0513     13.3925     44.0686     13.5692
  1075.5000      8.3275      2.4419      0.0682     12.6093     44.6445     14.3598
  1075.7500      8.3228      2.4563      0.0816     11.7410     45.6181     14.9564
  1076.0000      8.3167      2.4845      0.0981     10.0310     47.3107     15.7232
  1076.2500      8.3128      2.5056      0.1022      8.7545     48.3800     16.0169
  1076.5000      8.3112      2.5357      0.0935      6.9298     49.7808     16.0070
  1076.7500      8.3122      2.5520      0.0783      5.9385     50.4751     15.7019
  1077.0000      8.3173      2.5678      0.0491      4.9814     50.6842     14.8981
  1077.2500      8.3255      2.5720      0.0311      4.7272     49.9662     14.2263
  1077.5000      8.3302      2.5702      0.0152      4.8356     47.6368     13.1962
  1077.7500      8.3294      2.5653      0.0143      5.1345     45.7233     12.5854
  1078.0000      8.3268      2.5550      0.0259      5.7572     43.4390     11.8721
  1078.2500      8.3236      2.5472      0.0379      6.2313     42.7516     11.5326
  1078.5000      8.3189      2.5344      0.0525      7.0071     42.9325     11.1593
  1078.7500      8.3146      2.5251      0.0563      7.5712     43.3699     10.9584
  1079.0000      8.3142      2.5102      0.0534      8.4749     43.3241     10.7231
  1079.2500      8.3190      2.5000      0.0494      9.0885     42.4071     10.6483
  1079.5000      8.3308      2.4856      0.0458      9.9630     40.1129     10.7280
  1079.7500      8.3472      2.4770      0.0459     10.4822     38.7110     10.9115
  1080.0000      8.3639      2.4665      0.0487     11.1214     37.7904     11.3045
  1080.2500      8.3808      2.4613      0.0516     11.4373     37.9564     11.5764
  1080.5000      8.3952      2.4563      0.0576     11.7389     38.6847     11.9058
  1080.7500      8.4017      2.4546      0.0621     11.8415     39.1337     12.0514
  1081.0000      8.4032      2.4534      0.0672     11.9145     39.5438     12.1550
  1081.2500      8.4041      2.4527      0.0678     11.9599     39.6477     12.1451
  1081.5000      8.4077      2.4504      0.0641     12.0968     39.5515     12.0068
  1081.7500      8.4139      2.4478      0.0596     12.2538     39.2574     11.8440
  1082.0000      8.4190      2.4425      0.0524     12.5734     38.2805     11.5497
  1082.2500      8.4215      2.4386      0.0482     12.8103     37.2534     11.3582
  1082.5000      8.4232      2.4334      0.0432     13.1261     35.5064     11.1281
  1082.7500      8.4245      2.4311      0.0411     13.2688     34.5320     11.0371
  1083.0000      8.4247      2.4299      0.0405     13.3376     33.7195     11.0425
  1083.2500      8.4241      2.4308      0.0411     13.2839     33.6541     11.1554
  1083.5000      8.4238      2.4342      0.0422     13.0799     34.1573     11.4421
  1083.7500      8.4245      2.4374      0.0428     12.8845     34.7126     11.6562
  1084.0000      8.4243      2.4431      0.0440     12.5409     35.4371     11.9524
  1084.2500      8.4220      2.4471      0.0448     12.2978     35.7189     12.1391
  1084.5000      8.4201      2.4530      0.0436     11.9387     36.1007     12.4420
  1084.7500      8.4208      2.4567      0.0402     11.7124     36.6122     12.6692
  1085.0000      8.4245      2.4620      0.0322     11.3916     37.8882     13.0276
  1085.2500      8.4265      2.4655      0.0267     11.1806     38.8391     13.2518
  1085.5000      8.4250      2.4711      0.0213     10.8449     39.9319     13.5196
  1085.7500      8.4271      2.4752      0.0199     10.5927     40.4294     13.6427
  1086.0000      8.4308      2.4828      0.0197     10.1353     41.4459     13.8095
  1086.2500      8.4313      2.4892      0.0201      9.7426     42.8820     14.0125
  1086.5000      8.4273      2.5026      0.0215      8.9358     47.0696     14.6819
  1086.7500      8.4220      2.5147      0.0230      8.2016     51.4595     15.4528
  1087.0000      8.4161      2.5383      0.0265      6.7690     60.3371     17.0374
  1087.2500      8.4121      2.5571      0.0295      5.6324     67.5400     18.2290
  1087.5000      8.4107      2.5865      0.0325      3.8460     79.6314     19.8983
  1087.7500      8.4081      2.6045      0.0324      2.7586     88.0202     20.8023
  1088.0000      8.4064      2.6247      0.0299      1.5354    100.1010     21.7925
  1088.2500      8.4111      2.6323      0.0289      1.0730    107.4096     22.2589
  1088.5000      8.4237      2.6353      0.0308      0.8903    116.8823     22.8130
  1088.7500      8.4387      2.6331      0.0326      1.0227    121.9064     23.1590
  1089.0000      8.4478      2.6269      0.0316      1.4022    126.5286     23.6804
  1089.2500      8.4518      2.6225      0.0277      1.6682    127.2037     23.9925
  1089.5000      8.4527      2.6177      0.0194      1.9603    125.0966     24.2979
  1089.7500      8.4511      2.6162      0.0148      2.0499    122.6731     24.3498
  1090.0000      8.4491      2.6164      0.0132      2.0345    119.3155     24.2080
  1090.2500      8.4463      2.6176      0.0164      1.9648    117.5711     23.9928
  1090.5000      8.4406      2.6189      0.0249      1.8871    114.9227     23.4764
  1090.7500      8.4337      2.6181      0.0299      1.9305    112.5751     22.9637
  1091.0000      8.4296      2.6131      0.0322      2.2337    108.2573     21.9549
  1091.2500      8.4266      2.6072      0.0301      2.5969    105.6179     21.2388
  1091.5000      8.4195      2.5962      0.0253      3.2607    103.6874     20.4303
  1091.7500      8.4103      2.5898      0.0248      3.6463    104.3640     20.2432
  1092.0000      8.4105      2.5861      0.0348      3.8753    108.3139     20.6230
  1092.2500      8.4244      2.5891      0.0500      3.6885    112.2943     21.2780
  1092.5000      8.4416      2.6022      0.0786      2.8975    118.4684     22.6352
  1092.7500      8.4513      2.6146      0.0942      2.1464    121.6462     23.5977
  1093.0000      8.4553      2.6333      0.1017      1.0135    124.3048     24.7957
  1093.2500      8.4598      2.6426      0.0947      0.4496    125.0283     25.3069
  1093.5000      8.4698      2.6483      0.0719      0.1029    125.2767     25.6501
  1093.7500      8.4804      2.6464      0.0538      0.2206    124.8134     25.7063
  1094.0000      8.4808      2.6370      0.0309      0.7887    122.7121     25.7262
  1094.2500      8.4812      2.6284      0.0221      1.3121    120.5153     25.7209
  1094.5000      8.4898      2.6142      0.0210      2.1699    117.0739     25.5472
  1094.7500      8.4966      2.6041      0.0262      2.7822    115.3408     25.2071
  1095.0000      8.4961      2.5861      0.0342      3.8752    114.2038     24.2739
  1095.2500      8.4945      2.5705      0.0351      4.8175    114.3819     23.4229
  1095.5000      8.4959      2.5401      0.0285      6.6588    115.4747     22.0573
  1095.7500      8.5031      2.5155      0.0222      8.1533    116.5055     21.2872
  1096.0000      8.5146      2.4750      0.0195     10.6051    118.9173     20.6351
  1096.2500      8.5227      2.4486      0.0261     12.2060    121.6948     20.6110
  1096.5000      8.5307      2.4150      0.0482     14.2451    128.2639     21.1604
  1096.7500      8.5416      2.3988      0.0669     15.2229    134.1041     21.8590
  1097.0000      8.5474      2.3861      0.0917     15.9962    144.0462     23.2777
  1097.2500      8.5420      2.3852      0.1032     16.0475    150.6093     24.3529
  1097.5000      8.5305      2.3942      0.1146     15.5055    158.8749     25.8776
  1097.7500      8.5277      2.4058      0.1202     14.7983    162.7914     26.6946
  1098.0000      8.5292      2.4300      0.1256     13.3360    166.1485     27.5615
