~Version Information
VERS.                      2.0: CWLS Log ASCII Standard - VERSION 2.0
WRAP.                       NO: One line per depth step
~Well Information Block
STRT.FT               580.0000: 
STOP.FT              1756.7500: 
STEP.FT                 0.2500: 
NULL.                -999.2500: 
COMP.          Pioneer Natural Resources: COMPANY
WELL.          Lookout Point 31-23 Tr: WELL
FLD.           Purgatoire River: FIELD
LOC.           541' FNL & 1786' FEL: LOCATION
PROV.                 Colorado: PROVINCE
CNTY.               Las Animas: COUNTRY
SRVC.                Patterson: SERVICE COMPANY
DATE.          Sun Jan 23 04:14:25 2005: LOG DATE
UWI.           05 071 08260 00: UNIQUE WELL ID
~Curve Information Block
DEPT.FT            0 000 00 00: Depth
DIR.Ohm-m                     : IEL Induction Resistivity
GR.GAPI                       : Gamma Ray
SN.Ohm-m                      : IEL Short Normal
SP.mV                         : IEL Spontaneous Potential
~Parameter Information Block
~A  Depth       DIR          GR          SN          SP     
# ...
   647.0000     12.3176     80.4220   2000.0000   2000.0000
   647.2500     11.9903     88.5569   2000.0000   2000.0000
   647.5000     11.5779    103.0289   2000.0000   2000.0000
   647.7500     11.1140    112.7040   2000.0000   2000.0000
   648.0000     10.6303    124.9721   2000.0000   2000.0000
   648.2500     10.1552    130.6086   2000.0000   2000.0000
   648.5000      9.7121    134.4347   2000.0000   2000.0000
   648.7500      9.3202    134.4586   2000.0000   2000.0000
   649.0000      8.9952    133.3307   2000.0000   2000.0000
   649.2500      8.7506    133.3502   2000.0000   2000.0000
   649.5000      8.5973    135.2412   2000.0000   2000.0000
   649.7500      8.5447    136.9035   2000.0000   2000.0000
   650.0000      8.6005    137.9080   2000.0000   2000.0000
   650.2500      8.7691    136.8038   2000.0000   2000.0000
   650.5000      9.0466    132.4298   2000.0000   2000.0000
   650.7500      9.4159    128.2803   2000.0000   2000.0000
   651.0000      9.8445    121.5705   2000.0000   2000.0000
   651.2500     10.2913    117.3914   2000.0000   2000.0000
   651.5000     10.7209    112.1068   2000.0000   2000.0000
   651.7500     11.1215    109.4940   2000.0000   2000.0000
   652.0000     11.5118    107.5471   2000.0000   2000.0000
   652.2500     11.9336    107.7925   2000.0000   2000.0000
   652.5000     12.4323    109.9967   2000.0000   2000.0000
   652.7500     13.0358    111.8988   2000.0000   2000.0000
   653.0000     13.7378    114.0252   2000.0000   2000.0000
   653.2500     14.4912    114.5571   2000.0000   2000.0000
   653.5000     15.2156    113.8862   2000.0000   2000.0000
   653.7500     15.8221    112.4400   2000.0000   2000.0000
   654.0000     16.2417    109.0268   2000.0000   2000.0000
   654.2500     16.4397    106.5293   2000.0000   2000.0000
   654.5000     16.4121    104.1866   2000.0000   2000.0000
   654.7500     16.1768    104.5295   2000.0000   2000.0000
   655.0000     15.7699    108.4848   2000.0000   2000.0000
   655.2500     15.2403    112.8363   2000.0000   2000.0000
   655.5000     14.6356    119.6127   2000.0000   2000.0000
   655.7500     13.9889    122.7774   2000.0000   2000.0000
   656.0000     13.3158    124.1905   2000.0000   2000.0000
   656.2500     12.6251    123.2934   2000.0000   2000.0000
   656.5000     11.9303    120.8703   2000.0000   2000.0000
   656.7500     11.2535    119.3435   2000.0000   2000.0000
   657.0000     10.6202    118.0311   2000.0000   2000.0000
   657.2500     10.0517    118.2871   2000.0000   2000.0000
   657.5000      9.5610    121.0519   2000.0000   2000.0000
   657.7500      9.1515    124.3632   2000.0000   2000.0000
   658.0000      8.8191    130.2278   2000.0000   2000.0000
   658.2500      8.5542    133.8347   2000.0000   2000.0000
   658.5000      8.3439    138.0873   2000.0000   2000.0000
   658.7500      8.1738    140.2777   2000.0000   2000.0000
   659.0000      8.0299    142.9593   2000.0000   2000.0000
   659.2500      7.9007    144.3104   2000.0000   2000.0000
   659.5000      7.7801    145.1813   2000.0000   2000.0000
   659.7500      7.6689    144.6477   2000.0000   2000.0000
   660.0000      7.5731    142.2677   2000.0000   2000.0000
   660.2500      7.4998    140.4205   2000.0000   2000.0000
   660.5000      7.4535    139.2399   2000.0000   2000.0000
   660.7500      7.4342    140.0730   2000.0000   2000.0000
   661.0000      7.4393    142.8936   2000.0000   2000.0000
   661.2500      7.4661    144.9232   2000.0000   2000.0000
   661.5000      7.5135    147.4336   2000.0000   2000.0000
   661.7500      7.5806    148.6971   2000.0000   2000.0000
   662.0000      7.6641    149.6650   2000.0000   2000.0000
   662.2500      7.7585    149.4253   2000.0000   2000.0000
   662.5000      7.8570    147.9510   2000.0000   2000.0000
   662.7500      7.9531    146.8028   2000.0000   2000.0000
   663.0000      8.0413    145.6710   2000.0000   2000.0000
   663.2500      8.1171    145.2504   2000.0000   2000.0000
   663.5000      8.1789    144.3647   2000.0000   2000.0000
   663.7500      8.2315    143.4008   2000.0000   2000.0000
   664.0000      8.2870    142.0488   2000.0000   2000.0000
   664.2500      8.3615    141.7540   2000.0000   2000.0000
   664.5000      8.4676    142.0985   2000.0000   2000.0000
   664.7500      8.6100    142.0732   2000.0000   2000.0000
   665.0000      8.7847    140.5776   2000.0000   2000.0000
   665.2500      8.9836    138.9132   2000.0000   2000.0000
   665.5000      9.1992    137.1704   2000.0000   2000.0000
   665.7500      9.4259    137.3264   2000.0000   2000.0000
   666.0000      9.6609    139.4262   2000.0000   2000.0000
   666.2500      9.9048    141.2217   2000.0000   2000.0000
   666.5000     10.1635    142.7965   2000.0000   2000.0000
   666.7500     10.4477    142.5747   2000.0000   2000.0000
   667.0000     10.7684    140.6354   2000.0000   2000.0000
   667.2500     11.1304    138.7664   2000.0000   2000.0000
   667.5000     11.5256    135.4848   2000.0000   2000.0000
   667.7500     11.9337    132.7783   2000.0000   2000.0000
   668.0000     12.3297    127.5482   2000.0000   2000.0000
   668.2500     12.6953    123.5590   2000.0000   2000.0000
   668.5000     13.0245    118.3246   2000.0000   2000.0000
   668.7500     13.3203    116.1678   2000.0000   2000.0000
   669.0000     13.5865    114.9630   2000.0000   2000.0000
   669.2500     13.8256    114.8519   2000.0000   2000.0000
   669.5000     14.0416    114.8520   2000.0000   2000.0000
   669.7500     14.2422    115.0549   2000.0000   2000.0000
   670.0000     14.4318    116.3798   2000.0000   2000.0000
   670.2500     14.6022    118.2028   2000.0000   2000.0000
   670.5000     14.7312    121.8996   2000.0000   2000.0000
   670.7500     14.7910    124.1632   2000.0000   2000.0000
   671.0000     14.7622    125.5592   2000.0000   2000.0000
   671.2500     14.6418    124.8109   2000.0000   2000.0000
   671.5000     14.4449    122.5382   2000.0000   2000.0000
   671.7500     14.2030    121.7163   2000.0000   2000.0000
   672.0000     13.9605    123.2825   2000.0000   2000.0000
   672.2500     13.7656    126.2315   2000.0000   2000.0000
   672.5000     13.6564    132.1764   2000.0000   2000.0000
   672.7500     13.6470    135.8757   2000.0000   2000.0000
   673.0000     13.7201    138.6828   2000.0000   2000.0000
   673.2500     13.8293    137.9994   2000.0000   2000.0000
   673.5000     13.9155    134.0775   2000.0000   2000.0000
   673.7500     13.9303    130.9224   2000.0000   2000.0000
   674.0000     13.8568    127.2412   2000.0000   2000.0000
   674.2500     13.7142    125.7708   2000.0000   2000.0000
   674.5000     13.5464    124.7537   2000.0000   2000.0000
   674.7500     13.4011    124.6427   2000.0000   2000.0000
   675.0000     13.3102    124.9369   2000.0000   2000.0000
   675.2500     13.2758    125.1741   2000.0000   2000.0000
   675.5000     13.2683    125.1246   2000.0000   2000.0000
   675.7500     13.2379    124.5691   2000.0000   2000.0000
   676.0000     13.1378    122.8217   2000.0000   2000.0000
   676.2500     12.9457    121.3531   2000.0000   2000.0000
   676.5000     12.6720    119.6756   2000.0000   2000.0000
   676.7500     12.3505    119.3887   2000.0000   2000.0000
   677.0000     12.0187    120.5694   2000.0000   2000.0000
   677.2500     11.7024    122.4570   2000.0000   2000.0000
   677.5000     11.4126    126.5245   2000.0000   2000.0000
   677.7500     11.1526    129.3280   2000.0000   2000.0000
   678.0000     10.9261    131.9046   2000.0000   2000.0000
   678.2500     10.7410    131.9084   2000.0000   2000.0000
   678.5000     10.6064    129.8973   2000.0000   2000.0000
   678.7500     10.5268    128.2167   2000.0000   2000.0000
   679.0000     10.5012    126.7690   2000.0000   2000.0000
   679.2500     10.5278    126.8200   2000.0000   2000.0000
   679.5000     10.6124    127.6401   2000.0000   2000.0000
   679.7500     10.7735    127.8455   2000.0000   2000.0000
   680.0000     11.0363    126.7434   2000.0000   2000.0000
   680.2500     11.4211    125.0890   2000.0000   2000.0000
