~Version Information
VERS.                      2.0: CWLS Log ASCII Standard - VERSION 2.0
WRAP.                       NO: One line per depth step
~Well Information Block
STRT.FT                -5.5000: 
STOP.FT              1979.7500: 
STEP.FT                 0.2500: 
NULL.                -999.2500: 
COMP.          Pioneer Natural Resources: COMPANY
WELL.          Bucksnort 41-35: WELL
FLD.           Purgatorie River: FIELD
LOC.           117' FNL & 463' FEL: LOCATION
PROV.                 Colorado: PROVINCE
CNTY.               Las Animas: COUNTRY
SRVC.                Patterson: SERVICE COMPANY
DATE.          Fri Jul 29 10:31:46 2005: LOG DATE
UWI.                          : UNIQUE WELL ID
~Curve Information Block
DEPT.FT            0 000 00 00: Depth
GR.GAPI                       : Gamma Ray
CCL.                          : Casing Collar Locator
TT3.usec                      : CBL 3' Travel Time
AMP3.mV                       : CBL 3' Amplitude
~Parameter Information Block
~A  Depth        GR         CCL         TT3         AMP3    
# ...
  1535.5000    130.1486      0.0000    697.2216      6.4051
  1535.7500    127.9090      0.0000    696.9726      6.4243
  1536.0000    127.4141      0.0000    696.6688      6.3369
  1536.2500    129.8155      0.0000    696.2999      6.1545
  1536.5000    133.6089      0.0000    695.9538      5.9325
  1536.7500    135.8985      0.0000    695.7450      5.7288
  1537.0000    134.7166      0.0000    695.6517      5.5947
  1537.2500    130.3305      0.0000    695.5146      5.5568
  1537.5000    124.9045      0.0000    695.2388      5.5763
  1537.7500    120.9742      0.0000    694.9009      5.5707
  1538.0000    119.8387      0.0000    694.6099      5.4871
  1538.2500    121.0676      0.0000    694.3571      5.3368
  1538.5000    123.2080      0.0000    694.0294      5.1701
  1538.7500    124.7655      0.0000    693.5706      5.0346
  1539.0000    125.0123      0.0000    693.1049      4.9508
  1539.2500    124.5701      0.0000    692.7963      4.9114
  1539.5000    125.1013      0.0000    692.6251      4.9006
  1539.7500    127.7356      0.0000    692.4535      4.9142
  1540.0000    131.6742      0.0000    692.2534      4.9671
  1540.2500    134.7389      0.0000    692.1205      5.0884
  1540.5000    135.3346      0.0000    692.1017      5.2746
  1540.7500    133.6209      0.0000    692.1693      5.4526
  1541.0000    130.9793      0.0000    692.3587      5.5424
  1541.2500    128.8467      0.0000    692.7172      5.5405
  1541.5000    127.9819      0.0000    693.1508      5.5050
  1541.7500    128.2280      0.0000    693.5455      5.4837
  1542.0000    128.7232      0.0000    693.9088      5.4846
  1542.2500    128.5953      0.0000    694.2144      5.5089
  1542.5000    127.6032      0.0000    694.3188      5.5695
  1542.7500    126.0867      0.0000    694.1630      5.6610
  1543.0000    124.5000      0.0000    693.9096      5.7395
  1543.2500    123.1006      0.0000    693.7923      5.7743
  1543.5000    121.8962      0.0000    693.8267      5.7987
  1543.7500    120.8105      0.0000    693.7159      5.8573
  1544.0000    119.9955      0.0000    693.2222      5.9470
  1544.2500    119.8369      0.0000    692.5547      6.0535
  1544.5000    120.4771      0.0000    692.0968      6.1875
  1544.7500    121.7334      0.0000    691.9399      6.3522
  1545.0000    123.8074      0.0000    691.9530      6.5125
  1545.2500    127.5200      0.0000    692.0627      6.6131
  1545.5000    133.2112      0.0000    692.2610      6.6249
  1545.7500    139.7211      0.0000    692.4974      6.5652
  1546.0000    145.0308      0.0000    692.6779      6.4767
  1546.2500    147.7787      0.0000    692.6304      6.4000
  1546.5000    147.8792      0.0000    691.7733      6.3557
  1546.7500    146.1124      0.0000    688.7201      6.3297
  1547.0000    143.6822      0.0000    682.2741      6.2988
  1547.2500    141.8822      0.0000    673.7471      6.2675
  1547.5000    141.3540      0.0000    666.5112      6.2531
  1547.7500    141.3189      0.0000    662.4088      6.2499
  1548.0000    140.0247      0.0000    660.6871      6.2347
  1548.2500    136.3839      0.0000    660.0232      6.2009
  1548.5000    131.1069      0.0000    659.7402      6.1690
  1548.7500    126.2224      0.0000    659.6216      6.1601
  1549.0000    123.8044      0.0000    659.5768      6.1737
  1549.2500    125.0142      0.0000    659.5402      6.1984
  1549.5000    129.5343      0.0000    659.4908      6.2300
  1549.7500    135.5127      0.0000    659.4603      6.2685
  1550.0000    140.6416      0.0000    659.4876      6.3123
  1550.2500    143.8906      0.0000    659.5697      6.3643
  1550.5000    146.0039      0.0000    659.6655      6.4270
  1550.7500    148.2012      0.0000    659.7435      6.4894
  1551.0000    150.7514      0.0000    659.8138      6.5363
  1551.2500    152.7979      0.0000    659.9186      6.5708
  1551.5000    153.0678      0.0000    660.0875      6.6100
  1551.7500    150.7986      0.0000    660.2676      6.6549
  1552.0000    146.5231      0.0000    660.3235      6.6848
  1552.2500    142.1010      0.0000    660.1763      6.6829
  1552.5000    139.6922      0.0000    659.8851      6.6505
  1552.7500    140.3141      0.0000    659.5389      6.5966
  1553.0000    143.1465      0.0000    659.1807      6.5310
  1553.2500    146.1922      0.0000    658.8233      6.4686
  1553.5000    147.7508      0.0000    658.4526      6.4238
  1553.7500    147.4747      0.0000    658.0745      6.3978
  1554.0000    146.2564      0.0000    657.7792      6.3806
  1554.2500    145.2248      0.0000    657.6847      6.3631
  1554.5000    144.7912      0.0000    657.8010      6.3493
  1554.7500    144.5195      0.0000    658.0040      6.3535
  1555.0000    143.7806      0.0000    658.1434      6.3841
  1555.2500    142.4338      0.0000    658.1636      6.4328
  1555.5000    140.8239      0.0000    658.1232      6.4818
  1555.7500    139.2963      0.0000    658.0917      6.5280
  1556.0000    137.9432      0.0000    658.0658      6.5916
  1556.2500    136.6826      0.0000    658.0181      6.6825
  1556.5000    135.3484      0.0000    657.9553      6.7763
  1556.7500    134.0378      0.0000    657.7684      6.8424
  1557.0000    133.5942      0.0000    656.3814      6.8793
  1557.2500    135.1358      0.0000    649.3821      6.9106
  1557.5000    138.6166      0.0000    627.1989      6.9578
  1557.7500    142.2611      0.0000    582.0479      7.0278
  1558.0000    143.7606      0.0000    523.1420      7.1102
  1558.2500    141.9260      0.0000    477.6029      7.1725
  1558.5000    137.3830      0.0000    468.8731      7.1722
  1558.7500    132.0869      0.0000    494.7754      7.0923
  1559.0000    128.1090      0.0000    523.1089      6.9562
  1559.2500    126.4101      0.0000    519.0099      6.7976
  1559.5000    126.5011      0.0000    484.8007      6.6297
  1559.7500    127.4087      0.0000    455.8286      6.4592
  1560.0000    129.0105      0.0000    461.9769      6.3193
  1560.2500    132.1189      0.0000    507.3312      6.2512
  1560.5000    137.0317      0.0000    570.7661      6.2564
  1560.7500    142.4359      0.0000    622.2753      6.3045
  1561.0000    146.3575      0.0000    648.7126      6.3725
  1561.2500    148.1206      0.0000    657.4070      6.4485
  1561.5000    148.8015      0.0000    659.4362      6.5191
  1561.7500    149.7305      0.0000    660.7441      6.5778
  1562.0000    151.0023      0.0000    663.9028      6.6347
  1562.2500    151.6209      0.0000    669.7217      6.6969
  1562.5000    150.8432      0.0000    676.8778      6.7492
  1562.7500    149.0203      0.0000    684.0289      6.7682
  1563.0000    147.0657      0.0000    691.2397      6.7217
  1563.2500    145.5359      0.0000    694.5893      6.5544
  1563.5000    144.5135      0.0000    686.2020      6.2662
  1563.7500    144.0070      0.0000    666.9619      6.0126
  1564.0000    143.9007      0.0000    651.0154      5.9167
  1564.2500    143.6014      0.0000    651.7802      5.8014
  1564.5000    142.1457      0.0000    664.8574      5.5044
  1564.7500    138.7766      0.0000    670.6116      5.2319
  1565.0000    133.4316      0.0000    656.0067      5.1640
  1565.2500    126.9008      0.0000    621.8185      5.1843
  1565.5000    120.5585     -2.0000    578.6970      5.1759
  1565.7500    115.6348     -2.0000    554.4685      5.1562
  1566.0000    112.4008      0.0000    576.7150      5.1499
  1566.2500    109.7812      0.0000    629.0057      5.1861
  1566.5000    105.6572      0.0000    663.1038      5.4006
  1566.7500     97.9695      0.0000    661.0769      5.8435
  1567.0000     86.2679      0.0000    640.6139      6.1604
  1567.2500     72.4476      0.0000    608.0702      6.0340
  1567.5000     59.6744      0.0000    553.1966      5.7603
  1567.7500     50.2433      0.0000    484.8268      5.7301
  1568.0000     44.2581      0.0000    435.9571      5.8756
  1568.2500     40.2906      0.0000    433.0462      5.9732
  1568.5000     37.2060      0.0000    476.9476      5.9545
  1568.7500     35.1826      0.0000    543.8600      5.8424
