~Version Information
VERS.                      2.0: CWLS Log ASCII Standard - VERSION 2.0
WRAP.                       NO: One line per depth step
~Well Information Block
STRT.FT                15.0000: 
STOP.FT              1869.0000: 
STEP.FT                 0.2500: 
NULL.                -999.2500: 
COMP.          Pioneer Natural Resources: COMPANY
WELL.          Victory 12-14 Tr: WELL
FLD.           Purgatoire River: FIELD
LOC.           2522' FNL & 276' FWL: LOCATION
PROV.                 Colorado: PROVINCE
CNTY.               Las Animas: COUNTRY
SRVC.                Patterson: SERVICE COMPANY
DATE.          Fri Jul 22 14:39:41 2005: LOG DATE
UWI.           05 071 08433 00: UNIQUE WELL ID
~Curve Information Block
DEPT.FT            0 000 00 00: Depth
GR.GAPI                       : Gamma Ray
CCL.                          : Casing Collar Locator
TT3.usec                      : CBL 3' Travel Time
AMP3.mV                       : CBL 3' Amplitude
~Parameter Information Block
~A  Depth        GR         CCL         TT3         AMP3    
# ...
   383.5000     84.1168      0.0000    751.0002     15.4377
   383.7500     81.5435      0.0000    751.0165     15.4167
   384.0000     79.6776      0.0000    751.0306     15.4034
   384.2500     80.5036      0.0000    751.0511     15.3950
   384.5000     84.0050      0.0000    751.0808     15.3789
   384.7500     87.7256      0.0000    751.1161     15.3446
   385.0000     88.9314      0.0000    751.1519     15.2970
   385.2500     86.8122      0.0000    751.1862     15.2524
   385.5000     82.8293      0.0000    751.2231     15.2209
   385.7500     79.5687      0.0000    751.2706     15.1976
   386.0000     79.1813      0.0000    751.3364     15.1673
   386.2500     82.1582      0.0000    751.4232     15.1177
   386.5000     87.0272      0.0000    751.5233     15.0479
   386.7500     91.2460      0.0000    751.6188     14.9650
   387.0000     92.7752      0.0000    751.6942     14.8692
   387.2500     91.2047      0.0000    751.7523     14.7485
   387.5000     87.6901      0.0000    751.8127     14.5927
   387.7500     84.0068      0.0000    751.8926     14.4095
   388.0000     81.5337      0.0000    751.9985     14.2219
   388.2500     80.6145      0.0000    752.1271     14.0541
   388.5000     80.5464      0.0000    752.2521     13.9202
   388.7500     80.2991      0.0000    752.2336     13.8233
   389.0000     79.5378      0.0000    751.6082     13.7536
   389.2500     79.0351      0.0000    749.3459     13.6895
   389.5000     80.0775      0.0000    743.9993     13.6070
   389.7500     83.3763      0.0000    734.8998     13.4939
   390.0000     88.3128      0.0000    723.9332     13.3578
   390.2500     93.1479      0.0000    715.4807     13.2179
   390.5000     96.2045      0.0000    712.8328     13.0927
   390.7500     97.0221      0.0000    714.1345     12.9910
   391.0000     96.3742      0.0000    713.2183     12.9130
   391.2500     95.2777      0.0000    705.3260     12.8568
   391.5000     94.1910      0.0000    691.4088     12.8210
   391.7500     93.1083      0.0000    676.5756     12.8014
   392.0000     92.0304      0.0000    665.3360     12.7892
   392.2500     91.1293      0.0000    658.8990     12.7765
   392.5000     90.6371      0.0000    656.0056     12.7664
   392.7500     90.5495      0.0000    654.9457     12.7771
   393.0000     90.2035      0.0000    654.6364     12.8330
   393.2500     88.3521      0.0000    654.6270     12.9485
   393.5000     84.1877      0.0000    654.7701     13.1186
   393.7500     78.2750      0.0000    655.0048     13.3256
   394.0000     72.1834      0.0000    655.2792     13.5545
   394.2500     67.3495      0.0000    655.5567     13.8033
   394.5000     64.4730      0.0000    655.8281     14.0779
   394.7500     63.6042      0.0000    656.0992     14.3794
   395.0000     64.3719      0.0000    656.3561     14.6993
   395.2500     66.0639      0.0000    656.5509     15.0248
   395.5000     67.6846      0.0000    656.6322     15.3476
   395.7500     68.2829      0.0000    656.5945     15.6642
   396.0000     67.5833      0.0000    656.4848     15.9694
   396.2500     66.3177      0.0000    656.3609     16.2485
   396.5000     65.6626      0.0000    656.2545     16.4797
   396.7500     66.1934      0.0000    656.1771     16.6463
   397.0000     67.4818      0.0000    656.1360     16.7458
   397.2500     68.6800      0.0000    656.1290     16.7855
   397.5000     69.3461      0.0000    656.1348     16.7710
   397.7500     69.7744      0.0000    656.1245     16.7056
   398.0000     70.7700      0.0000    656.0837     16.6004
   398.2500     73.1364      0.0000    656.0237     16.4811
   398.5000     77.2168      0.0000    655.9752     16.3825
   398.7500     82.8677      0.0000    655.9714     16.3339
   399.0000     89.8080      0.0000    656.0270     16.3432
   399.2500     97.6861      0.0000    656.1218     16.3931
   399.5000    105.5947      0.0000    656.2028     16.4528
   399.7500    111.8535      0.0000    656.2114     16.4993
   400.0000    114.8749      0.0000    656.1173     16.5282
   400.2500    114.4859      0.0000    655.9362     16.5429
   400.5000    112.2679      0.0000    655.7167     16.5390
   400.7500    110.3143      0.0000    655.5098     16.5064
   401.0000    109.6062      0.0000    655.3453     16.4479
   401.2500    109.7485      0.0000    655.2404     16.3865
   401.5000    109.9939      0.0000    655.2277     16.3475
   401.7500    109.9327      0.0000    655.5453     16.3295
   402.0000    109.4196      0.0000    657.0299     16.2886
   402.2500    108.5625      0.0000    661.6453     16.1434
   402.5000    107.7790      0.0000    672.3895     15.7951
   402.7500    107.4002      0.0000    691.7315     15.1713
   403.0000    107.2182      0.0000    719.2963     14.2769
   403.2500    106.6223      0.0000    751.2886     13.1952
   403.5000    105.1515      0.0000    782.6798     12.0182
   403.7500    102.8800      0.0000    810.1956     10.8126
   404.0000    100.2504      0.0000    834.4650      9.6871
   404.2500     97.5497      0.0000    860.5999      8.8226
   404.5000     94.7650      0.0000    894.4394      8.3496
   404.7500     92.0404      0.0000    935.0108      8.2275
   405.0000     90.0196      0.0000    971.7802      8.2985
   405.2500     89.4640      0.0000    992.1890      8.4400
   405.5000     90.4938      0.0000    990.5357      8.6735
   405.7500     92.2942      0.0000    967.8898      9.1703
   406.0000     93.6784      0.0000    927.4885     10.1378
   406.2500     93.9901      0.0000    874.2921     11.6201
   406.5000     93.3943      0.0000    816.0765     13.3902
   406.7500     92.4617      0.0000    761.1918     15.0813
   407.0000     91.8321      0.0000    715.8063     16.4148
   407.2500     92.1209      0.0000    683.3969     17.2770
   407.5000     93.5395      0.0000    664.4794     17.6619
   407.7500     95.4407      0.0000    656.2557     17.6399
   408.0000     96.6692      0.0000    654.1308     17.3602
   408.2500     96.6692      0.0000    654.2960     17.0050
   408.5000     96.0981      0.0000    654.8532     16.7120
   408.7500     96.0884      0.0000    655.2927     16.5367
   409.0000     96.9565      0.0000    655.6279     16.4736
   409.2500     97.7974      0.0000    656.0357     16.4909
   409.5000     97.2861      0.0000    656.8754     16.5503
   409.7500     94.7342      0.0000    658.8196     16.6121
   410.0000     90.4875      0.0000    662.6139     16.6493
   410.2500     85.5024      0.0000    668.1555     16.6640
   410.5000     80.5403      0.0000    673.6544     16.6840
   410.7500     75.7899      0.0000    676.5235     16.7401
   411.0000     71.2938      0.0000    675.9953     16.8480
   411.2500     67.5707      0.0000    674.3433     17.0045
   411.5000     65.6041      0.0000    674.4543     17.1901
   411.7500     66.2040      0.0000    676.4664     17.3795
   412.0000     69.3661      0.0000    677.9738     17.5575
   412.2500     74.0630      0.0000    677.8016     17.7223
   412.5000     78.6066      0.0000    678.5418     17.8618
   412.7500     81.6230      0.0000    684.5004     17.9369
   413.0000     83.0500      0.0000    697.3411     17.8991
   413.2500     84.0619      0.0000    714.1881     17.7278
   413.5000     85.8763      0.0000    729.8087     17.4501
   413.7500     88.7516      0.0000    740.1564     17.1267
   414.0000     92.1632      0.0000    743.6835     16.8210
   414.2500     95.5922      0.0000    740.1566     16.5764
   414.5000     98.8636      0.0000    729.6862     16.4167
   414.7500    101.8051      0.0000    713.6621     16.3549
   415.0000    103.8458      0.0000    696.0120     16.3919
   415.2500    104.1931      0.0000    682.3710     16.5023
   415.5000    102.5690      0.0000    677.4674     16.6290
   415.7500     99.6870      0.0000    682.9738     16.7037
   416.0000     96.8831      0.0000    696.8322     16.6817
   416.2500     95.2451      0.0000    713.9426     16.5654
   416.5000     94.8882      0.0000    728.2807     16.4015
   416.7500     94.9016      0.0000    735.8273     16.2544
