~Version Information
 VERS.                                  2.0 : CWLS LAS VERSION
 WRAP.                                   NO : WRAPING MODE
 SWARE .                 MController 2.5.0N : SOFTWARE VERSION
~Well Information
 WELL.                       Guajardo 24-18 : WELL
 COMP.    Pioneer Natural Resources USA Inc : COMPANY
 FLD.                      Purgatoire River : FIELD
 LOC.                SE/SW Sec 18 T32S R65W : LOCATION
 DATE.                           8/4-5/2005 : DATE(S) LOGGED
 SRVC.       BLANCO Geological Services LLC : SERVICE COMPANY
 STAT.                                   CO : STATE
 CNTY.                           Las Animas : COUNTY
 CTRY.                                  USA : COUNTRY
 API.                       05-071-08377-00 : API NUMBER
 STRT.FT                             541.00 : START DEPTH
 STOP.FT                            1855.00 : STOP DEPTH
 STEP.FT                               1.00 : DEPTH INCREMENT
 NULL.                                -9999 : NULL VALUE
~Curve information
 DEPTH.FT                                   :
 ROP.MIN/FT                                 :
 GAS.UNITS                                  :
~ASCII Log data
# ...
      1141.0         0.10         52.1 
      1142.0         0.10         52.3 
      1143.0         0.10         52.0 
      1144.0         0.40         52.3 
      1145.0         0.22         51.2 
      1146.0         0.10         49.9 
      1147.0         0.50         50.9 
      1148.0         0.10         52.6 
      1149.0         0.20         56.2 
      1150.0         0.40         58.4 
      1151.0         0.17         60.4 
      1152.0         0.10         60.8 
      1153.0         0.50         55.8 
      1154.0         0.10         54.8 
      1155.0         0.30         53.4 
      1156.0         0.40         54.2 
      1157.0         0.10         54.5 
      1158.0         0.10         54.7 
      1159.0         0.22         55.1 
      1160.0         0.30         56.9 
      1161.0         0.10         57.6 
      1162.0         0.30         59.4 
      1163.0         0.43         64.7 
      1164.0         0.40         66.8 
      1165.0         0.10         66.8 
      1166.0         0.30         65.1 
      1167.0         0.20         62.4 
      1168.0         0.30         59.4 
      1169.0         0.57         55.8 
      1170.0         0.10         55.5 
      1171.0         0.10         55.3 
      1172.0         0.52         54.6 
      1173.0         0.30         55.1 
      1174.0         0.40         54.9 
      1175.0         0.10         54.8 
      1176.0         0.10         54.9 
      1177.0         0.50         55.7 
      1178.0         0.20         56.4 
      1179.0         0.30         57.4 
      1180.0         0.40         56.6 
      1181.0         0.10         56.6 
      1182.0         0.40         57.1 
      1183.0         0.10         56.3 
      1184.0         0.22         54.5 
      1185.0         0.20         54.6 
      1186.0         0.40         58.6 
      1187.0         0.20         57.9 
      1188.0         0.40         54.0 
      1189.0         0.20         54.7 
      1190.0         0.20         55.6 
      1191.0         0.40         56.8 
      1192.0         0.10         57.5 
      1193.0         0.50         57.6 
      1194.0         0.10         55.8 
      1195.0         0.10         53.9 
      1196.0         0.62         50.6 
      1197.0         0.10         51.7 
      1198.0         0.20         55.3 
      1199.0         0.40         58.6 
      1200.0         0.10         57.8 
      1201.0         0.20         57.9 
      1202.0         0.20         58.8 
      1203.0         0.40         51.6 
      1204.0         0.40         49.6 
      1205.0         0.40         51.3 
      1206.0         0.20         52.6 
      1207.0         0.30         51.1 
      1208.0         0.32         50.3 
      1209.0         0.60         51.9 
      1210.0         0.50         53.5 
      1211.0         0.23         57.0 
      1212.0         0.47         64.5 
      1213.0         0.37        111.9 
      1214.0         0.33         99.3 
      1215.0         0.47         40.3 
      1216.0         0.07         35.4 
      1217.0         0.48         17.8 
      1218.0         0.13         16.4 
      1219.0         0.10         16.5 
      1220.0         0.33         20.3 
      1221.0         0.37         25.9 
      1222.0         0.43         37.1 
      1223.0         0.10         40.0 
      1224.0         0.47         45.5 
      1225.0         0.10         46.6 
      1226.0         0.17         46.7 
      1227.0         0.33         52.4 
      1228.0         0.42         55.3 
      1229.0         0.20         53.4 
      1230.0         0.53         57.3 
      1231.0         0.20         54.4 
      1232.0         0.20         52.8 
      1233.0         0.30         53.2 
      1234.0         0.60         53.6 
      1235.0         0.47         49.8 
      1236.0         0.10         50.4 
      1237.0         0.10         50.0 
      1238.0         0.20         50.7 
      1239.0         0.52         56.5 
      1240.0         0.53         62.3 
      1241.0         0.30         59.2 
      1242.0         0.63         49.9 
      1243.0         0.20         48.9 
      1244.0         0.50         48.8 
      1245.0         0.20         53.9 
      1246.0         0.40         60.8 
      1247.0         0.33         50.9 
      1248.0         0.12         49.2 
      1249.0         0.47         44.7 
      1250.0         0.10         45.9 
      1251.0         0.50         47.9 
      1252.0         0.10         47.9 
      1253.0         0.47         50.9 
      1254.0         0.57         56.4 
      1255.0         0.10         58.7 
      1256.0         0.20         59.4 
      1257.0         0.60         56.1 
      1258.0         0.22         57.0 
      1259.0         0.60         56.5 
      1260.0         0.40         54.6 
      1261.0         0.60         49.2 
      1262.0         0.40         55.2 
      1263.0         0.67         60.9 
      1264.0         0.50         43.8 
      1265.0         0.22         45.2 
      1266.0         0.30         47.2 
      1267.0         0.60         46.5 
      1268.0         0.60         44.6 
      1269.0         0.30         45.5 
      1270.0         0.50         48.5 
      1271.0         0.40         55.8 
      1272.0         0.30         58.8 
      1273.0         0.38         61.3 
      1274.0         0.10         60.0 
      1275.0         0.33         53.6 
      1276.0         0.20         52.5 
      1277.0         0.10         51.9 
      1278.0         0.37         45.7 
      1279.0         0.07         44.0 
      1280.0         0.20         41.9 
      1281.0         0.30         45.4 
      1282.0         0.37         48.1 
      1283.0         0.10         48.0 
      1284.0         0.10         46.9 
      1285.0         0.20         46.8 
      1286.0         0.30         46.1 
      1287.0         0.40         45.8 
      1288.0         0.12         46.5 
      1289.0         0.20         47.7 
      1290.0         0.10         48.7 
      1291.0         0.40         50.6 
      1292.0         0.30         49.9 
      1293.0         0.20         50.1 
      1294.0         0.10         49.6 
      1295.0         0.30         48.8 
      1296.0         0.40         48.6 
      1297.0         0.30         49.3 
      1298.0         0.20         49.3 
      1299.0         0.10         50.0 
      1300.0         0.40         49.4 
      1301.0         0.32         48.1 
      1302.0         0.20         46.0 
      1303.0         0.10         44.4 
      1304.0         0.33         42.9 
      1305.0         0.10         43.1 
      1306.0         0.40         43.9 
      1307.0         0.10         44.0 
      1308.0         0.10         44.4 
      1309.0         0.20         45.2 
      1310.0         0.20         46.5 
      1311.0         0.53         49.8 
      1312.0         0.40         50.3 
      1313.0         0.40         52.3 
      1314.0         0.18         54.8 
      1315.0         0.50         51.6 
      1316.0         0.30         49.5 
      1317.0         0.30         49.8 
      1318.0         0.50         50.4 
      1319.0         0.10         50.9 
      1320.0         0.10         51.8 
      1321.0         0.20         53.6 
      1322.0         0.40         53.5 
      1323.0         0.10         53.1 
      1324.0         0.30         52.1 
      1325.0         0.20         52.4 
      1326.0         0.20         53.6 
      1327.0         0.42         54.2 
      1328.0         0.10         53.3 
      1329.0         0.50         55.5 
      1330.0         0.10         59.7 
      1331.0         0.10         63.8 
      1332.0         0.47         60.6 
      1333.0         0.10         56.9 
      1334.0         0.47         48.7 
      1335.0         0.10         48.4 
      1336.0         0.17         47.0 
      1337.0         0.30         43.6 
      1338.0         0.37         39.9 
      1339.0         0.10         41.1 
      1340.0         0.28         51.9 
