~Version Information
VERS.                      2.0: CWLS Log ASCII Standard - VERSION 2.0
WRAP.                       NO: One line per depth step
~Well Information Block
STRT.FT               550.0000: 
STOP.FT              2042.5000: 
STEP.FT                 0.1000: 
NULL.                -999.2500: 
COMP.          Petrogulf Corporation: COMPANY
WELL.          Robinson 15-12V: WELL
FLD.           Purgatorie River: FIELD
LOC.           1788' FNL & 466' FWL: LOCATION
PROV.                 Colorado: PROVINCE
CNTY.               Las Animas: COUNTRY
SRVC.                Patterson: SERVICE COMPANY
DATE.          Mon Sep 12 10:04:59 2005: LOG DATE
UWI.                          : UNIQUE WELL ID
~Curve Information Block
DEPT.FT            0 000 00 00: Depth
DCAL.in                       : CDL Caliper
RHOB.g/cc                     : CDL Bulk Density
RHOC.g/cc                     : CDL Density Correction
DPOR.pu                       : CDL Density Porosity
GR.GAPI                       : Gamma Ray
NPOR.pu                       : Neutron Porosity
~Parameter Information Block
~A  Depth       DCAL        RHOB        RHOC        DPOR         GR         NPOR    
# ...
  1519.6000      7.9506      2.5156      0.1028      8.1437    122.8434     28.3069
  1519.7000      7.9506      2.5186      0.0768      7.9638    127.1642     28.1781
  1519.8000      7.9335      2.5176      0.0653      8.0228    129.6286     28.3278
  1519.9000      7.9335      2.5195      0.0531      7.9099    128.1986     28.2903
  1520.0000      7.9405      2.5246      0.0752      7.5986    123.2145     28.0761
  1520.1000      7.9405      2.5290      0.0810      7.3335    117.6597     28.0314
  1520.2000      7.9405      2.5387      0.0560      6.7433    115.0258     28.2616
  1520.3000      7.9414      2.5550      0.0674      5.7581    114.2586     28.6366
  1520.4000      7.9414      2.5591      0.0858      5.5107    111.6794     28.9521
  1520.5000      7.9461      2.5415      0.0846      6.5784    110.8843     29.1000
  1520.6000      7.9461      2.5180      0.0282      7.9984    117.4517     29.2341
  1520.7000      7.9461      2.5055      0.0587      8.7558    126.8186     29.2507
  1520.8000      8.0060      2.5022      0.0809      8.9548    131.9909     29.1387
  1520.9000      8.0060      2.4967      0.0790      9.2903    133.7425     29.1271
  1521.0000      8.0309      2.4836      0.0685     10.0862    133.7082     29.0529
  1521.1000      8.0309      2.4698      0.0609     10.9193    131.0487     28.7831
  1521.2000      8.0309      2.4611      0.0542     11.4479    128.4138     28.6009
  1521.3000      8.0298      2.4587      0.0447     11.5944    130.7331     28.6473
  1521.4000      8.0298      2.4611      0.0908     11.4469    137.9699     28.6907
  1521.5000      8.0284      2.4616      0.0477     11.4183    143.7194     28.6258
  1521.6000      8.0284      2.4563      0.1140     11.7380    142.4761     28.6319
  1521.7000      8.0284      2.4449      0.0828     12.4285    136.9901     28.8186
  1521.8000      7.9900      2.4346      0.0665     13.0523    133.7250     28.9319
  1521.9000      7.9900      2.4374      0.0425     12.8853    134.0755     28.7647
  1522.0000      8.0193      2.4508      0.0652     12.0740    136.7171     28.5433
  1522.1000      8.0193      2.4598      0.0444     11.5301    139.1704     28.5793
  1522.2000      8.0193      2.4646      0.0491     11.2373    138.9425     28.7806
  1522.3000      7.9945      2.4764      0.0576     10.5193    139.9268     28.7319
  1522.4000      7.9945      2.4957      0.0961      9.3526    143.7941     28.4361
  1522.5000      7.9804      2.5158      0.1399      8.1359    146.0441     28.3372
  1522.6000      7.9804      2.5315      0.1384      7.1804    145.3881     28.4014
  1522.7000      7.9804      2.5420      0.1300      6.5482    142.4422     28.0989
  1522.8000      7.9651      2.5474      0.1358      6.2184    138.4677     27.5001
  1522.9000      7.9651      2.5501      0.0880      6.0551    137.3271     27.1096
  1523.0000      7.9652      2.5579      0.0889      5.5845    140.3037     27.0667
  1523.1000      7.9652      2.5717      0.1118      4.7439    143.5128     27.2258
  1523.2000      7.9652      2.5863      0.1053      3.8579    143.8614     27.1879
  1523.3000      7.9657      2.5985      0.1371      3.1214    144.1285     26.7841
  1523.4000      7.9657      2.6018      0.1492      2.9232    144.9921     26.4543
  1523.5000      7.9677      2.5887      0.1172      3.7176    142.4592     26.6478
  1523.6000      7.9677      2.5666      0.0726      5.0533    137.2668     27.3077
  1523.7000      7.9677      2.5575      0.0352      5.6076    132.7182     27.8661
  1523.8000      7.9666      2.5718      0.0462      4.7395    129.8160     28.0007
  1523.9000      7.9666      2.5916      0.1198      3.5371    128.0237     27.9107
  1524.0000      7.9640      2.5939      0.0781      3.4014    126.0207     27.8107
  1524.1000      7.9640      2.5840      0.0812      3.9998    123.0024     27.7681
  1524.2000      7.9640      2.5766      0.0759      4.4481    121.3479     27.4561
  1524.3000      7.9605      2.5744      0.0620      4.5795    122.0112     26.5904
  1524.4000      7.9605      2.5767      0.0813      4.4454    123.5373     25.6210
  1524.5000      7.9585      2.5829      0.0419      4.0675    125.8883     25.0394
  1524.6000      7.9585      2.5875      0.0526      3.7892    127.6830     24.7618
  1524.7000      7.9585      2.5855      0.0406      3.9106    126.7746     24.4722
  1524.8000      7.9554      2.5830      0.0389      4.0582    125.2714     23.9651
  1524.9000      7.9554      2.5861      0.0412      3.8739    126.2414     23.3529
  1525.0000      7.9640      2.5886      0.0540      3.7184    128.1639     23.1281
  1525.1000      7.9640      2.5806      0.0154      4.2032    129.8169     23.3147
  1525.2000      7.9640      2.5621      0.0417      5.3244    131.4263     23.5065
  1525.3000      7.9641      2.5422     -0.0002      6.5325    130.9467     23.5933
  1525.4000      7.9641      2.5311     -0.0075      7.2037    129.0515     23.6053
  1525.5000      7.9639      2.5303      0.0194      7.2541    127.2003     23.5511
  1525.6000      7.9639      2.5314     -0.0012      7.1867    124.5225     23.3930
  1525.7000      7.9639      2.5297      0.0063      7.2926    122.4692     23.1759
  1525.8000      7.9698      2.5228      0.0213      7.7072    124.7694     23.0659
  1525.9000      7.9698      2.5131     -0.0187      8.2979    133.0520     23.2909
  1526.0000      7.9619      2.5098     -0.0065      8.5000    144.0988     23.8852
  1526.1000      7.9619      2.5156      0.0049      8.1480    150.5746     24.4613
  1526.2000      7.9619      2.5266      0.0060      7.4809    147.1195     24.7965
  1526.3000      7.9640      2.5372      0.0469      6.8352    138.1320     25.0767
  1526.4000      7.9640      2.5404      0.0408      6.6446    133.6576     25.2349
  1526.5000      7.9675      2.5398      0.0446      6.6795    136.7605     24.9845
  1526.6000      7.9675      2.5456      0.0549      6.3298    142.9307     24.6519
  1526.7000      7.9675      2.5541      0.0767      5.8151    147.0650     24.9900
  1526.8000      7.9744      2.5542      0.0618      5.8060    146.7691     25.6673
  1526.9000      7.9744      2.5538     -0.0139      5.8305    142.8055     25.9832
  1527.0000      7.9715      2.5637      0.0790      5.2286    138.2700     25.9693
  1527.1000      7.9715      2.5713      0.0602      4.7718    136.3616     25.7961
  1527.2000      7.9715      2.5657      0.0468      5.1074    136.1749     25.7182
  1527.3000      7.9726      2.5509      0.0529      6.0040    135.4656     25.8615
  1527.4000      7.9726      2.5353      0.0467      6.9519    135.1053     25.8447
  1527.5000      7.9681      2.5314      0.0384      7.1896    135.2980     25.6296
  1527.6000      7.9681      2.5395      0.0795      6.6943    133.7377     25.6283
  1527.7000      7.9681      2.5428      0.0810      6.4989    130.4375     25.6139
  1527.8000      7.9552      2.5371      0.0680      6.8420    128.5772     24.9416
  1527.9000      7.9552      2.5413      0.0293      6.5895    127.0529     24.0129
  1528.0000      7.9524      2.5650      0.0417      5.1507    124.6287     23.8371
  1528.1000      7.9524      2.5862      0.1119      3.8646    125.2431     24.2493
  1528.2000      7.9524      2.5836      0.0641      4.0234    129.5467     24.4612
  1528.3000      7.9519      2.5724      0.0608      4.7055    133.6493     24.3158
  1528.4000      7.9519      2.5727      0.0660      4.6842    134.1862     23.8081
  1528.5000      7.9489      2.5808      0.0880      4.1948    131.7912     22.9663
  1528.6000      7.9489      2.5833      0.1130      4.0406    130.9985     22.2871
  1528.7000      7.9489      2.5747      0.0570      4.5607    133.5526     22.1910
  1528.8000      7.9491      2.5598      0.0403      5.4649    135.6749     22.5554
  1528.9000      7.9491      2.5471      0.0417      6.2377    135.6205     23.1662
  1529.0000      7.9474      2.5407      0.0305      6.6261    137.8350     23.9497
  1529.1000      7.9474      2.5412      0.0300      6.5919    141.2954     24.4847
