~Version Information
VERS.                      2.0: CWLS Log ASCII Standard - VERSION 2.0
WRAP.                       NO: One line per depth step
~Well Information Block
STRT.FT               241.5000: 
STOP.FT              2340.7500: 
STEP.FT                 0.2500: 
NULL.                -999.2500: 
COMP.          Petrogulf Corporation: COMPANY
WELL.            Montoya 1-24V: WELL
FLD.           Purgatorie River: FIELD
LOC.           605' FSL & 2557' FWL: LOCATION
CNTY.               Las Animas: COUNTY
SRVC.                         : SERVICE COMPANY
DATE.          Tue Nov 30 10:28:39 2004: LOG DATE
UWI.           05 071 08194 00: UNIQUE WELL ID
STAT.                 Colorado: STATE
~Curve Information Block
DEPT.FT            0 000 00 00: Depth
GR.GAPI                       : Gamma Ray
CCL.                          : Casing Collar Locator
TT3.usec                      : CBL 3' Travel Time
AMP3.mV                       : CBL 3' Amplitude
~Parameter Information Block
~A  Depth        GR         CCL         TT3         AMP3    
# ...
   375.5000    166.4794      0.0000    675.0636     11.4187
   375.7500    163.4144      0.0000    664.1285     12.5356
   376.0000    157.6551      0.0000    670.4655     13.3219
   376.2500    151.3160      0.0000    688.2115     13.7266
   376.5000    145.1739      0.0000    706.0223     13.8959
   376.7500    139.6117      0.0000    716.0428     14.0187
   377.0000    135.4509      0.0000    717.1069     14.1770
   377.2500    133.5618      0.0000    712.2313     14.3536
   377.5000    133.8546      0.0000    705.5967     14.5425
   377.7500    135.0529      0.0000    700.6263     14.7893
   378.0000    135.7419      0.0000    698.8038     15.1190
   378.2500    135.3470      0.0000    699.8367     15.4779
   378.5000    133.8146      0.0000    703.1106     15.7641
   378.7500    130.9428      0.0000    708.3817     15.8968
   379.0000    126.7783      0.0000    715.0108     15.8582
   379.2500    122.4565      0.0000    721.4700     15.6965
   379.5000    119.8732      0.0000    726.2688     15.4915
   379.7500    120.2225      0.0000    728.9963     15.3065
   380.0000    123.1380      0.0000    730.2010     15.1675
   380.2500    127.3090      0.0000    730.5775     15.0806
   380.5000    131.2882      0.0000    730.3917     15.0477
   380.7500    133.4151      0.0000    729.3388     15.0600
   381.0000    131.8359      0.0000    726.6924     15.0993
   381.2500    125.6966      0.0000    721.6555     15.1530
   381.5000    116.3015      0.0000    713.4891     15.2166
   381.7500    106.3872      0.0000    700.3953     15.2845
   382.0000     98.0949      0.0000    677.6951     15.3651
   382.2500     92.0011      0.0000    639.0241     15.4975
   382.5000     87.8824      0.0000    582.7194     15.7134
   382.7500     85.5337      0.0000    517.4653     15.9771
   383.0000     84.6602      0.0000    458.6766     16.1879
   383.2500     84.8514      0.0000    418.0916     16.2578
   383.5000     86.2213      0.0000    398.0051     16.1709
   383.7500     89.6132      0.0000    394.7586     15.9673
   384.0000     95.4848      0.0000    404.2469     15.7041
   384.2500    102.5205      0.0000    422.0082     15.4603
   384.5000    107.7604      0.0000    439.9383     15.3463
   384.7500    108.6547      0.0000    447.6375     15.4534
   385.0000    105.3282      0.0000    440.0055     15.7781
   385.2500    100.6500      0.0000    421.8589     16.2072
   385.5000     97.7247      0.0000    402.8426     16.5818
   385.7500     97.5082      0.0000    389.1219     16.7843
   386.0000     99.1250      0.0000    381.2733     16.7887
   386.2500    101.7974      0.0000    378.0493     16.6549
   386.5000    105.4835      0.0000    380.0207     16.4805
   386.7500    109.9384      0.0000    390.6562     16.3374
   387.0000    114.3449      0.0000    415.6700     16.2328
   387.2500    118.1114      0.0000    460.1214     16.1259
   387.5000    121.3029      0.0000    522.7276     15.9878
   387.7500    124.0592      0.0000    592.0844     15.8387
   388.0000    126.2526      0.0000    650.7526     15.7236
   388.2500    128.1623      0.0000    684.4932     15.6752
   388.5000    131.0191      0.0000    687.8515     15.7138
   388.7500    136.1051      0.0000    664.7714     15.8568
   389.0000    143.2159      0.0000    628.9409     16.0936
   389.2500    150.4071      0.0000    601.2703     16.3570
   389.5000    155.3372      0.0000    598.4431     16.5430
   389.7500    156.8359      0.0000    620.1365     16.5538
   390.0000    155.4747      0.0000    650.6356     16.3019
   390.2500    152.7803      0.0000    674.0706     15.6919
   390.5000    149.7935      0.0000    685.6328     14.6499
   390.7500    146.5386      0.0000    689.5832     13.2022
   391.0000    142.9369      0.0000    691.5532     11.5118
   391.2500    139.5354      0.0000    694.2358      9.8090
   391.5000    136.7115      0.0000    697.5518      8.2734
   391.7500    133.4597      0.0000    700.4960      6.9769
   392.0000    127.5926      0.0000    702.7543      5.9125
   392.2500    117.4989      0.0000    705.1548      5.0484
   392.5000    103.9455      0.0000    708.7960      4.3537
   392.7500     90.2819      0.0000    713.7342      3.8035
   393.0000     80.7285      0.0000    718.6047      3.3848
   393.2500     78.0217      0.0000    721.7071      3.0993
   393.5000     82.2440      0.0000    722.3339      2.9534
   393.7500     91.5607      0.0000    720.8663      2.9402
   394.0000    103.6576      0.0000    717.9478      3.0358
   394.2500    116.2920      0.0000    714.1071      3.2199
   394.5000    127.1683      0.0000    710.1166      3.4988
   394.7500    134.4412      0.0000    707.1277      3.9041
   395.0000    137.7712      0.0000    706.1614      4.4625
   395.2500    138.4586      0.0000    707.5089      5.1681
   395.5000    138.1620      0.0000    710.5863      5.9962
   395.7500    137.5985      0.0000    714.2897      6.9358
   396.0000    136.6386      0.0000    717.7795      7.9859
   396.2500    135.2657      0.0000    721.2064      9.1076
   396.5000    133.8657      0.0000    725.6360     10.2089
   396.7500    132.7695      0.0000    732.2908     11.1935
   397.0000    132.0611      0.0000    741.8834     12.0158
   397.2500    131.7846      0.0000    753.9211     12.6828
   397.5000    131.9690      0.0000    766.0182     13.2248
   397.7500    132.4951      0.0000    774.5662     13.6677
   398.0000    133.2012      0.0000    777.3439     14.0038
   398.2500    134.1071      0.0000    775.7879     14.1789
   398.5000    135.3349      0.0000    774.3094     14.1406
   398.7500    136.8415      0.0000    777.0089     13.9315
   399.0000    138.3694      0.0000    784.6987     13.7186
   399.2500    139.6785      0.0000    794.8538     13.6929
   399.5000    140.7508      0.0000    804.4261     13.9234
   399.7500    141.6343      0.0000    812.4885     14.3017
   400.0000    141.9472      0.0000    820.0609     14.6249
   400.2500    140.8362      0.0000    827.8303     14.7337
   400.5000    137.8850      0.0000    834.5888     14.5968
   400.7500    134.1295      0.0000    838.1720     14.2966
   401.0000    131.7791      0.0000    837.8683     13.9540
   401.2500    132.5359      0.0000    835.5225     13.6655
   401.5000    136.1055      0.0000    834.0989     13.4927
   401.7500    140.4279      0.0000    835.4146     13.4678
   402.0000    143.3931      0.0000    839.3528     13.5794
   402.2500    144.3330      0.0000    844.5892     13.7688
   402.5000    143.8078      0.0000    849.5977     13.9721
   402.7500    142.1420      0.0000    853.3467     14.1642
   403.0000    138.8440      0.0000    855.5828     14.3567
   403.2500    133.7836      0.0000    856.6306     14.5678
   403.5000    128.2586      0.0000    856.9586     14.7972
   403.7500    124.2185      0.0000    856.7979     15.0124
   404.0000    122.6668      0.0000    855.8778     15.1501
   404.2500    123.1964      0.0000    853.3885     15.1398
   404.5000    124.7376      0.0000    848.6127     14.9448
   404.7500    126.3327      0.0000    842.3276     14.6022
   405.0000    127.4590      0.0000    837.4978     14.2310
   405.2500    128.2383      0.0000    837.2202     13.9867
   405.5000    129.2985      0.0000    840.9588     13.9804
   405.7500    130.8872      0.0000    843.8071     14.2063
   406.0000    132.2133      0.0000    841.1108     14.5325
   406.2500    132.3035      0.0000    833.7618     14.7771
   406.5000    131.4921      0.0000    827.5474     14.8218
   406.7500    131.4884      0.0000    827.0616     14.6730
   407.0000    133.9014      0.0000    831.8693     14.4360
   407.2500    138.9902      0.0000    839.8304     14.2496
   407.5000    145.6190      0.0000    851.6491     14.2231
   407.7500    151.8000      0.0000    868.6569     14.3758
   408.0000    155.3933      0.0000    887.2191     14.6055
   408.2500    155.1231      0.0000    899.6176     14.7477
   408.5000    151.3735      0.0000    901.5576     14.7033
   408.7500    145.7083      0.0000    896.3577     14.5032
