~Version Information
VERS.                      2.0: CWLS Log ASCII Standard - VERSION 2.0
WRAP.                       NO: One line per depth step
~Well Information Block
STRT.FT                -2.2500: 
STOP.FT              1676.7500: 
STEP.FT                 0.2500: 
NULL.                -999.2500: 
COMP.          Pioneer Natural Resources: COMPANY
WELL.              Patten 22-2: WELL
FLD.           Purgatoire River: FIELD
LOC.           2157' FNL & 1528' FWL: LOCATION
PROV.                 Colorado: PROVINCE
CNTY.               Las Animas: COUNTRY
SRVC.                Patterson: SERVICE COMPANY
DATE.          Tue Dec 14 11:45:47 2004: LOG DATE
UWI.           05 071 08168 00: UNIQUE WELL ID
~Curve Information Block
DEPT.FT            0 000 00 00: Depth
GR.GAPI                       : Gamma Ray
CCL.                          : Casing Collar Locator
TT3.usec                      : CBL 3' Travel Time
AMP3.mV                       : CBL 3' Amplitude
~Parameter Information Block
~A  Depth        GR         CCL         TT3         AMP3    
# ...
   868.7500    115.4694      0.0000    782.2576      6.8359
   869.0000    110.8337      0.0000    783.0251      6.8483
   869.2500    107.8648      0.0000    781.0234      6.8911
   869.5000    106.5767      0.0000    777.1717      6.9408
   869.7500    106.8621      0.0000    773.0251      6.9718
   870.0000    107.9877      0.0000    769.2637      6.9758
   870.2500    108.5957      0.0000    765.3212      6.9600
   870.5000    107.7893      0.0000    760.3397      6.9335
   870.7500    106.0291      0.0000    754.4124      6.9033
   871.0000    104.7623      0.0000    749.5311      6.8761
   871.2500    105.3285      0.0000    749.2899      6.8536
   871.5000    108.2481      0.0000    756.1957      6.8252
   871.7500    113.2202      0.0000    768.4174      6.7742
   872.0000    119.3731      0.0000    779.6298      6.6924
   872.2500    125.5331      0.0000    782.2844      6.5884
   872.5000    130.6578      0.0000    771.3169      6.4859
   872.7500    134.2581      0.0000    746.4434      6.4131
   873.0000    136.3173      0.0000    712.6842      6.3873
   873.2500    136.8788      0.0000    678.3724      6.4049
   873.5000    135.9214      0.0000    651.2374      6.4481
   873.7500    133.5507      0.0000    635.4034      6.5033
   874.0000    130.1587      0.0000    630.8326      6.5728
   874.2500    126.3986      0.0000    634.2853      6.6648
   874.5000    122.9950      0.0000    641.0281      6.7748
   874.7500    120.4243      0.0000    647.1412      6.8793
   875.0000    118.7568      0.0000    651.2003      6.9509
   875.2500    117.9230      0.0000    653.8621      6.9777
   875.5000    118.2256      0.0000    656.0303      6.9659
   875.7500    120.4737      0.0000    657.7577      6.9252
   876.0000    125.2151      0.0000    658.6138      6.8595
   876.2500    131.6980      0.0000    658.5399      6.7731
   876.5000    137.9921      0.0000    658.3749      6.6807
   876.7500    142.3705      0.0000    659.6718      6.6039
   877.0000    144.2694      0.0000    663.5189      6.5564
   877.2500    144.0213      0.0000    669.1396      6.5360
   877.5000    142.3026      0.0000    674.0936      6.5312
   877.7500    139.9482      0.0000    676.4302      6.5314
   878.0000    137.7531      0.0000    676.5345      6.5325
   878.2500    136.1066      0.0000    676.5914      6.5360
   878.5000    134.7266      0.0000    678.4088      6.5477
   878.7500    132.5309      0.0000    682.1338      6.5763
   879.0000    127.8374      0.0000    686.9561      6.6308
   879.2500    119.3193      0.0000    692.3019      6.7135
   879.5000    107.2455      0.0000    698.0237      6.8119
   879.7500     93.6614      0.0000    703.9512      6.9024
   880.0000     81.1893      0.0000    709.7202      6.9662
   880.2500     71.7523      0.0000    714.8623      7.0006
   880.5000     66.2227      0.0000    718.8872      7.0145
   880.7500     64.5745      0.0000    721.4881      7.0133
   881.0000     65.9263      0.0000    722.7599      6.9920
   881.2500     68.6709      0.0000    723.0720      6.9430
   881.5000     70.9881      0.0000    722.6686      6.8671
   881.7500     71.4908      0.0000    721.5246      6.7751
   882.0000     69.7126      0.0000    719.6725      6.6774
   882.2500     66.2901      0.0000    717.7238      6.5743
   882.5000     62.5732      0.0000    716.8063      6.4577
   882.7500     59.7458      0.0000    717.6718      6.3295
   883.0000     58.1298      0.0000    719.9419      6.2193
   883.2500     57.2649      0.0000    722.8324      6.1685
   883.5000     56.6067      0.0000    726.9107      6.1793
   883.7500     56.0893      0.0000    734.7339      6.1976
   884.0000     56.0456      0.0000    748.7156      6.1707
   884.2500     56.7672      0.0000    767.5961      6.1069
   884.5000     58.2442     -2.0000    785.7706      6.0532
   884.7500     60.2124      2.0000    797.7922      6.0303
   885.0000     62.3193      2.0000    803.2302      6.0190
   885.2500     64.2619     -2.0000    805.1304      5.9997
   885.5000     65.9028      0.0000    804.3919      5.9933
   885.7500     67.3203      0.0000    798.4172      6.0588
   886.0000     68.7030      0.0000    785.4493      6.2361
   886.2500     70.1445      0.0000    767.9396      6.4764
   886.5000     71.5497      0.0000    750.6157      6.6472
   886.7500     72.7850      0.0000    736.5058      6.6366
   887.0000     73.9384      0.0000    725.6886      6.4386
   887.2500     75.4219      0.0000    717.0529      6.1247
   887.5000     77.7910      0.0000    710.4045      5.7618
   887.7500     81.2913      0.0000    707.1623      5.3843
   888.0000     85.3312      0.0000    709.3539      5.0136
   888.2500     88.3742      0.0000    717.8227      4.6680
   888.5000     88.6990      0.0000    730.9720      4.3554
   888.7500     85.6569      0.0000    745.0125      4.0723
   889.0000     80.3217      0.0000    756.0931      3.8121
   889.2500     74.9571      0.0000    763.2328      3.5727
   889.5000     71.8135      0.0000    768.6289      3.3621
   889.7500     72.0621      0.0000    773.5344      3.1994
   890.0000     75.3700      0.0000    774.6678      3.1071
   890.2500     80.3820      0.0000    767.2168      3.0937
   890.5000     85.7424      0.0000    751.2421      3.1429
   890.7500     90.6329      0.0000    732.8112      3.2198
   891.0000     94.4636      0.0000    718.7981      3.2918
   891.2500     96.5992      0.0000    712.5573      3.3442
   891.5000     96.6769      0.0000    714.2400      3.3777
   891.7500     94.8335      0.0000    722.5211      3.3966
   892.0000     91.5204      0.0000    734.5524      3.4067
   892.2500     87.5816      0.0000    745.5624      3.4233
   892.5000     84.5304      0.0000    750.4562      3.4736
   892.7500     83.9580      0.0000    746.6375      3.5850
   893.0000     86.2159      0.0000    735.4410      3.7723
   893.2500     89.9452      0.0000    721.1556      4.0326
   893.5000     93.0746      0.0000    708.6630      4.3519
   893.7500     94.2986      0.0000    701.2678      4.7130
   894.0000     93.8491      0.0000    699.6915      5.1016
   894.2500     92.9746      0.0000    702.4776      5.5060
   894.5000     92.5012      0.0000    707.2690      5.9164
   894.7500     91.9693      0.0000    711.9333      6.3243
   895.0000     90.3208      0.0000    714.9393      6.7223
   895.2500     87.1401      0.0000    715.3444      7.0979
   895.5000     82.9946      0.0000    712.9042      7.4248
   895.7500     79.0538      0.0000    708.4348      7.6583
   896.0000     76.8488      0.0000    703.8173      7.7537
   896.2500     77.8811      0.0000    700.9778      7.7006
   896.5000     82.5764      0.0000    700.3054      7.5419
   896.7500     89.5504      0.0000    700.2285      7.3534
   897.0000     96.4003      0.0000    698.7767      7.2021
   897.2500    101.4248      0.0000    695.5981      7.1192
   897.5000    104.5315      0.0000    692.2819      7.1019
   897.7500    106.6676      0.0000    690.9211      7.1313
   898.0000    108.7126      0.0000    692.5280      7.1919
   898.2500    110.9166      0.0000    696.4298      7.2760
   898.5000    112.8913      0.0000    700.7040      7.3746
   898.7500    113.7234      0.0000    703.3547      7.4698
   899.0000    112.3625      0.0000    703.5101      7.5410
   899.2500    108.5276      0.0000    701.8304      7.5771
   899.5000    103.4095      0.0000    700.0200      7.5833
   899.7500     99.1521      0.0000    699.7959      7.5746
   900.0000     97.2979      0.0000    701.6373      7.5643
   900.2500     97.7035      0.0000    704.1430      7.5568
   900.5000     98.9996      0.0000    704.9476      7.5498
   900.7500    100.1408      0.0000    702.6844      7.5437
   901.0000    101.5385      0.0000    698.1381      7.5471
   901.2500    104.5611      0.0000    693.5076      7.5721
   901.5000    109.7567      0.0000    690.7604      7.6188
   901.7500    115.9129      0.0000    690.6600      7.6673
   902.0000    121.2583      0.0000    692.7927      7.6907
