~Version Information
VERS.                      2.0: CWLS Log ASCII Standard - VERSION 2.0
WRAP.                       NO: One line per depth step
~Well Information Block
STRT.FT                -8.2500: 
STOP.FT              1119.7500: 
STEP.FT                 0.2500: 
NULL.                -999.2500: 
COMP.          Pioneer Natural Resources: COMPANY
WELL.             Linda T 32-3: WELL
FLD.           Purgatorie River: FIELD
LOC.           1350' FNL & 2290' FEL------: LOCATION
PROV.                       CO: PROVINCE
CNTY.               Las Animas: COUNTRY
SRVC.                         : SERVICE COMPANY
DATE.          Thu Feb 10 08:20:40 2005: LOG DATE
UWI.          005 071 08215   : UNIQUE WELL ID
~Curve Information Block
DEPT.FT            0 000 00 00: Depth
CCL.                          : Casing Collar Locator
TT3.usec                      : CBL 3' Travel Time
AMP3.mV                       : CBL 3' Amplitude
GR.GAPI                       : Gamma Ray
~Parameter Information Block
~A  Depth       CCL         TT3         AMP3         GR     
# ...
   360.2500      0.0000    739.6932      8.1115     73.6157
   360.5000      0.0000    740.4835      7.9831     68.8916
   360.7500      0.0000    742.4481      7.8788     66.1287
   361.0000      0.0000    744.4772      7.7981     64.4433
   361.2500      0.0000    745.8190      7.7353     62.8402
   361.5000      0.0000    746.4174      7.6921     61.6324
   361.7500      0.0000    746.5640      7.6759     61.8421
   362.0000      0.0000    746.5308      7.6809     63.5857
   362.2500      0.0000    746.4805      7.6799     65.8822
   362.5000      0.0000    746.4876      7.6439     67.9023
   362.7500      0.0000    746.4959      7.5666     69.9277
   363.0000      0.0000    746.2865      7.4662     73.0375
   363.2500      0.0000    745.5269      7.3665     77.8732
   363.5000      0.0000    743.9504      7.2816     83.7607
   363.7500      0.0000    741.6992      7.2143     89.0769
   364.0000      0.0000    739.6002      7.1680     92.3293
   364.2500      0.0000    738.8120      7.1613     92.9736
   364.5000      0.0000    739.8179      7.2269     91.6363
   364.7500      0.0000    741.8391      7.3806     89.6137
   365.0000      0.0000    743.4396      7.5862     87.8170
   365.2500      0.0000    743.6622      7.7588     86.1676
   365.5000      0.0000    742.6568      7.8165     84.1962
   365.7500      0.0000    741.5427      7.7340     82.1060
   366.0000      0.0000    741.6239      7.5509     80.9887
   366.2500      0.0000    743.3428      7.3330     81.9362
   366.5000      0.0000    745.9078      7.1299     84.9776
   366.7500      0.0000    748.0715      6.9684     88.9575
   367.0000      0.0000    749.1713      6.8709     92.4052
   367.2500      0.0000    749.3580      6.8642     94.4282
   367.5000      0.0000    749.1149      6.9622     94.8708
   367.7500      0.0000    748.8010      7.1409     93.9476
   368.0000      0.0000    748.5328      7.3351     92.0442
   368.2500      0.0000    748.2018      7.4684     89.9337
   368.5000      0.0000    747.4183      7.4966     88.8462
   368.7500      0.0000    745.5338      7.4279     89.8300
   369.0000      0.0000    742.1261      7.3052     92.8221
   369.2500      0.0000    737.8307      7.1741     96.3714
   369.5000      0.0000    734.4945      7.0600     98.3883
   369.7500      0.0000    733.9120      6.9608     97.5007
   370.0000      0.0000    736.2201      6.8582     93.9489
   370.2500      0.0000    739.8353      6.7419     89.1353
   370.5000      0.0000    742.9588      6.6198     84.4891
   370.7500      0.0000    744.8201      6.5062     81.1417
   371.0000      0.0000    745.6234      6.4122     80.3272
   371.2500      0.0000    745.8435      6.3533     83.1965
   371.5000      0.0000    745.7348      6.3458     89.9504
   371.7500      0.0000    745.2018      6.3852     99.4077
   372.0000      0.0000    743.9560      6.4405    109.3801
   372.2500      0.0000    741.9796      6.4756    117.4911
   372.5000      0.0000    739.9485      6.4704    122.2753
   372.7500      0.0000    738.9067      6.4224    124.1188
   373.0000      0.0000    739.2028      6.3430    124.8849
   373.2500      0.0000    739.9850      6.2537    126.0955
   373.5000      0.0000    740.1724      6.1705    127.5620
   373.7500      0.0000    739.8029      6.0926    127.9339
   374.0000      0.0000    739.9912      6.0147    126.2254
   374.2500      0.0000    741.5403      5.9455    122.7198
   374.5000      0.0000    744.0041      5.9050    118.8230
   374.7500      0.0000    746.2431      5.9053    116.1101
   375.0000      0.0000    747.5306      5.9412    115.1885
   375.2500      0.0000    747.9084      5.9977    115.3686
   375.5000      0.0000    747.7899      6.0649    115.5142
   375.7500      0.0000    747.5190      6.1464    115.2143
   376.0000      0.0000    747.2495      6.2506    114.9441
   376.2500      0.0000    747.0188      6.3706    115.0886
   376.5000      0.0000    746.8306      6.4766    115.2695
   376.7500      0.0000    746.6563      6.5395    115.0435
   377.0000      0.0000    746.3589      6.5596    114.8010
   377.2500      0.0000    745.6277      6.5632    115.1555
   377.5000      0.0000    744.0682      6.5736    115.5823
   377.7500      0.0000    741.5602      6.5956    114.3935
   378.0000      0.0000    738.6060      6.6234    110.1868
   378.2500      0.0000    736.1465      6.6492    103.1040
   378.5000      0.0000    734.9432      6.6644     94.8485
   378.7500      0.0000    735.3306      6.6638     87.6038
   379.0000      0.0000    737.4999      6.6485     82.6028
   379.2500      0.0000    741.4626      6.6198     79.4875
   379.5000      0.0000    746.4926      6.5753     77.1982
   379.7500      0.0000    750.9771      6.5183     75.5468
   380.0000      0.0000    753.2569      6.4677     75.6212
   380.2500      0.0000    752.8091      6.4474     78.7098
   380.5000      0.0000    750.5763      6.4692     85.0546
   380.7500      0.0000    748.0411      6.5267     93.1778
   381.0000      0.0000    746.0475      6.6008     99.9604
   381.2500      0.0000    744.4671      6.6679    102.1416
   381.5000      0.0000    742.7375      6.7082     98.8296
   381.7500      0.0000    740.6123      6.7131     92.6509
   382.0000      0.0000    738.4872      6.6858     87.9736
   382.2500      0.0000    736.8948      6.6346     87.7372
   382.5000      0.0000    735.5254      6.5690     91.8172
   382.7500      0.0000    733.0986      6.4989     97.9169
   383.0000      0.0000    728.7350      6.4351    103.6388
   383.2500      0.0000    723.3828      6.3838    107.8941
   383.5000      0.0000    719.4811      6.3424    110.7670
   383.7500      0.0000    719.0310      6.3028    112.3736
   384.0000      0.0000    721.9971      6.2638    112.1145
   384.2500      0.0000    726.5444      6.2386    109.2264
   384.5000      0.0000    730.7505      6.2458    104.1037
   384.7500      0.0000    733.8607      6.2908     98.6372
   385.0000      0.0000    735.9149      6.3579     94.7762
   385.2500      0.0000    736.9438      6.4194     93.0136
   385.5000      0.0000    737.1973      6.4537     92.6413
   385.7500      0.0000    737.5588      6.4584     92.9778
   386.0000      0.0000    738.8464      6.4447     93.6185
   386.2500      0.0000    740.8784      6.4187     93.9069
   386.5000      0.0000    742.7634      6.3761     93.1707
   386.7500      0.0000    743.9211      6.3176     91.5411
   387.0000      0.0000    744.4546      6.2599     89.9826
   387.2500      0.0000    744.7190      6.2286     89.5340
   387.5000      0.0000    744.8886      6.2447     90.7945
   387.7500      0.0000    744.9351      6.3141     93.8090
   388.0000      0.0000    744.8131      6.4221     97.9040
   388.2500      0.0000    744.5530      6.5380    101.7102
   388.5000      0.0000    744.2440      6.6284    103.9967
   388.7500      0.0000    743.9995      6.6683    104.8337
   389.0000      0.0000    743.9309      6.6526    105.6241
   389.2500      0.0000    744.0997      6.6037    107.4818
   389.5000      0.0000    744.4910      6.5632    109.6617
   389.7500      0.0000    745.0450      6.5637    110.1753
   390.0000      0.0000    745.6868      6.6049    107.9300
   390.2500      0.0000    746.3201      6.6523    103.7797
   390.5000      0.0000    746.8412      6.6622     99.5186
   390.7500      0.0000    747.1778      6.6183     96.2367
   391.0000      0.0000    747.2566      6.5450     93.7474
   391.2500      0.0000    746.9174      6.4825     91.3879
   391.5000      0.0000    745.8679      6.4526     89.0200
   391.7500      0.0000    743.7979      6.4537     87.0331
   392.0000      0.0000    740.6514      6.4793     85.4625
   392.2500      0.0000    736.8980      6.5285     83.5902
   392.5000      0.0000    733.4453      6.5963     80.8458
   392.7500      0.0000    731.1502      6.6640     77.6719
   393.0000      0.0000    730.4479      6.7088     74.8603
   393.2500      0.0000    731.4261      6.7274     72.3119
   393.5000      0.0000    733.9404      6.7420     69.1135
