~Version Information
VERS.                      2.0: CWLS Log ASCII Standard - VERSION 2.0
WRAP.                       NO: One line per depth step
~Well Information Block
STRT.FT               275.0000: 
STOP.FT               811.2000: 
STEP.FT                 0.1000: 
NULL.                -999.2500: 
COMP.          Pioneer Natural Resources: COMPANY
WELL.          Barrelman 41-27: WELL
FLD.           Purgatoire River: FIELD
LOC.           371' FNL & 493' FEL--: LOCATION
PROV.                 Colorado: PROVINCE
CNTY.               Las Animas: COUNTRY
SRVC.                Patterson: SERVICE COMPANY
DATE.          Fri May 20 11:50:01 2005: LOG DATE
UWI.           05 071 08334 00: UNIQUE WELL ID
~Curve Information Block
DEPT.FT            0 000 00 00: Depth
DCAL.in                       : CDL Caliper
RHOB.g/cc                     : CDL Bulk Density
RHOC.g/cc                     : CDL Density Correction
DPOR.pu                       : CDL Density Porosity
NPOR.pu                       : Neutron Porosity
GR.GAPI                       : Gamma Ray
~Parameter Information Block
~A  Depth       DCAL        RHOB        RHOC        DPOR        NPOR         GR     
# ...
   783.8000      7.8777      2.5357      0.0664      6.9258     23.9189   -999.2500
   783.9000      7.8777      2.5264      0.0897      7.4933     23.8638   -999.2500
   784.0000      7.8764      2.5183      0.0533      7.9813     23.5659   -999.2500
   784.1000      7.8764      2.5162      0.0807      8.1069     23.2206   -999.2500
   784.2000      7.8764      2.5167      0.0838      8.0779     23.3637   -999.2500
   784.3000      7.8761      2.5136      0.0697      8.2667     24.0330   -999.2500
   784.4000      7.8761      2.5079      0.0623      8.6138     26.3691   -999.2500
   784.5000      7.8767      2.5067      0.0526      8.6848     32.8925   -999.2500
   784.6000      7.8767      2.5122      0.0563      8.3524     42.2949   -999.2500
   784.7000      7.8767      2.5166      0.0648      8.0868     48.8703   -999.2500
   784.8000      7.8777      2.5155      0.0433      8.1510     51.2410   -999.2500
   784.9000      7.8777      2.5155      0.0380      8.1526     51.7066   -999.2500
   785.0000      7.8791      2.5209      0.0615      7.8230     51.7559   -999.2500
   785.1000      7.8791      2.5278      0.0852      7.4064     51.7587   -999.2500
   785.2000      7.8791      2.5319      0.0583      7.1582   -999.2500   -999.2500
   785.3000      7.8803      2.5333      0.0708      7.0731   -999.2500   -999.2500
   785.4000      7.8803      2.5317      0.0690      7.1699   -999.2500   -999.2500
   785.5000      7.8818      2.5282      0.0432      7.3843   -999.2500   -999.2500
   785.6000      7.8818      2.5237      0.0716      7.6571   -999.2500   -999.2500
   785.7000      7.8818      2.5202      0.0456      7.8665   -999.2500   -999.2500
   785.8000      7.8819      2.5251      0.0621      7.5681   -999.2500   -999.2500
   785.9000      7.8819      2.5371      0.0500      6.8404   -999.2500   -999.2500
   786.0000      7.8776      2.5451      0.0948      6.3570   -999.2500   -999.2500
   786.1000      7.8776      2.5463      0.0682      6.2835   -999.2500   -999.2500
   786.2000      7.8776      2.5506      0.0541      6.0228   -999.2500   -999.2500
   786.3000      7.8729      2.5552      0.0870      5.7441   -999.2500   -999.2500
   786.4000      7.8729      2.5417      0.0518      6.5616   -999.2500   -999.2500
   786.5000      7.8730      2.5109      0.0510      8.4301   -999.2500   -999.2500
   786.6000      7.8730      2.4791      0.0506     10.3581   -999.2500   -999.2500
   786.7000      7.8730      2.4535      0.0196     11.9095   -999.2500   -999.2500
   786.8000      7.8772      2.4376      0.0062     12.8724   -999.2500   -999.2500
   786.9000      7.8772      2.4292      0.0538     13.3802   -999.2500   -999.2500
   787.0000      7.8805      2.4193      0.0203     13.9793   -999.2500   -999.2500
   787.1000      7.8805      2.4120      0.0215     14.4228   -999.2500   -999.2500
   787.2000      7.8805      2.4181      0.0304     14.0550   -999.2500   -999.2500
   787.3000      7.8811      2.4376      0.0425     12.8751   -999.2500   -999.2500
   787.4000      7.8811      2.4600      0.0678     11.5128   -999.2500   -999.2500
   787.5000      7.8801      2.4753      0.0936     10.5877   -999.2500   -999.2500
   787.6000      7.8801      2.4888      0.0416      9.7672   -999.2500   -999.2500
   787.7000      7.8801      2.5162      0.0744      8.1078   -999.2500   -999.2500
   787.8000      7.8789      2.5529      0.0899      5.8825   -999.2500   -999.2500
   787.9000      7.8789      2.5798      0.1184      4.2518   -999.2500   -999.2500
   788.0000      7.8784      2.5941      0.0847      3.3860   -999.2500   -999.2500
   788.1000      7.8784      2.6060      0.1156      2.6646   -999.2500   -999.2500
   788.2000      7.8784      2.6165      0.0906      2.0295   -999.2500   -999.2500
   788.3000      7.8790      2.6181      0.0991      1.9359   -999.2500   -999.2500
   788.4000      7.8790      2.6063      0.0968      2.6472   -999.2500   -999.2500
   788.5000      7.8803      2.5940      0.0547      3.3915   -999.2500   -999.2500
   788.6000      7.8803      2.5942      0.0840      3.3791   -999.2500   -999.2500
   788.7000      7.8803      2.5912      0.1079      3.5645   -999.2500   -999.2500
   788.8000      7.8794      2.5730      0.0397      4.6663   -999.2500   -999.2500
   788.9000      7.8794      2.5582      0.0281      5.5663   -999.2500   -999.2500
   789.0000      7.8763      2.5577      0.0449      5.5953   -999.2500   -999.2500
   789.1000      7.8763      2.5634      0.0781      5.2487   -999.2500   -999.2500
   789.2000      7.8763      2.5686      0.0660      4.9317   -999.2500   -999.2500
   789.3000      7.8753      2.5657      0.0950      5.1120   -999.2500   -999.2500
   789.4000      7.8753      2.5516      0.0289      5.9642   -999.2500   -999.2500
   789.5000      7.8765      2.5391      0.0549      6.7183   -999.2500   -999.2500
   789.6000      7.8765      2.5357      0.0808      6.9292   -999.2500   -999.2500
   789.7000      7.8765      2.5353      0.0798      6.9500   -999.2500   -999.2500
   789.8000      7.8775      2.5322      0.0959      7.1385   -999.2500   -999.2500
   789.9000      7.8775      2.5309      0.0519      7.2188   -999.2500   -999.2500
   790.0000      7.8789      2.5434      0.0529      6.4582   -999.2500   -999.2500
   790.1000      7.8789      2.5667      0.0803      5.0492   -999.2500   -999.2500
   790.2000      7.8789      2.5814      0.1036      4.1550   -999.2500   -999.2500
   790.3000      7.8767      2.5801      0.0770      4.2338   -999.2500   -999.2500
   790.4000      7.8767      2.5769      0.0590      4.4332   -999.2500   -999.2500
   790.5000      7.8621      2.5803      0.0946      4.2244   -999.2500   -999.2500
   790.6000      7.8621      2.5860      0.0761      3.8774   -999.2500   -999.2500
   790.7000      7.8621      2.5962      0.0791      3.2603   -999.2500   -999.2500
   790.8000      7.8394      2.6115      0.0849      2.3348   -999.2500   -999.2500
   790.9000      7.8394      2.6189      0.1283      1.8869   -999.2500   -999.2500
   791.0000      7.8272      2.6060      0.1017      2.6669   -999.2500   -999.2500
   791.1000      7.8272      2.5801      0.0747      4.2383   -999.2500   -999.2500
   791.2000      7.8272      2.5651      0.0560      5.1430   -999.2500   -999.2500
   791.3000      7.8256      2.5757      0.0642      4.5036   -999.2500   -999.2500
   791.4000      7.8256      2.6001      0.0905      3.0262   -999.2500   -999.2500
   791.5000      7.8244      2.6176      0.0867      1.9619   -999.2500   -999.2500
   791.6000      7.8244      2.6204      0.0785      1.7928   -999.2500   -999.2500
   791.7000      7.8244      2.6168      0.0435      2.0130   -999.2500   -999.2500
   791.8000      7.8145      2.6216      0.0509      1.7192   -999.2500   -999.2500
   791.9000      7.8145      2.6462      0.0890      0.2279   -999.2500   -999.2500
   792.0000      7.7532      2.7065      0.0530     -3.4256   -999.2500   -999.2500
   792.1000      7.7532      2.6903      0.0474     -2.4402   -999.2500   -999.2500
   792.2000      7.7532      2.2164      0.5145     26.2762   -999.2500   -999.2500
   792.3000      7.3300      1.2465      0.0730     85.0588   -999.2500   -999.2500
   792.4000      7.3300      0.4205      0.0730    135.1239   -999.2500   -999.2500
   792.5000      5.7076      0.0796   -999.2500    155.7809   -999.2500   -999.2500
   792.6000      5.7076      0.0082   -999.2500    160.1095   -999.2500   -999.2500
   792.7000      5.7076      0.0004   -999.2500    160.5791   -999.2500   -999.2500
   792.8000      3.1657      0.0000   -999.2500    160.6061   -999.2500   -999.2500
   792.9000      3.1657      0.0000   -999.2500    160.6061   -999.2500   -999.2500
   793.0000      1.6518   -999.2500   -999.2500   -999.2500   -999.2500   -999.2500
   793.1000      1.6518   -999.2500   -999.2500   -999.2500   -999.2500   -999.2500
   793.2000      1.6518   -999.2500   -999.2500   -999.2500   -999.2500   -999.2500
   793.3000      1.3162   -999.2500   -999.2500   -999.2500   -999.2500   -999.2500
