~Version Information
VERS.                      2.0: CWLS Log ASCII Standard - VERSION 2.0
WRAP.                       NO: One line per depth step
~Well Information Block
STRT.FT               741.2000: 
STOP.FT              2461.0000: 
STEP.FT                 0.1000: 
NULL.                -999.2500: 
COMP.          Petrogulf Corporation: COMPANY
WELL.           Montoya 12-44V: WELL
FLD.           Purgatorie River: FIELD
LOC.           698' FSL & 599' FEL: LOCATION
CNTY.               Las Animas: COUNTY
SRVC.                         : SERVICE COMPANY
DATE.          Mon Aug 09 06:09:04 2004: LOG DATE
UWI.           05 071 08094 00: UNIQUE WELL ID
STAT.                 Colorado: STATE
~Curve Information Block
DEPT.FT            0 000 00 00: Depth
DCAL.in                       : CDL Caliper
RHOB.g/cc                     : CDL Bulk Density
RHOC.g/cc                     : CDL Density Correction
DPOR.pu                       : CDL Density Porosity
GR.GAPI                       : Gamma Ray
NPOR.pu                       : Neutron Porosity
~Parameter Information Block
~A  Depth       DCAL        RHOB        RHOC        DPOR         GR         NPOR    
# ...
  1662.8000      7.9600      2.4095      0.0535     14.5746    153.4639     28.5357
  1662.9000      7.9600      2.3934      0.0075     15.5529    155.5490     28.9083
  1663.0000      8.0010      2.4040      0.0246     14.9075    153.6050     29.0718
  1663.1000      8.0010      2.4370      0.0048     12.9119    147.4787     28.8614
  1663.2000      8.0010      2.4809      0.0526     10.2456    143.3807     28.4048
  1663.3000      8.1205      2.5210      0.1022      7.8206    145.9276     27.6205
  1663.4000      8.1205      2.5475      0.1401      6.2111    152.4182     27.0250
  1663.5000      8.2254      2.5642      0.1463      5.1973    158.5769     27.2457
  1663.6000      8.2254      2.5748      0.1756      4.5580    159.0978     27.9720
  1663.7000      8.2254      2.5686      0.2129      4.9335    152.2983     28.1443
  1663.8000      8.1920      2.5478      0.0895      6.1958    144.1916     27.1240
  1663.9000      8.1920      2.5380      0.0496      6.7859    139.7980     25.7933
  1664.0000      7.9191      2.5445      0.0437      6.3935    137.3440     25.4094
  1664.1000      7.9191      2.5479      0.0540      6.1888    132.4811     25.6996
  1664.2000      7.9191      2.5353      0.0896      6.9539    125.3554     25.4793
  1664.3000      7.8757      2.5154     -0.0003      8.1579    117.8084     24.6699
  1664.4000      7.8757      2.5131      0.0448      8.2975    111.2185     24.1921
  1664.5000      7.8691      2.5310      0.0380      7.2122    108.6959     24.1680
  1664.6000      7.8691      2.5464      0.0590      6.2813    110.5732     23.8603
  1664.7000      7.8691      2.5495      0.0262      6.0926    116.4888     22.9539
  1664.8000      7.8692      2.5545      0.0182      5.7885    123.7182     22.3213
  1664.9000      7.8692      2.5678      0.0699      4.9831    123.7506     22.7371
  1665.0000      7.8651      2.5796      0.0906      4.2651    114.9576     23.4688
  1665.1000      7.8651      2.5891      0.0926      3.6904    103.0029     23.8079
  1665.2000      7.8651      2.6026      0.1100      2.8719     94.6119     23.9802
  1665.3000      7.8419      2.6107      0.1718      2.3814     97.2875     24.0917
  1665.4000      7.8419      2.6002      0.1081      3.0157    112.7203     24.2249
  1665.5000      7.8455      2.5804      0.1122      4.2167    129.0668     24.5134
  1665.6000      7.8455      2.5662      0.1254      5.0811    133.4542     24.7113
  1665.7000      7.8455      2.5661      0.0777      5.0819    127.7875     24.5338
  1665.8000      7.8668      2.5884      0.0918      3.7351    119.6601     24.1012
  1665.9000      7.8668      2.6281      0.1134      1.3247    114.1867     23.6266
  1666.0000      7.8693      2.6675      0.1540     -1.0578    113.1434     23.3264
  1666.1000      7.8693      2.6891      0.1648     -2.3669    110.4895     23.0900
  1666.2000      7.8693      2.6863      0.1767     -2.2014    100.4646     22.7210
  1666.3000      7.8348      2.6672      0.1444     -1.0425     89.5389     22.3946
  1666.4000      7.8348      2.6508      0.1247     -0.0507     84.9052     22.3168
  1666.5000      7.8085      2.6457      0.1415      0.2607     84.5862     22.1337
  1666.6000      7.8085      2.6448      0.1309      0.3135     85.2761     21.3629
  1666.7000      7.8085      2.6444      0.0818      0.3371     84.5305     20.6459
  1666.8000      7.8043      2.6384      0.1172      0.7047     79.5813     20.4668
  1666.9000      7.8043      2.6185      0.0939      1.9065     74.8622     19.9550
  1667.0000      7.8246      2.5951      0.0670      3.3302     76.2124     19.1669
  1667.1000      7.8246      2.5813      0.0810      4.1646     79.6647     18.9761
  1667.2000      7.8246      2.5795      0.0164      4.2711     80.1208     19.3428
  1667.3000      7.8338      2.5926      0.0428      3.4785     77.1297     19.7944
  1667.4000      7.8338      2.6180      0.0548      1.9396     72.9307     19.7487
  1667.5000      7.8501      2.6412      0.0879      0.5348     72.9557     18.8910
  1667.6000      7.8501      2.6455      0.0891      0.2699     79.2768     18.0963
  1667.7000      7.8501      2.6312      0.0576      1.1413     85.8794     18.2557
  1667.8000      7.8363      2.6163      0.0533      2.0399     88.6718     19.0181
  1667.9000      7.8363      2.6124      0.0857      2.2800     88.6850     19.3421
  1668.0000      7.8257      2.6161      0.0587      2.0529     86.8408     18.9506
  1668.1000      7.8257      2.6276      0.0599      1.3582     84.1767     18.5290
  1668.2000      7.8257      2.6468      0.0922      0.1933     81.3260     18.1266
  1668.3000      7.8397      2.6593      0.1075     -0.5640     79.0226     17.4976
  1668.4000      7.8397      2.6501      0.0848     -0.0042     76.6731     17.3917
  1668.5000      7.8660      2.6272      0.0320      1.3804     75.9394     18.1698
  1668.6000      7.8660      2.6130      0.0133      2.2453     81.0732     19.0002
  1668.7000      7.8660      2.6135      0.0561      2.2124     87.3146     19.2784
  1668.8000      7.8758      2.6185      0.0462      1.9121     85.9451     19.3933
  1668.9000      7.8758      2.6185      0.0430      1.9087     81.2551     20.0440
  1669.0000      7.8861      2.6079      0.0576      2.5486     81.9835     21.0073
  1669.1000      7.8861      2.5808      0.0407      4.1926     87.8960     21.6966
  1669.2000      7.8861      2.5408      0.0139      6.6203     94.8681     22.1168
  1669.3000      7.8884      2.5073      0.0027      8.6481    102.1982     22.5562
  1669.4000      7.8884      2.4942     -0.0194      9.4403    107.1188     22.9290
  1669.5000      7.8948      2.4987     -0.0220      9.1720    109.8984     23.3225
  1669.6000      7.8948      2.5136      0.0345      8.2674    117.5664     24.2170
  1669.7000      7.8948      2.5315      0.0695      7.1800    129.2668     25.0811
  1669.8000      7.9094      2.5498      0.0459      6.0714    135.9510     25.0818
  1669.9000      7.9094      2.5695      0.0898      4.8779    133.6941     24.6109
  1670.0000      7.9104      2.5830      0.0662      4.0613    124.3992     24.3556
  1670.1000      7.9104      2.5853      0.1030      3.9195    112.9997     24.3777
  1670.2000      7.9104      2.5853      0.0586      3.9212    106.8989     24.1987
  1670.3000      7.9013      2.5886      0.1227      3.7240    106.6673     24.0852
  1670.4000      7.9013      2.5840      0.0808      4.0011    106.9876     24.5244
  1670.5000      7.8810      2.5729      0.0508      4.6727    107.0761     24.9261
  1670.6000      7.8810      2.5663      0.0677      5.0750    112.1320     25.3054
  1670.7000      7.8810      2.5551      0.0698      5.7536    124.9133     26.2405
  1670.8000      7.8899      2.5329      0.0320      7.0981    138.0014     27.3359
  1670.9000      7.8899      2.5119      0.0132      8.3672    144.5249     27.9715
  1671.0000      7.8950      2.5027      0.0318      8.9295    145.5199     27.9726
  1671.1000      7.8950      2.5003      0.0472      9.0701    144.9374     27.4380
  1671.2000      7.8950      2.4976      0.0391      9.2380    147.3045     26.8106
  1671.3000      7.9059      2.4959      0.0607      9.3413    149.7824     26.7636
  1671.4000      7.9059      2.4984      0.0659      9.1887    147.8111     27.4112
  1671.5000      7.9088      2.5033      0.0950      8.8881    147.4732     28.1119
  1671.6000      7.9088      2.5110      0.0778      8.4227    153.1347     28.4810
  1671.7000      7.9088      2.5276      0.0973      7.4209    156.9916     28.6685
  1671.8000      7.9070      2.5522      0.1326      5.9279    154.6364     28.8419
  1671.9000      7.9070      2.5762      0.1918      4.4699    152.6244     29.1222
  1672.0000      7.8855      2.5950      0.1803      3.3326    152.6200     29.3401
  1672.1000      7.8855      2.6076      0.1968      2.5714    147.8380     29.1765
  1672.2000      7.8855      2.6058      0.2198      2.6797    139.9677     28.4662
  1672.3000      7.8750      2.5847      0.1889      3.9603    138.9165     27.6560
