~Version Information
VERS.                      2.0: CWLS Log ASCII Standard - VERSION 2.0
WRAP.                       NO: One line per depth step
~Well Information Block
STRT.FT              1727.9000: 
STOP.FT              1961.0000: 
STEP.FT                 0.1000: 
NULL.                -999.2500: 
COMP.          Petrogulf Corporation: COMPANY
WELL.              Royal 8-33R: WELL
FLD.           Purgatorie River: FIELD
LOC.           2401' FSL & 2270' FEL: LOCATION
CNTY.               Las Animas: COUNTY
SRVC.                         : SERVICE COMPANY
DATE.          Mon Apr 26 06:57:24 2004: LOG DATE
UWI.           05 071 08041 00: UNIQUE WELL ID
STAT.                 Colorado: STATE
~Curve Information Block
DEPT.FT            0 000 00 00: Depth
DCAL.in                       : CDL Caliper
RHOB.g/cc                     : CDL Bulk Density
RHOC.g/cc                     : CDL Density Correction
DPOR.pu                       : CDL Density Porosity
GR.GAPI                       : Gamma Ray
~Parameter Information Block
~A  Depth       DCAL        RHOB        RHOC        DPOR         GR     
# ...
  1895.9000      7.8603      2.5335      0.0665      7.0628     86.5616
  1896.0000      7.8586      2.5281      0.0561      7.3871     91.8355
  1896.1000      7.8586      2.5322      0.0175      7.1420    107.8927
  1896.2000      7.8586      2.5472      0.0346      6.2302    125.4036
  1896.3000      7.8586      2.5777      0.0819      4.3809    132.9165
  1896.4000      7.8586      2.6080      0.1050      2.5460    128.4868
  1896.5000      7.8611      2.6137      0.1211      2.2017    115.9660
  1896.6000      7.8611      2.5801      0.1137      4.2389    106.6475
  1896.7000      7.8611      2.5341      0.0805      7.0244    107.3622
  1896.8000      7.8639      2.5237      0.0336      7.6561    114.3171
  1896.9000      7.8639      2.5484      0.1130      6.1550    125.9293
  1897.0000      7.8542      2.5615      0.1137      5.3662    134.2625
  1897.1000      7.8542      2.5407      0.0764      6.6224    131.2189
  1897.2000      7.8542      2.5140      0.0289      8.2450    125.1473
  1897.3000      7.8573      2.5251     -0.0040      7.5687    122.3954
  1897.4000      7.8573      2.5730      0.1541      4.6672    121.9953
  1897.5000      7.8543      2.6083      0.0548      2.5292    123.4082
  1897.6000      7.8543      2.6127      0.0558      2.2585    122.9090
  1897.7000      7.8543      2.6026      0.0619      2.8740    119.7704
  1897.8000      7.8514      2.5959      0.0027      3.2800    117.8520
  1897.9000      7.8514      2.6080      0.0112      2.5427    116.3065
  1898.0000      7.8661      2.6274      0.1238      1.3677    114.1258
  1898.1000      7.8661      2.6200      0.1076      1.8197    116.7656
  1898.2000      7.8661      2.5784      0.0716      4.3394    128.4883
  1898.3000      7.8519      2.5325      0.0320      7.1191    143.5337
  1898.4000      7.8519      2.5066      0.0230      8.6894    152.4748
  1898.5000      7.8587      2.4967     -0.0269      9.2890    152.8001
  1898.6000      7.8587      2.4994      0.0448      9.1277    140.3414
  1898.7000      7.8587      2.5209      0.0406      7.8271    120.9234
  1898.8000      7.8616      2.5563      0.0269      5.6803    112.3977
  1898.9000      7.8616      2.5939      0.0382      3.4026    114.1143
  1899.0000      7.8593      2.6215      0.1426      1.7267    113.8726
  1899.1000      7.8593      2.6269      0.0830      1.3993    110.5448
  1899.2000      7.8593      2.6036      0.1292      2.8112    107.7185
  1899.3000      7.8561      2.5671     -0.0076      5.0266    101.0742
  1899.4000      7.8561      2.5605      0.0042      5.4258     88.7124
  1899.5000      7.8611      2.5825      0.1281      4.0886     78.8124
  1899.6000      7.8611      2.5816      0.1375      4.1475     76.1496
  1899.7000      7.8611      2.5548     -0.0043      5.7708     79.1294
  1899.8000      7.8496      2.5431      0.0721      6.4783     89.3902
  1899.9000      7.8496      2.5586      0.0566      5.5377    108.8891
  1900.0000      7.8291      2.5788      0.1439      4.3161    124.3330
  1900.1000      7.8291      2.5747      0.1583      4.5628    124.7421
  1900.2000      7.8291      2.5592      0.0192      5.5033    119.6296
  1900.3000      7.8204      2.5613      0.1308      5.3753    119.3581
  1900.4000      7.8204      2.5692      0.1083      4.8965    121.3579
  1900.5000      7.7962      2.5688      0.1267      4.9208    117.7229
  1900.6000      7.7962      2.5707      0.0518      4.8081    104.8125
  1900.7000      7.7962      2.5818      0.1152      4.1317     90.7231
  1900.8000      7.7954      2.5928      0.0398      3.4685     89.6533
  1900.9000      7.7954      2.5868      0.1663      3.8299    104.0197
  1901.0000      7.8208      2.5516      0.1138      5.9659    122.3312
  1901.1000      7.8208      2.5079      0.0223      8.6099    132.6887
  1901.2000      7.8208      2.4893      0.0675      9.7367    131.6248
  1901.3000      7.8319      2.5044      0.1027      8.8259    122.8765
  1901.4000      7.8319      2.5470      0.1785      6.2434    113.1088
  1901.5000      7.8397      2.6112      0.2060      2.3530    112.6012
  1901.6000      7.8397      2.6757      0.2647     -1.5548    123.9764
  1901.7000      7.8397      2.7160      0.2671     -4.0003    137.2698
  1901.8000      7.8499      2.7294      0.3770     -4.8109    145.0232
  1901.9000      7.8499      2.7133      0.3059     -3.8342    145.0511
  1902.0000      7.8709      2.6710      0.1985     -1.2743    138.2780
  1902.1000      7.8709      2.6251      0.2640      1.5080    128.0051
  1902.2000      7.8709      2.5882      0.2284      3.7476    117.4414
  1902.3000      7.8831      2.5603      0.0677      5.4380    117.2184
  1902.4000      7.8831      2.5473      0.0299      6.2251    132.7216
  1902.5000      7.8820      2.5545      0.0950      5.7862    154.3969
  1902.6000      7.8820      2.5697      0.1454      4.8662    168.9720
  1902.7000      7.8820      2.5617      0.1636      5.3512    169.5455
  1902.8000      7.8796      2.5196      0.0591      7.9044    159.4081
  1902.9000      7.8796      2.4712      0.0101     10.8378    154.1542
  1903.0000      7.8858      2.4414      0.0351     12.6413    160.5111
  1903.1000      7.8858      2.4380      0.0454     12.8494    162.0387
  1903.2000      7.8858      2.4632      0.0384     11.3212    149.4487
  1903.3000      7.8984      2.5030      0.1456      8.9079    140.6684
  1903.4000      7.8984      2.5256      0.1386      7.5415    146.2572
  1903.5000      7.9464      2.5228      0.0937      7.7072    153.7923
  1903.6000      7.9464      2.5121      0.1596      8.3555    154.8263
  1903.7000      7.9464      2.4991      0.0953      9.1466    153.9964
  1903.8000      7.9247      2.4852      0.0874      9.9891    150.7105
  1903.9000      7.9247      2.4799      0.0950     10.3114    137.7560
  1904.0000      7.8741      2.5028      0.0091      8.9182    123.4198
  1904.1000      7.8741      2.5625      0.1228      5.3027    122.5267
  1904.2000      7.8741      2.6265      0.1783      1.4242    127.5782
  1904.3000      7.8870      2.6603      0.1354     -0.6235    122.8423
  1904.4000      7.8870      2.6637      0.1226     -0.8310    114.2658
  1904.5000      7.8847      2.6516      0.1123     -0.0963    113.7470
  1904.6000      7.8847      2.6210      0.1496      1.7571    117.6017
  1904.7000      7.8847      2.5616      0.1172      5.3599    116.7418
  1904.8000      7.8500      2.5068     -0.0018      8.6766    113.7349
  1904.9000      7.8500      2.4891      0.0879      9.7508    120.0717
  1905.0000      7.8588      2.4842      0.0770     10.0505    135.5741
  1905.1000      7.8588      2.4806      0.0622     10.2680    145.2957
  1905.2000      7.8588      2.5015      0.0895      8.9980    144.2626
  1905.3000      7.8684      2.5479      0.0840      6.1907    141.3007
  1905.4000      7.8684      2.5908      0.1815      3.5878    140.0891
  1905.5000      7.8747      2.6031      0.2238      2.8403    135.7803
  1905.6000      7.8747      2.5885      0.2438      3.7292    129.9141
  1905.7000      7.8747      2.5803      0.1282      4.2246    132.8945
  1905.8000      7.8635      2.5981      0.2230      3.1468    140.8817
  1905.9000      7.8635      2.6017      0.2302      2.9260    140.0732
  1906.0000      7.8519      2.5360      0.1667      6.9062    134.3112
  1906.1000      7.8519      2.4027      0.0381     14.9850    135.0094
  1906.2000      7.8519      2.2472      0.0359     24.4103    135.3332
  1906.3000      7.8472      2.1023     -0.0090     33.1911    122.2318
  1906.4000      7.8472      1.9839     -0.0555     40.3699     99.3405
  1906.5000      7.8382      1.9123     -0.0925     44.7066     83.3407
  1906.6000      7.8382      1.8974     -0.0335     45.6097     82.2819
  1906.7000      7.8382      1.9226     -0.0268     44.0843     87.2303
  1906.8000      7.8493      1.9667      0.0404     41.4106     83.7271
  1906.9000      7.8493      2.0242      0.0869     37.9266     70.7265
  1907.0000      7.8839      2.0918      0.1048     33.8306     65.8823
