~Version Information
VERS.                      2.0: CWLS Log ASCII Standard - VERSION 2.0
WRAP.                       NO: One line per depth step
~Well Information Block
STRT.FT               480.0000: 
STOP.FT              1994.2500: 
STEP.FT                 0.2500: 
NULL.                -999.2500: 
COMP.          Evergreen Operating Corporation: COMPANY
WELL.          McCullough 34-32 Tr: WELL
FLD.           Purgatoire River: FIELD
LOC.           394' FSL & 2077' FEL: LOCATION
PROV.                 Colorado: PROVINCE
CNTY.               Las Animas: COUNTRY
SRVC.                Patterson: SERVICE COMPANY
DATE.          Sun Sep 19 05:48:59 2004: LOG DATE
UWI.           05 071 08157 00: UNIQUE WELL ID
~Curve Information Block
DEPT.FT            0 000 00 00: Depth
SN.Ohm-m                      : IEL Short Normal
SP.mV                         : IEL Spontaneous Potential
DIR.Ohm-m                     : IEL Induction Resistivity
GR.GAPI                       : Gamma Ray
~Parameter Information Block
~A  Depth        SN          SP         DIR          GR     
# ...
   781.5000     52.9714    288.0759     38.5353     78.6100
   781.7500     53.2656    287.9101     38.5341     78.7275
   782.0000     53.4063    287.7251     38.4803     79.6444
   782.2500     53.4328    287.5038     38.3638     80.4562
   782.5000     53.3323    287.2383     38.2182     81.7279
   782.7500     53.0915    286.9340     38.0875     82.6384
   783.0000     52.7553    286.6086     37.9730     84.4912
   783.2500     52.4232    286.2871     37.8116     86.5586
   783.5000     52.1768    285.9938     37.5107     91.7842
   783.7500     52.0084    285.7446     37.0105     96.5452
   784.0000     51.8127    285.5434     36.3127    103.7920
   784.2500     51.4382    285.3832     35.4605    107.3608
   784.5000     50.7542    285.2528     34.5155    109.7228
   784.7500     49.7099    285.1435     33.5694    109.6058
   785.0000     48.3764    285.0547     32.7545    108.3138
   785.2500     46.9511    284.9940     32.2087    107.6294
   785.5000     45.6963    284.9741     32.0149    108.1125
   785.7500     44.8180    285.0077     32.1628    109.6863
   786.0000     44.3433    285.1046     32.5580    113.1444
   786.2500     44.0720    285.2689     33.0576    115.1346
   786.5000     43.6546    285.4984     33.5100    115.6728
   786.7500     42.7901    285.7841     33.7891    113.8046
   787.0000     41.4456    286.1078     33.8286    108.7515
   787.2500     39.9499    286.4421     33.6490    105.7155
   787.5000     38.8748    286.7523     33.3525    104.9184
   787.7500     38.7727    287.0041     33.0821    107.5128
   788.0000     39.9274    287.1749     32.9697    114.0916
   788.2500     42.2356    287.2637     33.0995    118.0083
   788.5000     45.2550    287.2940     33.5008    119.4884
   788.7500     48.3913    287.3083     34.1605    116.2671
   789.0000     51.1527    287.3546     35.0429    105.0092
   789.2500     53.3539    287.4717     36.0942     94.3483
   789.5000     55.1690    287.6782     37.2258     76.8080
   789.7500     57.0123    287.9671     38.2970     65.8688
   790.0000     59.3016    288.3090     39.1332     52.3683
   790.2500     62.2019    288.6589     39.5998     45.5712
   790.5000     65.4674    288.9661     39.6858     38.5150
   790.7500     68.4864    289.1826     39.5170     35.7971
   791.0000     70.5162    289.2704     39.2733     34.6087
   791.2500     70.9550    289.2041     39.0676     35.5958
   791.5000     69.4946    288.9719     38.8661     39.1184
   791.7500     66.1441    288.5735     38.4957     42.3211
   792.0000     61.2122    288.0174     37.7400     47.7938
   792.2500     55.2765    287.3178     36.4698     51.9733
   792.5000     49.0697    286.4940     34.7139     60.0414
   792.7500     43.2641    285.5716     32.6291     67.3699
   793.0000     38.2683    284.5846     30.4088     81.8859
   793.2500     34.1778    283.5757     28.2076     93.4449
   793.5000     30.8825    282.5929     26.1168    111.2734
   793.7500     28.2144    281.6813     24.1760    121.6970
   794.0000     26.0315    280.8745     22.4031    132.9424
   794.2500     24.2312    280.1877     20.8206    137.3485
   794.5000     22.7433    279.6170     19.4669    140.6311
   794.7500     21.5268    279.1435     18.3830    141.6428
   795.0000     20.5631    278.7408     17.5887    142.7927
   795.2500     19.8358    278.3831     17.0665    143.7582
   795.5000     19.3133    278.0506     16.7658    145.3628
   795.7500     18.9477    277.7323     16.6219    145.8008
   796.0000     18.6867    277.4248     16.5756    143.6493
   796.2500     18.4866    277.1297     16.5798    139.5819
   796.5000     18.3224    276.8492     16.5970    129.8334
   796.7500     18.1914    276.5842     16.6002    122.1115
   797.0000     18.1075    276.3336     16.5809    111.8399
   797.2500     18.0880    276.0952     16.5514    107.6193
   797.5000     18.1369    275.8657     16.5353    106.5986
   797.7500     18.2342    275.6402     16.5500    108.8727
   798.0000     18.3403    275.4099     16.5942    114.0210
   798.2500     18.4147    275.1610     16.6484    117.0212
   798.5000     18.4366    274.8755     16.6867    119.5174
   798.7500     18.4125    274.5353     16.6929    119.9058
   799.0000     18.3659    274.1293     16.6690    119.4536
   799.2500     18.3212    273.6616     16.6310    119.0557
   799.5000     18.2925    273.1566     16.5967    118.9562
   799.7500     18.2800    272.6590     16.5745    119.1680
   800.0000     18.2696    272.2244     16.5578    119.2221
   800.2500     18.2372    271.9023     16.5283    118.7927
   800.5000     18.1588    271.7151     16.4658    117.8455
   800.7500     18.0175    271.6449     16.3622    117.6254
   801.0000     17.8050    271.6346     16.2295    118.6603
   801.2500     17.5168    271.6090     16.0952    120.2221
   801.5000     17.1507    271.5045     15.9879    123.3317
   801.7500     16.7101    271.2953     15.9233    125.6722
   802.0000     16.2120    271.0001     15.9011    129.4754
   802.2500     15.6921    270.6681     15.9132    132.1288
   802.5000     15.2052    270.3537     15.9578    135.8073
   802.7500     14.8141    270.0937     16.0478    137.6661
   803.0000     14.5738    269.8983     16.2067    139.0374
   803.2500     14.5258    269.7555     16.4536    138.8620
   803.5000     14.7151    269.6436     16.7919    137.0464
   803.7500     15.2123    269.5434     17.2082    135.0684
   804.0000     16.1085    269.4458     17.6817    131.5196
   804.2500     17.4713    269.3514     18.1935    128.9108
   804.5000     19.2822    269.2667     18.7283    124.5914
   804.7500     21.3943    269.1980     19.2673    121.5068
   805.0000     23.5583    269.1469     19.7818    116.9365
   805.2500     25.5208    269.1088     20.2388    113.9843
   805.5000     27.1324    269.0741     20.6265    109.0738
   805.7500     28.3856    269.0308     20.9850    104.9246
   806.0000     29.3741    268.9676     21.4105     96.9692
   806.2500     30.2306    268.8763     22.0197     90.6954
   806.5000     31.0854    268.7526     22.8953     80.4795
   806.7500     32.0437    268.5950     24.0470     73.6449
   807.0000     33.1707    268.4034     25.4072     64.6746
   807.2500     34.4846    268.1772     26.8628     60.4017
   807.5000     35.9614    267.9160     28.3041     57.2602
   807.7500     37.5498    267.6215     29.6573     57.0104
   808.0000     39.1840    267.3002     30.8847     57.9137
   808.2500     40.7924    266.9641     31.9631     58.4494
   808.5000     42.3084    266.6288     32.8698     58.2364
   808.7500     43.6898    266.3086     33.5863     57.4139
   809.0000     44.9294    266.0119     34.1166     55.7593
   809.2500     46.0468    265.7382     34.4966     54.6473
   809.5000     47.0685    265.4796     34.7872     52.6831
   809.7500     48.0062    265.2266     35.0488     50.7834
   810.0000     48.8358    264.9745     35.3165     47.0523
   810.2500     49.4823    264.7298     35.5867     44.6289
   810.5000     49.8226    264.5103     35.8155     42.6040
   810.7500     49.7030    264.3388     35.9236     42.8352
   811.0000     48.9659    264.2330     35.8060     45.3547
   811.2500     47.4906    264.1957     35.3491     48.0204
   811.5000     45.2609    264.2115     34.4658     53.0477
   811.7500     42.4272    264.2518     33.1398     57.3624
   812.0000     39.2948    264.2852     31.4507     66.4254
   812.2500     36.2106    264.2888     29.5531     74.7326
   812.5000     33.4209    264.2544     27.6214     90.3358
   812.7500     31.0103    264.1881     25.7986    101.8543
   813.0000     28.9483    264.1033     24.1744    118.3204
   813.2500     27.1764    264.0125     22.7852    127.4833
   813.5000     25.6608    263.9216     21.6261    137.7232
   813.7500     24.3988    263.8293     20.6690    142.5947
   814.0000     23.4021    263.7309     19.8833    147.8672
   814.2500     22.6779    263.6230     19.2526    150.1453
   814.5000     22.2157    263.5071     18.7808    151.7789
   814.7500     21.9888    263.3882     18.4888    152.3445
