~Version Information
VERS.                      2.0: CWLS Log ASCII Standard - VERSION 2.0
WRAP.                       NO: One line per depth step
~Well Information Block
STRT.FT                 0.5000: 
STOP.FT              2891.5000: 
STEP.FT                 0.2500: 
NULL.                -999.2500: 
COMP.          Petrogulf Corporation: COMPANY
WELL.            Montoya 1-41V: WELL
FLD.           Purgatoire River: FIELD
LOC.           610' FNL & 1205' FEL--: LOCATION
PROV.                 Colorado: PROVINCE
CNTY.               Las Animas: COUNTRY
SRVC.                Patterson: SERVICE COMPANY
DATE.          Mon Sep 12 11:42:30 2005: LOG DATE
UWI.           05 071 08144 00: UNIQUE WELL ID
~Curve Information Block
DEPT.FT            0 000 00 00: Depth
CCL.                          : Casing Collar Locator
TT3.usec                      : CBL 3' Travel Time
AMP3.mV                       : CBL 3' Amplitude
GR.GAPI                       : Gamma Ray
~Parameter Information Block
~A  Depth       CCL         TT3         AMP3         GR     
# ...
   201.5000      0.0000    715.2780      8.9259     78.6882
   201.7500      0.0000    722.8055      9.0513     75.8031
   202.0000      0.0000    717.6801      9.0936     73.5127
   202.2500      0.0000    707.6078      9.0884     72.8654
   202.5000      0.0000    701.8050      9.0638     74.8015
   202.7500      0.0000    704.7028      9.0476     79.2251
   203.0000      0.0000    711.7170      9.0621     84.6894
   203.2500      0.0000    714.3438      9.1006     89.4248
   203.5000      0.0000    708.0726      9.1123     92.5965
   203.7500      0.0000    693.0363      9.0289     94.3163
   204.0000      0.0000    670.5827      8.8293     94.7657
   204.2500      0.0000    644.1255      8.5718     93.8755
   204.5000      0.0000    621.7930      8.3414     91.8735
   204.7500      0.0000    613.1761      8.1515     89.5832
   205.0000      0.0000    622.0554      7.9073     87.7800
   205.2500      0.0000    643.7556      7.4883     86.4468
   205.5000      0.0000    669.5399      6.8797     85.0378
   205.7500      0.0000    693.1781      6.2147     83.2344
   206.0000      0.0000    713.9210      5.6752     81.0233
   206.2500      0.0000    734.3521      5.3561     78.4044
   206.5000      2.0000    755.7604      5.2317     75.5931
   206.7500      0.0000    774.8831      5.2229     73.2709
   207.0000     -2.0000    784.7784      5.2724     72.1158
   207.2500      0.0000    779.8903      5.3677     72.0563
   207.5000      0.0000    760.9827      5.5216     72.2056
   207.7500      0.0000    735.0229      5.7329     71.5320
   208.0000      0.0000    710.1547      5.9656     69.6288
   208.2500      0.0000    691.0437      6.1686     67.0534
   208.5000      0.0000    678.3233      6.3090     64.9985
   208.7500      0.0000    670.2798      6.3793     64.4414
   209.0000      0.0000    663.9186      6.3875     65.4940
   209.2500      0.0000    656.1663      6.3521     67.5034
   209.5000      0.0000    645.9666      6.2946     69.5568
   209.7500      0.0000    634.5090      6.2296     70.8618
   210.0000      0.0000    621.8294      6.1648     71.0006
   210.2500      0.0000    604.7695      6.1085     70.0878
   210.5000      0.0000    580.9253      6.0738     68.6411
   210.7500      0.0000    553.5273      6.0699     67.1641
   211.0000      0.0000    529.7604      6.0933     65.8323
   211.2500      0.0000    514.8276      6.1285     64.6103
   211.5000      0.0000    508.9808      6.1585     63.5908
   211.7500      0.0000    508.8477      6.1733     63.0911
   212.0000      0.0000    509.7215      6.1710     63.4213
   212.2500      0.0000    507.9646      6.1543     64.5399
   212.5000      0.0000    503.9473      6.1257     65.7465
   212.7500      0.0000    503.0435      6.0877     65.8378
   213.0000      0.0000    511.5900      6.0445     64.0555
   213.2500      0.0000    530.4868      6.0015     61.0193
   213.5000      0.0000    553.7667      5.9612     58.3274
   213.7500      0.0000    574.9385      5.9226     57.0624
   214.0000      0.0000    593.4822      5.8852     56.9755
   214.2500      0.0000    612.5468      5.8525     57.1986
   214.5000      0.0000    631.0168      5.8278     57.3705
   214.7500      0.0000    641.2669      5.8081     57.9516
   215.0000      0.0000    635.6442      5.7851     59.7797
   215.2500      0.0000    613.4975      5.7507     63.4368
   215.5000      0.0000    581.7621      5.6996     68.6815
   215.7500      0.0000    550.2152      5.6324     74.1972
   216.0000      0.0000    526.3307      5.5567     78.0731
   216.2500      0.0000    513.1148      5.4842     78.9417
   216.5000      0.0000    510.4389      5.4244     76.8858
   216.7500      0.0000    517.1122      5.3822     73.2310
   217.0000      0.0000    530.4089      5.3601     69.4243
   217.2500      0.0000    544.0817      5.3617     66.2221
   217.5000      0.0000    549.9137      5.3917     63.9128
   217.7500      0.0000    543.8652      5.4468     62.8822
   218.0000      0.0000    529.7645      5.5088     63.4591
   218.2500      0.0000    515.3437      5.5537     65.3978
   218.5000      0.0000    505.6192      5.5687     68.2264
   218.7500      0.0000    500.8918      5.5610     72.1337
   219.0000      0.0000    499.1893      5.5493     77.6718
   219.2500      0.0000    498.7547      5.5480     84.3055
   219.5000      0.0000    498.7021      5.5571     89.8957
   219.7500      0.0000    498.7028      5.5645     92.0817
   220.0000      0.0000    498.6708      5.5569     90.0728
   220.2500      0.0000    498.5974      5.5295     85.0720
   220.5000      0.0000    498.5094      5.4896     79.2034
   220.7500      0.0000    498.4370      5.4525     74.1324
   221.0000      0.0000    498.4088      5.4337     70.4291
   221.2500      0.0000    498.4356      5.4421     67.8042
   221.5000      0.0000    498.4918      5.4792     65.7825
   221.7500      0.0000    498.5304      5.5413     64.3238
   222.0000      0.0000    498.5320      5.6182     63.8533
   222.2500      0.0000    498.5307      5.6920     64.6296
   222.5000      0.0000    498.5850      5.7456     66.1812
   222.7500      0.0000    498.7271      5.7716     67.4689
   223.0000      0.0000    498.9436      5.7741     67.4939
   223.2500      0.0000    499.1912      5.7628     65.8669
   223.5000      0.0000    499.4101      5.7479     63.1273
   223.7500      0.0000    499.5353      5.7385     60.4736
   224.0000      0.0000    499.5461      5.7393     58.7931
   224.2500      0.0000    499.5509      5.7440     57.9094
   224.5000      0.0000    500.0063      5.7362     56.9915
   224.7500      0.0000    502.2285      5.7020     55.7055
   225.0000      0.0000    509.2575      5.6435     54.7664
   225.2500      0.0000    525.9125      5.5798     55.2965
   225.5000      0.0000    556.0524      5.5304     57.6726
   225.7500      0.0000    597.1065      5.4986     61.0963
   226.0000      0.0000    637.3608      5.4701     64.3247
   226.2500      0.0000    661.6805      5.4298     66.6508
   226.5000      0.0000    661.8672      5.3791     68.0248
   226.7500      0.0000    640.8614      5.3321     68.5145
   227.0000      0.0000    607.8565      5.2989     68.0073
   227.2500      0.0000    572.2050      5.2766     66.4648
   227.5000      0.0000    541.2299      5.2569     64.3214
   227.7500      0.0000    519.3499      5.2375     62.3672
   228.0000      0.0000    507.1400      5.2219     61.0156
   228.2500      0.0000    502.3068      5.2141     59.9301
   228.5000      0.0000    502.4673      5.2167     58.7136
   228.7500      0.0000    507.1929      5.2309     57.6202
   229.0000      0.0000    518.2112      5.2566     57.0991
   229.2500      0.0000    538.0670      5.2925     56.9206
   229.5000      0.0000    567.4600      5.3399     56.3118
   229.7500      0.0000    602.0197      5.4034     54.8286
   230.0000      0.0000    632.0326      5.4866     52.6648
   230.2500      0.0000    648.1327      5.5887     50.2271
   230.5000      0.0000    648.8041      5.7030     47.8788
   230.7500      0.0000    640.6965      5.8162     46.0724
   231.0000      0.0000    630.8509      5.9118     45.2830
   231.2500      0.0000    620.3703      5.9779     45.7301
   231.5000      0.0000    606.4686      6.0139     47.3891
   231.7500      0.0000    588.7177      6.0278     50.1635
   232.0000      0.0000    571.0560      6.0312     53.7455
   232.2500      0.0000    557.8789      6.0331     57.3836
   232.5000      0.0000    550.9733      6.0345     60.2045
   232.7500      0.0000    551.9906      6.0253     61.9038
   233.0000      0.0000    565.1409      5.9902     62.9824
   233.2500      0.0000    593.0974      5.9214     64.2284
   233.5000      0.0000    629.7591      5.8251     66.0080
   233.7500      0.0000    660.2435      5.7144     68.0064
   234.0000      0.0000    671.1454      5.6012     69.6475
   234.2500      0.0000    662.1416      5.4953     70.7654
   234.5000      0.0000    646.6198      5.4024     71.6896
   234.7500      0.0000    638.9543      5.3188     72.4682
