~Version Information
VERS.                      2.0: CWLS Log ASCII Standard - VERSION 2.0
WRAP.                       NO: One line per depth step
~Well Information Block
STRT.FT               250.0000: 
STOP.FT              2600.7500: 
STEP.FT                 0.2500: 
NULL.                -999.2500: 
COMP.          Pioneer Natural Resources: COMPANY
WELL.              Quack 22-24: WELL
FLD.           Purgatoire River: FIELD
LOC.           2492' FNL & 2459' FWL--: LOCATION
PROV.                 Colorado: PROVINCE
CNTY.               Las Animas: COUNTRY
SRVC.                Patterson: SERVICE COMPANY
DATE.          Sun Jun 12 09:02:01 2005: LOG DATE
UWI.            05 071 0840200: UNIQUE WELL ID
~Curve Information Block
DEPT.FT            0 000 00 00: Depth
SN.Ohm-m                      : IEL Short Normal
SP.mV                         : IEL Spontaneous Potential
DIR.Ohm-m                     : IEL Induction Resistivity
GR.GAPI                       : Gamma Ray
~Parameter Information Block
~A  Depth        SN          SP         DIR          GR     
# ...
   853.0000   2000.0000   1983.0000     12.3992    137.2910
   853.2500   2000.0000   1983.0000     12.0200    137.0158
   853.5000   2000.0000   1983.0000     11.7196    136.2226
   853.7500   2000.0000   1983.0000     11.4824    135.9610
   854.0000   2000.0000   1983.0000     11.2914    136.7317
   854.2500   2000.0000   1983.0000     11.1269    137.9468
   854.5000   2000.0000   1983.0000     10.9684    139.7351
   854.7500   2000.0000   1983.0000     10.7989    140.0831
   855.0000   2000.0000   1983.0000     10.6104    138.6187
   855.2500   2000.0000   1983.0000     10.4062    136.6470
   855.5000   2000.0000   1983.0000     10.1978    133.7203
   855.7500   2000.0000   1983.0000      9.9995    132.6384
   856.0000   2000.0000   1983.0000      9.8243    132.8610
   856.2500   2000.0000   1983.0000      9.6824    134.0539
   856.5000   2000.0000   1983.0000      9.5820    136.7398
   856.7500   2000.0000   1983.0000      9.5299    138.7173
   857.0000   2000.0000   1983.0000      9.5297    141.2181
   857.2500   2000.0000   1983.0000      9.5784    142.0791
   857.5000   2000.0000   1983.0000      9.6639    141.4495
   857.7500   2000.0000   1983.0000      9.7685    139.7055
   858.0000   2000.0000   1983.0000      9.8758    135.9204
   858.2500   2000.0000   1983.0000      9.9791    133.3720
   858.5000   2000.0000   1983.0000     10.0834    130.6014
   858.7500   2000.0000   1983.0000     10.2027    129.7723
   859.0000   2000.0000   1983.0000     10.3530    129.8760
   859.2500   2000.0000   1983.0000     10.5474    130.3125
   859.5000   2000.0000   1983.0000     10.7932    130.4023
   859.7500   2000.0000   1983.0000     11.0878    129.7376
   860.0000   2000.0000   1983.0000     11.4136    127.7700
   860.2500   2000.0000   1983.0000     11.7365    125.9771
   860.5000   2000.0000   1983.0000     12.0134    122.6413
   860.7500   2000.0000   1983.0000     12.2087    120.1516
   861.0000   2000.0000   1983.0000     12.3096    117.1791
   861.2500   2000.0000   1983.0000     12.3290    116.7132
   861.5000   2000.0000   1983.0000     12.2953    119.2239
   861.7500   2000.0000   1983.0000     12.2368    122.5929
   862.0000   2000.0000   1983.0000     12.1720    128.2437
   862.2500   2000.0000   1983.0000     12.1068    131.3891
   862.5000   2000.0000   1983.0000     12.0385    134.7063
   862.7500   2000.0000   1983.0000     11.9639    136.4103
   863.0000   2000.0000   1983.0000     11.8863    138.9681
   863.2500   2000.0000   1983.0000     11.8173    140.5064
   863.5000   2000.0000   1983.0000     11.7757    141.2941
   863.7500   2000.0000   1983.0000     11.7826    140.1961
   864.0000   2000.0000   1983.0000     11.8554    136.3306
   864.2500   2000.0000   1983.0000     12.0002    132.9759
   864.5000   2000.0000   1983.0000     12.2069    127.8216
   864.7500   2000.0000   1983.0000     12.4477    124.5134
   865.0000   2000.0000   1983.0000     12.6837    119.9550
   865.2500   2000.0000   1983.0000     12.8752    117.6299
   865.5000   2000.0000   1983.0000     12.9906    116.2869
   865.7500   2000.0000   1983.0000     13.0099    117.0559
   866.0000   2000.0000   1983.0000     12.9228    119.8725
   866.2500   2000.0000   1983.0000     12.7298    121.9889
   866.5000   2000.0000   1983.0000     12.4451    124.5925
   866.7500   2000.0000   1983.0000     12.0992    126.1451
   867.0000   2000.0000   1983.0000     11.7337    129.5268
   867.2500   2000.0000   1983.0000     11.3894    133.0921
   867.5000   2000.0000   1983.0000     11.0943    139.5641
   867.7500   2000.0000   1983.0000     10.8577    142.9683
   868.0000   2000.0000   1983.0000     10.6733    144.0052
   868.2500   2000.0000   1983.0000     10.5263    141.8538
   868.5000   2000.0000   1983.0000     10.4029    136.7318
   868.7500   2000.0000   1983.0000     10.2970    133.6438
   869.0000   2000.0000   1983.0000     10.2124    130.4967
   869.2500   2000.0000   1983.0000     10.1599    129.0650
   869.5000   2000.0000   1983.0000     10.1514    127.3757
   869.7500   2000.0000   1983.0000     10.1928    126.6870
   870.0000   2000.0000   1983.0000     10.2803    126.6821
   870.2500   2000.0000   1983.0000     10.4006    127.1952
   870.5000   2000.0000   1983.0000     10.5328    127.7814
   870.7500   2000.0000   1983.0000     10.6536    127.4486
   871.0000   2000.0000   1983.0000     10.7417    125.4873
   871.2500   2000.0000   1983.0000     10.7831    123.6764
   871.5000   2000.0000   1983.0000     10.7739    122.1433
   871.7500   2000.0000   1983.0000     10.7209    123.0408
   872.0000   2000.0000   1983.0000     10.6383    127.4431
   872.2500   2000.0000   1983.0000     10.5427    131.2469
   872.5000   2000.0000   1983.0000     10.4470    135.6285
   872.7500   2000.0000   1983.0000     10.3575    136.7816
   873.0000   2000.0000   1983.0000     10.2742    135.7670
   873.2500   2000.0000   1983.0000     10.1930    133.6037
   873.5000   2000.0000   1983.0000     10.1102    128.9032
   873.7500   2000.0000   1983.0000     10.0249    125.4144
   874.0000   2000.0000   1983.0000      9.9404    120.9695
   874.2500   2000.0000   1983.0000      9.8644    119.2372
   874.5000   2000.0000   1983.0000      9.8069    118.9664
   874.7500   2000.0000   1983.0000      9.7777    119.9513
   875.0000   2000.0000   1983.0000      9.7831    121.6050
   875.2500   2000.0000   1983.0000      9.8242    121.9799
   875.5000   2000.0000   1983.0000      9.8958    121.2546
   875.7500   2000.0000   1983.0000      9.9867    120.4692
   876.0000   2000.0000   1983.0000     10.0818    119.7126
   876.2500   2000.0000   1983.0000     10.1652    119.4938
   876.5000   2000.0000   1983.0000     10.2263    119.1116
   876.7500   2000.0000   1983.0000     10.2631    118.6861
   877.0000   2000.0000   1983.0000     10.2821    118.0188
   877.2500   2000.0000   1983.0000     10.2928    117.7987
   877.5000   2000.0000   1983.0000     10.3002    118.1363
   877.7500   2000.0000   1983.0000     10.3026    118.8685
   878.0000   2000.0000   1983.0000     10.2926    120.4594
   878.2500   2000.0000   1983.0000     10.2628    121.5166
   878.5000   2000.0000   1983.0000     10.2096    122.7182
   878.7500   2000.0000   1983.0000     10.1345    123.4293
   879.0000   2000.0000   1983.0000     10.0410    125.0882
   879.2500   2000.0000   1983.0000      9.9328    126.8212
   879.5000   2000.0000   1983.0000      9.8136    129.7924
   879.7500   2000.0000   1983.0000      9.6875    131.2487
   880.0000   2000.0000   1983.0000      9.5604    131.4772
   880.2500   2000.0000   1983.0000      9.4380    130.1857
   880.5000   2000.0000   1983.0000      9.3229    126.8451
   880.7500   2000.0000   1983.0000      9.2142    124.3913
   881.0000   2000.0000   1983.0000      9.1095    121.4305
   881.2500   2000.0000   1983.0000      9.0085    120.3815
   881.5000   2000.0000   1983.0000      8.9156    120.7529
   881.7500   2000.0000   1983.0000      8.8382    122.3839
   882.0000   2000.0000   1983.0000      8.7835    126.2120
   882.2500   2000.0000   1983.0000      8.7546    128.8150
   882.5000   2000.0000   1983.0000      8.7505    131.2381
   882.7500   2000.0000   1983.0000      8.7678    131.3666
   883.0000   2000.0000   1983.0000      8.8033    129.5056
   883.2500   2000.0000   1983.0000      8.8560    127.4365
   883.5000   2000.0000   1983.0000      8.9278    124.1394
   883.7500   2000.0000   1983.0000      9.0221    122.2765
   884.0000   2000.0000   1983.0000      9.1417    120.6097
   884.2500   2000.0000   1983.0000      9.2860    120.5797
   884.5000   2000.0000   1983.0000      9.4505    122.4498
   884.7500   2000.0000   1983.0000      9.6274    124.7955
   885.0000   2000.0000   1983.0000      9.8075    129.1139
   885.2500   2000.0000   1983.0000      9.9819    132.0247
   885.5000   2000.0000   1983.0000     10.1412    136.0318
   885.7500   2000.0000   1983.0000     10.2767    138.3704
   886.0000   2000.0000   1983.0000     10.3816    140.9482
   886.2500   2000.0000   1983.0000     10.4533    141.6148
