~Version Information
VERS.                      2.0: CWLS Log ASCII Standard - VERSION 2.0
WRAP.                       NO: One line per depth step
~Well Information Block
STRT.FT               -11.7500: 
STOP.FT              2025.5000: 
STEP.FT                 0.2500: 
NULL.                -999.2500: 
COMP.          Evergreen Operating Corp.: COMPANY
WELL.            Sumatra 34-22: WELL
FLD.           Purgatorie River: FIELD
LOC.           542 FSL & 2438 FEL--: LOCATION
PROV.                       CO: PROVINCE
CNTY.               Las Animas: COUNTRY
SRVC.          Patterson Wireline, Inc.: SERVICE COMPANY
DATE.          Wed Apr 02 10:17:21 2003: LOG DATE
UWI.           05 071 07804 00: UNIQUE WELL ID
~Curve Information Block
DEPT.FT            0 000 00 00: Depth
CCL.                          : Casing Collar Locator
TT3.usec                      : CBL 3' Travel Time
AMP3.mV                       : CBL 3' Amplitude
GR.GAPI                       : Gamma Ray
~Parameter Information Block
~A  Depth       CCL         TT3         AMP3         GR     
# ...
   792.2500      0.0000    803.5929      2.7902    164.7246
   792.5000      0.0000    803.3817      2.8574    163.2498
   792.7500      0.0000    794.9778      2.8547    158.0934
   793.0000      0.0000    783.0687      2.8364    151.2629
   793.2500      0.0000    774.5784      2.8096    144.9873
   793.5000      0.0000    774.2308      2.7257    139.7716
   793.7500      0.0000    782.1505      2.5652    134.2980
   794.0000      0.0000    793.9175      2.3548    127.0261
   794.2500      0.0000    803.9078      2.1274    117.3481
   794.5000      0.0000    811.0818      1.9209    105.4965
   794.7500      0.0000    819.8892      1.7972     92.3207
   795.0000      0.0000    833.8876      1.7874     79.3309
   795.2500      0.0000    849.1739      1.8360     68.1880
   795.5000      0.0000    857.0619      1.8359     59.6865
   795.7500      0.0000    853.5610      1.7258     53.4788
   796.0000      0.0000    842.8242      1.5406     48.9101
   796.2500      0.0000    833.4449      1.3649     45.7749
   796.5000      0.0000    832.5283      1.2794     44.1207
   796.7500      0.0000    839.4797      1.3163     43.6778
   797.0000      0.0000    847.1288      1.4155     43.8469
   797.2500      0.0000    849.8905      1.4703     44.1960
   797.5000      0.0000    847.8433      1.4339     44.7141
   797.7500      0.0000    845.0472      1.3421     45.5414
   798.0000      0.0000    846.1380      1.2443     46.7141
   798.2500      0.0000    852.4950      1.1761     48.4353
   798.5000      0.0000    860.6519      1.1661     51.4131
   798.7500      0.0000    864.7684      1.2188     56.6583
   799.0000      0.0000    861.6155      1.3322     64.8781
   799.2500      0.0000    852.4168      1.5108     76.0319
   799.5000      0.0000    839.8799      1.7364     89.2768
   799.7500      0.0000    827.6064      1.9751    103.2557
   800.0000      0.0000    819.9263      2.2115    116.5154
   800.2500      0.0000    816.8428      2.4363    127.7862
   800.5000      0.0000    813.6478      2.6175    136.1798
   800.7500      0.0000    809.2855      2.7244    141.5401
   801.0000      0.0000    807.7478      2.7712    144.7421
   801.2500      0.0000    809.7145      2.8218    147.3950
   801.5000      0.0000    811.8263      2.9494    150.7752
   801.7500      0.0000    812.4479      3.1522    154.7269
   802.0000      0.0000    812.2726      3.3255    157.7642
   802.2500      0.0000    811.8389      3.3718    158.4986
   802.5000      0.0000    810.3510      3.2927    157.0359
   802.7500      0.0000    805.5837      3.1432    155.1364
   803.0000      0.0000    795.2667      2.9811    155.0780
   803.2500      0.0000    779.5701      2.8675    157.9780
   803.5000      0.0000    761.4842      2.8163    162.7080
   803.7500      0.0000    744.9982      2.7867    166.5380
   804.0000      0.0000    733.2305      2.7831    167.1956
   804.2500      0.0000    726.7466      2.8468    164.6112
   804.5000      0.0000    724.0377      2.9524    161.1297
   804.7500      0.0000    724.0369      3.0180    160.1637
   805.0000      0.0000    727.0065      2.9885    163.9008
   805.2500      0.0000    732.5519      2.8936    171.4897
   805.5000      0.0000    738.1165      2.8222    179.4218
   805.7500      0.0000    741.3804      2.8070    184.1061
   806.0000      0.0000    742.4003      2.8074    184.3793
   806.2500      0.0000    741.8784      2.8085    181.7940
   806.5000      0.0000    740.1251      2.8229    178.7271
   806.7500      0.0000    739.0824      2.8570    176.1244
   807.0000      0.0000    742.4399      2.9312    173.0339
   807.2500      0.0000    750.4415      3.0238    168.2729
   807.5000      0.0000    758.5854      3.0549    162.0492
   807.7500      0.0000    763.7952      3.0166    155.6451
   808.0000      0.0000    767.4221      2.9790    149.9404
   808.2500      0.0000    772.2636      2.9783    144.9639
   808.5000      0.0000    777.8497      3.0385    141.1720
   808.7500      0.0000    777.3856      3.1900    140.5337
   809.0000      0.0000    764.4553      3.3952    145.3659
   809.2500      0.0000    745.6750      3.5738    155.8655
   809.5000      0.0000    735.0275      3.6998    169.2197
   809.7500      0.0000    732.3982      3.7779    181.1729
   810.0000      0.0000    723.6674      3.7537    188.2543
   810.2500      0.0000    704.4722      3.5730    189.0890
   810.5000      0.0000    689.3885      3.3193    184.7626
   810.7500      0.0000    694.9493      3.1498    178.2402
   811.0000      0.0000    722.1392      3.0836    172.5100
   811.2500      0.0000    757.9312      3.0322    168.4136
   811.5000      0.0000    788.4767      2.9935    164.5003
   811.7500      0.0000    806.7387      3.0176    159.3376
   812.0000      0.0000    811.8046      3.0830    153.5274
   812.2500     -5.0000    807.3455      3.1387    149.0545
   812.5000     -5.0000    800.1058      3.1953    147.1610
   812.7500      0.0000    797.0876      3.2962    147.4063
   813.0000      0.0000    800.7006      3.4360    148.5069
   813.2500      0.0000    806.0772      3.5927    149.3350
   813.5000      0.0000    807.4893      3.7650    149.0973
   813.7500      0.0000    803.0207      3.8963    147.2853
   814.0000      0.0000    793.0271      3.9302    144.0074
   814.2500      0.0000    780.5944      3.9298    140.1569
   814.5000      0.0000    770.6295      3.9681    136.8514
   814.7500      0.0000    765.3990      4.0288    134.7084
   815.0000      0.0000    763.5933      4.0647    133.7719
   815.2500      0.0000    763.2567      4.0444    133.8143
   815.5000      0.0000    763.4146      3.9415    134.5147
   815.7500      0.0000    763.7347      3.7585    135.4649
   816.0000      0.0000    764.0145      3.5693    136.0605
   816.2500      0.0000    764.0695      3.4573    135.6147
   816.5000      0.0000    763.8555      3.4500    133.8633
   816.7500      0.0000    763.5702      3.5264    131.1418
   817.0000      0.0000    763.5190      3.6236    127.7499
   817.2500      0.0000    763.8246      3.6869    123.2330
   817.5000      0.0000    764.2764      3.7220    116.5074
   817.7500      0.0000    764.5591      3.7763    106.8195
   818.0000      0.0000    764.6465      3.8893     94.7034
   818.2500      0.0000    764.6715      4.0296     82.0372
   818.5000      0.0000    764.5163      4.0962     71.1624
   818.7500      0.0000    764.0032      4.0370     63.8638
   819.0000      0.0000    763.2960      3.9231     60.8460
   819.2500      0.0000    762.7690      3.8741     61.6818
   819.5000      0.0000    762.6529      3.9339     65.1472
   819.7500      0.0000    762.9008      4.0330     69.9433
   820.0000      0.0000    763.2546      4.0816     75.4664
   820.2500      0.0000    763.4236      4.0537     82.0307
   820.5000      0.0000    763.3561      3.9881     90.2194
   820.7500      0.0000    763.3012      3.9593     99.7248
   821.0000      0.0000    763.4024      3.9970    108.6581
   821.2500      0.0000    763.4425      4.0559    114.2991
   821.5000      0.0000    763.1775      4.0960    114.9678
   821.7500      0.0000    762.6646      4.1327    111.2601
   822.0000      0.0000    762.1121      4.1851    105.3371
   822.2500      0.0000    761.6201      4.2166     99.1932
   822.5000      0.0000    761.3813      4.1809     93.6861
   822.7500      0.0000    762.1902      4.0978     88.7456
   823.0000      0.0000    765.1671      4.0328     83.9771
   823.2500      0.0000    769.6760      4.0305     79.1281
   823.5000      0.0000    772.1863      4.0851     74.4611
   823.7500      0.0000    770.3328      4.1620     70.9455
   824.0000      0.0000    766.6752      4.2278     69.9217
   824.2500      0.0000    765.5652      4.2591     72.2711
   824.5000      0.0000    769.5815      4.2204     77.7994
   824.7500      0.0000    778.9866      4.0868     85.5766
   825.0000      0.0000    790.5015      3.9197     94.8375
   825.2500      0.0000    798.1792      3.8014    105.1028
   825.5000      0.0000    797.8419      3.7026    115.1960
