~Version Information
VERS.                      2.0: CWLS Log ASCII Standard - VERSION 2.0
WRAP.                       NO: One line per depth step
~Well Information Block
STRT.FT                -8.2500: 
STOP.FT              2356.2500: 
STEP.FT                 0.2500: 
NULL.                -999.2500: 
COMP.          Petrogulf Corporation: COMPANY
WELL.             State 16-12V: WELL
FLD.           Purgatorie River: FIELD
LOC.           1992' FNL & 1237' FWL: LOCATION
PROV.                 Colorado: PROVINCE
CNTY.               Las Animas: COUNTRY
SRVC.                Patterson: SERVICE COMPANY
DATE.          Thu Aug 11 14:44:06 2005: LOG DATE
UWI.                          : UNIQUE WELL ID
~Curve Information Block
DEPT.FT            0 000 00 00: Depth
GR.GAPI                       : Gamma Ray
CCL.                          : Casing Collar Locator
TT3.usec                      : CBL 3' Travel Time
AMP3.mV                       : CBL 3' Amplitude
~Parameter Information Block
~A  Depth        GR         CCL         TT3         AMP3    
# ...
  1566.2500    115.7396      0.0000    748.1880      5.4580
  1566.5000    110.3722      0.0000    762.8262      5.6277
  1566.7500    106.0086      0.0000    767.0462      5.7476
  1567.0000    102.2757      0.0000    757.1035      5.8036
  1567.2500     99.0690      0.0000    739.1382      5.8447
  1567.5000     96.7264      0.0000    725.0663      5.9426
  1567.7500     96.0824      0.0000    724.9286      6.1285
  1568.0000     98.0907      0.0000    738.2696      6.3697
  1568.2500    103.0499      0.0000    756.3957      6.6052
  1568.5000    110.1975      0.0000    770.6705      6.8062
  1568.7500    118.1476      0.0000    775.0900      6.9908
  1569.0000    125.7142      0.0000    768.9785      7.1845
  1569.2500    132.3689      0.0000    761.7675      7.3899
  1569.5000    138.1009      0.0000    763.3474      7.5926
  1569.7500    143.0627      0.0000    769.6022      7.7753
  1570.0000    147.3662      0.0000    770.0364      7.9156
  1570.2500    150.9885      0.0000    761.5571      8.0022
  1570.5000    153.5773      0.0000    745.8903      8.0549
  1570.7500    154.2644      0.0000    723.9274      8.0954
  1571.0000    151.8896      0.0000    698.9615      8.1283
  1571.2500    145.7486      0.0000    676.1710      8.1688
  1571.5000    136.2638      0.0000    655.9208      8.2401
  1571.7500    124.9685      0.0000    641.7905      8.3408
  1572.0000    114.0912      0.0000    651.1057      8.4476
  1572.2500    106.1312      0.0000    690.7399      8.5585
  1572.5000    103.1551      0.0000    735.2233      8.6994
  1572.7500    105.8307      0.0000    755.7035      8.8622
  1573.0000    113.0857      0.0000    748.7469      8.9883
  1573.2500    122.8261      0.0000    728.2831      9.0019
  1573.5000    132.8698      0.0000    708.1050      8.7875
  1573.7500    141.2199      0.0000    692.4685      8.2525
  1574.0000    146.0890      0.0000    676.6918      7.5988
  1574.2500    146.5356      0.0000    654.9585      7.2580
  1574.5000    143.2617      0.0000    634.0951      7.2719
  1574.7500    138.1571      0.0000    636.0945      7.2696
  1575.0000    132.6708      0.0000    665.8271      7.1493
  1575.2500    127.1363      0.0000    689.9474      7.0679
  1575.5000    121.9890      0.0000    678.2028      7.0225
  1575.7500    118.8115      0.0000    639.6078      6.9223
  1576.0000    119.3337      0.0000    596.1594      6.7724
  1576.2500    123.7318     -2.0000    564.9434      6.6220
  1576.5000    130.4859      0.0000    566.2255      6.5362
  1576.7500    137.6087      0.0000    599.8334      6.6840
  1577.0000    143.6214      0.0000    639.2565      7.1772
  1577.2500    147.7208      0.0000    671.5237      7.7312
  1577.5000    149.6690      0.0000    705.0632      7.9432
  1577.7500    149.7436      0.0000    741.0336      7.8365
  1578.0000    148.5177      0.0000    768.4156      7.6651
  1578.2500    146.4877      0.0000    781.7012      7.5282
  1578.5000    144.0954      0.0000    785.5883      7.4131
  1578.7500    142.1579      0.0000    786.2814      7.3366
  1579.0000    141.7483      0.0000    786.4735      7.3449
  1579.2500    143.2645      0.0000    785.9562      7.4249
  1579.5000    145.8688      0.0000    782.5271      7.4835
  1579.7500    148.0923      0.0000    772.7392      7.4376
  1580.0000    148.8109      0.0000    755.8376      7.2853
  1580.2500    147.6600      0.0000    736.2406      7.0903
  1580.5000    144.9575      0.0000    717.0434      6.9152
  1580.7500    141.4729      0.0000    697.7273      6.7798
  1581.0000    138.0212      0.0000    681.7416      6.6740
  1581.2500    135.0561      0.0000    675.7158      6.5978
  1581.5000    132.6682      0.0000    683.7844      6.5624
  1581.7500    130.8778      0.0000    704.9266      6.5609
  1582.0000    129.5926      0.0000    727.8615      6.5806
  1582.2500    128.2920      0.0000    735.6215      6.6111
  1582.5000    126.2094      0.0000    724.6979      6.6066
  1582.7500    123.1549      0.0000    711.6449      6.5136
  1583.0000    119.9939      0.0000    712.5458      6.3604
  1583.2500    118.0772      0.0000    721.1033      6.2335
  1583.5000    118.0906      0.0000    718.8809      6.1581
  1583.7500    119.4195      0.0000    705.1324      6.0761
  1584.0000    120.7845      0.0000    699.6221      5.9381
  1584.2500    121.7304      0.0000    714.3483      5.7594
  1584.5000    123.1535      0.0000    735.6729      5.5786
  1584.7500    125.8493      0.0000    740.3629      5.3924
  1585.0000    128.9722      0.0000    724.0395      5.1657
  1585.2500    130.7926      0.0000    705.6587      4.9016
  1585.5000    130.8424      0.0000    705.6534      4.6546
  1585.7500    130.4784      0.0000    725.3290      4.4839
  1586.0000    131.1223      0.0000    748.8998      4.4154
  1586.2500    132.5829      0.0000    762.0554      4.4242
  1586.5000    133.5088      0.0000    764.0627      4.4641
  1586.7500    133.1102      0.0000    764.1652      4.5177
  1587.0000    131.9568      0.0000    770.3552      4.5970
  1587.2500    131.1798      0.0000    782.3833      4.7036
  1587.5000    131.2154      0.0000    794.4853      4.8180
  1587.7500    131.3255      0.0000    802.6585      4.9253
  1588.0000    130.0527      0.0000    807.7723      5.0306
  1588.2500    126.0779      0.0000    809.1122      5.1458
  1588.5000    118.9642      0.0000    800.1965      5.2706
  1588.7500    109.4190      0.0000    779.9399      5.3953
  1589.0000     98.8774      0.0000    759.0734      5.5126
  1589.2500     88.7021      0.0000    745.8589      5.6101
  1589.5000     79.7172      0.0000    736.2050      5.6684
  1589.7500     72.4376      0.0000    724.5219      5.6871
  1590.0000     67.5353      0.0000    713.5184      5.6816
  1590.2500     65.7471      0.0000    708.6938      5.6406
  1590.5000     67.0935      0.0000    712.1302      5.5378
  1590.7500     70.2814      0.0000    721.9940      5.3953
  1591.0000     73.1383      0.0000    732.7104      5.2707
  1591.2500     73.7976      0.0000    739.7454      5.1812
  1591.5000     71.6975      0.0000    744.6130      5.0942
  1591.7500     67.8901      0.0000    750.8668      4.9828
  1592.0000     64.4873      0.0000    758.6404      4.8724
  1592.2500     63.2780      0.0000    764.9526      4.8300
  1592.5000     64.4682      0.0000    769.4381      4.8956
  1592.7500     66.7612      0.0000    772.4409      5.0337
  1593.0000     68.6051      0.0000    764.4583      5.1632
  1593.2500     69.2909      0.0000    738.9575      5.2213
  1593.5000     69.1061      0.0000    709.4733      5.1992
  1593.7500     68.7562      0.0000    693.6473      5.1310
  1594.0000     68.6706      0.0000    699.4766      5.0733
  1594.2500     68.6715      0.0000    731.4531      5.0927
  1594.5000     68.1387      0.0000    783.6818      5.2235
  1594.7500     66.5770      0.0000    827.8750      5.4202
  1595.0000     64.1955      0.0000    833.2576      5.5695
  1595.2500     61.8516      0.0000    799.9965      5.5838
  1595.5000     60.3057      0.0000    757.1210      5.4884
  1595.7500     59.6988      0.0000    730.7525      5.3778
  1596.0000     59.8948      0.0000    724.8877      5.2964
  1596.2500     61.1173      0.0000    726.6646      5.2049
  1596.5000     64.1832      0.0000    722.3442      5.0631
  1596.7500     70.3002      0.0000    710.7034      4.8991
  1597.0000     80.4479      0.0000    701.8016      4.7708
  1597.2500     94.4187      0.0000    701.6495      4.6819
  1597.5000    110.3174      0.0000    704.3926      4.5800
  1597.7500    125.2387      0.0000    702.4626      4.4271
  1598.0000    136.5402      0.0000    696.6164      4.2393
  1598.2500    142.6789      0.0000    691.9287      4.0683
  1598.5000    143.4889      0.0000    691.2394      3.9600
  1598.7500    140.1350      0.0000    696.1357      3.9222
  1599.0000    134.5335      0.0000    707.9518      3.9271
  1599.2500    128.4171      0.0000    723.4716      3.9482
  1599.5000    122.9511      0.0000    734.5616      3.9816
