~Version Information
VERS.                      2.0: CWLS Log ASCII Standard - VERSION 2.0
WRAP.                       NO: One line per depth step
~Well Information Block
STRT.FT               420.0000: 
STOP.FT              1527.5000: 
STEP.FT                 0.1000: 
NULL.                -999.2500: 
COMP.          Evergreen Operating Corporation: COMPANY
WELL.              Chase 21-10: WELL
FLD.           Purgatoire River: FIELD
LOC.           1122' FNL & 1544' FWL: LOCATION
PROV.                       CO: PROVINCE
CNTY.               Las Animas: COUNTRY
SRVC.                         : SERVICE COMPANY
DATE.          Tue May 25 08:18:37 2004: LOG DATE
UWI.           05 071 08006 00: UNIQUE WELL ID
~Curve Information Block
DEPT.FT            0 000 00 00: Depth
DCAL.in                       : CDL Caliper
RHOB.g/cc                     : CDL Bulk Density
RHOC.g/cc                     : CDL Density Correction
DPOR.pu                       : CDL Density Porosity
GR.GAPI                       : Gamma Ray
NPOR.pu                       : Neutron Porosity
~Parameter Information Block
~A  Depth       DCAL        RHOB        RHOC        DPOR         GR         NPOR    
# ...
  1072.8000      8.0047      2.4927      0.0340      9.5353    122.6199     46.4344
  1072.9000      8.0047      2.5491      0.0798      6.1130    123.1622     46.8273
  1073.0000      8.0154      2.6149      0.1890      2.1255    121.2362     46.9438
  1073.1000      8.0154      2.6513      0.1881     -0.0811    122.2727     46.8110
  1073.2000      8.0154      2.6604      0.1804     -0.6324    126.3532     46.7766
  1073.3000      7.9776      2.6600      0.1693     -0.6041    126.0789     46.8253
  1073.4000      7.9776      2.6604      0.1298     -0.6283    120.9594     46.6727
  1073.5000      7.9551      2.6588      0.1684     -0.5346    116.6536     46.3202
  1073.6000      7.9551      2.6422      0.1272      0.4712    112.7135     46.0548
  1073.7000      7.9551      2.6083      0.0678      2.5294    107.1666     45.9600
  1073.8000      8.0003      2.5721      0.0708      4.7227    103.3202     45.8593
  1073.9000      8.0003      2.5497      0.0373      6.0771    106.1884     45.6970
  1074.0000      7.9895      2.5523      0.0217      5.9216    115.0904     45.4408
  1074.1000      7.9895      2.5733      0.0605      4.6495    123.6286     44.9016
  1074.2000      7.9895      2.5796      0.0913      4.2646    129.5171     44.2994
  1074.3000      7.9824      2.5492      0.0497      6.1116    131.8039     44.1233
  1074.4000      7.9824      2.5000      0.0462      9.0882    130.1130     44.5577
  1074.5000      7.9845      2.4626      0.0486     11.3583    127.7062     45.2763
  1074.6000      7.9845      2.4576      0.0026     11.6588    122.8555     45.6373
  1074.7000      7.9845      2.4893      0.0737      9.7398    113.0870     45.6607
  1074.8000      8.0244      2.5299      0.0962      7.2780    106.8886     45.7225
  1074.9000      8.0244      2.5509      0.0942      6.0072    113.2878     45.8290
  1075.0000      8.0156      2.5541      0.0930      5.8145    126.9449     45.8997
  1075.1000      8.0156      2.5576      0.0598      5.5986    137.2247     45.8119
  1075.2000      8.0156      2.5650      0.0854      5.1526    137.0301     45.5040
  1075.3000      8.0028      2.5603      0.1007      5.4339    126.8481     45.2571
  1075.4000      8.0028      2.5524      0.0282      5.9162    115.3380     45.3918
  1075.5000      8.0222      2.5624      0.1111      5.3116    111.5248     45.7833
  1075.6000      8.0222      2.5691      0.1063      4.9051    118.3751     46.0442
  1075.7000      8.0222      2.5468      0.0204      6.2574    128.7808     45.9227
  1075.8000      8.0373      2.5104     -0.0024      8.4628    133.8244     45.5367
  1075.9000      8.0373      2.4882     -0.0127      9.8084    133.7160     44.9996
  1076.0000      8.0430      2.4921      0.0057      9.5688    135.4050     44.3490
  1076.1000      8.0430      2.5130      0.0594      8.3015    142.4767     43.9470
  1076.2000      8.0430      2.5408     -0.0206      6.6160    149.7927     44.0699
  1076.3000      8.0562      2.5664      0.0829      5.0677    149.9142     44.4824
  1076.4000      8.0562      2.5622      0.0759      5.3196    143.2390     44.8149
  1076.5000      8.0686      2.5263      0.0608      7.4947    136.0332     45.0333
  1076.6000      8.0686      2.4945     -0.0169      9.4249    133.7286     45.3424
  1076.7000      8.0686      2.4842      0.0479     10.0469    137.4041     45.7336
  1076.8000      8.0577      2.4879      0.0564      9.8242    140.6296     45.9928
  1076.9000      8.0577      2.4997      0.0668      9.1086    137.4523     45.8977
  1077.0000      8.0350      2.5055      0.0980      8.7578    134.2776     45.3762
  1077.1000      8.0350      2.4918      0.0305      9.5869    136.0994     44.8181
  1077.2000      8.0350      2.4768     -0.0112     10.4965    137.2538     44.6726
  1077.3000      8.0502      2.4747      0.0724     10.6263    135.1688     45.0665
  1077.4000      8.0502      2.4779      0.0295     10.4328    129.2759     45.6599
  1077.5000      8.0008      2.4871      0.0517      9.8711    118.0118     45.8415
  1077.6000      8.0008      2.5021      0.0564      8.9621    105.1530     45.6958
  1077.7000      8.0008      2.5163      0.0393      8.1036     92.8188     45.5069
  1077.8000      8.0033      2.5306      0.0331      7.2379     81.6062     45.2617
  1077.9000      8.0033      2.5502      0.0635      6.0456     76.7370     45.2042
  1078.0000      8.0009      2.5716      0.1285      4.7517     80.0077     45.4837
  1078.1000      8.0009      2.5813      0.1331      4.1634     86.0668     45.8225
  1078.2000      8.0009      2.5753      0.1021      4.5272     86.7765     45.7847
  1078.3000      7.9967      2.5613      0.0512      5.3735     78.8761     45.3444
  1078.4000      7.9967      2.5468      0.0180      6.2555     69.7342     44.8477
  1078.5000      7.9931      2.5339      0.0331      7.0356     65.7323     44.4797
  1078.6000      7.9931      2.5326     -0.0264      7.1138     64.0399     44.1910
  1078.7000      7.9931      2.5527      0.0368      5.8955     62.6259     43.8400
  1078.8000      8.0052      2.5777      0.0467      4.3842     63.6687     43.4503
  1078.9000      8.0052      2.5834      0.0624      4.0373     63.9374     43.1253
  1079.0000      7.9809      2.5621      0.0783      5.3249     59.9620     42.7998
  1079.1000      7.9809      2.5241      0.0196      7.6282     56.9564     42.4346
  1079.2000      7.9809      2.4905     -0.0069      9.6664     58.8376     42.1849
  1079.3000      7.9603      2.4680      0.0121     11.0289     60.6208     42.0799
  1079.4000      7.9603      2.4523     -0.0203     11.9841     56.3596     42.0844
  1079.5000      7.9412      2.4502     -0.0368     12.1115     48.3316     42.4348
  1079.6000      7.9412      2.4638      0.0465     11.2842     43.8273     43.0110
  1079.7000      7.9412      2.4799      0.0675     10.3071     44.3537     43.2323
  1079.8000      7.9340      2.4895      0.0533      9.7299     46.8398     42.9698
  1079.9000      7.9340      2.4969      0.0915      9.2798     51.7534     42.7076
  1080.0000      7.9489      2.5074      0.0459      8.6420     58.0130     42.6486
  1080.1000      7.9489      2.5113      0.0589      8.4076     62.6892     42.4448
  1080.2000      7.9489      2.4982      0.0284      9.2020     65.8378     42.0980
  1080.3000      7.9422      2.4791     -0.0001     10.3565     68.8905     42.0288
  1080.4000      7.9422      2.4704      0.0455     10.8828     72.9060     42.3378
  1080.5000      7.9415      2.4745      0.0121     10.6356     76.6468     42.6445
  1080.6000      7.9415      2.4945      0.0439      9.4215     80.8361     42.6491
  1080.7000      7.9415      2.5248      0.0703      7.5890     84.1591     42.5611
  1080.8000      7.9534      2.5444      0.0451      6.4016     85.2485     42.6799
  1080.9000      7.9534      2.5483      0.0077      6.1609     88.3637     42.7907
  1081.0000      7.9386      2.5481      0.0263      6.1753     94.7871     42.6821
  1081.1000      7.9386      2.5459      0.0196      6.3097    100.7021     42.7399
  1081.2000      7.9386      2.5349      0.0623      6.9777    105.8329     43.0268
  1081.3000      7.9537      2.5227     -0.0013      7.7139    109.6560     42.9439
  1081.4000      7.9537      2.5411     -0.0440      6.5977    109.5321     42.4775
  1081.5000      7.9654      2.5917      0.1632      3.5340    107.3867     42.3556
  1081.6000      7.9654      2.6218      0.1157      1.7091    104.6807     42.9063
  1081.7000      7.9654      2.6102      0.0193      2.4127     98.3390     43.7103
  1081.8000      7.9761      2.5885      0.0481      3.7268     90.6198     44.3357
  1081.9000      7.9761      2.5726      0.1019      4.6897     92.6318     44.5187
  1082.0000      7.9623      2.5484      0.0649      6.1577    108.2837     44.1419
  1082.1000      7.9623      2.5070      0.0468      8.6659    121.6126     43.5999
  1082.2000      7.9623      2.4680     -0.0288     11.0315    120.8002     43.5939
  1082.3000      7.9835      2.4585      0.0311     11.6074    116.6589     44.1327
