~Version Information
 VERS.                                  2.0 : CWLS LAS VERSION
 WRAP.                                   NO : WRAPING MODE
 SWARE .                 MController 2.5.0I : SOFTWARE VERSION
~Well Information
 WELL.                           J&P 12-33v : WELL
 COMP.             Petrogulf Operating Corp : COMPANY
 FLD.                      Purgatorie River : FIELD
 LOC.                NW/SE Sec 12 T33S R68W : LOCATION
 DATE.                              8/27/04 : DATE(S) LOGGED
 SRVC.       Blanco Geological services LLC : SERVICE COMPANY
 STAT.                                   CO : STATE
 CNTY.                           Las Animas : COUNTY
 CTRY.                                  USA : COUNTRY
 API.                       05-071-08091-00 : API NUMBER
 STRT.FT                             770.00 : START DEPTH
 STOP.FT                            2580.00 : STOP DEPTH
 STEP.FT                               1.00 : DEPTH INCREMENT
 NULL.                                -9999 : NULL VALUE
~Curve information
 DEPTH.FT                                   :
 ROP.MIN/FT                                 :
 GAS.UNITS                                  :
~ASCII Log data
# ...
      2170.0          0.3         11.1 
      2171.0          0.3          3.8 
      2172.0          0.2          0.4 
      2173.0          0.1         11.2 
      2174.0          0.3         11.1 
      2175.0          0.1         11.1 
      2176.0          0.1         11.2 
      2177.0          0.2         11.1 
      2178.0          0.2         11.1 
      2179.0          0.3         11.2 
      2180.0          0.2          3.6 
      2181.0          0.1          4.0 
      2182.0          0.2          4.6 
      2183.0          0.2          3.9 
      2184.0          0.2          3.6 
      2185.0          0.3          2.5 
      2186.0          0.3          0.5 
      2187.0          0.3          3.4 
      2188.0          0.3          6.5 
      2189.0          0.3          9.6 
      2190.0          0.3         11.2 
      2191.0          0.2         11.2 
      2192.0          0.1         11.2 
      2193.0          0.3         11.1 
      2194.0          0.3         11.2 
      2195.0          0.2         11.1 
      2196.0          0.1         11.2 
      2197.0          5.9         97.2 
      2198.0          0.2         60.2 
      2199.0          0.5         36.6 
      2200.0          0.4         15.8 
      2201.0          0.4         11.1 
      2202.0          0.5          8.4 
      2203.0          0.4          7.6 
      2204.0          0.4          6.7 
      2205.0          0.4          6.6 
      2206.0          0.4          6.2 
      2207.0          0.4          5.7 
      2208.0          0.3          5.2 
      2209.0          0.3          5.2 
      2210.0          0.3          5.2 
      2211.0          0.3          4.9 
      2212.0          0.2          4.0 
      2213.0          0.2          3.9 
      2214.0          0.1          3.6 
      2215.0          0.1          3.2 
      2216.0          0.1          3.2 
      2217.0          0.2          3.0 
      2218.0          0.3          1.7 
      2219.0          0.3          1.5 
      2220.0          0.3          1.7 
      2221.0          0.3          9.3 
      2222.0          0.3          8.7 
      2223.0          0.3          4.9 
      2224.0          0.4          6.8 
      2225.0          0.4          7.4 
      2226.0          0.3          9.1 
      2227.0          0.4         10.5 
      2228.0          0.4         11.5 
      2229.0          6.6        149.4 
      2230.0          0.5         48.4 
      2231.0          0.5         14.7 
      2232.0          0.7          7.9 
      2233.0          1.5         24.3 
      2234.0          0.5         27.8 
      2235.0          0.4         26.8 
      2236.0          0.2         26.6 
      2237.0          0.1         26.6 
      2238.0          0.1         26.3 
      2239.0          0.2         23.6 
      2240.0          0.2         21.0 
      2241.0          0.3         18.2 
      2242.0          0.3         14.5 
      2243.0          0.3          9.5 
      2244.0          0.3          8.3 
      2245.0          0.4         18.1 
      2246.0          0.4         19.1 
      2247.0          0.6         15.1 
      2248.0          0.5         11.9 
      2249.0          0.5         11.1 
      2250.0          0.3         10.6 
      2251.0          0.3         11.3 
      2252.0          0.4         11.0 
      2253.0          0.3         11.1 
      2254.0          0.4         10.8 
      2255.0          0.4         11.3 
      2256.0          0.2         11.3 
      2257.0          0.5         10.9 
      2258.0          0.5         10.4 
      2259.0          9.3        136.8 
      2260.0          0.6         43.2 
      2261.0          0.6         17.0 
      2262.0          0.5         10.8 
      2263.0          0.9          9.5 
      2264.0          1.1          7.6 
      2265.0          1.7         15.7 
      2266.0          0.5          8.4 
      2267.0          0.4         11.4 
      2268.0          0.5         17.4 
      2269.0          0.4         20.3 
      2270.0          0.4         20.7 
      2271.0          0.4         19.9 
      2272.0          0.4         18.8 
      2273.0          0.3         18.6 
      2274.0          0.4         17.9 
      2275.0          0.4         15.1 
      2276.0          0.5         12.9 
      2277.0          0.4          9.8 
      2278.0          0.4          7.6 
      2279.0          0.4          6.2 
      2280.0          0.4          5.3 
      2281.0          0.4          5.3 
      2282.0          0.4          5.4 
      2283.0          0.4          5.7 
      2284.0          0.4          6.1 
      2285.0          0.4          6.1 
      2286.0          0.4          6.6 
      2287.0          0.4          7.1 
      2288.0          0.4          7.1 
      2289.0          7.5         78.9 
      2290.0          0.6          9.4 
      2291.0          0.8         15.4 
      2292.0          1.5         22.4 
      2293.0          0.4         24.0 
      2294.0          0.4         23.9 
      2295.0          0.4         23.0 
      2296.0          0.4         20.7 
      2297.0          0.4         18.5 
      2298.0          0.4         14.9 
      2299.0          0.5          7.2 
      2300.0          0.5          5.6 
      2301.0          0.4          6.3 
      2302.0          0.4          6.9 
      2303.0          0.4          8.8 
      2304.0          0.4         10.3 
      2305.0          0.4         10.6 
      2306.0          0.4         10.1 
      2307.0          0.4          9.1 
      2308.0          0.4          8.7 
      2309.0          0.3          8.6 
      2310.0          0.2          8.3 
      2311.0          0.4          8.9 
      2312.0          5.6         33.2 
      2313.0          2.5         17.8 
      2314.0          0.1         15.8 
      2315.0          0.1         14.5 
      2316.0          0.3         11.9 
      2317.0          0.4         10.5 
      2318.0          0.4         14.6 
      2319.0          0.3         16.3 
      2320.0          0.4         17.8 
      2321.0          0.3         18.1 
      2322.0          9.7         59.0 
      2323.0          0.4         19.3 
      2324.0          0.4         18.0 
      2325.0          0.4         14.8 
      2326.0          0.4         12.6 
      2327.0          0.3         10.9 
      2328.0          0.4         10.3 
      2329.0          0.3          8.7 
      2330.0          0.3          7.4 
      2331.0          0.3          7.2 
      2332.0          0.2          7.3 
      2333.0          0.2          7.3 
      2334.0          0.2          7.7 
      2335.0          0.3          8.2 
      2336.0          0.3          9.6 
      2337.0          0.3         10.5 
      2338.0          0.2         10.5 
      2339.0          0.2         11.3 
      2340.0          0.1         13.1 
      2341.0          0.2         18.1 
      2342.0          0.2         22.4 
      2343.0          0.2         22.3 
      2344.0          0.2         20.1 
      2345.0          0.2         17.2 
      2346.0          0.3         15.4 
      2347.0          0.3         16.7 
      2348.0          0.2         22.8 
      2349.0          5.5         59.8 
      2350.0          0.8         28.1 
      2351.0          0.8         13.6 
      2352.0          0.4         16.4 
      2353.0          0.3         18.1 
      2354.0          0.3         19.7 
      2355.0          0.3         20.5 
      2356.0          0.4         20.2 
      2357.0          0.4         17.7 
      2358.0          0.3         14.1 
      2359.0          0.4         11.3 
      2360.0          0.4          9.7 
      2361.0          0.4          8.7 
      2362.0          0.4          8.8 
      2363.0          0.4          9.2 
      2364.0          0.5          9.3 
      2365.0          0.5          8.8 
      2366.0          0.4          8.2 
      2367.0          0.2          7.8 
      2368.0          0.3          8.1 
      2369.0          0.3          7.7 
