~Version Information
VERS.                      2.0: CWLS Log ASCII Standard - VERSION 2.0
WRAP.                       NO: One line per depth step
~Well Information Block
STRT.FT                -1.5000: 
STOP.FT              1317.0000: 
STEP.FT                 0.2500: 
NULL.                -999.2500: 
COMP.          Pioneer Natural Resources: COMPANY
WELL.              Border 21-3: WELL
FLD.           Purgatoire River: FIELD
LOC.           865' FNL & 1415' FWL: LOCATION
PROV.                 Colorado: PROVINCE
CNTY.               Las Animas: COUNTRY
SRVC.                Patterson: SERVICE COMPANY
DATE.          Tue Dec 14 14:08:05 2004: LOG DATE
UWI.           05 071 08169 00: UNIQUE WELL ID
~Curve Information Block
DEPT.FT            0 000 00 00: Depth
GR.GAPI                       : Gamma Ray
CCL.                          : Casing Collar Locator
TT3.usec                      : CBL 3' Travel Time
AMP3.mV                       : CBL 3' Amplitude
~Parameter Information Block
~A  Depth        GR         CCL         TT3         AMP3    
    -1.5000   -999.2500   -999.2500   -999.2500   -999.2500
    -1.2500   -999.2500   -999.2500   -999.2500   -999.2500
    -1.0000   -999.2500   -999.2500   -999.2500   -999.2500
    -0.7500   -999.2500   -999.2500   -999.2500   -999.2500
    -0.5000   -999.2500   -999.2500   -999.2500   -999.2500
    -0.2500   -999.2500   -999.2500   1500.0000      3.3352
     0.0000   -999.2500   -999.2500   1500.0000      3.3435
     0.2500   -999.2500   -999.2500   1500.0000      3.3692
     0.5000   -999.2500   -999.2500   1500.0000      3.3885
     0.7500   -999.2500   -999.2500   1500.0000      3.4045
     1.0000   -999.2500   -999.2500   1500.0000      3.4127
     1.2500   -999.2500   -999.2500   1500.0000      3.4140
     1.5000   -999.2500   -999.2500   1500.0000      3.4128
     1.7500   -999.2500   -999.2500   1500.0000      3.4130
     2.0000   -999.2500   -999.2500   1500.0000      3.4156
     2.2500   -999.2500   -999.2500   1500.0000      3.4187
     2.5000   -999.2500   -999.2500   1500.0000      3.4209
     2.7500   -999.2500   -999.2500   1500.0000      3.4219
     3.0000   -999.2500   -999.2500   1500.0000      3.4227
     3.2500   -999.2500   -999.2500   1500.0000      3.4245
     3.5000   -999.2500   -999.2500   1500.0000      3.4285
     3.7500   -999.2500   -999.2500   1500.0000      3.4331
     4.0000   -999.2500   -999.2500   1500.0000      3.4349
     4.2500   -999.2500   -999.2500   1500.0000      3.4307
     4.5000   -999.2500      0.0000   1500.0000      3.4181
     4.7500   -999.2500      0.0000   1500.0000      3.3900
     5.0000   -999.2500      0.0000   1500.0000      3.3368
     5.2500   -999.2500      0.0000   1500.0000      3.2561
     5.5000   -999.2500      0.0000   1500.0000      3.1593
     5.7500   -999.2500      0.0000   1499.9199      3.0671
     6.0000   -999.2500      0.0000   1499.3976      3.0038
     6.2500   -999.2500      0.0000   1496.7456      3.0346
     6.5000   -999.2500      0.0000   1486.2578      3.3592
     6.7500   -999.2500      0.0000   1453.9570      4.4358
     7.0000   -999.2500      0.0000   1376.4847      6.9677
     7.2500   -999.2500      0.0000   1231.7976     11.4886
     7.5000   -999.2500      0.0000   1021.4316     17.6305
     7.7500   -999.2500      0.0000    783.5976     23.8384
     8.0000   -999.2500      0.0000    575.5750     28.1911
     8.2500   -999.2500      0.0000    438.1174     29.6963
     8.5000   -999.2500      0.0000    377.8539     28.7321
     8.7500   -999.2500      0.0000    378.6389     26.3726
     9.0000   -999.2500      0.0000    419.9662     23.5467
     9.2500   -999.2500      0.0000    484.8415     20.7450
     9.5000     88.9064      0.0000    560.0183     18.1519
     9.7500     86.7259      0.0000    635.3033     15.8272
    10.0000     85.7256      0.0000    702.8451     13.7995
    10.2500     86.1922      0.0000    756.7914     12.1009
    10.5000     87.1145      0.0000    794.3892     10.7689
    10.7500     86.7929      0.0000    816.6949      9.8260
    11.0000     84.1124      0.0000    827.4299      9.2480
    11.2500     79.3754      0.0000    830.8739      8.9555
    11.5000     74.1531      0.0000    830.2198      8.8398
    11.7500     70.4650      0.0000    826.8040      8.8057
    12.0000     69.6676      0.0000    820.5822      8.8017
    12.2500     71.5489      0.0000    811.8780      8.8179
    12.5000     74.3528     -2.0000    802.5669      8.8578
    12.7500     75.9639      0.0000    795.0815      8.9146
    13.0000     75.3384      0.0000    790.6099      8.9760
    13.2500     72.9483      0.0000    788.7137      9.0397
    13.5000     69.9880      0.0000    788.3192      9.1152
    13.7500     67.2747      0.0000    788.6322      9.2089
    14.0000     64.8876      0.0000    789.4100      9.3158
    14.2500     62.6773      0.0000    790.9080      9.4229
    14.5000     60.8282      0.0000    793.6881      9.5144
    14.7500     59.8638      0.0000    798.0499      9.5766
    15.0000     60.3043      0.0000    803.2704      9.6063
    15.2500     62.3591      0.0000    807.6363      9.6104
    15.5000     65.6669      0.0000    809.8855      9.5960
    15.7500     69.1722      0.0000    810.5413      9.5643
    16.0000     71.5116      0.0000    811.1971      9.5171
    16.2500     71.8385      0.0000    812.6957      9.4628
    16.5000     70.3066      0.0000    814.7800      9.4101
    16.7500     67.6537      0.0000    817.1210      9.3607
    17.0000     64.4349      0.0000    819.4746      9.3133
    17.2500     60.7926      0.0000    820.7095      9.2707
    17.5000     56.7993      0.0000    818.4257      9.2365
    17.7500     52.8619      0.0000    809.9186      9.2132
    18.0000     49.8256      0.0000    794.0251      9.2060
    18.2500     48.5866      0.0000    772.8916      9.2209
    18.5000     49.3825      0.0000    752.0960      9.2542
    18.7500     51.5222      0.0000    737.8974      9.2901
    19.0000     53.9152      0.0000    733.1093      9.3108
    19.2500     55.7540      0.0000    735.0946      9.3010
    19.5000     56.7433      0.0000    738.1599      9.2436
    19.7500     56.9387      0.0000    739.1204      9.1272
    20.0000     56.4849      0.0000    741.2513      8.9580
    20.2500     55.5563      0.0000    751.9132      8.7580
    20.5000     54.5102      0.0000    774.6680      8.5532
    20.7500     53.7449      0.0000    803.8245      8.3733
    21.0000     53.2733      0.0000    828.6913      8.2488
    21.2500     52.7306     -2.0000    843.6459      8.1916
    21.5000     51.9573      0.0000    852.2838      8.1856
    21.7500     51.3877      2.0000    861.2464      8.2065
    22.0000     51.7545      0.0000    871.7133      8.2512
    22.2500     53.4641      0.0000    877.3131      8.3527
    22.5000     56.2029      0.0000    869.3992      8.5725
    22.7500     59.0138      0.0000    845.2712      8.9588
    23.0000     60.8300      0.0000    812.2104      9.4734
    23.2500     61.2066      0.0000    781.8373      9.9730
    23.5000     60.6667      0.0000    760.1835     10.3076
    23.7500     60.2213      0.0000    745.1402     10.4432
    24.0000     60.3762      0.0000    732.5622     10.4591
    24.2500     60.6784      0.0000    721.4958     10.4464
    24.5000     60.4289      0.0000    713.2814     10.4441
    24.7500     59.7009      0.0000    708.6595     10.4532
    25.0000     59.2873      0.0000    707.2244     10.4667
    25.2500     59.6817      0.0000    708.6108     10.4788
    25.5000     60.5329      0.0000    712.9788     10.4868
    25.7500     61.2567      0.0000    719.8445     10.4927
    26.0000     61.8541      0.0000    726.6521     10.4958
    26.2500     62.7676      0.0000    729.5632     10.4872
    26.5000     63.9704      0.0000    726.6134     10.4565
    26.7500     64.5928      0.0000    719.6569     10.4018
    27.0000     63.6910      0.0000    712.5260     10.3276
    27.2500     61.2913      0.0000    707.8138     10.2381
    27.5000     58.5591      0.0000    705.8802     10.1391
    27.7500     56.9273      0.0000    706.1714     10.0406
    28.0000     56.9491      0.0000    708.8813      9.9526
    28.2500     57.9107      0.0000    715.6458      9.8830
    28.5000     58.5851      0.0000    728.7615      9.8381
    28.7500     58.4446      0.0000    749.0371      9.8173
    29.0000     58.0733      0.0000    774.0175      9.8093
    29.2500     58.3390      0.0000    799.2370      9.8019
    29.5000     59.3700      0.0000    821.3801      9.7946
    29.7500     60.6661      0.0000    838.4566      9.7963
    30.0000     62.0510      0.0000    846.8191      9.8126
    30.2500     63.8869      0.0000    842.3895      9.8402
    30.5000     66.1561      0.0000    827.4522      9.8660
    30.7500     67.9001      0.0000    812.1996      9.8720
    31.0000     67.9187      0.0000    806.2416      9.8481
    31.2500     65.8007      0.0000    811.3388      9.8058
    31.5000     62.1807      0.0000    823.8421      9.7701
    31.7500     58.2655      0.0000    840.1091      9.7559
