~Version Information
 VERS.                                  2.0 : CWLS LAS VERSION
 WRAP.                                   NO : WRAPING MODE
 SWARE .                 MController 2.5.0I : SOFTWARE VERSION
~Well Information
 WELL.                                  N/A : WELL
 COMP.                                  N/A : COMPANY
 FLD.                                   N/A : FIELD
 LOC.                                   N/A : LOCATION
 DATE.                                  N/A : DATE(S) LOGGED
 SRVC.                                  N/A : SERVICE COMPANY
 STAT.                                  N/A : STATE
 CNTY.                                  N/A : COUNTY
 CTRY.                                  N/A : COUNTRY
 API.                                   N/A : API NUMBER
 STRT.FT                             801.00 : START DEPTH
 STOP.FT                            2405.00 : STOP DEPTH
 STEP.FT                               1.00 : DEPTH INCREMENT
 NULL.                                -9999 : NULL VALUE
~Curve information
 DEPTH.FT                                   :
 ROP.MIN/FT                                 :
 GAS.UNITS                                  :
~ASCII Log data
# ...
      1201.0          0.2         10.4 
      1202.0          0.3         11.6 
      1203.0          0.2         11.3 
      1204.0          0.3         10.9 
      1205.0          0.3          9.7 
      1206.0          0.3         10.0 
      1207.0          0.2          9.5 
      1208.0          0.2          9.6 
      1209.0          0.2          9.2 
      1210.0          0.2          8.9 
      1211.0          0.2          8.7 
      1212.0          0.2          8.8 
      1213.0          0.2          8.8 
      1214.0          0.1          8.8 
      1215.0          0.2          9.0 
      1216.0          0.1          9.1 
      1217.0          0.2          9.0 
      1218.0          0.2          9.5 
      1219.0          0.2          9.0 
      1220.0          0.1          8.9 
      1221.0          0.1          8.7 
      1222.0          0.1          9.5 
      1223.0          0.1         10.2 
      1224.0          0.1         11.0 
      1225.0          0.1         11.7 
      1226.0          0.1         11.7 
      1227.0          0.5         11.7 
      1228.0          0.3          8.9 
      1229.0          0.3          8.1 
      1230.0          2.9         22.9 
      1231.0          0.3          9.1 
      1232.0          0.2          8.4 
      1233.0          0.2          8.5 
      1234.0          0.2          8.3 
      1235.0          0.2          8.3 
      1236.0          0.2          8.5 
      1237.0          0.3          8.4 
      1238.0          0.2          8.3 
      1239.0          0.2          8.4 
      1240.0          0.2          9.1 
      1241.0          0.2          9.4 
      1242.0          0.2         10.1 
      1243.0          0.2         10.5 
      1244.0          0.2         10.7 
      1245.0          0.3         11.0 
      1246.0          0.2         11.5 
      1247.0          0.3         10.9 
      1248.0          0.2         11.1 
      1249.0          0.2         11.4 
      1250.0          0.2         11.7 
      1251.0          0.3         12.7 
      1252.0          0.3         13.4 
      1253.0          0.3         13.7 
      1254.0          0.2         13.9 
      1255.0          0.2         14.0 
      1256.0          0.2         14.4 
      1257.0          0.2         14.5 
      1258.0          0.2         14.4 
      1259.0          0.1         14.6 
      1260.0          2.6         26.6 
      1261.0          0.2         21.3 
      1262.0          0.3         23.6 
      1263.0          0.3         26.6 
      1264.0          0.3         26.1 
      1265.0          0.3         22.4 
      1266.0          0.3         19.9 
      1267.0          0.2         18.0 
      1268.0          0.2         18.0 
      1269.0          0.2         17.4 
      1270.0          0.2         17.2 
      1271.0          0.2         16.7 
      1272.0          0.3         16.7 
      1273.0          0.3         15.6 
      1274.0          0.2         15.5 
      1275.0          0.2         15.2 
      1276.0          0.2         14.9 
      1277.0          0.3         14.5 
      1278.0          0.3         14.6 
      1279.0          0.2         14.0 
      1280.0          0.1         14.1 
      1281.0          0.2         14.4 
      1282.0          0.2         15.0 
      1283.0          0.3         15.1 
      1284.0          0.1         15.2 
      1285.0          0.1         14.8 
      1286.0          0.2         15.3 
      1287.0          0.2         15.1 
      1288.0          0.2         14.5 
      1289.0          0.5         13.0 
      1290.0          2.0         27.8 
      1291.0          0.3         18.5 
      1292.0          0.4         19.6 
      1293.0          0.3         21.1 
      1294.0          0.3         20.2 
      1295.0          0.3         19.7 
      1296.0          0.3         21.5 
      1297.0          0.4         26.9 
      1298.0          0.4         29.2 
      1299.0          0.4         30.6 
      1300.0          0.4         30.6 
      1301.0          0.3         28.9 
      1302.0          0.3         28.2 
      1303.0          0.3         27.9 
      1304.0          0.3         26.7 
      1305.0          0.2         26.5 
      1306.0          0.2         26.4 
      1307.0          0.2         26.4 
      1308.0          0.2         27.1 
      1309.0          0.2         27.4 
      1310.0          0.2         27.4 
      1311.0          0.3         27.0 
      1312.0          0.3         26.9 
      1313.0          0.3         26.6 
      1314.0          0.4         26.2 
      1315.0          0.3         25.9 
      1316.0          0.4         25.5 
      1317.0          0.3         25.3 
      1318.0          0.3         25.5 
      1319.0          0.3         26.2 
      1320.0          2.9        101.7 
      1321.0          0.4         73.5 
      1322.0          0.5         42.5 
      1323.0          0.5         37.4 
      1324.0          0.5         34.5 
      1325.0          0.4         31.6 
      1326.0          0.4         29.6 
      1327.0          0.4         28.7 
      1328.0          0.3         27.2 
      1329.0          0.3         26.0 
      1330.0          0.3         25.7 
      1331.0          0.3         25.6 
      1332.0          0.3         24.9 
      1333.0          0.3         24.7 
      1334.0          0.3         24.5 
      1335.0          0.3         24.5 
      1336.0          0.2         24.7 
      1337.0          0.3         24.5 
      1338.0          0.2         24.0 
      1339.0          0.2         24.5 
      1340.0          0.2         24.3 
      1341.0          0.3         24.4 
      1342.0          0.3         24.4 
      1343.0          0.3         24.5 
      1344.0          0.5         24.3 
      1345.0          0.4         24.2 
      1346.0          0.3         24.2 
      1347.0          0.3         24.5 
      1348.0          0.3         25.0 
      1349.0          0.3         25.5 
      1350.0          2.3         61.9 
      1351.0          0.8         56.5 
      1352.0          0.6         44.8 
      1353.0          0.5         43.2 
      1354.0          0.4         32.8 
      1355.0          0.4         29.1 
      1356.0          0.4         26.7 
      1357.0          0.4         25.6 
      1358.0          0.4         24.4 
      1359.0          0.3         23.8 
      1360.0          0.3         23.8 
      1361.0          0.4         23.8 
      1362.0          0.2         23.5 
      1363.0          0.3         23.5 
      1364.0          0.3         23.6 
      1365.0          0.2         23.6 
      1366.0          0.4         23.7 
      1367.0          0.3         23.9 
      1368.0          0.4         23.5 
      1369.0          0.3         23.5 
      1370.0          0.3         23.7 
      1371.0          0.3         23.9 
      1372.0          0.3         23.8 
      1373.0          0.3         23.9 
      1374.0          0.4         23.6 
      1375.0          0.3         23.1 
      1376.0          0.4         22.8 
      1377.0          0.3         22.9 
      1378.0          0.4         23.4 
      1379.0          0.2         24.4 
      1380.0          3.8        129.8 
      1381.0          0.4         61.2 
      1382.0          0.3         31.9 
      1383.0          0.4         32.6 
      1384.0          0.5         34.6 
      1385.0          0.6         34.3 
      1386.0          0.4         31.6 
      1387.0          0.4         28.4 
      1388.0          0.3         25.0 
      1389.0          0.4         24.0 
      1390.0          0.2         24.0 
      1391.0          0.2         24.2 
      1392.0          0.4         24.5 
      1393.0          0.3         24.4 
      1394.0          0.3         23.0 
      1395.0          0.3         23.6 
      1396.0          0.3         23.8 
      1397.0          0.4         23.8 
      1398.0          0.3         24.0 
      1399.0          0.4         24.1 
      1400.0          0.4         23.8 
