~Version Information
VERS.                      2.0: CWLS Log ASCII Standard - VERSION 2.0
WRAP.                       NO: One line per depth step
~Well Information Block
STRT.FT               350.0000: 
STOP.FT              2264.0000: 
STEP.FT                 0.1000: 
NULL.                -999.2500: 
COMP.          Pioneer Natural Resources: COMPANY
WELL.             Warrior 32-1: WELL
FLD.           Purgatoire River: FIELD
LOC.           2624' FNL & 2392' FEL: LOCATION
PROV.                 Colorado: PROVINCE
CNTY.               Las Animas: COUNTRY
SRVC.                Patterson: SERVICE COMPANY
DATE.          Tue Oct 05 06:54:20 2004: LOG DATE
UWI.           05 071 08176 00: UNIQUE WELL ID
~Curve Information Block
DEPT.FT            0 000 00 00: Depth
DCAL.in                       : CDL Caliper
RHOB.g/cc                     : CDL Bulk Density
RHOC.g/cc                     : CDL Density Correction
DPOR.pu                       : CDL Density Porosity
NPOR.pu                       : Neutron Porosity
GR.GAPI                       : Gamma Ray
~Parameter Information Block
~A  Depth       DCAL        RHOB        RHOC        DPOR        NPOR         GR     
# ...
   858.8000      9.0514      1.2932      0.0205     82.2285      6.0872     43.0504
   858.9000      9.0514      1.3331      0.0565     79.8121      6.5098     49.0404
   859.0000      9.1248      1.3741      0.0848     77.3248      6.7858     56.1813
   859.1000      9.1248      1.4202      0.1204     74.5311      7.1110     61.2906
   859.2000      9.1248      1.4847      0.1674     70.6245      7.7106     61.5531
   859.3000      8.9261      1.5851      0.1490     64.5371      8.5031     61.5428
   859.4000      8.9261      1.7262      0.2386     55.9903      9.4161     65.1271
   859.5000      8.5866      1.8839      0.2832     46.4332     10.2969     69.9685
   859.6000      8.5866      2.0243      0.3272     37.9208     10.7510     74.8261
   859.7000      8.5866      2.1300      0.2859     31.5178     10.8926     79.9451
   859.8000      8.3949      2.2084      0.2569     26.7610     11.2125     83.9649
   859.9000      8.3949      2.2815      0.2173     22.3348     11.6562     89.2258
   860.0000      8.3569      2.3619      0.2376     17.4576     11.9195     99.1694
   860.1000      8.3569      2.4448      0.2285     12.4362     12.2762    110.9778
   860.2000      8.3569      2.5177      0.1968      8.0167     13.1633    118.4677
   860.3000      8.3522      2.5699      0.1668      4.8556     14.3158    119.6443
   860.4000      8.3522      2.5917      0.1981      3.5314     15.2716    117.4672
   860.5000      8.3430      2.5818      0.1210      4.1363     16.1172    116.6107
   860.6000      8.3430      2.5570      0.0581      5.6358     17.0306    117.7472
   860.7000      8.3430      2.5426     -0.0048      6.5077     18.1912    117.0460
   860.8000      8.3354      2.5435      0.0930      6.4564     19.5470    117.0791
   860.9000      8.3354      2.5453      0.0524      6.3484     20.5660    121.6974
   861.0000      8.3353      2.5466      0.0178      6.2639     21.0089    123.6923
   861.1000      8.3353      2.5527      0.0117      5.8941     21.3984    117.3565
   861.2000      8.3353      2.5611      0.0019      5.3896     22.1053    112.1364
   861.3000      8.3376      2.5705     -0.0065      4.8187     22.7969    117.0879
   861.4000      8.3376      2.5806      0.0176      4.2033     23.2011    125.8759
   861.5000      8.3360      2.5843      0.0661      3.9823     23.4077    130.5036
   861.6000      8.3360      2.5751      0.0339      4.5382     23.4081    130.7049
   861.7000      8.3360      2.5630      0.0143      5.2753     23.2412    128.6783
   861.8000      8.3332      2.5613      0.0060      5.3732     23.1474    127.5137
   861.9000      8.3332      2.5638      0.0397      5.2234     23.3916    127.0614
   862.0000      8.3303      2.5506      0.0268      6.0263     23.7043    124.1790
   862.1000      8.3303      2.5238     -0.0131      7.6483     23.6832    118.9284
   862.2000      8.3303      2.5159     -0.0124      8.1295     23.5896    115.7053
   862.3000      8.3183      2.5415      0.0342      6.5735     23.5049    118.9953
   862.4000      8.3183      2.5760      0.0149      4.4831     23.3305    126.5326
   862.5000      8.2937      2.5883      0.0714      3.7387     23.5796    129.1470
   862.6000      8.2937      2.5672      0.0377      5.0212     24.4427    121.1544
   862.7000      8.2937      2.5280      0.0170      7.3968     25.3560    109.1444
   862.8000      8.2707      2.4910      0.0502      9.6352     26.0294    104.2398
   862.9000      8.2707      2.4668     -0.0163     11.1041     26.5366    107.7464
   863.0000      8.2533      2.4669      0.0260     11.0982     26.9023    112.5972
   863.1000      8.2533      2.4838      0.0579     10.0737     27.1942    110.7940
   863.2000      8.2533      2.4891      0.0628      9.7524     27.3135    101.7503
   863.3000      8.2442      2.4722      0.0436     10.7738     27.0967     95.0680
   863.4000      8.2442      2.4495     -0.0249     12.1511     26.7829     97.2219
   863.5000      8.2421      2.4383     -0.0171     12.8322     26.5434    104.4474
   863.6000      8.2421      2.4359      0.0252     12.9775     26.1359    111.0944
   863.7000      8.2421      2.4333      0.0283     13.1338     25.3716    115.5005
   863.8000      8.2374      2.4285      0.0486     13.4258     24.3717    118.2018
   863.9000      8.2374      2.4223      0.0665     13.8027     23.4766    119.9018
   864.0000      8.2287      2.4191      0.0377     13.9942     23.0261    120.8420
   864.1000      8.2287      2.4212      0.0787     13.8646     22.7841    120.4213
   864.2000      8.2287      2.4235      0.0500     13.7274     22.2618    120.3886
   864.3000      8.2241      2.4334      0.0342     13.1296     21.6933    122.7925
   864.4000      8.2241      2.4601      0.0878     11.5115     21.7109    123.2842
   864.5000      8.2249      2.4855      0.1524      9.9691     22.2297    117.5303
   864.6000      8.2249      2.4939      0.1159      9.4611     22.4719    109.4246
   864.7000      8.2249      2.4995      0.1026      9.1206     22.0341    104.7437
   864.8000      8.2270      2.5146      0.1127      8.2063     21.3042    103.3693
   864.9000      8.2270      2.5293      0.0956      7.3166     21.1110    101.0704
   865.0000      8.2288      2.5325      0.0809      7.1232     21.7349     98.2270
   865.1000      8.2288      2.5225      0.1068      7.7263     22.5300     99.1325
   865.2000      8.2288      2.5049      0.0220      8.7953     22.8530    102.0866
   865.3000      8.2296      2.4919      0.0160      9.5845     22.7678    103.0603
   865.4000      8.2296      2.4865      0.0970      9.9080     22.9089    105.8881
   865.5000      8.2283      2.4874      0.0043      9.8571     23.3864    114.2652
   865.6000      8.2283      2.5020      0.0313      8.9708     23.7397    122.1854
   865.7000      8.2283      2.5229      0.0661      7.7049     23.8722    123.9012
   865.8000      8.2264      2.5284      0.0675      7.3717     23.7234    119.1621
   865.9000      8.2264      2.5143      0.0604      8.2253     23.1153    110.4488
   866.0000      8.2248      2.5046     -0.0055      8.8141     22.3870    102.8552
   866.1000      8.2248      2.5211      0.0320      7.8112     22.1645     99.1935
   866.2000      8.2248      2.5483      0.0748      6.1664     22.6357     97.6328
   866.3000      8.2226      2.5575      0.0635      5.6062     23.2888     98.8078
   866.4000      8.2226      2.5475      0.0491      6.2130     23.5529    104.0313
   866.5000      8.2213      2.5356      0.0418      6.9323     23.4965    111.5000
   866.6000      8.2213      2.5235      0.0506      7.6678     23.4152    117.6910
   866.7000      8.2213      2.5032      0.0096      8.8940     23.2880    122.1266
   866.8000      8.2230      2.4875     -0.0130      9.8500     23.1672    128.9091
   866.9000      8.2230      2.4916      0.0240      9.6018     23.2466    134.2495
   867.0000      8.2256      2.5076      0.0169      8.6275     23.3620    133.0734
   867.1000      8.2256      2.5202      0.0307      7.8647     23.4474    127.1289
   867.2000      8.2256      2.5200      0.0548      7.8759     23.7576    117.5552
   867.3000      8.2266      2.5090      0.0133      8.5469     24.2481    109.4165
   867.4000      8.2266      2.5020     -0.0114      8.9685     24.7423    107.3821
   867.5000      8.2268      2.5062      0.0288      8.7145     25.2542    107.7492
   867.6000      8.2268      2.5124      0.0126      8.3369     25.4592    108.5840
   867.7000      8.2268      2.5181      0.0153      7.9913     25.0573    112.6447
   867.8000      8.2266      2.5305      0.0189      7.2445     24.4162    119.1992
   867.9000      8.2266      2.5441      0.0293      6.4182     24.3158    123.8125
   868.0000      8.2253      2.5459      0.0297      6.3063     24.9447    124.6374
   868.1000      8.2253      2.5419      0.0091      6.5498     25.5113    121.0771
   868.2000      8.2253      2.5414      0.0432      6.5838     25.4641    115.5315
   868.3000      8.2245      2.5399      0.0250      6.6698     25.0620    113.8636
