~Version Information
VERS.                      2.0: CWLS Log ASCII Standard - VERSION 2.0
WRAP.                       NO: One line per depth step
~Well Information Block
STRT.FT                -8.2500: 
STOP.FT              2725.7500: 
STEP.FT                 0.2500: 
NULL.                -999.2500: 
COMP.          Pioneer Natural Resources: COMPANY
WELL.          Rabbit Bush Federal 44-19: WELL
FLD.           Purgatoire River: FIELD
LOC.           826' FSL & 1127' FEL: LOCATION
CNTY.               Las Animas: COUNTY
SRVC.                Patterson: SERVICE COMPANY
DATE.          Thu Sep 14 10:51:19 2006: LOG DATE
UWI.           05 071 08149 00: UNIQUE WELL ID
STAT.                       CO: STATE
~Curve Information Block
DEPT.FT            0 000 00 00: Depth
GR.GAPI                       : Gamma Ray
CCL.                          : Casing Collar Locator
TT3.usec                      : CBL 3' Travel Time
AMP3.mV                       : CBL 3' Amplitude
~Parameter Information Block
~A  Depth        GR         CCL         TT3         AMP3    
    -8.2500   -999.2500   -999.2500   -999.2500   -999.2500
    -8.0000   -999.2500   -999.2500   -999.2500   -999.2500
    -7.7500   -999.2500   -999.2500   -999.2500   -999.2500
    -7.5000   -999.2500   -999.2500   -999.2500   -999.2500
    -7.2500   -999.2500   -999.2500   -999.2500   -999.2500
    -7.0000   -999.2500   -999.2500   -999.2500   -999.2500
    -6.7500   -999.2500   -999.2500   -999.2500   -999.2500
    -6.5000   -999.2500   -999.2500   -999.2500   -999.2500
    -6.2500   -999.2500   -999.2500   -999.2500   -999.2500
    -6.0000   -999.2500   -999.2500   -999.2500   -999.2500
    -5.7500   -999.2500   -999.2500   -999.2500   -999.2500
    -5.5000   -999.2500   -999.2500   1200.0000      1.2495
    -5.2500   -999.2500   -999.2500   1200.0000      1.2593
    -5.0000   -999.2500   -999.2500   1200.0000      1.2557
    -4.7500   -999.2500   -999.2500   1200.0000      1.2412
    -4.5000   -999.2500   -999.2500   1200.0000      1.2258
    -4.2500   -999.2500   -999.2500   1200.0000      1.2192
    -4.0000   -999.2500   -999.2500   1200.0000      1.2245
    -3.7500   -999.2500   -999.2500   1200.0000      1.2400
    -3.5000   -999.2500   -999.2500   1200.0000      1.2598
    -3.2500   -999.2500   -999.2500   1200.0000      1.2732
    -3.0000   -999.2500   -999.2500   1200.0000      1.2695
    -2.7500   -999.2500   -999.2500   1200.0000      1.2477
    -2.5000   -999.2500   -999.2500   1200.0000      1.2175
    -2.2500   -999.2500   -999.2500   1200.0000      1.1921
    -2.0000   -999.2500   -999.2500   1200.0000      1.1802
    -1.7500   -999.2500   -999.2500   1200.0000      1.1854
    -1.5000   -999.2500   -999.2500   1200.0000      1.2055
    -1.2500   -999.2500   -999.2500   1200.0000      1.2334
    -1.0000   -999.2500   -999.2500   1200.0000      1.2603
    -0.7500   -999.2500   -999.2500   1200.0000      1.2797
    -0.5000   -999.2500   -999.2500   1200.0000      1.2889
    -0.2500   -999.2500      0.0000   1200.0000      1.2890
     0.0000   -999.2500      0.0000   1200.0000      1.2843
     0.2500   -999.2500      0.0000   1200.0000      1.2786
     0.5000   -999.2500      0.0000   1200.0000      1.2649
     0.7500   -999.2500      0.0000   1200.0000      1.2615
     1.0000   -999.2500      0.0000   1200.0000      1.2686
     1.2500   -999.2500      2.0000   1200.0000      1.2851
     1.5000   -999.2500      2.0000   1200.0000      1.2998
     1.7500   -999.2500      0.0000   1200.0000      1.3004
     2.0000   -999.2500      0.0000   1200.0000      1.2841
     2.2500   -999.2500      0.0000   1200.0000      1.2575
     2.5000   -999.2500      0.0000   1200.0000      1.2300
     2.7500   -999.2500      0.0000   1200.0000      1.2087
     3.0000   -999.2500      0.0000   1200.0000      1.1974
     3.2500   -999.2500      0.0000   1200.0000      1.1955
     3.5000   -999.2500      0.0000   1200.0000      1.1983
     3.7500   -999.2500      0.0000   1200.0000      1.1984
     4.0000   -999.2500      0.0000   1200.0000      1.1917
     4.2500   -999.2500      0.0000   1200.0000      1.1798
     4.5000     55.3319      0.0000   1200.0000      1.1692
     4.7500     54.7027      0.0000   1200.0000      1.1671
     5.0000     52.8543      0.0000   1200.0000      1.1785
     5.2500     50.9796      0.0000   1200.0000      1.2046
     5.5000     50.0903      0.0000   1200.0000      1.2402
     5.7500     50.4480      0.0000   1200.0000      1.2734
     6.0000     51.5373      0.0000   1200.0000      1.2900
     6.2500     52.6075      0.0000   1200.0000      1.2825
     6.5000     53.4821      0.0000   1200.0000      1.2537
     6.7500     54.7439      0.0000   1200.0000      1.2147
     7.0000     56.9919      0.0000   1200.0000      1.1820
     7.2500     60.0792      0.0000   1200.0000      1.1714
     7.5000     63.0694      0.0000   1200.0000      1.1882
     7.7500     64.7611      0.0000   1200.0000      1.2213
     8.0000     64.4761      0.0000   1200.0000      1.2513
     8.2500     62.5132      0.0000   1200.0000      1.2660
     8.5000     59.7240      0.0000   1200.0000      1.2676
     8.7500     56.8098      0.0000   1200.0000      1.2659
     9.0000     54.2004      0.0000   1200.0000      1.2678
     9.2500     52.1595      0.0000   1200.0000      1.2736
     9.5000     50.5934      0.0000   1200.0000      1.2829
     9.7500     49.0887      0.0000   1200.0000      1.2974
    10.0000     47.4586      0.0000   1200.0000      1.3178
    10.2500     46.0244      0.0000   1200.0000      1.3392
    10.5000     45.2140      0.0000   1200.0000      1.3539
    10.7500     45.1119      0.0000   1200.0000      1.3572
    11.0000     45.5702      0.0000   1200.0000      1.3510
    11.2500     46.6967      0.0000   1200.0000      1.3416
    11.5000     49.0136      0.0000   1200.0000      1.3357
    11.7500     52.9267      0.0000   1200.0000      1.3356
    12.0000     57.9206      0.0000   1200.0000      1.3395
    12.2500     62.4501      0.0000   1200.0000      1.3449
    12.5000     64.9232      0.0000   1200.0000      1.3493
    12.7500     64.8879      0.0000   1200.0000      1.3490
    13.0000     63.1612      0.0000   1200.0000      1.3398
    13.2500     60.9357     -2.0000   1200.0000      1.3220
    13.5000     58.9608      0.0000   1200.0000      1.3011
    13.7500     57.5164      0.0000   1200.0000      1.2834
    14.0000     56.8543      0.0000   1200.0000      1.2713
    14.2500     57.3083      0.0000   1200.0000      1.2620
    14.5000     58.8984      0.0000   1200.0000      1.2512
    14.7500     61.0398      0.0000   1200.0000      1.2360
    15.0000     62.8671      0.0000   1200.0000      1.2166
    15.2500     63.8328      0.0000   1200.0000      1.1951
    15.5000     64.0288      0.0000   1200.0000      1.1730
    15.7500     64.0760      0.0000   1200.0000      1.1535
    16.0000     64.5515      0.0000   1200.0000      1.1420
    16.2500     65.2613      0.0000   1200.0000      1.1448
    16.5000     65.2934      0.0000   1200.0000      1.1640
    16.7500     64.2141      0.0000   1200.0000      1.1976
    17.0000     62.9587      0.0000   1200.0000      1.2423
    17.2500     63.0622      0.0000   1200.0000      1.2961
    17.5000     65.0784      0.0000   1200.0000      1.3545
    17.7500     68.1836      0.0000   1200.0000      1.4053
    18.0000     71.2751      0.0000   1200.0000      1.4338
    18.2500     74.0061      0.0000   1200.0000      1.4342
    18.5000     76.4040      0.0000   1200.0000      1.4152
    18.7500     77.7494      0.0000   1200.0000      1.3905
    19.0000     76.6443      0.0000   1200.0000      1.3675
    19.2500     72.4415      0.0000   1200.0000      1.3464
    19.5000     66.0944      0.0000   1200.0000      1.3271
    19.7500     59.3929      0.0000   1200.0000      1.3137
    20.0000     53.7964      0.0000   1200.0000      1.3097
    20.2500     50.1098      0.0000   1200.0000      1.3141
    20.5000     48.7483      0.0000   1200.0000      1.3214
    20.7500     49.8085      0.0000   1200.0000      1.3262
    21.0000     52.8975      0.0000   1200.0000      1.3291
    21.2500     57.0057      0.0000   1200.0000      1.3356
    21.5000     60.5051      0.0000   1200.0000      1.3490
    21.7500     61.7286      0.0000   1200.0000      1.3630
    22.0000     60.2925      0.0000   1200.0000      1.3641
    22.2500     57.7923      0.0000   1200.0000      1.3447
    22.5000     56.5593      0.0000   1200.0000      1.3115
    22.7500     57.7855      0.0000   1200.0000      1.2790
    23.0000     61.0985      0.0000   1200.0000      1.2585
    23.2500     65.3761      0.0000   1200.0000      1.2522
    23.5000     69.3225      0.0000   1200.0000      1.2567
    23.7500     71.6164      0.0000   1200.0000      1.2669
    24.0000     71.3407      0.0000   1200.0000      1.2783
    24.2500     68.7998      0.0000   1200.0000      1.2869
    24.5000     65.8030      0.0000   1200.0000      1.2896
    24.7500     64.4969      0.0000   1200.0000      1.2849
    25.0000     65.4483      0.0000   1200.0000      1.2750
