~Version Information
VERS.                      2.0: CWLS Log ASCII Standard - VERSION 2.0
WRAP.                       NO: One line per depth step
~Well Information Block
STRT.FT               -14.2500: 
STOP.FT              2177.5000: 
STEP.FT                 0.2500: 
NULL.                -999.2500: 
COMP.          Evergreen Operating Corp.: COMPANY
WELL.            Triumph 13-10: WELL
FLD.           Purgatorie River: FIELD
LOC.           1551' FSL & 522' FWL--: LOCATION
PROV.                       CO: PROVINCE
CNTY.               Las Animas: COUNTRY
SRVC.                         : SERVICE COMPANY
DATE.          Sat Aug 21 09:27:32 2004: LOG DATE
UWI.           005 071 08108 : UNIQUE WELL ID
~Curve Information Block
DEPT.FT            0 000 00 00: Depth
CCL.                          : Casing Collar Locator
TT3.usec                      : CBL 3' Travel Time
AMP3.mV                       : CBL 3' Amplitude
GR.GAPI                       : Gamma Ray
~Parameter Information Block
~A  Depth       CCL         TT3         AMP3         GR     
# ...
   990.7500      0.0000    711.1632      3.4553    125.6674
   991.0000      0.0000    700.0911      3.4272    128.7472
   991.2500      0.0000    679.1887      3.4198    132.1242
   991.5000      0.0000    652.2277      3.4775    135.8213
   991.7500      0.0000    632.2847      3.6008    139.3993
   992.0000      0.0000    631.6630      3.7294    142.1997
   992.2500      0.0000    650.4540      3.7856    144.1214
   992.5000      0.0000    677.6122      3.7442    145.3854
   992.7500      0.0000    701.8975      3.6507    145.3430
   993.0000      0.0000    718.7726      3.5814    142.6237
   993.2500      0.0000    728.6983      3.6041    137.1260
   993.5000      0.0000    733.3305      3.7618    131.1831
   993.7500      0.0000    733.9415      4.0378    128.0462
   994.0000      0.0000    730.8650      4.3271    129.2972
   994.2500      0.0000    723.2073      4.4920    133.8256
   994.5000      0.0000    709.8338      4.4668    138.8339
   994.7500      0.0000    691.2737      4.2859    141.6091
   995.0000      0.0000    670.5916      4.0202    140.9303
   995.2500      0.0000    652.3282      3.7256    137.6157
   995.5000      0.0000    640.4949      3.4461    133.9630
   995.7500      0.0000    637.3295      3.2270    132.2161
   996.0000      0.0000    643.4499      3.1148    133.0845
   996.2500      0.0000    658.3607      3.1495    135.6083
   996.5000      0.0000    680.2832      3.3349    138.1978
   996.7500      0.0000    705.6218      3.6089    139.2254
   997.0000      0.0000    729.1166      3.8644    136.7537
   997.2500      0.0000    745.3590      4.0084    128.9782
   997.5000      0.0000    751.3844      4.0125    115.8916
   997.7500      0.0000    748.5502      3.9226    100.1100
   998.0000      0.0000    741.5330      3.8129     85.4588
   998.2500      0.0000    735.1766      3.7230     74.8057
   998.5000      0.0000    732.3291      3.6381     68.9210
   998.7500      0.0000    733.7274      3.5230     66.6429
   999.0000      0.0000    738.1883      3.3814     66.0077
   999.2500      0.0000    742.6570      3.2948     65.6912
   999.5000      0.0000    743.7562      3.3736     65.6225
   999.7500      0.0000    740.3587      3.6382     66.3812
  1000.0000      0.0000    734.1668      3.9611     68.2702
  1000.2500      0.0000    727.5557      4.1543     70.8393
  1000.5000      0.0000    721.4969      4.1160     73.0031
  1000.7500      0.0000    715.6742      3.8974     73.7574
  1001.0000      0.0000    709.9146      3.6451     72.9698
  1001.2500      0.0000    705.0107      3.4915     71.3104
  1001.5000     -1.6193    702.2630      3.4867     69.4483
  1001.7500      1.6992    702.4319      3.5969     67.7317
  1002.0000      0.0000    705.0358      3.7485     66.6502
  1002.2500      0.0000    708.5565      3.8834     67.0530
  1002.5000      0.0000    711.2357      3.9762     69.5939
  1002.7500      0.0000    711.5648      4.0097     74.3332
  1003.0000      0.0000    707.9524      3.9679     81.2643
  1003.2500      0.0000    698.7039      3.8730     90.9265
  1003.5000      0.0000    683.7448      3.7982    103.7713
  1003.7500      0.0000    666.8700      3.8045    118.7458
  1004.0000      0.0000    654.7809      3.8702    132.9698
  1004.2500      0.0000    652.1274      3.9148    143.1186
  1004.5000      0.0000    657.8820      3.8922    147.2398
  1004.7500      0.0000    667.3434      3.8359    145.5601
  1005.0000      0.0000    676.3585      3.8095    140.1049
  1005.2500      0.0000    682.4047      3.8402    133.7390
  1005.5000      0.0000    683.2520      3.9110    128.9265
  1005.7500      0.0000    677.1709      3.9899    126.5513
  1006.0000      0.0000    664.9566      4.0478    125.8430
  1006.2500      0.0000    650.4597      4.0617    125.6901
  1006.5000      0.0000    638.1676      4.0288    125.8413
  1006.7500      0.0000    630.3815      3.9781    126.7116
  1007.0000      0.0000    626.6666      3.9408    128.4820
  1007.2500      0.0000    625.3204      3.9022    130.8675
  1007.5000      0.0000    624.8244      3.8275    133.6611
  1007.7500      0.0000    624.4366      3.7351    137.1061
  1008.0000      0.0000    624.2988      3.6937    141.5093
  1008.2500      0.0000    625.2250      3.7350    146.5693
  1008.5000      0.0000    628.0092      3.8111    151.2194
  1008.7500      0.0000    632.9520      3.8519    154.0123
  1009.0000      0.0000    640.4871      3.8339    153.7344
  1009.2500      0.0000    651.9100      3.7787    150.0250
  1009.5000      0.0000    668.3649      3.7078    143.5223
  1009.7500      0.0000    688.9639      3.6255    135.1953
  1010.0000      0.0000    710.6141      3.5312    125.7054
  1010.2500      0.0000    729.7299      3.4253    115.4122
  1010.5000      0.0000    743.6572      3.3154    104.4205
  1010.7500      0.0000    750.7772      3.2233     92.4575
  1011.0000      0.0000    750.2108      3.1673     79.3973
  1011.2500      0.0000    742.2368      3.1448     66.3369
  1011.5000      0.0000    729.4288      3.1448     55.7502
  1011.7500      0.0000    717.0137      3.1572     49.9784
  1012.0000      0.0000    710.7202      3.1691     49.5323
  1012.2500      0.0000    713.0545      3.1787     53.1584
  1012.5000      0.0000    721.4472      3.2045     59.2932
  1012.7500      0.0000    730.3464      3.2545     66.7770
  1013.0000      0.0000    735.4829      3.3050     74.1862
  1013.2500      0.0000    736.4109      3.3254     79.4867
  1013.5000      0.0000    735.2502      3.3055     81.2467
  1013.7500      0.0000    733.7148      3.2550     80.0550
  1014.0000      0.0000    732.0515      3.1936     78.3276
  1014.2500      0.0000    730.5609      3.1364     78.7266
  1014.5000      0.0000    730.7820      3.0854     82.7103
  1014.7500      0.0000    734.0948      3.0423     90.1472
  1015.0000      0.0000    739.2954      3.0214     99.9322
  1015.2500      0.0000    742.4932      3.0373    110.7084
  1015.5000      0.0000    740.2449      3.0830    121.0557
  1015.7500      0.0000    732.8434      3.1251    129.7096
  1016.0000      0.0000    724.1316      3.1344    136.1155
  1016.2500      0.0000    718.1200      3.1206    140.4718
  1016.5000      0.0000    716.0508      3.1207    143.1273
  1016.7500      0.0000    716.4301      3.1573    144.3350
  1017.0000      0.0000    717.1657      3.2254    144.5032
  1017.2500      0.0000    717.2831      3.3024    144.1046
  1017.5000      0.0000    716.9637      3.3650    143.2691
  1017.7500      0.0000    716.6151      3.4127    141.7489
  1018.0000      0.0000    716.1985      3.4701    139.2358
  1018.2500      0.0000    715.1107      3.5535    135.6743
  1018.5000      0.0000    712.3445      3.6394    131.4490
  1018.7500      0.0000    706.8326      3.6732    127.3427
  1019.0000      0.0000    698.2549      3.6207    124.2128
  1019.2500      0.0000    688.1597      3.5097    122.4560
  1019.5000      0.0000    680.2760      3.4002    121.6002
  1019.7500      0.0000    678.5948      3.3304    120.5121
  1020.0000      0.0000    683.9531      3.3239    118.1753
  1020.2500      0.0000    692.6954      3.4113    114.3140
  1020.5000      0.0000    699.4454      3.5869    109.4548
  1020.7500      0.0000    701.1628      3.7799    104.7021
  1021.0000      0.0000    698.6114      3.9067    101.2777
  1021.2500      0.0000    694.8713      3.9287     99.7957
  1021.5000      0.0000    692.9067      3.8570     99.9683
  1021.7500      0.0000    693.9824      3.7452    101.3098
  1022.0000      0.0000    697.3897      3.6669    104.0066
  1022.2500      0.0000    700.8242      3.6455    108.8093
  1022.5000      0.0000    700.8248      3.6290    116.0271
  1022.7500      0.0000    694.1138      3.5751    124.8530
  1023.0000      0.0000    680.6449      3.5238    133.7265
  1023.2500      0.0000    666.0018      3.5349    140.9537
  1023.5000      0.0000    658.6657      3.5974    144.9111
  1023.7500      0.0000    662.6716      3.6540    144.5865
  1024.0000      0.0000    673.7615      3.6774    140.7457
