~Version Information
VERS.                      2.0: CWLS Log ASCII Standard - VERSION 2.0
WRAP.                       NO: One line per depth step
~Well Information Block
STRT.FT               650.0000: 
STOP.FT              2085.0000: 
STEP.FT                 0.1000: 
NULL.                -999.2500: 
COMP.          Pioneer Natural Resources: COMPANY
WELL.           Galloway 32-13: WELL
FLD.           Purgatoire River: FIELD
LOC.           1809' FNL & 2004' FEL: LOCATION
PROV.                 Colorado: PROVINCE
CNTY.               Las Animas: COUNTRY
SRVC.                Patterson: SERVICE COMPANY
DATE.          Sat Jul 09 02:17:51 2005: LOG DATE
UWI.           05 071 08423 00: UNIQUE WELL ID
~Curve Information Block
DEPT.FT            0 000 00 00: Depth
DCAL.in                       : CDL Caliper
RHOB.g/cc                     : CDL Bulk Density
RHOC.g/cc                     : CDL Density Correction
DPOR.pu                       : CDL Density Porosity
GR.GAPI                       : Gamma Ray
NPOR.pu                       : Neutron Porosity
~Parameter Information Block
~A  Depth       DCAL        RHOB        RHOC        DPOR         GR         NPOR    
# ...
  1974.8000      7.8660      2.3436      0.0161     18.5720     89.8664     19.2603
  1974.9000      7.8660      2.3436      0.0149     18.5698     90.3254     18.8100
  1975.0000      7.8575      2.3581      0.0857     17.6885     85.8597     18.2972
  1975.1000      7.8575      2.3698      0.0800     16.9832     79.4359     18.6371
  1975.2000      7.8575      2.3671      0.0834     17.1456     75.2424     19.1578
  1975.3000      7.8533      2.3496      0.0424     18.2043     74.6272     19.1847
  1975.4000      7.8533      2.3255      0.0298     19.6679     76.5719     19.4967
  1975.5000      7.8505      2.3107     -0.0306     20.5632     79.3785     20.1912
  1975.6000      7.8505      2.3058      0.0494     20.8609     80.1671     20.3697
  1975.7000      7.8505      2.2987     -0.0268     21.2898     76.5515     20.0490
  1975.8000      7.8477      2.2970      0.0146     21.3930     69.0365     19.7646
  1975.9000      7.8477      2.3102      0.0121     20.5940     60.7156     19.4141
  1976.0000      7.8474      2.3240      0.0395     19.7597     56.5691     18.9673
  1976.1000      7.8474      2.3271     -0.0144     19.5717     59.1325     18.7848
  1976.2000      7.8474      2.3313     -0.0088     19.3125     66.5071     18.2934
  1976.3000      7.8475      2.3410      0.0763     18.7254     74.3482     16.8076
  1976.4000      7.8475      2.3515      0.0199     18.0930     76.7580     15.6429
  1976.5000      7.8460      2.3697      0.0347     16.9863     74.0802     15.7554
  1976.6000      7.8460      2.3897      0.0854     15.7740     73.3964     16.3174
  1976.7000      7.8460      2.3899      0.0758     15.7640     74.8203     17.0572
  1976.8000      7.8450      2.3719      0.0315     16.8565     74.3500     18.3413
  1976.9000      7.8450      2.3606      0.0346     17.5376     73.0010     19.4269
  1977.0000      7.8447      2.3688      0.0193     17.0397     69.5421     19.4594
  1977.1000      7.8447      2.3852      0.0831     16.0513     64.2466     18.6890
  1977.2000      7.8447      2.3944      0.0673     15.4935     63.5863     18.4575
  1977.3000      7.8434      2.3974      0.1010     15.3079     68.1201     19.0837
  1977.4000      7.8434      2.3995      0.0493     15.1834     71.4442     19.6576
  1977.5000      7.8397      2.3893      0.0896     15.8030     70.2649     19.9448
  1977.6000      7.8397      2.3501      0.0279     18.1773     67.8036     20.2097
  1977.7000      7.8397      2.2962     -0.0036     21.4438     67.3065     20.3143
  1977.8000      7.8293      2.2671     -0.0531     23.2058     69.0173     20.1844
  1977.9000      7.8293      2.2807      0.0185     22.3810     73.2966     20.0805
  1978.0000      7.7996      2.3164      0.0564     20.2206     79.1148     20.2022
  1978.1000      7.7996      2.3471      0.0628     18.3559     81.2546     20.0031
  1978.2000      7.7996      2.3660      0.0479     17.2114     78.4315     18.8489
  1978.3000      7.7461      2.3760      0.0822     16.6067     77.4950     17.5783
  1978.4000      7.7461      2.3735      0.0892     16.7594     81.5860     17.1380
  1978.5000      7.6926      2.3560      0.1263     17.8191     83.5735     17.1768
  1978.6000      7.6926      2.3344      0.0860     19.1290     77.8901     16.9208
  1978.7000      7.6926      2.3226      0.1118     19.8453     69.9572     16.2017
  1978.8000      7.6488      2.3199      0.1371     20.0034     67.2990     15.9286
  1978.9000      7.6488      2.3237      0.1017     19.7759     70.5505     16.9385
  1979.0000      7.6156      2.3397      0.1060     18.8051     75.4286     18.3417
  1979.1000      7.6156      2.3621      0.1918     17.4493     76.0811     18.4659
  1979.2000      7.6156      2.3801      0.1162     16.3547     73.2920     17.4473
  1979.3000      7.6088      2.3983      0.1420     15.2534     71.5673     16.8547
  1979.4000      7.6088      2.4188      0.1463     14.0141     71.9322     16.9200
  1979.5000      7.6197      2.4404      0.1461     12.7006     74.6958     16.4849
  1979.6000      7.6197      2.4573      0.1501     11.6809     77.3807     15.5238
  1979.7000      7.6197      2.4568      0.1644     11.7078     75.9463     14.9748
  1979.8000      7.6410      2.4507      0.0801     12.0785     72.2884     15.2234
  1979.9000      7.6410      2.4618      0.1275     11.4042     70.9446     15.8203
  1980.0000      7.6742      2.4761      0.1634     10.5402     72.3888     15.6669
  1980.1000      7.6742      2.4694      0.1426     10.9466     72.2564     14.9983
  1980.2000      7.6742      2.4510      0.1486     12.0607     69.6349     14.7213
  1980.3000      7.7067      2.4446      0.0945     12.4477     69.1385     14.7574
  1980.4000      7.7067      2.4649      0.0783     11.2174     72.2645     14.7953
  1980.5000      7.7294      2.4990      0.1500      9.1542     75.6449     15.0531
  1980.6000      7.7294      2.5104      0.1373      8.4610     77.6745     15.6247
  1980.7000      7.7294      2.4899      0.1138      9.7006     79.9281     16.3680
  1980.8000      7.7514      2.4661      0.0969     11.1483     81.4505     16.9494
  1980.9000      7.7514      2.4569      0.0867     11.7025     80.3483     17.0196
  1981.0000      7.7809      2.4532      0.0932     11.9270     78.8108     17.0655
  1981.1000      7.7809      2.4365      0.1269     12.9366     77.6824     17.2292
  1981.2000      7.7809      2.4035      0.0669     14.9412     75.4574     17.0561
  1981.3000      7.8041      2.3751      0.0553     16.6616     72.2818     16.7865
  1981.4000      7.8041      2.3655      0.0724     17.2405     69.5862     16.8043
  1981.5000      7.8207      2.3670      0.0516     17.1515     67.3663     17.2465
  1981.6000      7.8207      2.3738      0.0582     16.7369     65.7737     18.0029
  1981.7000      7.8207      2.3909      0.0468     15.7040     66.2484     18.2445
  1981.8000      7.8398      2.4148      0.1318     14.2574     67.5461     17.5200
  1981.9000      7.8398      2.4339      0.0850     13.0943     66.9862     16.8015
  1982.0000      7.8559      2.4432      0.1340     12.5308     66.3229     16.5827
  1982.1000      7.8559      2.4368      0.1030     12.9242     68.4921     16.3148
  1982.2000      7.8559      2.4210      0.0831     13.8794     69.8381     15.9474
  1982.3000      7.8651      2.4129      0.0929     14.3684     66.5464     16.5489
  1982.4000      7.8651      2.4154      0.0563     14.2191     63.6788     18.0521
  1982.5000      7.8706      2.4161      0.1005     14.1748     65.9339     18.5227
  1982.6000      7.8706      2.4058      0.0732     14.7972     71.3317     17.4458
  1982.7000      7.8706      2.3942      0.0526     15.5017     75.7771     16.4009
  1982.8000      7.8750      2.3906      0.0483     15.7239     76.2961     16.5851
  1982.9000      7.8750      2.3927      0.0676     15.5944     72.6500     17.6324
  1983.0000      7.8773      2.3969      0.0658     15.3411     70.4436     18.5919
  1983.1000      7.8773      2.3989      0.0620     15.2181     74.7010     19.3202
  1983.2000      7.8773      2.4036      0.0193     14.9325     81.1699     20.0482
  1983.3000      7.8767      2.4225      0.0519     13.7889     84.4906     20.4388
  1983.4000      7.8767      2.4507      0.0626     12.0815     85.7837     19.8741
  1983.5000      7.8746      2.4703      0.0913     10.8935     85.4658     18.5844
  1983.6000      7.8746      2.4715      0.0817     10.8208     82.0620     17.6121
  1983.7000      7.8746      2.4599      0.0598     11.5196     77.5302     17.2736
  1983.8000      7.8730      2.4453      0.0551     12.4068     74.3347     17.1870
  1983.9000      7.8730      2.4247      0.1043     13.6567     71.6864     17.1670
  1984.0000      7.8730      2.3993      0.0201     15.1938     71.0900     16.8837
  1984.1000      7.8730      2.3907      0.0175     15.7157     74.3083     16.3827
  1984.2000      7.8730      2.4005      0.0869     15.1218     78.1007     16.4889
  1984.3000      7.8734      2.4036      0.0658     14.9313     78.7522     17.4207
