~Version Information
VERS.                      2.0: CWLS Log ASCII Standard - VERSION 2.0
WRAP.                       NO: One line per depth step
~Well Information Block
STRT.FT               -12.2500: 
STOP.FT              2595.7500: 
STEP.FT                 0.2500: 
NULL.                -999.2500: 
COMP.          Petrogulf Corporation: COMPANY
WELL.            Montoya 1-44V: WELL
FLD.           Purgatoire River: FIELD
LOC.           753' FSL & 990' FEL--: LOCATION
PROV.                       CO: PROVINCE
CNTY.               Las Aniams: COUNTRY
SRVC.          Patterson Wireline: SERVICE COMPANY
DATE.          Mon Jun 13 11:58:10 2005: LOG DATE
UWI.           05 071 08142 00: UNIQUE WELL ID
~Curve Information Block
DEPT.FT            0 000 00 00: Depth
CCL.                          : Casing Collar Locator
TT3.usec                      : CBL 3' Travel Time
AMP3.mV                       : CBL 3' Amplitude
GR.GAPI                       : Gamma Ray
~Parameter Information Block
~A  Depth       CCL         TT3         AMP3         GR     
# ...
  1026.2500      0.0000    770.8561     11.0144    145.6943
  1026.5000      0.0000    759.7627     10.7087    151.1192
  1026.7500      0.0000    752.0148     10.3791    158.8250
  1027.0000      0.0000    750.3171     10.1184    166.3836
  1027.2500      0.0000    754.0110      9.9981    171.0989
  1027.5000      0.0000    760.0217     10.0341    171.0724
  1027.7500      0.0000    764.7003     10.1612    166.0492
  1028.0000      0.0000    765.8511     10.2583    157.5888
  1028.2500      0.0000    764.3094     10.2322    148.5319
  1028.5000      0.0000    763.9989     10.0889    141.9606
  1028.7500      0.0000    769.6328      9.9210    139.7933
  1029.0000      0.0000    782.8376      9.8213    141.6131
  1029.2500      0.0000    799.7295      9.8025    144.7721
  1029.5000      0.0000    813.1093      9.7974    146.1134
  1029.7500      0.0000    818.1959      9.7293    144.1581
  1030.0000      0.0000    816.1052      9.5817    139.8597
  1030.2500      0.0000    811.1491      9.4138    135.2738
  1030.5000      0.0000    805.8124      9.3188    131.5331
  1030.7500      0.0000    799.9453      9.3544    128.0613
  1031.0000      0.0000    793.8289      9.4972    123.5755
  1031.2500      0.0000    789.5052      9.6663    117.8154
  1031.5000      0.0000    789.2109      9.7947    112.3313
  1031.7500      0.0000    794.2699      9.8735    109.3170
  1032.0000      0.0000    804.7048      9.9339    109.4919
  1032.2500      0.0000    818.3010     10.0015    111.5971
  1032.5000      0.0000    831.1749     10.0712    114.1065
  1032.7500      0.0000    840.5624     10.1140    116.6471
  1033.0000      0.0000    845.9321     10.0988    119.3593
  1033.2500      0.0000    846.9733     10.0110    121.7054
  1033.5000      0.0000    842.4604      9.8576    122.6914
  1033.7500      0.0000    832.2863      9.6579    122.1295
  1034.0000      0.0000    819.2994      9.4309    121.2551
  1034.2500      0.0000    807.7596      9.1953    121.8233
  1034.5000      0.0000    800.3807      8.9800    124.4963
  1034.7500      0.0000    797.4316      8.8311    128.1873
  1035.0000      0.0000    797.7918      8.8006    130.9662
  1035.2500      0.0000    799.7365      8.9147    131.4286
  1035.5000      0.0000    801.1243      9.1376    129.4008
  1035.7500      0.0000    799.9893      9.3671    125.9391
  1036.0000      0.0000    795.5818      9.4863    122.7840
  1036.2500      0.0000    789.0157      9.4457    121.2803
  1036.5000      0.0000    782.9414      9.3060    121.3435
  1036.7500      0.0000    780.2501      9.1947    121.4976
  1037.0000      0.0000    782.2631      9.2079    119.9489
  1037.2500      0.0000    787.8171      9.3424    115.5389
  1037.5000      0.0000    794.6888      9.5178    107.9569
  1037.7500      0.0000    801.7693      9.6547     97.7494
  1038.0000      0.0000    808.8805      9.7260     86.3543
  1038.2500      0.0000    814.9189      9.7487     75.6482
  1038.5000      0.0000    817.6475      9.7491     67.0953
  1038.7500      0.0000    815.5325      9.7412     61.3461
  1039.0000      0.0000    809.3052      9.7238     58.5069
  1039.2500      0.0000    801.6850      9.6898     58.3083
  1039.5000      0.0000    795.4459      9.6368     59.7815
  1039.7500      0.0000    791.5266      9.5689     61.1984
  1040.0000      0.0000    789.5067      9.4847     61.0139
  1040.2500      0.0000    790.0402      9.3716     58.9946
  1040.5000      0.0000    795.3913      9.2221     56.0608
  1040.7500      0.0000    806.2618      9.0565     53.1390
  1041.0000      0.0000    818.9971      8.9227     50.8017
  1041.2500      0.0000    827.4573      8.8632     50.0257
  1041.5000      0.0000    827.4691      8.8783     52.3731
  1041.7500      0.0000    818.8265      8.9199     58.7542
  1042.0000      0.0000    804.1921      8.9304     68.2654
  1042.2500      0.0000    787.6194      8.9026     78.7343
  1042.5000      0.0000    773.4646      8.9046     88.4174
  1042.7500      0.0000    764.7917      9.0383     96.9031
  1043.0000      0.0000    762.0825      9.3676    104.5521
  1043.2500      0.0000    763.6586      9.8773    111.6366
  1043.5000      0.0000    767.2073     10.4914    118.1666
  1043.7500      0.0000    770.9221     11.1258    123.9947
  1044.0000      0.0000    773.9027     11.7323    128.6300
  1044.2500      0.0000    776.1011     12.3021    131.2425
  1044.5000      0.0000    777.9941     12.8310    131.2882
  1044.7500      0.0000    780.3221     13.2894    128.9858
  1045.0000      0.0000    784.0221     13.6335    125.0468
  1045.2500      0.0000    789.9008     13.8447    120.2317
  1045.5000      0.0000    797.7739     13.9443    115.3739
  1045.7500      0.0000    805.8855     13.9581    111.5722
  1046.0000      0.0000    811.5591     13.8729    110.0380
  1046.2500      0.0000    812.7692     13.6356    111.5156
  1046.5000      0.0000    809.3671     13.2028    115.6028
  1046.7500      0.0000    803.1305     12.5944    120.7483
  1047.0000      0.0000    796.6824     11.9041    125.2913
  1047.2500      0.0000    792.0735     11.2517    128.4499
  1047.5000      0.0000    790.2045     10.7163    130.0776
  1047.7500      0.0000    791.0734     10.3039    129.8573
  1048.0000      0.0000    793.8677      9.9703    127.3136
  1048.2500      0.0000    797.1424      9.6663    122.6444
  1048.5000      0.0000    799.9469      9.3645    117.1856
  1048.7500      0.0000    802.4692      9.0683    112.8522
  1049.0000      0.0000    804.5520      8.8229    111.2186
  1049.2500      0.0000    804.2798      8.7163    113.0389
  1049.5000      0.0000    799.7380      8.8453    117.9973
  1049.7500      0.0000    792.0842      9.2524    124.5401
  1050.0000      0.0000    785.2672      9.8860    130.6654
  1050.2500      0.0000    782.2510     10.6231    135.4283
  1050.5000      0.0000    781.6936     11.3351    139.1112
  1050.7500      0.0000    778.3493     11.9419    141.6737
  1051.0000      0.0000    767.8028     12.4220    142.1480
  1051.2500      0.0000    752.3358     12.7877    140.2052
  1051.5000      0.0000    740.6660     13.0572    137.2372
  1051.7500      0.0000    738.9366     13.2405    134.8777
  1052.0000      0.0000    743.1382     13.3325    132.9901
  1052.2500      0.0000    743.3251     13.3083    130.0367
  1052.5000      0.0000    733.9045     13.1353    125.1700
  1052.7500      0.0000    715.8898     12.8075    119.3020
  1053.0000      0.0000    689.5369     12.3710    114.2484
  1053.2500      0.0000    650.0620     11.9089    111.2421
  1053.5000      0.0000    594.3170     11.5005    110.2469
  1053.7500      0.0000    529.2287     11.1902    110.4129
  1054.0000      0.0000    469.2763     10.9833    110.8924
  1054.2500      0.0000    425.5975     10.8581    111.2194
  1054.5000      0.0000    399.7172     10.7838    111.3145
  1054.7500      0.0000    386.6871     10.7380    111.3773
  1055.0000      0.0000    380.9475     10.7115    111.7048
  1055.2500      0.0000    378.9913     10.7007    112.4729
  1055.5000      0.0000    379.0905     10.6987    113.6088
  1055.7500      0.0000    380.3354     10.6930    114.6645
  1056.0000      0.0000    382.3008     10.6708    114.7363
  1056.2500      0.0000    385.5943     10.6246    112.9460
  1056.5000      0.0000    392.7307     10.5532    109.3626
  1056.7500      0.0000    407.8347     10.4584    105.2813
  1057.0000      0.0000    434.1339     10.3429    102.3944
  1057.2500      0.0000    469.9022     10.2175    101.7224
  1057.5000      0.0000    505.8226     10.1066    103.0803
  1057.7500      0.0000    527.5405     10.0396    105.1605
  1058.0000      0.0000    523.7361     10.0317    106.3106
  1058.2500      0.0000    494.3063     10.0757    105.7658
  1058.5000      0.0000    451.5251     10.1517    104.2944
  1058.7500      0.0000    412.2495     10.2373    103.4580
  1059.0000      0.0000    387.4930     10.3064    104.2075
  1059.2500      0.0000    377.8698     10.3319    106.1643
  1059.5000      0.0000    376.8265     10.2990    108.0204
