~Version Information
 VERS.                                  2.0 : CWLS LAS VERSION
 WRAP.                                   NO : WRAPING MODE
 SWARE .                 MController 2.5.0N : SOFTWARE VERSION
~Well Information
 WELL.                       Guajardo 24-18 : WELL
 COMP.    Pioneer Natural Resources USA Inc : COMPANY
 FLD.                      Purgatoire River : FIELD
 LOC.                SE/SW Sec 18 T32S R65W : LOCATION
 DATE.                           8/4-5/2005 : DATE(S) LOGGED
 SRVC.       BLANCO Geological Services LLC : SERVICE COMPANY
 STAT.                                   CO : STATE
 CNTY.                           Las Animas : COUNTY
 CTRY.                                  USA : COUNTRY
 API.                       05-071-08377-00 : API NUMBER
 STRT.FT                             541.00 : START DEPTH
 STOP.FT                            1855.00 : STOP DEPTH
 STEP.FT                               1.00 : DEPTH INCREMENT
 NULL.                                -9999 : NULL VALUE
~Curve information
 DEPTH.FT                                   :
 ROP.MIN/FT                                 :
 GAS.UNITS                                  :
~ASCII Log data
       541.0     -9999.00          1.8 
       542.0         0.27          1.8 
       543.0         0.27          1.8 
       544.0         0.53          1.7 
       545.0         0.28          2.0 
       546.0         0.80          2.2 
       547.0         0.80          2.1 
       548.0         0.80          1.8 
       549.0         0.53          2.1 
       550.0         0.27          2.0 
       551.0         0.55          1.9 
       552.0         0.27          2.1 
       553.0         0.80          1.8 
       554.0         0.53          1.9 
       555.0         0.27          2.0 
       556.0         0.53          1.8 
       557.0         0.27          1.8 
       558.0         0.55          1.7 
       559.0         0.80          2.0 
       560.0         0.27          2.3 
       561.0         0.53          2.0 
       562.0         0.27          2.2 
       563.0         0.53          2.0 
       564.0         0.53          2.2 
       565.0         0.28          1.8 
       566.0         0.53          2.1 
       567.0         0.53          2.0 
       568.0         0.27          1.7 
       569.0         0.27          1.8 
       570.0         0.53          1.8 
       571.0         0.27          2.0 
       572.0         0.27          2.0 
       573.0         0.55          1.8 
       574.0         0.53          2.2 
       575.0         0.53          2.0 
       576.0         0.53          2.1 
       577.0         0.27          2.0 
       578.0         0.53          2.1 
       579.0         0.27          2.1 
       580.0         0.53          2.1 
       581.0         0.55          1.9 
       582.0         0.27          2.3 
       583.0         0.53          1.6 
       584.0         0.53          1.6 
       585.0         0.27          1.7 
       586.0         0.53          1.9 
       587.0         0.27          1.5 
       588.0         0.27          1.8 
       589.0         0.28          1.7 
       590.0         0.53          1.4 
       591.0         0.27          1.5 
       592.0         0.27          2.0 
       593.0         0.27          2.1 
       594.0         0.27          1.8 
       595.0         0.27          1.7 
       596.0         0.27          2.1 
       597.0         0.27          1.9 
       598.0         0.27          2.0 
       599.0         0.27          1.9 
       600.0         0.27          2.0 
       601.0         0.28          2.2 
       602.0         0.27          1.9 
       603.0         0.27          1.9 
       604.0         0.27          2.0 
       605.0         0.27          1.9 
       606.0         0.27          2.2 
       607.0         0.27          2.0 
       608.0         0.27          2.0 
       609.0         0.27          1.9 
       610.0         0.27          2.0 
       611.0         0.27          2.0 
       612.0         0.27          2.1 
       613.0         0.55          1.8 
       614.0         0.27          2.0 
       615.0         0.27          2.2 
       616.0         0.27          1.7 
       617.0         0.27          1.6 
       618.0         0.27          1.8 
       619.0         0.27          1.9 
       620.0         0.27          1.8 
       621.0         0.27          1.9 
       622.0         0.27          1.9 
       623.0         0.53          1.9 
       624.0         0.28          2.2 
       625.0         0.53          1.9 
       626.0         0.27          2.0 
       627.0         0.27          2.1 
       628.0         0.27          2.2 
       629.0         0.27          2.1 
       630.0         0.27          1.9 
       631.0         0.27          2.0 
       632.0         0.27          1.8 
       633.0         0.27          2.2 
       634.0         0.27          2.0 
       635.0         0.55          1.9 
       636.0         0.53          2.3 
       637.0         0.53          2.1 
       638.0         0.53          2.4 
       639.0         0.53          2.0 
       640.0         0.27          2.0 
       641.0         0.53          2.1 
       642.0         0.55          2.4 
       643.0         0.53          2.1 
       644.0         0.53          2.1 
       645.0         0.27          2.0 
       646.0         0.80          2.2 
       647.0         0.53          2.2 
       648.0         0.55          2.0 
       649.0         0.80          2.1 
       650.0         0.53          2.0 
       651.0         0.27          2.0 
       652.0         0.27          2.1 
       653.0         0.27          2.1 
       654.0         0.27          2.2 
       655.0         0.27          2.3 
       656.0         0.28          2.1 
       657.0         0.27          2.3 
       658.0         0.27          2.3 
       659.0         0.27          2.1 
       660.0         0.27          2.3 
       661.0         0.27          2.0 
       662.0         0.27          2.2 
       663.0         0.27          2.2 
       664.0         0.27          2.3 
       665.0         0.27          1.9 
       666.0         0.27          2.1 
       667.0         0.27          2.0 
       668.0         0.27          2.2 
       669.0         0.28          2.3 
       670.0         0.27          2.4 
       671.0         0.27          2.2 
       672.0         0.27          2.3 
       673.0         0.27          2.0 
       674.0         0.27          2.1 
       675.0         0.27          2.3 
       676.0         0.27          1.9 
       677.0         0.27          2.1 
       678.0         0.27          2.0 
       679.0         0.27          2.2 
       680.0         0.27          2.1 
       681.0         0.28          2.1 
       682.0         0.27          2.1 
       683.0         0.27          2.3 
       684.0         0.27          2.5 
       685.0         0.27          2.5 
       686.0         0.27          2.6 
       687.0         0.27          2.1 
       688.0         0.27          2.0 
       689.0         0.27          2.0 
       690.0         0.27          2.6 
       691.0         0.27          2.2 
       692.0         0.30          2.8 
       693.0         0.28          2.4 
       694.0         0.27          2.4 
       695.0         0.27          2.4 
       696.0         0.27          2.4 
       697.0         0.27          2.4 
       698.0         0.27          2.5 
       699.0         0.53          3.0 
       700.0         0.27          2.6 
       701.0         0.27          2.4 
       702.0         0.27          2.7 
       703.0         0.53          2.4 
       704.0         0.28          2.6 
       705.0         0.27          2.8 
       706.0         0.27          2.4 
       707.0         0.27          2.7 
       708.0         0.27          2.6 
       709.0         0.27          2.9 
       710.0         0.27          2.4 
       711.0         0.27          2.7 
       712.0         0.53          2.5 
       713.0         0.27          2.4 
       714.0         0.27          2.3 
       715.0         0.28          2.8 
       716.0         0.27          2.6 
       717.0         0.50          2.4 
       718.0         0.10          2.6 
       719.0         0.20          2.7 
       720.0         0.40          2.4 
       721.0         0.40          2.4 
       722.0         0.20          2.7 
       723.0         0.40          2.5 
       724.0         0.40          2.6 
       725.0         0.42          2.4 
       726.0         0.20          3.1 
       727.0         0.20          2.6 
       728.0         0.40          2.6 
       729.0         0.20          2.9 
       730.0         0.40          3.0 
       731.0         0.40          3.0 
       732.0         0.40          2.8 
       733.0         0.20          2.8 
       734.0         0.40          2.8 
       735.0         0.40          2.8 
       736.0         0.18          2.8 
       737.0         0.40          2.8 
       738.0         0.20          3.0 
       739.0         0.40          2.5 
       740.0         0.20          2.5 
