~Version Information
VERS.                      2.0: CWLS Log ASCII Standard - VERSION 2.0
WRAP.                       NO: One line per depth step
~Well Information Block
STRT.FT               -12.5000: 
STOP.FT              2742.5000: 
STEP.FT                 0.2500: 
NULL.                -999.2500: 
COMP.          Pioneer Natural Resources: COMPANY
WELL.            Rangely 22-28: WELL
FLD.           Purgatorie River: FIELD
LOC.           720' FSL & 1036' FEL--: LOCATION
PROV.                       CO: PROVINCE
CNTY.               Las Animas: COUNTRY
SRVC.                         : SERVICE COMPANY
DATE.          Wed Nov 10 08:59:10 2004: LOG DATE
UWI.                          : UNIQUE WELL ID
~Curve Information Block
DEPT.FT            0 000 00 00: Depth
GR.GAPI                       : Gamma Ray
CCL.                          : Casing Collar Locator
TT3.usec                      : CBL 3' Travel Time
AMP3.mV                       : CBL 3' Amplitude
~Parameter Information Block
~A  Depth        GR         CCL         TT3         AMP3    
# ...
  1059.5000    112.9533      0.0000    741.4256      5.9115
  1059.7500    110.7607      0.0000    739.4791      5.8773
  1060.0000    108.7905      0.0000    738.4294      5.8698
  1060.2500    107.3558      0.0000    735.8967      5.8650
  1060.5000    106.6603      0.0000    730.6916      5.8326
  1060.7500    107.3955      0.0000    724.3156      5.7613
  1061.0000    110.7095      0.0000    719.1188      5.6662
  1061.2500    117.2396      0.0000    715.5574      5.5679
  1061.5000    126.2931      0.0000    712.1682      5.4701
  1061.7500    135.9045      0.0000    708.3029      5.3660
  1062.0000    143.7722      0.0000    706.1530      5.2614
  1062.2500    148.4882      0.0000    708.9880      5.1767
  1062.5000    150.0968      0.0000    716.9785      5.1268
  1062.7500    149.5565      0.0000    725.8446      5.1062
  1063.0000    147.8128      0.0000    730.6315      5.0958
  1063.2500    145.2120      0.0000    730.1617      5.0843
  1063.5000    141.5397      0.0000    727.2939      5.0816
  1063.7500    136.7251      0.0000    725.8667      5.1065
  1064.0000    131.5207      0.0000    728.0857      5.1569
  1064.2500    127.2274      0.0000    733.8290      5.1987
  1064.5000    124.6732      0.0000    741.2524      5.1935
  1064.7500    123.5632      0.0000    748.0195      5.1319
  1065.0000    122.7146      0.0000    752.5417      5.0347
  1065.2500    120.9284      0.0000    754.3467      4.9303
  1065.5000    118.1110      0.0000    753.6042      4.8363
  1065.7500    115.8522      0.0000    750.6515      4.7580
  1066.0000    116.4852      0.0000    745.9944      4.6984
  1066.2500    121.0002      0.0000    740.4009      4.6681
  1066.5000    127.8852      0.0000    734.8325      4.6812
  1066.7500    134.3158      0.0000    730.4696      4.7404
  1067.0000    138.4936      0.0000    728.7138      4.8277
  1067.2500    140.5215      0.0000    730.6079      4.9163
  1067.5000    141.2213      0.0000    735.9016      4.9897
  1067.7500    140.7969      0.0000    742.8117      5.0461
  1068.0000    138.8750      0.0000    748.9319      5.0844
  1068.2500    135.3311      0.0000    752.4465      5.0970
  1068.5000    130.7621      0.0000    752.6430      5.0789
  1068.7500    126.3052      0.0000    749.8777      5.0392
  1069.0000    122.9889      0.0000    745.6584      5.0041
  1069.2500    121.1924      0.0000    742.4329      5.0069
  1069.5000    120.7553      0.0000    742.2732      5.0662
  1069.7500    121.4552      0.0000    745.2823      5.1662
  1070.0000    123.2388      0.0000    749.6290      5.2629
  1070.2500    126.0818      0.0000    753.2698      5.3166
  1070.5000    129.6928      0.0000    755.3375      5.3221
  1070.7500    133.3271      0.0000    756.0126      5.3094
  1071.0000    136.0235      0.0000    755.6508      5.3099
  1071.2500    137.1681      0.0000    754.3226      5.3227
  1071.5000    136.8990      0.0000    752.0662      5.3170
  1071.7500    135.8929      0.0000    749.3321      5.2722
  1072.0000    134.5594      0.0000    746.9351      5.2047
  1072.2500    132.2999      0.0000    745.5163      5.1477
  1072.5000    127.9114      0.0000    745.2898      5.1136
  1072.7500    121.0550      0.0000    746.2377      5.0868
  1073.0000    113.1321      0.0000    748.0132      5.0519
  1073.2500    106.5019      0.0000    749.5057      5.0176
  1073.5000    103.0293      0.0000    748.9268      5.0067
  1073.7500    103.3252      0.0000    744.6158      5.0284
  1074.0000    106.9868      0.0000    735.9462      5.0680
  1074.2500    113.2312      0.0000    723.8317      5.1021
  1074.5000    121.3485      0.0000    710.5993      5.1116
  1074.7500    130.8048      0.0000    699.2169      5.0782
  1075.0000    140.9305      0.0000    692.1241      4.9843
  1075.2500    150.2025      0.0000    690.1122      4.8160
  1075.5000    156.1409      0.0000    691.8425      4.5591
  1075.7500    156.8786      0.0000    694.7292      4.1987
  1076.0000    153.2673      0.0000    697.0319      3.7390
  1076.2500    148.7749      0.0000    699.1091      3.2164
  1076.5000    146.7253      0.0000    701.9730      2.6862
  1076.7500    147.6478      0.0000    705.0574      2.2047
  1077.0000    149.2608      0.0000    706.9889      1.8230
  1077.2500    148.5389      0.0000    708.9669      1.5712
  1077.5000    143.6319      0.0000    715.8184      1.4362
  1077.7500    134.4768      0.0000    731.7522      1.3702
  1078.0000    122.7706      0.0000    754.6282      1.3301
  1078.2500    111.7312      0.0000    775.9656      1.3046
  1078.5000    104.9021      0.0000    788.5714      1.3032
  1078.7500    104.0181      0.0000    793.5035      1.3369
  1079.0000    107.7811      0.0000    797.4681      1.4186
  1079.2500    112.9692      0.0000    804.3864      1.5719
  1079.5000    117.0176      0.0000    812.0536      1.8281
  1079.7500    119.6529      0.0000    815.9758      2.2074
  1080.0000    122.2536      0.0000    813.2997      2.7007
  1080.2500    126.0577      0.0000    803.5154      3.2623
  1080.5000    131.1251      0.0000    788.6328      3.8172
  1080.7500    136.4400      0.0000    772.9941      4.2828
  1081.0000    140.6352      0.0000    760.4486      4.5981
  1081.2500    143.0009      0.0000    751.2623      4.7471
  1081.5000    144.1866      0.0000    742.9907      4.7626
  1081.7500    145.8633      0.0000    734.2106      4.7101
  1082.0000    149.4262      0.0000    726.5124      4.6525
  1082.2500    154.6445      0.0000    722.8855      4.6195
  1082.5000    159.3634      0.0000    724.9090      4.6061
  1082.7500    160.8331      0.0000    731.5671      4.5953
  1083.0000    157.7281      0.0000    740.1641      4.5731
  1083.2500    151.0478      0.0000    748.1998      4.5234
  1083.5000    143.3866      0.0000    754.8834      4.4340
  1083.7500    137.5389      0.0000    761.3544      4.3246
  1084.0000    135.1816      0.0000    769.2457      4.2591
  1084.2500    135.9927      0.0000    778.4976      4.2940
  1084.5000    137.8805      0.0000    786.4830      4.4021
  1084.7500    138.3921      0.0000    789.8743      4.4787
  1085.0000    136.2222      0.0000    787.7197      4.4443
  1085.2500    131.5419      0.0000    782.4160      4.3212
  1085.5000    125.1614      0.0000    777.5222      4.1936
  1085.7500    117.9069      0.0000    774.7341      4.1184
  1086.0000    111.0654     -2.0000    772.7171      4.0872
  1086.2500    106.7035      2.0000    768.5834      4.0526
  1086.5000    106.4379      0.0000    760.7242      3.9788
  1086.7500    109.6723      0.0000    751.1572      3.8810
  1087.0000    113.7323      0.0000    746.1194      3.8149
  1087.2500    116.1213      0.0000    753.4203      3.8145
  1087.5000    116.3213      0.0000    776.1756      3.8483
  1087.7500    115.4709      0.0000    808.1951      3.8585
  1088.0000    115.0198      0.0000    837.6920      3.8275
  1088.2500    115.8019      0.0000    856.2646      3.7815
  1088.5000    117.6921      0.0000    862.4160      3.7473
  1088.7500    119.7048      0.0000    857.4974      3.7373
  1089.0000    120.4624      0.0000    842.6475      3.7601
  1089.2500    118.7082      0.0000    821.0786      3.8238
  1089.5000    113.8374      0.0000    799.8600      3.9324
  1089.7500    106.5371      0.0000    786.0825      4.0892
  1090.0000     98.9359      0.0000    781.3944      4.3005
  1090.2500     93.4340      0.0000    781.5655      4.5664
  1090.5000     90.9051      0.0000    780.9478      4.8676
  1090.7500     90.2858      0.0000    776.7245      5.1642
  1091.0000     90.2074      0.0000    769.7969      5.4155
  1091.2500     90.6516      0.0000    762.9585      5.6024
  1091.5000     92.5460      0.0000    758.6215      5.7334
  1091.7500     96.1239      0.0000    757.7973      5.8322
  1092.0000    100.2017      0.0000    760.2964      5.9167
  1092.2500    102.9434      0.0000    765.2863      5.9820
  1092.5000    103.1720      0.0000    771.7790      6.0048
  1092.7500    101.1254      0.0000    779.1136      5.9719
