~Version Information
VERS.                      2.0: CWLS Log ASCII Standard - VERSION 2.0
WRAP.                       NO: One line per depth step
~Well Information Block
STRT.FT               250.0000: 
STOP.FT               894.7500: 
STEP.FT                 0.2500: 
NULL.                -999.2500: 
COMP.          Pioneer Natural Resources: COMPANY
WELL.          Santisteven 13-22: WELL
FLD.           Purgatoire River: FIELD
LOC.           1861' FSL & 992' FWL----: LOCATION
PROV.                 Colorado: PROVINCE
CNTY.               Las Animas: COUNTRY
SRVC.                Patterson: SERVICE COMPANY
DATE.          Sat Apr 02 14:49:07 2005: LOG DATE
UWI.           05 071 08337 00: UNIQUE WELL ID
~Curve Information Block
DEPT.FT            0 000 00 00: Depth
SN.Ohm-m                      : IEL Short Normal
SP.mV                         : IEL Spontaneous Potential
DIR.Ohm-m                     : IEL Induction Resistivity
GR.GAPI                       : Gamma Ray
~Parameter Information Block
~A  Depth        SN          SP         DIR          GR     
# ...
   451.0000    652.7505     26.2582     26.1587    118.1033
   451.2500    652.7505     26.2579     26.6240    116.8032
   451.5000    652.7505     26.2578     27.0834    113.4309
   451.7500    652.7505     26.2575     27.5381    111.0649
   452.0000    652.7505     26.2569     27.9820    109.5010
   452.2500    652.7505     26.2557     28.3904    110.9200
   452.5000    652.7505     26.2538     28.7265    117.5508
   452.7500    652.7505     26.2512     28.9566    124.5666
   453.0000    652.7505     26.2479     29.0525    136.9190
   453.2500    652.7505     26.2441     28.9790    144.8718
   453.5000    652.7505     26.2398     28.6913    154.7724
   453.7500    652.7505     26.2349     28.1637    160.0245
   454.0000    652.7505     26.2294     27.4288    166.6587
   454.2500    652.7505     26.2233     26.5834    170.3559
   454.5000    652.7505     26.2170     25.7536    173.8038
   454.7500    652.7505     26.2107     25.0511    173.9359
   455.0000    652.7505     26.2050     24.5519    170.9145
   455.2500    652.7505     26.2001     24.2956    167.8571
   455.5000    652.7505     26.1965     24.2954    164.0651
   455.7500    652.7505     26.1941     24.5489    162.5562
   456.0000    652.7505     26.1927     25.0483    160.1601
   456.2500    652.7505     26.1921     25.7863    156.6339
   456.5000    652.7505     26.1917     26.7550    146.1736
   456.7500    652.7505     26.1912     27.9420    135.9662
   457.0000    652.7505     26.1906     29.3265    118.7396
   457.2500    652.7505     26.1898     30.8756    108.1968
   457.5000    652.7505     26.1889     32.5376     96.4517
   457.7500    652.7505     26.1879     34.2348     91.6680
   458.0000    652.7505     26.1869     35.8691     87.8045
   458.2500    652.7505     26.1856     37.3509     86.2647
   458.5000    652.7505     26.1839     38.6373     84.0899
   458.7500    652.7505     26.1819     39.7465     82.5013
   459.0000    652.7505     26.1795     40.7348     79.8999
   459.2500    652.7505     26.1771     41.6555     77.8822
   459.5000    652.7505     26.1749     42.5285     74.2344
   459.7500    652.7505     26.1733     43.3389     71.5895
   460.0000    652.7505     26.1724     44.0564     67.9372
   460.2500    652.7505     26.1724     44.6538     65.8084
   460.5000    652.7505     26.1733     45.1123     62.4693
   460.7500    652.7497     26.1751     45.4130     59.7304
   461.0000    652.7454     26.1776     45.5284     55.0473
   461.2500    652.7243     26.1807     45.4227     52.2118
   461.5000    652.6470     26.1842     45.0590     49.5157
   461.7500    652.4283     26.1877     44.4173     49.0459
   462.0000    651.9637     26.1907     43.5189     50.4689
   462.2500    651.2097     26.1927     42.4394     52.8115
   462.5000    650.2287     26.1931     41.2860     57.8037
   462.7500    649.0306     26.1915     40.1456     61.4034
   463.0000    647.3990     26.1877     39.0430     66.1974
   463.2500    645.2076     26.1818     37.9419     68.9464
   463.5000    643.0898     26.1744     36.7831     73.1471
   463.7500    642.3513     26.1661     35.5280     76.5614
   464.0000    643.7511     26.1579     34.1765     83.2143
   464.2500    646.6103     26.1504     32.7609     88.6850
   464.5000    649.4727     26.1444     31.3329     97.8707
   464.7500    651.3855     26.1403     29.9520    103.9927
   465.0000    652.3076     26.1384     28.6743    111.6397
   465.2500    652.6385     26.1386     27.5367    114.9237
   465.5000    652.7285     26.1408     26.5431    116.9226
   465.7500    652.7471     26.1445     25.6600    116.9616
   466.0000    652.7505     26.1489     24.8240    116.6150
   466.2500    652.7505     26.1532     23.9594    116.7646
   466.5000    652.7505     26.1567     22.9997    118.2241
   466.7500    652.7505     26.1585     21.9107    120.3424
   467.0000    652.7505     26.1586     20.7000    125.6415
   467.2500    652.7505     26.1567     19.4111    130.5863
   467.5000    652.7505     26.1535     18.1038    139.8834
   467.7500    652.7505     26.1497     16.8345    147.3159
   468.0000    652.7505     26.1458     15.6452    160.1448
   468.2500    652.7505     26.1427     14.5619    168.9584
   468.5000    652.7505     26.1405     13.5990    179.4390
   468.7500    652.7505     26.1395     12.7644    182.7089
   469.0000    652.7505     26.1393     12.0638    180.8657
   469.2500    652.7505     26.1397     11.5020    175.9778
   469.5000    652.7505     26.1405     11.0822    165.9894
   469.7500    652.7505     26.1414     10.8048    159.1593
   470.0000    652.7505     26.1425     10.6649    150.5177
   470.2500    652.7505     26.1439     10.6500    146.3887
   470.5000    652.7505     26.1457     10.7400    142.7385
   470.7500    652.7505     26.1479     10.9070    141.5187
   471.0000    652.7505     26.1505     11.1168    140.2328
   471.2500    652.7505     26.1532     11.3301    139.2641
   471.5000    652.7505     26.1557     11.5050    138.0379
   471.7500    652.7505     26.1574     11.6035    138.2256
   472.0000    652.7505     26.1582     11.5997    141.5384
   472.2500    652.7505     26.1575     11.4868    145.9402
   472.5000    652.7505     26.1555     11.2761    154.2468
   472.7500    652.7505     26.1522     10.9906    159.4626
   473.0000    652.7505     26.1482     10.6566    165.3150
   473.2500    652.7505     26.1438     10.2983    168.0307
   473.5000    652.7505     26.1399      9.9375    171.4253
   473.7500    652.7505     26.1370      9.5945    173.7612
   474.0000    652.7505     26.1357      9.2883    177.3572
   474.2500    652.7505     26.1362      9.0358    179.2380
   474.5000    652.7505     26.1383      8.8494    180.2249
   474.7500    652.7505     26.1417      8.7372    179.5650
   475.0000    652.7505     26.1455      8.7043    177.2647
   475.2500    652.7505     26.1490      8.7536    175.2475
   475.5000    652.7505     26.1516      8.8860    171.7162
   475.7500    652.7505     26.1529      9.0989    168.9231
   476.0000    652.7505     26.1529      9.3858    163.7240
   476.2500    652.7505     26.1518      9.7365    159.5532
   476.5000    652.7505     26.1500     10.1369    152.8156
   476.7500    652.7505     26.1478     10.5688    148.3652
   477.0000    652.7505     26.1456     11.0085    141.7134
   477.2500    652.7505     26.1433     11.4300    137.2862
   477.5000    652.7505     26.1410     11.8105    131.9375
   477.7500    652.7505     26.1384     12.1366    130.5077
   478.0000    652.7505     26.1356     12.4056    132.6755
   478.2500    652.7505     26.1324     12.6207    136.3887
   478.5000    652.7505     26.1290     12.7847    142.9860
   478.7500    652.7505     26.1254     12.8982    146.8243
   479.0000    652.7505     26.1217     12.9604    150.8218
   479.2500    652.7505     26.1177     12.9718    152.3095
   479.5000    652.7505     26.1134     12.9375    152.7343
   479.7500    652.7505     26.1089     12.8707    151.5889
   480.0000    652.7505     26.1042     12.7936    147.6145
   480.2500    652.7505     26.0997     12.7333    143.8592
   480.5000    652.7505     26.0956     12.7124    137.9240
   480.7500    652.7505     26.0924     12.7417    134.6491
   481.0000    652.7505     26.0902     12.8184    132.0134
   481.2500    652.7505     26.0889     12.9321    132.1763
   481.5000    652.7505     26.0882     13.0724    134.8403
   481.7500    652.7505     26.0878     13.2339    137.0844
   482.0000    652.7505     26.0871     13.4175    138.5694
   482.2500    652.7505     26.0858     13.6283    137.4047
   482.5000    652.7505     26.0840     13.8725    132.9399
   482.7500    652.7505     26.0817     14.1541    129.4289
   483.0000    652.7505     26.0791     14.4742    125.9991
   483.2500    652.7505     26.0767     14.8323    125.8451
   483.5000    652.7505     26.0746     15.2299    127.9334
   483.7500    652.7505     26.0728     15.6707    129.1686
   484.0000    652.7505     26.0714     16.1591    128.3280
   484.2500    652.7505     26.0703     16.6951    126.1196
