~Version Information
VERS.                      2.0: CWLS Log ASCII Standard - VERSION 2.0
WRAP.                       NO: One line per depth step
~Well Information Block
STRT.FT                -7.5000: 
STOP.FT               872.5000: 
STEP.FT                 0.5000: 
NULL.                -999.2500: 
COMP.          Pioneer Natural Resources: COMPANY
WELL.          New Mexico 21-5: WELL
FLD.           Purgatorie River: FIELD
LOC.           175' FNL & 1700' FWL: LOCATION
PROV.                 Colorado: PROVINCE
CNTY.               Las Animas: COUNTRY
SRVC.          Patterson Wireline: SERVICE COMPANY
DATE.          Fri Dec 17 09:32:01 2004: LOG DATE
UWI.           05-071-08234-00: UNIQUE WELL ID
~Curve Information Block
DEPT.FT            0 000 00 00: Depth
CCL.                          : Casing Collar Locator
TT3.usec                      : CBL 3' Travel Time
AMP3.mV                       : CBL 3' Amplitude
GR.GAPI                       : Gamma Ray
~Parameter Information Block
~A  Depth       CCL         TT3         AMP3         GR     
# ...
    59.5000      0.0000    802.5520      6.6415     87.9146
    60.0000      0.0000    802.4362      6.4915     86.5702
    60.5000      0.0000    802.0905      6.3043     81.0427
    61.0000      0.0000    801.2838      6.1315     76.0918
    61.5000      0.0000    800.0453      6.0324     77.6839
    62.0000      0.0000    798.9884      6.0260     78.2775
    62.5000      0.0000    798.8228      6.0031     73.6536
    63.0000      0.0000    800.9107      5.9363     68.8094
    63.5000      0.0000    812.8663      5.8640     67.7930
    64.0000      0.0000    845.2034      5.7330     64.9813
    64.5000      0.0000    862.6266      5.6345     55.7871
    65.0000      0.0000    836.2096      5.6340     49.9932
    65.5000      0.0000    841.7173      5.6885     53.0681
    66.0000      0.0000    900.3486      5.7852     54.0960
    66.5000      0.0000    903.1235      5.9113     52.7537
    67.0000      0.0000    850.1858      6.0810     55.4850
    67.5000      0.0000    825.3910      6.2039     58.9596
    68.0000      0.0000    820.0708      6.1837     59.9087
    68.5000      0.0000    809.4503      6.0786     58.6237
    69.0000      0.0000    801.4058      5.9797     57.8245
    69.5000      0.0000    799.8419      5.9736     57.8794
    70.0000      0.0000    802.3195      6.0020     58.7728
    70.5000      0.0000    808.0216      5.9679     66.0169
    71.0000      0.0000    810.5277      5.8946     70.5756
    71.5000      0.0000    813.8299      5.9038     66.7637
    72.0000      0.0000    824.3098      5.9548     59.8328
    72.5000      0.0000    824.4698      5.9162     52.6333
    73.0000      0.0000    812.4934      5.8459     49.8952
    73.5000      0.0000    805.6740      5.8200     50.7447
    74.0000      0.0000    805.0525      5.8218     52.3459
    74.5000      0.0000    805.5500      5.8500     52.9243
    75.0000      0.0000    806.9647      5.8599     55.4887
    75.5000      0.0000    810.0661      5.8089     56.2552
    76.0000      0.0000    805.2968      5.7071     54.5023
    76.5000      0.0000    782.3040      5.5843     58.2821
    77.0000      0.0000    760.9088      5.4989     62.5719
    77.5000      0.0000    745.1168      5.4793     69.7234
    78.0000      0.0000    698.0015      5.4567     85.9664
    78.5000      0.0000    619.8011      5.3447     97.9031
    79.0000      0.0000    563.3930      5.1071     94.8357
    79.5000      0.0000    555.6732      4.8930     86.9819
    80.0000      0.0000    581.0412      4.9231     82.4819
    80.5000      0.0000    617.7924      5.3109     78.3007
    81.0000      0.0000    659.7442      5.7875     75.1526
    81.5000      0.0000    707.9714      6.0395     79.2008
    82.0000      0.0000    724.7808      6.1173     86.1714
    82.5000      0.0000    717.3118      6.2082     87.8725
    83.0000      0.0000    715.1021      6.3148     86.2874
    83.5000      0.0000    716.4907      6.3524     86.0316
    84.0000      0.0000    716.7723      6.2484     86.6537
    84.5000      0.0000    716.0186      6.0594     88.7417
    85.0000      0.0000    713.9108      5.8695     89.7514
    85.5000      0.0000    715.4471      5.5929     90.6298
    86.0000      0.0000    741.7681      5.4912     84.6813
    86.5000      0.0000    801.7368      5.8055     71.2437
    87.0000      0.0000    871.8571      6.2551     63.3698
    87.5000      0.0000    932.1370      6.5316     65.9085
    88.0000      0.0000    971.1590      6.7360     71.8548
    88.5000      0.0000    965.6906      7.3490     78.5153
    89.0000      0.0000    896.1182      8.2281     82.7759
    89.5000      0.0000    814.8361      8.3887     83.7870
    90.0000      0.0000    777.0310      8.0290     85.0355
    90.5000      0.0000    765.5454      7.5554     86.1046
    91.0000      0.0000    761.8168      7.1563     82.1792
    91.5000      0.0000    761.5268      6.9197     78.6040
    92.0000      0.0000    765.7786      6.6878     81.9095
    92.5000      0.0000    777.7701      6.4423     87.0237
    93.0000      0.0000    786.7525      6.1628     89.3926
    93.5000      0.0000    778.3636      5.8096     91.5602
    94.0000      0.0000    766.9615      5.5744     93.2714
    94.5000      0.0000    771.3492      5.4749     91.4905
    95.0000      0.0000    812.3478      5.3967     84.1591
    95.5000      0.0000    872.5949      5.4148     78.2602
    96.0000      0.0000    860.0295      5.5046     72.3111
    96.5000      0.0000    799.2440      5.6430     67.8110
    97.0000      0.0000    794.3760      5.8327     70.9815
    97.5000      0.0000    826.2982      5.9403     77.6666
    98.0000      0.0000    835.6510      6.0192     84.8313
    98.5000      0.0000    827.8956      6.1127     88.6529
    99.0000      0.0000    813.0876      6.0324     88.0846
    99.5000      0.0000    791.6544      5.9655     84.3272
   100.0000      0.0000    776.8120      6.0527     81.4904
   100.5000      0.0000    779.4285      6.0339     79.9083
   101.0000      0.0000    795.4477      5.9210     78.7363
   101.5000      0.0000    815.5204      5.9767     79.3620
   102.0000      0.0000    830.1110      6.1888     76.6498
   102.5000      0.0000    842.4797      6.3531     71.6786
   103.0000      0.0000    852.6365      6.3351     70.2206
   103.5000      0.0000    856.5491      6.2380     72.3573
   104.0000      0.0000    857.2864      6.2793     78.2042
   104.5000      0.0000    858.0799      6.4184     86.2389
   105.0000      0.0000    859.4399      6.4605     91.6882
   105.5000      0.0000    859.9666      6.4044     92.7018
   106.0000      0.0000    854.8103      6.4146     91.2614
   106.5000      0.0000    842.8810      6.5694     85.7614
   107.0000      0.0000    842.3472      6.8040     76.8147
   107.5000      0.0000    853.7646      7.0982     73.3560
   108.0000      0.0000    859.7148      7.3903     78.6744
   108.5000      0.0000    865.4261      7.5375     86.1580
   109.0000      0.0000    885.3741      7.4573     88.8311
   109.5000      0.0000    928.3114      7.2760     85.8910
   110.0000      0.0000    968.2484      7.0495     85.6355
   110.5000      0.0000    952.3049      6.6874     88.8457
   111.0000      0.0000    904.4297      6.3519     90.0891
   111.5000      0.0000    854.5100      6.1533     94.9233
   112.0000      0.0000    799.7067      5.9855    105.0829
   112.5000      0.0000    768.2332      5.9145    107.0420
   113.0000      0.0000    786.1487      5.9053    103.4394
   113.5000      0.0000    828.6931      5.9484    101.7405
   114.0000      0.0000    867.7205      6.0844    100.3919
   114.5000      0.0000    892.4150      6.2191     98.9453
   115.0000      0.0000    899.0018      6.3165     96.6145
   115.5000      0.0000    894.1629      6.3192     95.6291
   116.0000      0.0000    888.1729      6.1607    106.5552
   116.5000      0.0000    842.2274      5.9478    115.4461
   117.0000      0.0000    754.6819      5.8654    110.2746
   117.5000      0.0000    694.9208      5.9905    105.1336
   118.0000      0.0000    675.2037      6.1066    105.3622
   118.5000      0.0000    672.2753      5.9648    106.8205
   119.0000      0.0000    684.3701      5.5911    104.6166
   119.5000      0.0000    725.3620      5.2545    100.2842
   120.0000      0.0000    768.2275      5.2018     98.2724
   120.5000      0.0000    767.5283      5.4088     99.0030
   121.0000      0.0000    754.6879      5.5712     99.4510
   121.5000      0.0000    760.8253      5.3832     97.5840
   122.0000      0.0000    766.2813      5.1045     94.4759
   122.5000      0.0000    781.5624      5.0811     96.9690
   123.0000      0.0000    798.6359      5.3609    103.0605
   123.5000      0.0000    796.2969      5.8079    104.3251
   124.0000      0.0000    790.6608      6.0445    104.3067
   124.5000      0.0000    792.0057      5.9356    105.1487
   125.0000      0.0000    787.0366      5.8039    103.7734
   125.5000      0.0000    775.2899      5.8672    100.8119
   126.0000      0.0000    765.3654      6.2830     97.0909
