~Version Information
VERS.                      2.0: CWLS Log ASCII Standard - VERSION 2.0
WRAP.                       NO: One line per depth step
~Well Information Block
STRT.FT               850.0000: 
STOP.FT              1609.7000: 
STEP.FT                 0.1000: 
NULL.                -999.2500: 
COMP.          Petrogulf Corporation: COMPANY
WELL.          Great Plains 22-21R: WELL
FLD.           Purgatorie River: FIELD
LOC.           73' FNL & 1992' FWL: LOCATION
PROV.                 Colorado: PROVINCE
CNTY.               Las Animas: COUNTRY
SRVC.                Patterson: SERVICE COMPANY
DATE.          Wed Sep 14 12:10:29 2005: LOG DATE
UWI.                          : UNIQUE WELL ID
~Curve Information Block
DEPT.FT            0 000 00 00: Depth
NPOR.pu                       : Neutron Porosity
GR.GAPI                       : Gamma Ray
CCL.                          : Casing Collar Locator
~Parameter Information Block
~A  Depth       NPOR         GR         CCL     
   850.0000     22.5064     73.3633      0.0000
   850.1000     22.5064     73.3633      0.0000
   850.2000     22.5064     73.3633      0.0000
   850.3000     23.3269     78.0010      0.0000
   850.4000     23.3269     78.0010      0.0000
   850.5000     24.1570     84.9807      0.0000
   850.6000     24.1570     84.9807      0.0000
   850.7000     24.1570     84.9807      0.0000
   850.8000     24.8605     93.2537      0.0000
   850.9000     24.8605     93.2537      0.0000
   851.0000     25.3151    100.7302      0.0000
   851.1000     25.3151    100.7302      0.0000
   851.2000     25.3151    100.7302      0.0000
   851.3000     25.4736    105.8741      0.0000
   851.4000     25.4736    105.8741      0.0000
   851.5000     25.4118    108.8698      0.0000
   851.6000     25.4118    108.8698      0.0000
   851.7000     25.4118    108.8698      0.0000
   851.8000     25.3076    111.3388      0.0000
   851.9000     25.3076    111.3388      0.0000
   852.0000     25.3287    114.7539      0.0000
   852.1000     25.3287    114.7539      0.0000
   852.2000     25.3287    114.7539      0.0000
   852.3000     25.5181    118.9639      0.0000
   852.4000     25.5181    118.9639      0.0000
   852.5000     25.7921    122.4190      0.0000
   852.6000     25.7921    122.4190      0.0000
   852.7000     25.7921    122.4190      0.0000
   852.8000     26.0382    123.8173      0.0000
   852.9000     26.0382    123.8173      0.0000
   853.0000     26.2095    123.1939      0.0000
   853.1000     26.2095    123.1939      0.0000
   853.2000     26.2095    123.1939      0.0000
   853.3000     26.3515    121.4408      0.0000
   853.4000     26.3515    121.4408      0.0000
   853.5000     26.5610    119.3703      0.0000
   853.6000     26.5610    119.3703      0.0000
   853.7000     26.5610    119.3703      0.0000
   853.8000     26.9008    117.5247      0.0000
   853.9000     26.9008    117.5247      0.0000
   854.0000     27.3365    116.3840      0.0000
   854.1000     27.3365    116.3840      0.0000
   854.2000     27.3365    116.3840      0.0000
   854.3000     27.7607    116.2588      0.0000
   854.4000     27.7607    116.2588      0.0000
   854.5000     28.0805    117.0731      0.0000
   854.6000     28.0805    117.0731      0.0000
   854.7000     28.0805    117.0731      0.0000
   854.8000     28.2782    118.4382      0.0000
   854.9000     28.2782    118.4382      0.0000
   855.0000     28.4036    119.8984      0.0000
   855.1000     28.4036    119.8984      0.0000
   855.2000     28.4036    119.8984      0.0000
   855.3000     28.5309    121.0635      0.0000
   855.4000     28.5309    121.0635      0.0000
   855.5000     28.7288    121.6023      0.0000
   855.6000     28.7288    121.6023      0.0000
   855.7000     28.7288    121.6023      0.0000
   855.8000     29.0477    121.1481      0.0000
   855.9000     29.0477    121.1481      0.0000
   856.0000     29.5068    119.2117      0.0000
   856.1000     29.5068    119.2117      0.0000
   856.2000     29.5068    119.2117      0.0000
   856.3000     30.0768    115.3380      0.0000
   856.4000     30.0768    115.3380      0.0000
   856.5000     30.6844    109.5573      0.0000
   856.6000     30.6844    109.5573      0.0000
   856.7000     30.6844    109.5573      0.0000
   856.8000     31.2508    102.5790      0.0000
   856.9000     31.2508    102.5790      0.0000
   857.0000     31.7336     95.2681      0.0000
   857.1000     31.7336     95.2681      0.0000
   857.2000     31.7336     95.2681      0.0000
   857.3000     32.1273     87.8961      0.0000
   857.4000     32.1273     87.8961      0.0000
   857.5000     32.4218     80.0621      0.0000
   857.6000     32.4218     80.0621      0.0000
   857.7000     32.4218     80.0621      0.0000
   857.8000     32.5778     71.3698      0.0000
   857.9000     32.5778     71.3698      0.0000
   858.0000     32.5616     62.1067      0.0000
   858.1000     32.5616     62.1067      0.0000
   858.2000     32.5616     62.1067      0.0000
   858.3000     32.4019     53.3600      0.0000
   858.4000     32.4019     53.3600      0.0000
   858.5000     32.1942     46.5131      0.0000
   858.6000     32.1942     46.5131      0.0000
   858.7000     32.1942     46.5131      0.0000
   858.8000     32.0469     42.4114      0.0000
   858.9000     32.0469     42.4114      0.0000
   859.0000     32.0203     40.8056      0.0000
   859.1000     32.0203     40.8056      0.0000
   859.2000     32.0203     40.8056      0.0000
   859.3000     32.1077     40.5545      0.0000
   859.4000     32.1077     40.5545      0.0000
   859.5000     32.2613     40.3356      0.0000
   859.6000     32.2613     40.3356      0.0000
   859.7000     32.2613     40.3356      0.0000
   859.8000     32.4294     39.2535      0.0000
   859.9000     32.4294     39.2535      0.0000
   860.0000     32.5720     37.1645      0.0000
   860.1000     32.5720     37.1645      0.0000
   860.2000     32.5720     37.1645      0.0000
   860.3000     32.6570     34.7720      0.0000
   860.4000     32.6570     34.7720      0.0000
   860.5000     32.6566     33.3487      0.0000
   860.6000     32.6566     33.3487      0.0000
   860.7000     32.6566     33.3487      0.0000
   860.8000     32.5624     34.0163      0.0000
   860.9000     32.5624     34.0163      0.0000
   861.0000     32.4141     36.9409      0.0000
   861.1000     32.4141     36.9409      0.0000
   861.2000     32.4141     36.9409      0.0000
   861.3000     32.2884     41.1861      0.0000
   861.4000     32.2884     41.1861      0.0000
   861.5000     32.2142     45.5829      0.0000
   861.6000     32.2142     45.5829      0.0000
   861.7000     32.2142     45.5829      0.0000
   861.8000     32.1065     49.8799      0.0000
   861.9000     32.1065     49.8799      0.0000
   862.0000     31.8283     54.9763      0.0000
   862.1000     31.8283     54.9763      0.0000
   862.2000     31.8283     54.9763      0.0000
   862.3000     31.3202     62.0618      0.0000
   862.4000     31.3202     62.0618      0.0000
   862.5000     30.6428     71.5370      0.0000
   862.6000     30.6428     71.5370      0.0000
   862.7000     30.6428     71.5370      0.0000
   862.8000     29.8957     82.5565      0.0000
   862.9000     29.8957     82.5565      0.0000
   863.0000     29.1310     93.4624      0.0000
   863.1000     29.1310     93.4624      0.0000
   863.2000     29.1310     93.4624      0.0000
   863.3000     28.3571    102.6603      0.0000
   863.4000     28.3571    102.6603      0.0000
   863.5000     27.6072    109.1273      0.0000
   863.6000     27.6072    109.1273      0.0000
   863.7000     27.6072    109.1273      0.0000
   863.8000     26.9732    112.3764      0.0000
   863.9000     26.9732    112.3764      0.0000
   864.0000     26.5476    112.5272      0.0000
   864.1000     26.5476    112.5272      0.0000
   864.2000     26.5476    112.5272      0.0000
   864.3000     26.3305    110.6590      0.0000
   864.4000     26.3305    110.6590      0.0000
   864.5000     26.2232    108.5978      0.0000
   864.6000     26.2232    108.5978      0.0000
   864.7000     26.2232    108.5978      0.0000
   864.8000     26.1230    107.8249      0.0000
   864.9000     26.1230    107.8249      0.0000
   865.0000     26.0015    108.5510      0.0000
   865.1000     26.0015    108.5510      0.0000
   865.2000     26.0015    108.5510      0.0000
   865.3000     25.8919    109.8943      0.0000
   865.4000     25.8919    109.8943      0.0000
   865.5000     25.8455    110.9111      0.0000
   865.6000     25.8455    110.9111      0.0000
   865.7000     25.8455    110.9111      0.0000
   865.8000     25.9078    111.4900      0.0000
   865.9000     25.9078    111.4900      0.0000
   866.0000     26.0960    112.1383      0.0000
   866.1000     26.0960    112.1383      0.0000
   866.2000     26.0960    112.1383      0.0000
   866.3000     26.3754    112.8436      0.0000
   866.4000     26.3754    112.8436      0.0000
   866.5000     26.6629    112.6211      0.0000
   866.6000     26.6629    112.6211      0.0000
