~Version Information
VERS.                      2.0: CWLS Log ASCII Standard - VERSION 2.0
WRAP.                       NO: One line per depth step
~Well Information Block
STRT.FT               488.0000: 
STOP.FT              1824.7000: 
STEP.FT                 0.1000: 
NULL.                -999.2500: 
COMP.          Pioneer Natural Resources: COMPANY
WELL.            Buckeye 11-13: WELL
FLD.           Purgatoire River: FIELD
LOC.           211' FNL & 1054' FWL: LOCATION
STAT.                 Colorado: State
CNTY.               Las Animas: COUNTY
CTRY. USA : Country
SECT. 13 : Section
TOWN. 33S : Township
RANG. 67W : Range
SRVC.                Patterson: SERVICE COMPANY
DATE.          Mon Mar 07 02:06:39 2005: LOG DATE
API.           05 071 08317 00: UNIQUE WELL ID
~Curve Information Block
DEPT.FT            0 000 00 00: Depth
DCAL.in                       : CDL Caliper
RHOB.g/cc                     : CDL Bulk Density
RHOC.g/cc                     : CDL Density Correction
DPOR.pu                       : CDL Density Porosity
GR.GAPI                       : Gamma Ray
NPOR.pu                       : Neutron Porosity
~Parameter Information Block
~A  Depth       DCAL        RHOB        RHOC        DPOR         GR         NPOR    
# ...
  1457.6000      7.9739      2.5967      0.0763      3.2281     68.8217     16.2926
  1457.7000      7.9739      2.5938      0.0390      3.4075     59.5061     15.4120
  1457.8000      7.9762      2.5849     -0.0010      3.9481     56.4800     14.9353
  1457.9000      7.9762      2.5877     -0.0253      3.7753     60.2185     15.3234
  1458.0000      7.9783      2.5994      0.0163      3.0646     65.8632     15.6394
  1458.1000      7.9783      2.6106      0.0158      2.3855     68.0428     15.2637
  1458.2000      7.9783      2.6148      0.0141      2.1344     66.7369     14.5169
  1458.3000      7.9779      2.6028      0.0703      2.8625     66.0563     13.6607
  1458.4000      7.9779      2.5752      0.0290      4.5321     68.5054     13.2255
  1458.5000      7.9755      2.5500     -0.0100      6.0629     71.4683     13.8312
  1458.6000      7.9755      2.5380     -0.0185      6.7902     73.6994     15.2580
  1458.7000      7.9755      2.5316      0.0382      7.1788     76.5554     16.6269
  1458.8000      7.9758      2.5227     -0.0461      7.7179     79.1704     17.5443
  1458.9000      7.9758      2.5143     -0.0145      8.2224     81.3329     18.1463
  1459.0000      7.9760      2.5138     -0.0503      8.2573     85.2728     18.3809
  1459.1000      7.9760      2.5200      0.0248      7.8760     90.8213     18.6369
  1459.2000      7.9760      2.5214      0.0092      7.7918     95.5199     19.4627
  1459.3000      7.9775      2.5176      0.0009      8.0257     99.2698     20.2623
  1459.4000      7.9775      2.5210     -0.0144      7.8152    101.8309     20.0980
  1459.5000      7.9816      2.5356      0.0409      6.9310    101.0546     19.2561
  1459.6000      7.9816      2.5506      0.0471      6.0222     99.2160     18.1966
  1459.7000      7.9816      2.5533      0.0341      5.8629     99.2786     17.1206
  1459.8000      7.9776      2.5370      0.0489      6.8494     98.4255     16.2215
  1459.9000      7.9776      2.5088     -0.0036      8.5571     94.1065     15.6947
  1460.0000      7.9764      2.4879      0.0017      9.8245     88.7209     15.4144
  1460.1000      7.9764      2.4896     -0.0882      9.7218     84.6121     15.1191
  1460.2000      7.9764      2.5114     -0.0330      8.3974     79.8859     15.0742
  1460.3000      7.9767      2.5339      0.0146      7.0392     73.5834     15.4065
  1460.4000      7.9767      2.5447     -0.0134      6.3816     67.7115     15.6658
  1460.5000      7.9772      2.5481      0.0169      6.1773     65.2916     15.4557
  1460.6000      7.9772      2.5420      0.0308      6.5467     67.0012     15.1463
  1460.7000      7.9772      2.5121      0.0087      8.3560     70.0766     15.3092
  1460.8000      7.9758      2.4634     -0.0784     11.3086     72.0968     15.8745
  1460.9000      7.9758      2.4332     -0.0811     13.1401     73.6661     16.4076
  1461.0000      7.9742      2.4452     -0.0654     12.4109     75.9945     16.4908
  1461.1000      7.9742      2.4757      0.0108     10.5643     78.4746     16.2206
  1461.2000      7.9742      2.4899      0.0084      9.7047     80.9210     16.1740
  1461.3000      7.9766      2.4871     -0.0485      9.8711     84.7400     16.4924
  1461.4000      7.9766      2.4821     -0.0315     10.1732     87.3104     16.8312
  1461.5000      7.9791      2.4801     -0.0343     10.2962     83.0836     17.2524
  1461.6000      7.9791      2.4922     -0.0412      9.5616     73.6785     18.0375
  1461.7000      7.9791      2.5169      0.0223      8.0667     68.5840     18.5583
  1461.8000      7.9775      2.5186      0.1035      7.9634     74.4086     18.4127
  1461.9000      7.9775      2.4838     -0.0280     10.0723     87.7066     18.5128
  1462.0000      7.9760      2.4500     -0.0344     12.1221     98.3428     18.9950
  1462.1000      7.9760      2.4451     -0.0066     12.4172    100.3623     19.0104
  1462.2000      7.9760      2.4627     -0.0104     11.3519     97.3705     18.5972
  1462.3000      7.9781      2.4906      0.0219      9.6598     97.6545     18.3589
  1462.4000      7.9781      2.5214      0.0219      7.7919    104.6466     18.1997
  1462.5000      7.9772      2.5451      0.0487      6.3584    110.5776     17.8619
  1462.6000      7.9772      2.5462      0.0691      6.2930    109.0252     17.6324
  1462.7000      7.9772      2.5300     -0.0214      7.2724    105.3195     17.4751
  1462.8000      7.9766      2.5211      0.0072      7.8105    105.6142     17.0577
  1462.9000      7.9766      2.5157      0.0097      8.1373    107.3865     16.5504
  1463.0000      7.9762      2.4960      0.0044      9.3351    106.4260     16.5563
  1463.1000      7.9762      2.4710     -0.0235     10.8468    103.9976     17.5847
  1463.2000      7.9762      2.4612     -0.0437     11.4444    102.5356     18.6506
  1463.3000      7.9755      2.4658      0.0154     11.1661    102.6583     18.1939
  1463.4000      7.9755      2.4678     -0.0087     11.0395    103.4701     16.9522
  1463.5000      7.9754      2.4600      0.0039     11.5144    103.6837     15.8390
  1463.6000      7.9754      2.4498     -0.0807     12.1328    103.0150     14.7470
  1463.7000      7.9754      2.4435     -0.0640     12.5176     99.6407     14.0303
  1463.8000      7.9772      2.4413     -0.0542     12.6479     92.6830     14.0553
  1463.9000      7.9772      2.4489     -0.0407     12.1859     87.5364     14.5209
  1464.0000      7.9772      2.4583      0.0203     11.6205     87.2746     15.0202
  1464.1000      7.9772      2.4559     -0.0117     11.7661     85.6367     15.2057
  1464.2000      7.9772      2.4573     -0.0294     11.6794     81.1108     15.1586
  1464.3000      7.9756      2.4665      0.0071     11.1203     78.7002     15.3907
  1464.4000      7.9756      2.4615     -0.0512     11.4261     76.9416     15.8004
  1464.5000      7.9770      2.4455     -0.0794     12.3943     74.0107     15.8921
  1464.6000      7.9770      2.4405     -0.0343     12.6994     74.0178     15.5827
  1464.7000      7.9770      2.4497     -0.0540     12.1398     78.7959     15.4442
  1464.8000      7.9764      2.4596     -0.0192     11.5419     83.1821     15.8393
  1464.9000      7.9764      2.4605      0.0190     11.4822     81.7295     16.2780
  1465.0000      7.9766      2.4630      0.0523     11.3356     75.6973     16.0046
  1465.1000      7.9766      2.4798      0.0059     10.3144     71.6617     15.0588
  1465.2000      7.9766      2.5009      0.0367      9.0359     73.4975     14.5800
  1465.3000      7.9793      2.5104     -0.0173      8.4623     78.1775     15.2678
  1465.4000      7.9793      2.5096      0.0453      8.5113     80.7984     16.1445
  1465.5000      7.9791      2.4996      0.0022      9.1153     78.8184     16.0932
  1465.6000      7.9791      2.4837     -0.0447     10.0772     73.8024     15.7889
  1465.7000      7.9791      2.4692      0.0135     10.9564     71.2250     16.0027
  1465.8000      7.9772      2.4514     -0.0204     12.0369     71.4068     16.1494
  1465.9000      7.9772      2.4270     -0.0090     13.5154     71.2732     15.8194
  1466.0000      7.9759      2.4047     -0.0056     14.8673     71.7365     15.6297
  1466.1000      7.9759      2.3943     -0.0114     15.4998     71.3485     15.7111
  1466.2000      7.9759      2.3928      0.0087     15.5853     68.0339     15.4925
  1466.3000      7.9755      2.3900      0.0107     15.7593     65.2519     14.8670
  1466.4000      7.9755      2.3883     -0.0511     15.8593     65.4488     14.3435
  1466.5000      7.9776      2.3972      0.0081     15.3184     65.4433     14.2584
  1466.6000      7.9776      2.4095      0.0142     14.5738     62.3278     14.3277
  1466.7000      7.9776      2.4155     -0.0222     14.2113     56.6866     13.8854
  1466.8000      7.9782      2.4194     -0.0205     13.9741     51.3212     13.0630
  1466.9000      7.9782      2.4270     -0.0027     13.5176     49.0754     12.5910
  1467.0000      7.9742      2.4368      0.0317     12.9197     51.5100     12.5454
  1467.1000      7.9742      2.4464     -0.0287     12.3408     57.1191     12.7981
