~Version Information
 VERS.                                  2.0 : CWLS LAS VERSION
 WRAP.                                   NO : WRAPING MODE
 SWARE .                 MController 2.5.0E : SOFTWARE VERSION
~Well Information
 WELL.                            Eric 42-9 : WELL
 COMP.         Pioneer Natural Resources Inc: COMPANY
 FLD.                      Purgatorie River : FIELD
 LOC.                 SE/NE Sec 9 T32S R65W : LOCATION
 DATE.                            10/310/04 : DATE(S) LOGGED
 SRVC.       Blanco Geological Services LLC : SERVICE COMPANY
 STAT.                                   CO : STATE
 CNTY.                           Las Animas : COUNTY
 CTRY.                                  USA : COUNTRY
 API.                       05-071-07999-00 : API NUMBER
 STRT.FT                             346.00 : START DEPTH
 STOP.FT                            1616.00 : STOP DEPTH
 STEP.FT                               1.00 : DEPTH INCREMENT
 NULL.                                -9999 : NULL VALUE
~Curve information
 DEPTH.FT                                   :
 ROP.MIN/FT                                 :
 GAS.UNITS                                  :
~ASCII Log data
# ...
      746.00        2.600          2.5 
      747.00        0.233          1.5 
      748.00        0.250          3.5 
      749.00        0.333         14.0 
      750.00        0.333         37.7 
      751.00        0.267         54.7 
      752.00        0.233         65.4 
      753.00        0.100         66.9 
      754.00        0.100         72.5 
      755.00        0.067         72.7 
      756.00        0.100         70.1 
      757.00        0.100         64.4 
      758.00        0.133         61.4 
      759.00        0.100         54.7 
      760.00        0.200         47.6 
      761.00        0.200         39.1 
      762.00        0.133         27.7 
      763.00        0.133         22.0 
      764.00        0.133         18.8 
      765.00        0.133         14.8 
      766.00        0.133         12.5 
      767.00        0.133          8.9 
      768.00        0.183          7.6 
      769.00        0.133          5.7 
      770.00        0.133          4.8 
      771.00        0.167          4.3 
      772.00        0.133          2.5 
      773.00        0.133          2.4 
      774.00        0.233          2.4 
      775.00        0.167          1.9 
      776.00        3.317          5.5 
      777.00        0.233         12.0 
      778.00        0.200         22.2 
      779.00        0.167         39.3 
      780.00        0.167         60.4 
      781.00        0.167         80.7 
      782.00        0.167         99.5 
      783.00        0.167        111.6 
      784.00        0.167        111.3 
      785.00        0.167        100.6 
      786.00        0.167         90.7 
      787.00        0.133         91.1 
      788.00        0.250         84.0 
      789.00        0.267         64.6 
      790.00        0.233         45.2 
      791.00        0.267         33.0 
      792.00        0.200         20.5 
      793.00        0.167         15.3 
      794.00        0.167         12.6 
      795.00        0.167          8.7 
      796.00        0.133          6.9 
      797.00        0.167          4.3 
      798.00        0.133          2.6 
      799.00        0.133          2.6 
      800.00        0.200          1.5 
      801.00        0.267          1.1 
      802.00        0.233          1.1 
      803.00        0.167          0.3 
      804.00        0.233          1.1 
      805.00        0.100          1.1 
      806.00        2.783          3.5 
      807.00        0.883          4.4 
      808.00        0.233         14.0 
      809.00        0.333         37.7 
      810.00        0.200         66.7 
      811.00        0.167         96.9 
      812.00        0.200        128.8 
      813.00        0.233        156.9 
      814.00        0.233        161.4 
      815.00        0.233        151.8 
      816.00        0.233        126.3 
      817.00        0.200         97.3 
      818.00        0.233         73.1 
      819.00        0.233         50.8 
      820.00        0.233         36.1 
      821.00        0.183         25.8 
      822.00        0.133         19.8 
      823.00        0.167         19.7 
      824.00        0.200         14.1 
      825.00        0.267          9.2 
      826.00        0.167          7.4 
      827.00        0.200          6.7 
      828.00        0.200          5.1 
      829.00        0.233          3.9 
      830.00        0.233          3.7 
      831.00        0.200          4.8 
      832.00        0.233          5.1 
      833.00        0.200          5.7 
      834.00        0.233          5.6 
      835.00        0.233          5.3 
      836.00        2.517          7.4 
      837.00        0.467         12.8 
      838.00        0.467         60.4 
      839.00        0.383        135.0 
      840.00        0.367        189.1 
      841.00        0.300        191.4 
      842.00        0.267        174.1 
      843.00        0.233        139.9 
      844.00        0.167        106.6 
      845.00        0.200         76.7 
      846.00        0.200         53.0 
      847.00        0.200         39.5 
      848.00        0.200         29.9 
      849.00        0.167         20.5 
      850.00        0.167         16.7 
      851.00        0.167         12.9 
      852.00        0.167         10.2 
      853.00        0.133          9.6 
      854.00        0.133          7.9 
      855.00        0.167          7.9 
      856.00        0.150          6.5 
      857.00        0.167          5.6 
      858.00        0.133          4.1 
      859.00        0.167          4.2 
      860.00        0.200          3.6 
      861.00        0.167          2.6 
      862.00        0.133          2.0 
      863.00        0.167          1.7 
      864.00        0.133          2.1 
      865.00        0.133          2.1 
      866.00        3.550         25.2 
      867.00        0.167         36.6 
      868.00        0.333         71.9 
      869.00        0.267        141.5 
      870.00        0.300        230.3 
      871.00        0.267        261.0 
      872.00        0.283        258.5 
      873.00        0.233        219.6 
      874.00        0.200        159.6 
      875.00        0.167        110.9 
      876.00        0.200         82.6 
      877.00        0.233         58.6 
      878.00        0.233         38.6 
      879.00        0.200         25.7 
      880.00        0.233         18.2 
      881.00        0.200         11.4 
      882.00        0.200          8.0 
      883.00        0.200          6.2 
      884.00        0.200          4.8 
      885.00        0.200          3.7 
      886.00        0.167          4.0 
      887.00        0.167          4.2 
      888.00        0.217          4.1 
      889.00        0.233          3.3 
      890.00        0.200          3.3 
      891.00        0.167          3.0 
      892.00        0.200          3.3 
      893.00        0.167          3.0 
      894.00        0.200          3.1 
      895.00        0.133          2.6 
      896.00        3.350         14.6 
      897.00        0.267         30.3 
      898.00        0.233         54.1 
      899.00        0.200        104.5 
      900.00        0.167        159.5 
      901.00        0.167        198.9 
      902.00        0.133        224.8 
      903.00        0.133        244.1 
      904.00        0.167        258.0 
      905.00        0.100        257.5 
      906.00        0.133        247.3 
      907.00        0.200        224.2 
      908.00        0.217        168.7 
      909.00        0.167        114.0 
      910.00        0.167         76.4 
      911.00        0.133         51.9 
      912.00        0.167         37.3 
      913.00        0.167         27.2 
      914.00        0.133         16.9 
      915.00        0.200         13.9 
      916.00        0.167          9.5 
      917.00        0.200          8.3 
      918.00        0.200          6.7 
      919.00        0.167          5.7 
      920.00        0.267          4.5 
      921.00        0.167          3.4 
      922.00        0.300          3.8 
      923.00        0.233          3.6 
      924.00        0.200          3.6 
      925.00        0.100          2.7 
      926.00        3.633          4.5 
      927.00        0.200         11.9 
      928.00        0.333         37.7 
      929.00        0.300         90.6 
      930.00        0.200        129.5 
      931.00        0.267        181.6 
      932.00        0.200        203.4 
      933.00        0.167        205.7 
      934.00        0.200        199.3 
      935.00        0.200        172.3 
      936.00        0.133        131.6 
      937.00        0.133        106.6 
      938.00        0.167         85.7 
      939.00        0.167         61.3 
      940.00        0.200         43.0 
      941.00        0.133         29.4 
      942.00        0.183         23.0 
      943.00        0.133         16.3 
      944.00        0.167         13.3 
      945.00        0.167          9.9 
