~Version Information
VERS.                      2.0: CWLS Log ASCII Standard - VERSION 2.0
WRAP.                       NO: One line per depth step
~Well Information Block
STRT.FT               845.0000: 
STOP.FT              2308.2500: 
STEP.FT                 0.2500: 
NULL.                -999.2500: 
COMP.          Pioneer Natural Resources: COMPANY
WELL.             Vector 33-23: WELL
FLD.           Purgatoire River: FIELD
LOC.           1560' FEL & 1988' FSL----: LOCATION
PROV.                 Colorado: PROVINCE
CNTY.               Las Animas: COUNTRY
SRVC.                Patterson: SERVICE COMPANY
DATE.          Sat Mar 26 12:39:07 2005: LOG DATE
UWI.           05 071 08336 00: UNIQUE WELL ID
~Curve Information Block
DEPT.FT            0 000 00 00: Depth
SN.Ohm-m                      : IEL Short Normal
SP.mV                         : IEL Spontaneous Potential
DIR.Ohm-m                     : IEL Induction Resistivity
GR.GAPI                       : Gamma Ray
~Parameter Information Block
~A  Depth        SN          SP         DIR          GR     
# ...
  1515.0000     47.9305    -92.3504     31.7777     39.5369
  1515.2500     47.5227    -90.5763     32.7613     40.7456
  1515.5000     46.4492    -88.4040     33.0806     44.3012
  1515.7500     45.0034    -85.9683     32.7504     47.8183
  1516.0000     43.3738    -83.4262     31.9212     55.0048
  1516.2500     41.6290    -80.9338     30.8073     61.1940
  1516.5000     39.7889    -78.6255     29.6046     72.0348
  1516.7500     37.9035    -76.6023     28.4473     79.3836
  1517.0000     36.0681    -74.9267     27.4049     88.7908
  1517.2500     34.3800    -73.6254     26.5032     93.3270
  1517.5000     32.8963    -72.6938     25.7496     97.1721
  1517.7500     31.6326    -72.1016     25.1527     97.8078
  1518.0000     30.5857    -71.7967     24.7282     96.4501
  1518.2500     29.7420    -71.7098     24.4882     94.7511
  1518.5000     29.0661    -71.7592     24.4198     92.4676
  1518.7500     28.4884    -71.8590     24.4633     91.5047
  1519.0000     27.9113    -71.9273     24.5035     90.5042
  1519.2500     27.2381    -71.8959     24.3882     89.8457
  1519.5000     26.4121    -71.7174     23.9785     89.2971
  1519.7500     25.4409    -71.3699     23.2100     89.8755
  1520.0000     24.3886    -70.8566     22.1254     93.0686
  1520.2500     23.3421    -70.2024     20.8541     97.0060
  1520.5000     22.3764    -69.4470     19.5540    105.8257
  1520.7500     21.5356    -68.6368     18.3565    113.5050
  1521.0000     20.8314    -67.8171     17.3410    126.4192
  1521.2500     20.2501    -67.0261     16.5375    134.5802
  1521.5000     19.7626    -66.2917     15.9420    143.6528
  1521.7500     19.3366    -65.6308     15.5312    146.6383
  1522.0000     18.9510    -65.0513     15.2752    146.1012
  1522.2500     18.6106    -64.5549     15.1457    142.6888
  1522.5000     18.3537    -64.1410     15.1252    134.1873
  1522.7500     18.2456    -63.8088     15.2099    127.4142
  1523.0000     18.3556    -63.5601     15.4088    118.0755
  1523.2500     18.7223    -63.4005     15.7355    113.5901
  1523.5000     19.3270    -63.3416     16.1971    109.9702
  1523.7500     20.0905    -63.4027     16.7816    108.9450
  1524.0000     20.9007    -63.6121     17.4470    107.6868
  1524.2500     21.6602    -64.0056     18.1210    106.3699
  1524.5000     22.3276    -64.6230     18.7197    103.8392
  1524.7500     22.9282    -65.5009     19.1808    102.3762
  1525.0000     23.5246    -66.6620     19.4919    101.2450
  1525.2500     24.1715    -68.1048     19.6927    101.0109
  1525.5000     24.8848    -69.7940     19.8524    100.2485
  1525.7500     25.6403    -71.6583     20.0409     98.7755
  1526.0000     26.3900    -73.5944     20.3088     94.7221
  1526.2500     27.0730    -75.4792     20.6816     90.9932
  1526.5000     27.6247    -77.1875     21.1589     84.2763
  1526.7500     27.9926    -78.6113     21.7144     79.1316
  1527.0000     28.1596    -79.6749     22.2960     70.8246
  1527.2500     28.1604    -80.3430     22.8339     65.7485
  1527.5000     28.0748    -80.6206     23.2619     61.2627
  1527.7500     27.9900    -80.5471     23.5404     61.6539
  1528.0000     27.9431    -80.1880     23.6611     67.8916
  1528.2500     27.8852    -79.6290     23.6271     74.8862
  1528.5000     27.7054    -78.9739     23.4292     86.4754
  1528.7500     27.3081    -78.3430     23.0481     93.0297
  1529.0000     26.6913    -77.8691     22.4890     99.4934
  1529.2500     25.9618    -77.6857     21.8138    102.0103
  1529.5000     25.2796    -77.9072     21.1345    105.4307
  1529.7500     24.7750    -78.6039     20.5683    108.6826
  1530.0000     24.4924    -79.7800     20.1924    115.0349
  1530.2500     24.3859    -81.3627     20.0281    118.8837
  1530.5000     24.3574    -83.2068     20.0486    120.9234
  1530.7500     24.3114    -85.1169     20.1975    118.7756
  1531.0000     24.1957    -86.8801     20.4054    111.3064
  1531.2500     24.0088    -88.3021     20.6015    105.4118
  1531.5000     23.7729    -89.2374     20.7187     98.9211
  1531.7500     23.4944    -89.6071     20.6946     97.5435
  1532.0000     23.1459    -89.4030     20.4736    100.2114
  1532.2500     22.6815    -88.6790     20.0187    104.5552
  1532.5000     22.0683    -87.5342     19.3280    113.7091
  1532.7500     21.3075    -86.0923     18.4449    120.8735
  1533.0000     20.4293    -84.4820     17.4466    131.6934
  1533.2500     19.4766    -82.8198     16.4191    137.9986
  1533.5000     18.4947    -81.1985     15.4364    145.1583
  1533.7500     17.5302    -79.6798     14.5515    148.4597
  1534.0000     16.6289    -78.2913     13.7985    151.7756
  1534.2500     15.8257    -77.0286     13.1954    153.0670
  1534.5000     15.1307    -75.8612     12.7477    153.3091
  1534.7500     14.5287    -74.7411     12.4507    151.8532
  1535.0000     13.9954    -73.6134     12.2915    146.4051
  1535.2500     13.5216    -72.4280     12.2523    140.7090
  1535.5000     13.1295    -71.1498     12.3120    131.1923
  1535.7500     12.8714    -69.7665     12.4477    126.1270
  1536.0000     12.8130    -68.2923     12.6363    122.4878
  1536.2500     13.0083    -66.7672     12.8577    122.2616
  1536.5000     13.4731    -65.2515     13.0970    122.6656
  1536.7500     14.1684    -63.8167     13.3449    122.2518
  1537.0000     15.0071    -62.5345     13.5942    120.6636
  1537.2500     15.8832    -61.4658     13.8374    119.8551
  1537.5000     16.7054    -60.6516     14.0681    120.1383
  1537.7500     17.4141    -60.1086     14.2837    121.0712
  1538.0000     17.9788    -59.8287     14.4876    122.1059
  1538.2500     18.3907    -59.7816     14.6873    121.7649
  1538.5000     18.6605    -59.9208     14.8904    119.1493
  1538.7500     18.8189    -60.1911     15.1038    116.1724
  1539.0000     18.9148    -60.5351     15.3347    110.9486
  1539.2500     19.0060    -60.8993     15.5927    107.8572
  1539.5000     19.1401    -61.2395     15.8893    104.9661
  1539.7500     19.3287    -61.5228     16.2309    104.4359
  1540.0000     19.5327    -61.7306     16.6068    105.7304
  1540.2500     19.6751    -61.8580     16.9757    107.8824
  1540.5000     19.6786    -61.9140     17.2622    112.2974
  1540.7500     19.5021    -61.9195     17.3748    115.1713
  1541.0000     19.1529    -61.9048     17.2440    118.0068
  1541.2500     18.6731    -61.9056     16.8578    118.8142
  1541.5000     18.1201    -61.9583     16.2682    119.6620
  1541.7500     17.5525    -62.0941     15.5674    120.9896
  1542.0000     17.0202    -62.3336     14.8544    124.9347
  1542.2500     16.5517    -62.6829     14.2103    128.5615
  1542.5000     16.1446    -63.1317     13.6870    134.3260
  1542.7500     15.7684    -63.6547     13.3046    137.8248
  1543.0000     15.3800    -64.2154     13.0559    142.0183
  1543.2500     14.9406    -64.7720     12.9130    143.7236
  1543.5000     14.4288    -65.2845     12.8373    143.3077
  1543.7500     13.8552    -65.7214     12.7898    140.1033
  1544.0000     13.2757    -66.0645     12.7407    130.4739
  1544.2500     12.7931    -66.3129     12.6751    121.8565
  1544.5000     12.5289    -66.4834     12.5955    108.8155
  1544.7500     12.5726    -66.6088     12.5170    101.7334
  1545.0000     12.9369    -66.7337     12.4602     95.0058
  1545.2500     13.5475    -66.9068     12.4422     93.1748
  1545.5000     14.2752    -67.1736     12.4712     93.5169
  1545.7500     14.9896    -67.5679     12.5455     94.9062
  1546.0000     15.6014    -68.1047     12.6576     97.2880
  1546.2500     16.0744    -68.7767     12.7995     98.6978
  1546.5000     16.4086    -69.5541     12.9670    100.5918
  1546.7500     16.6144    -70.3862     13.1597    101.6434
  1547.0000     16.6983    -71.2071     13.3787    102.2062
  1547.2500     16.6642    -71.9415     13.6222    101.5453
  1547.5000     16.5249    -72.5116     13.8812     99.3924
  1547.7500     16.3112    -72.8434     14.1340     98.0334
  1548.0000     16.0665    -72.8747     14.3432     97.8344
  1548.2500     15.8236    -72.5627     14.4595     99.6458
