~Version Information
 VERS.                                  2.0 : CWLS LAS VERSION
 WRAP.                                   NO : WRAPING MODE
 SWARE .                 MController 2.5.0J : SOFTWARE VERSION
~Well Information
 WELL.                         Sebring42-29 : WELL
 COMP.    Pioneer Natural Resources USA Inc : COMPANY
 FLD.                      Purgatoire River : FIELD
 LOC.                SE/NE Sec 29 T32S R67W : LOCATION
 DATE.                             08/12/05 : DATE(S) LOGGED
 SRVC.       BLANCO Geological Services LLC : SERVICE COMPANY
 STAT.                                   CO : STATE
 CNTY.                           Las Animas : COUNTY
 CTRY.                                  USA : COUNTRY
 API.                       05-071-08293-00 : API NUMBER
 STRT.FT                             750.00 : START DEPTH
 STOP.FT                            2880.00 : STOP DEPTH
 STEP.FT                               1.00 : DEPTH INCREMENT
 NULL.                                -9999 : NULL VALUE
~Curve information
 DEPTH.FT                                   :
 ROP.MIN/FT                                 :
 GAS.UNITS                                  :
~ASCII Log data
# ...
      1150.0         0.27         16.4 
      1151.0         0.23         18.5 
      1152.0         0.23         20.0 
      1153.0         0.23         20.1 
      1154.0         0.23         19.5 
      1155.0         0.23         16.9 
      1156.0         0.23         15.3 
      1157.0         0.23         15.1 
      1158.0         0.27         16.6 
      1159.0         0.27         18.3 
      1160.0         0.30         20.2 
      1161.0         0.32         20.7 
      1162.0         0.30         23.5 
      1163.0         0.40         30.0 
      1164.0         0.17         33.2 
      1165.0         0.13         36.4 
      1166.0         0.20         43.3 
      1167.0         0.20         48.8 
      1168.0         0.17         54.4 
      1169.0         0.17         59.6 
      1170.0         0.20         65.9 
      1171.0         5.30        239.2 
      1172.0         0.17          7.8 
      1173.0         0.20          7.9 
      1174.0         0.23          8.2 
      1175.0         0.30          9.1 
      1176.0         0.40         11.0 
      1177.0         0.50         13.0 
      1178.0         0.27         13.8 
      1179.0         0.17         14.8 
      1180.0         0.23         15.9 
      1181.0         0.22         17.5 
      1182.0         0.27         18.6 
      1183.0         0.17         20.6 
      1184.0         0.23         22.9 
      1185.0         0.30         24.6 
      1186.0         0.43         30.3 
      1187.0         0.47         32.7 
      1188.0         0.27         31.5 
      1189.0         0.27         25.4 
      1190.0         0.23         20.5 
      1191.0         0.13         16.3 
      1192.0         0.27         15.1 
      1193.0         0.20         17.4 
      1194.0         0.18         21.0 
      1195.0         0.10         23.7 
      1196.0         0.10         26.2 
      1197.0         0.20         33.3 
      1198.0         0.17         40.6 
      1199.0         0.23         50.4 
      1200.0         0.17         58.0 
      1201.0         6.00        380.4 
      1202.0         0.30         13.0 
      1203.0         0.33         17.8 
      1204.0         0.37         23.2 
      1205.0         0.40         27.1 
      1206.0         0.40         27.4 
      1207.0         0.33         27.0 
      1208.0         0.33         26.7 
      1209.0         0.30         27.5 
      1210.0         0.35         28.8 
      1211.0         0.33         31.3 
      1212.0         0.33         30.6 
      1213.0         0.27         26.9 
      1214.0         0.27         21.2 
      1215.0         0.27         16.6 
      1216.0         0.27         12.2 
      1217.0         0.27         10.3 
      1218.0         0.23          9.8 
      1219.0         0.23          8.6 
      1220.0         0.27          8.3 
      1221.0         0.23          7.9 
      1222.0         0.22          7.3 
      1223.0         0.20          7.0 
      1224.0         0.23          7.1 
      1225.0         0.20          7.0 
      1226.0         0.27          7.1 
      1227.0         0.23          6.8 
      1228.0         0.33          7.1 
      1229.0         0.27          7.3 
      1230.0         0.20          7.7 
      1231.0         5.53        138.2 
      1232.0         0.20         63.0 
      1233.0         0.37         44.1 
      1234.0         0.40         27.8 
      1235.0         0.37         25.2 
      1236.0         0.30         24.2 
      1237.0         0.37         21.1 
      1238.0         0.33         19.4 
      1239.0         0.32         19.1 
      1240.0         0.27         19.1 
      1241.0         0.30         19.2 
      1242.0         0.13         18.5 
      1243.0         0.20         18.4 
      1244.0         0.17         17.4 
      1245.0         0.27         18.3 
      1246.0         0.27         17.9 
      1247.0         0.23         18.0 
      1248.0         0.20         18.3 
      1249.0         0.23         18.7 
      1250.0         0.20         18.5 
      1251.0         0.20         18.4 
      1252.0         0.20         18.4 
      1253.0         0.23         19.6 
      1254.0         0.28         23.3 
      1255.0         0.27         30.4 
      1256.0         0.23         37.5 
      1257.0         0.23         46.4 
      1258.0         0.23         55.1 
      1259.0         0.23         63.0 
      1260.0         0.23         73.7 
      1261.0         4.08        322.5 
      1262.0         0.40        165.8 
      1263.0         0.30        165.4 
      1264.0         0.27        260.7 
      1265.0         0.15        256.8 
      1266.0         0.13        228.6 
      1267.0         0.13        186.9 
      1268.0         0.10        144.1 
      1269.0         0.13        104.3 
      1270.0         0.23         58.0 
      1271.0         0.23         42.1 
      1272.0         0.30         36.2 
      1273.0         0.27         20.3 
      1274.0         0.13         12.9 
      1275.0         0.17         11.1 
      1276.0         0.33          9.9 
      1277.0         0.30         13.8 
      1278.0         0.23         19.2 
      1279.0         0.23         21.8 
      1280.0         0.32         23.9 
      1281.0         0.30         24.4 
      1282.0         0.30         27.5 
      1283.0         0.33         35.1 
      1284.0         0.30         49.1 
      1285.0         0.30         66.7 
      1286.0         0.20         80.2 
      1287.0         0.20         93.3 
      1288.0         0.20        105.9 
      1289.0         0.23        120.3 
      1290.0         0.20        133.6 
      1291.0         3.45       1279.1 
      1292.0         0.40       1296.9 
      1293.0         0.38       1003.2 
      1294.0         0.23        660.2 
      1295.0         0.33        513.3 
      1296.0         0.27        440.0 
      1297.0         0.27        109.4 
      1298.0         0.27         98.6 
      1299.0         0.20         88.2 
      1300.0         0.27         74.9 
      1301.0         0.33         64.1 
      1302.0         0.23         75.2 
      1303.0         0.20         76.2 
      1304.0         0.17         72.3 
      1305.0         0.17         63.5 
      1306.0         0.17         55.4 
      1307.0         0.25         48.2 
      1308.0         0.50         66.6 
      1309.0         0.20         76.1 
      1310.0         0.10         79.6 
      1311.0         0.10         83.2 
      1312.0         0.27         92.7 
      1313.0         0.33        105.0 
      1314.0         0.23        114.0 
      1315.0         0.20        126.5 
      1316.0         0.13        138.2 
      1317.0         0.13        151.4 
      1318.0         0.10        162.3 
      1319.0         0.10        173.4 
      1320.0         0.13        190.4 
      1321.0         3.32       1450.2 
      1322.0         0.30       1242.0 
      1323.0         0.33       1061.1 
      1324.0         0.35        733.3 
      1325.0         0.33        479.6 
      1326.0         0.20        440.0 
      1327.0         0.53         81.7 
      1328.0         0.27         44.8 
      1329.0         0.40         38.1 
      1330.0         0.37         38.8 
      1331.0         0.37         45.2 
      1332.0         0.33         55.1 
      1333.0         0.35         61.7 
      1334.0         0.30         62.3 
      1335.0         0.27         60.8 
      1336.0         0.23         58.9 
      1337.0         0.23         55.2 
      1338.0         0.23         49.7 
      1339.0         0.27         44.7 
      1340.0         0.20         40.6 
      1341.0         0.27         39.3 
      1342.0         0.27         46.2 
      1343.0         0.40         70.0 
      1344.0         0.30         95.8 
      1345.0         0.17        111.9 
      1346.0         0.18        127.3 
      1347.0         0.30        156.6 
      1348.0         0.27        185.1 
      1349.0         0.23        215.0 
