~Version Information
VERS.                      2.0: CWLS Log ASCII Standard - VERSION 2.0
WRAP.                       NO: One line per depth step
~Well Information Block
STRT.FT               784.0000: 
STOP.FT              1033.0000: 
STEP.FT                 0.1000: 
NULL.                -999.2500: 
COMP.          Pioneer Natural Resources: COMPANY
WELL.          Run-Away-Train 43-26: WELL
FLD.           Purgatoire River: FIELD
LOC.           1693' FSL & 1195' FEL: LOCATION
PROV.                 Colorado: PROVINCE
CNTY.               Las Animas: COUNTRY
SRVC.                Patterson: SERVICE COMPANY
DATE.          Wed Apr 06 07:23:28 2005: LOG DATE
UWI.           05 071 08188 00: UNIQUE WELL ID
~Curve Information Block
DEPT.FT            0 000 00 00: Depth
DCAL.in                       : CDL Caliper
RHOB.g/cc                     : CDL Bulk Density
RHOC.g/cc                     : CDL Density Correction
DPOR.pu                       : CDL Density Porosity
GR.GAPI                       : Gamma Ray
NPOR.pu                       : Neutron Porosity
~Parameter Information Block
~A  Depth       DCAL        RHOB        RHOC        DPOR         GR         NPOR    
# ...
   918.4000      7.8746      2.5002      0.0216      9.0787     66.6834     18.3626
   918.5000      7.8783      2.5087      0.0775      8.5659     68.5994     18.4614
   918.6000      7.8783      2.5177      0.0934      8.0204     70.9757     18.3470
   918.7000      7.8783      2.5201      0.1067      7.8713     72.7267     18.1155
   918.8000      7.8637      2.5145      0.1146      8.2151     72.8844     18.0336
   918.9000      7.8637      2.5026      0.1163      8.9306     70.5711     18.0862
   919.0000      7.8359      2.4893      0.0813      9.7423     66.6751     18.2004
   919.1000      7.8359      2.4841      0.0464     10.0560     65.1705     18.5362
   919.2000      7.8359      2.4868      0.0772      9.8919     67.3305     18.9029
   919.3000      7.8291      2.4765      0.0646     10.5135     68.6176     18.9243
   919.4000      7.8291      2.4487     -0.0132     12.1986     65.9014     18.5928
   919.5000      7.8513      2.4280     -0.0021     13.4534     62.5959     18.2372
   919.6000      7.8513      2.4230      0.0261     13.7550     62.5422     18.2223
   919.7000      7.8513      2.4246     -0.0164     13.6633     61.6081     18.6386
   919.8000      7.8746      2.4291      0.0008     13.3903     55.5051     19.1073
   919.9000      7.8746      2.4327      0.0094     13.1693     49.7394     19.1370
   920.0000      7.8753      2.4407     -0.0567     12.6854     50.3067     18.8062
   920.1000      7.8753      2.4666     -0.0318     11.1133     54.4224     18.5869
   920.2000      7.8753      2.5064      0.0132      8.7056     56.1553     18.7101
   920.3000      7.8915      2.5362      0.0615      6.8980     55.3271     19.0890
   920.4000      7.8915      2.5348      0.0988      6.9813     55.5995     19.3515
   920.5000      7.8733      2.5093      0.0197      8.5282     56.3882     19.2450
   920.6000      7.8733      2.4850      0.0267      9.9990     53.9001     18.9265
   920.7000      7.8733      2.4746     -0.0211     10.6321     48.9892     18.9404
   920.8000      7.8527      2.4773      0.0423     10.4668     47.5089     19.5465
   920.9000      7.8527      2.4915      0.0496      9.6062     50.4621     20.0495
   921.0000      7.8475      2.5194      0.0696      7.9135     54.9597     19.7442
   921.1000      7.8475      2.5556      0.0503      5.7230     60.8920     19.2436
   921.2000      7.8475      2.5757      0.1405      4.5017     65.8040     19.2951
   921.3000      7.8438      2.5609      0.0919      5.3987     65.8076     19.7126
   921.4000      7.8438      2.5289      0.0617      7.3420     63.4160     20.0975
   921.5000      7.8420      2.5095      0.0735      8.5178     63.3929     20.3186
   921.6000      7.8420      2.5082      0.0715      8.5949     64.0894     20.2597
   921.7000      7.8420      2.5154      0.0448      8.1575     62.3692     19.8753
   921.8000      7.8371      2.5224      0.0629      7.7334     60.3828     19.3181
   921.9000      7.8371      2.5307      0.0096      7.2285     61.0884     18.9016
   922.0000      7.8525      2.5488      0.0486      6.1316     63.0936     18.9014
   922.1000      7.8525      2.5692      0.0839      4.8952     64.6732     19.2053
   922.2000      7.8525      2.5744      0.0808      4.5814     66.4316     19.5356
   922.3000      7.8787      2.5602      0.0330      5.4438     67.5232     19.6105
   922.4000      7.8787      2.5380      0.0058      6.7871     67.4394     19.3321
   922.5000      7.8695      2.5168      0.0162      8.0725     67.1458     19.0093
   922.6000      7.8695      2.4993     -0.0230      9.1336     65.6761     18.9521
   922.7000      7.8695      2.4913      0.0071      9.6184     61.8518     19.0636
   922.8000      7.8717      2.4966      0.0117      9.2941     59.4325     19.1817
   922.9000      7.8717      2.5135      0.0083      8.2717     61.1483     19.3919
   923.0000      7.8783      2.5313      0.0411      7.1966     62.3227     19.7392
   923.1000      7.8783      2.5316      0.0658      7.1733     59.7875     20.1079
   923.2000      7.8783      2.5106      0.0166      8.4462     57.5529     20.2637
   923.3000      7.8593      2.4875     -0.0407      9.8459     59.3971     20.0692
   923.4000      7.8593      2.4821     -0.0368     10.1733     64.6404     19.8160
   923.5000      7.8581      2.4967     -0.0162      9.2937     69.7154     19.7767
   923.6000      7.8581      2.5165      0.0291      8.0936     70.7833     19.9804
   923.7000      7.8581      2.5190      0.0523      7.9386     68.5062     20.4031
   923.8000      7.8728      2.5028     -0.0184      8.9199     66.6602     20.5036
   923.9000      7.8728      2.4963     -0.0281      9.3131     66.9911     19.8433
   924.0000      7.8735      2.5164      0.0113      8.0977     69.2670     19.0504
   924.1000      7.8735      2.5467      0.0278      6.2614     69.8424     18.7670
   924.2000      7.8735      2.5541      0.1071      5.8150     64.1647     18.8498
   924.3000      7.8746      2.5308      0.0037      7.2262     54.6700     18.9978
   924.4000      7.8746      2.5120      0.0354      8.3630     50.1451     18.9927
   924.5000      7.8807      2.5230      0.0082      7.6999     53.3827     18.8053
   924.6000      7.8807      2.5464      0.0921      6.2795     59.1193     18.7081
   924.7000      7.8807      2.5557      0.0397      5.7178     62.6833     18.8255
   924.8000      7.8783      2.5468      0.0899      6.2532     61.4862     19.0813
   924.9000      7.8783      2.5237      0.0485      7.6516     57.7696     19.3225
   925.0000      7.8578      2.4941      0.0752      9.4471     55.7845     19.3546
   925.1000      7.8578      2.4704      0.0527     10.8828     54.9847     19.2139
   925.2000      7.8578      2.4637      0.0282     11.2934     54.7690     19.1977
   925.3000      7.8536      2.4761      0.0879     10.5379     56.0458     19.2377
   925.4000      7.8536      2.4991      0.0879      9.1454     58.6247     19.1153
   925.5000      7.8333      2.5220      0.1289      7.7597     60.5678     19.0618
   925.6000      7.8333      2.5352      0.1480      6.9556     59.1900     19.1285
   925.7000      7.8333      2.5418      0.0890      6.5558     56.3352     19.1084
   925.8000      7.8321      2.5578      0.0728      5.5856     56.6030     19.1576
   925.9000      7.8321      2.5778      0.1500      4.3746     59.4716     19.5038
   926.0000      7.8352      2.5777      0.1179      4.3843     60.9984     19.9745
   926.1000      7.8352      2.5579      0.1271      5.5790     61.4442     20.3829
   926.2000      7.8352      2.5414      0.0602      6.5803     62.1782     20.6295
   926.3000      7.8496      2.5361      0.0700      6.9026     63.3567     20.5988
   926.4000      7.8496      2.5254      0.0678      7.5488     66.7221     20.3925
   926.5000      7.8511      2.5034      0.0286      8.8839     71.6707     20.1571
   926.6000      7.8511      2.4916      0.0279      9.5974     75.2138     19.9476
   926.7000      7.8511      2.5013      0.0732      9.0106     74.3288     19.8135
   926.8000      7.8586      2.5227      0.0317      7.7177     67.4892     19.7919
   926.9000      7.8586      2.5413      0.0797      6.5886     60.6539     19.9343
   927.0000      7.8674      2.5382      0.0491      6.7783     60.0391     20.3753
   927.1000      7.8674      2.5044      0.0676      8.8221     63.0660     21.0360
   927.2000      7.8674      2.4566      0.0256     11.7231     65.7767     21.4760
   927.3000      7.8708      2.4317     -0.0621     13.2275     66.9110     21.5214
   927.4000      7.8708      2.4474      0.0189     12.2790     66.5864     21.4379
   927.5000      7.8846      2.4764      0.0473     10.5234     67.0448     21.1738
   927.6000      7.8846      2.4963      0.0115      9.3133     71.3581     20.6704
   927.7000      7.8846      2.5122      0.0738      8.3493     78.9628     20.3200
   927.8000      7.8641      2.5285      0.0379      7.3649     83.1870     20.3814
   927.9000      7.8641      2.5411      0.0980      6.5994     82.0642     20.6560
