~Version Information
VERS.                      2.0: CWLS Log ASCII Standard - VERSION 2.0
WRAP.                       NO: One line per depth step
~Well Information Block
STRT.FT               647.0000: 
STOP.FT              1167.5000: 
STEP.FT                 0.2500: 
NULL.                -999.2500: 
COMP.          Pioneer Natural Resources: COMPANY
WELL.             Linda T 32-3: WELL
FLD.           Purgatoire River: FIELD
LOC.           1350' FNL & 2290' FEL: LOCATION
PROV.                 Colorado: PROVINCE
CNTY.               Las Animas: COUNTRY
SRVC.                Patterson: SERVICE COMPANY
DATE.          Sat Feb 05 06:41:02 2005: LOG DATE
UWI.           05 071 08215 00: UNIQUE WELL ID
~Curve Information Block
DEPT.FT            0 000 00 00: Depth
SN.Ohm-m                      : IEL Short Normal
SP.mV                         : IEL Spontaneous Potential
DIR.Ohm-m                     : IEL Induction Resistivity
GR.GAPI                       : Gamma Ray
~Parameter Information Block
~A  Depth        SN          SP         DIR          GR     
# ...
   814.5000     21.9055     14.0907     18.7449     82.0669
   814.7500     22.1714     13.2306     18.9567     80.5299
   815.0000     22.3908     12.4843     19.2294     77.5085
   815.2500     22.5736     11.8539     19.5633     75.3102
   815.5000     22.7418     11.3241     19.9307     72.4188
   815.7500     22.8936     10.8660     20.2875     71.2061
   816.0000     23.0222     10.4527     20.5995     71.0486
   816.2500     23.1330     10.0712     20.8593     72.0567
   816.5000     23.2479      9.7237     21.0805     74.4111
   816.7500     23.4018      9.4192     21.2799     75.8379
   817.0000     23.6244      9.1688     21.4729     77.0768
   817.2500     23.9263      8.9845     21.6818     77.4020
   817.5000     24.3047      8.8747     21.9380     77.6256
   817.7500     24.7501      8.8328     22.2697     77.6535
   818.0000     25.2490      8.8330     22.6842     77.1519
   818.2500     25.7824      8.8447     23.1645     76.3238
   818.5000     26.3242      8.8555     23.6823     74.6986
   818.7500     26.8503      8.8847     24.2144     73.7186
   819.0000     27.3631      8.9765     24.7535     72.6162
   819.2500     27.8974      9.1791     25.3081     71.8566
   819.5000     28.5010      9.5241     25.8936     69.7183
   819.7500     29.2100     10.0179     26.5192     67.0608
   820.0000     30.0325     10.6484     27.1727     60.9839
   820.2500     30.9268     11.3970     27.8116     56.1186
   820.5000     31.7952     12.2489     28.3587     49.6602
   820.7500     32.5245     13.1976     28.7087     47.2134
   821.0000     33.0335     14.2444     28.7470     47.4125
   821.2500     33.2747     15.3958     28.3803     49.6284
   821.5000     33.2218     16.6565     27.5756     53.7217
   821.7500     32.8833     18.0197     26.3863     55.5835
   822.0000     32.3015     19.4577     24.9507     56.2718
   822.2500     31.5119     20.9245     23.4509     55.9520
   822.5000     30.5077     22.3789     22.0512     56.2439
   822.7500     29.2220     23.8169     20.8463     57.8184
   823.0000     27.5340     25.2754     19.8423     62.3546
   823.2500     25.3873     26.7921     18.9772     66.1393
   823.5000     22.9581     28.3528     18.1715     71.4584
   823.7500     20.6085     29.8750     17.3802     74.3265
   824.0000     18.6267     31.2422     16.6084     78.0132
   824.2500     17.0858     32.3625     15.8811     80.6451
   824.5000     15.9337     33.2137     15.2054     85.3526
   824.7500     15.1120     33.8495     14.5620     88.6348
   825.0000     14.5750     34.3667     13.9231     92.4959
   825.2500     14.2617     34.8584     13.2770     93.8773
   825.5000     14.0771     35.3807     12.6349     94.5327
   825.7500     13.9311     35.9470     12.0211     94.7420
   826.0000     13.7946     36.5412     11.4582     95.7818
   826.2500     13.6665     37.1333     10.9589     97.1367
   826.5000     13.5132     37.6913     10.5267     99.8654
   826.7500     13.2878     38.1889     10.1580    101.9168
   827.0000     12.9562     38.6118      9.8454    105.0962
   827.2500     12.4944     38.9598      9.5773    107.1280
   827.5000     11.9146     39.2455      9.3382    109.5967
   827.7500     11.2877     39.4889      9.1101    110.5938
   828.0000     10.7068     39.7073      8.8760    110.9504
   828.2500     10.2260     39.9041      8.6252    110.4691
   828.5000      9.8417     40.0683      8.3579    108.7294
   828.7500      9.5328     40.1877      8.0847    106.9163
   829.0000      9.2959     40.2658      7.8215    103.4925
   829.2500      9.1315     40.3196      7.5824    101.1559
   829.5000      9.0299     40.3598      7.3763     98.6323
   829.7500      8.9738     40.3788      7.2081     98.1643
   830.0000      8.9309     40.3571      7.0821     99.4516
   830.2500      8.8631     40.2809      7.0032    101.1341
   830.5000      8.7570     40.1538      6.9762    103.6322
   830.7500      8.6354     39.9983      7.0022    104.7952
   831.0000      8.5430     39.8474      7.0777    105.6375
   831.2500      8.5274     39.7323      7.1954    105.6890
   831.5000      8.6178     39.6718      7.3470    104.9687
   831.7500      8.8112     39.6670      7.5264    103.7304
   832.0000      9.0797     39.7008      7.7306    100.3804
   832.2500      9.3867     39.7448      7.9598     97.3935
   832.5000      9.7035     39.7695      8.2167     93.2328
   832.7500     10.0397     39.7536      8.5072     91.6365
   833.0000     10.4604     39.6911      8.8411     91.5689
   833.2500     11.0534     39.5948      9.2320     92.4974
   833.5000     11.8620     39.4908      9.6967     93.3802
   833.7500     12.8515     39.4043     10.2533     92.5149
   834.0000     13.9428     39.3473     10.9182     88.2683
   834.2500     15.0737     39.3175     11.7028     83.9095
   834.5000     16.2409     39.2987     12.6087     76.6868
   834.7500     17.4967     39.2603     13.6260     72.2028
   835.0000     18.8861     39.1624     14.7342     66.5249
   835.2500     20.3683     38.9718     15.9049     63.4702
   835.5000     21.8176     38.6778     17.1030     59.9255
   835.7500     23.1107     38.2957     18.2820     58.1620
   836.0000     24.1811     37.8568     19.3779     56.2260
   836.2500     24.9994     37.3922     20.3108     55.4186
   836.5000     25.5635     36.9157     21.0019     55.2146
   836.7500     25.9031     36.4107     21.4004     55.9228
   837.0000     26.0469     35.8270     21.5033     58.3298
   837.2500     25.9946     35.0937     21.3514     60.7558
   837.5000     25.7464     34.1478     21.0065     65.4322
   837.7500     25.3225     32.9652     20.5281     69.1302
   838.0000     24.7509     31.5791     19.9616     75.2413
   838.2500     24.0694     30.0722     19.3380     79.3985
   838.5000     23.3134     28.5456     18.6791     85.3021
   838.7500     22.4972     27.0819     18.0032     88.9476
   839.0000     21.6292     25.7296     17.3293     94.0490
   839.2500     20.7258     24.5168     16.6764     97.0943
   839.5000     19.7942     23.4705     16.0584    100.5710
   839.7500     18.8233     22.6212     15.4794    101.8910
   840.0000     17.8062     21.9942     14.9339    102.4610
   840.2500     16.7789     21.6027     14.4149    102.1666
   840.5000     15.8256     21.4435     13.9247    100.9657
   840.7500     15.0133     21.4964     13.4785     99.5840
   841.0000     14.3238     21.7301     13.0988     96.4751
   841.2500     13.6887     22.1093     12.8041     93.7979
   841.5000     13.0982     22.5965     12.6002     89.3721
   841.7500     12.6588     23.1495     12.4804     86.5059
   842.0000     12.5342     23.7182     12.4321     82.8862
   842.2500     12.8134     24.2458     12.4450     81.2536
   842.5000     13.4187     24.6758     12.5152     80.5567
   842.7500     14.1455     24.9638     12.6434     81.3675
   843.0000     14.7930     25.0880     12.8283     83.7522
   843.2500     15.2786     25.0526     13.0635     85.2208
   843.5000     15.6561     24.8846     13.3365     85.7810
   843.7500     16.0247     24.6249     13.6317     84.7398
   844.0000     16.4411     24.3189     13.9328     81.5970
   844.2500     16.9212     24.0065     14.2255     79.0917
   844.5000     17.4637     23.7160     14.5003     75.7559
   844.7500     18.0563     23.4612     14.7518     74.2908
   845.0000     18.6736     23.2412     14.9729     73.8768
   845.2500     19.2505     23.0478     15.1514     74.9071
   845.5000     19.6705     22.8783     15.2746     77.8038
   845.7500     19.8649     22.7436     15.3404     79.9491
   846.0000     19.8917     22.6635     15.3605     82.6118
   846.2500     19.8328     22.6542     15.3494     84.0413
   846.5000     19.7019     22.7154     15.3103     86.3597
   846.7500     19.4913     22.8267     15.2305     88.2391
   847.0000     19.2151     22.9559     15.0946     90.7373
   847.2500     18.8946     23.0789     14.9036     91.2207
   847.5000     18.5379     23.1989     14.6856     89.3663
   847.7500     18.1449     23.3504     14.4883     87.1301
