~Version Information
VERS.                      2.0: CWLS Log ASCII Standard - VERSION 2.0
WRAP.                       NO: One line per depth step
~Well Information Block
STRT.FT                -6.7500: 
STOP.FT              2058.2500: 
STEP.FT                 0.2500: 
NULL.                -999.2500: 
COMP.          Petrogulf Corporation: COMPANY
WELL.           Schedler 9-23R: WELL
FLD.           Purgatorie River: FIELD
LOC.           2084' FSL & 2331' FWL--: LOCATION
PROV.                       CO: PROVINCE
CNTY.               Las Animas: COUNTRY
SRVC.                         : SERVICE COMPANY
DATE.          Fri Nov 12 13:22:46 2004: LOG DATE
UWI.       005 071 08040 : UNIQUE WELL ID
~Curve Information Block
DEPT.FT            0 000 00 00: Depth
GR.GAPI                       : Gamma Ray
CCL.                          : Casing Collar Locator
TT3.usec                      : CBL 3' Travel Time
AMP3.mV                       : CBL 3' Amplitude
~Parameter Information Block
~A  Depth        GR         CCL         TT3         AMP3    
# ...
  2036.7500    108.7051      0.0000    721.7781      6.8842
  2037.0000    110.0141      0.0000    716.1612      7.0257
  2037.2500    114.8287      0.0000    714.0228      7.2197
  2037.5000    121.1434      0.0000    716.9158      7.5055
  2037.7500    125.8033      0.0000    723.3411      7.8867
  2038.0000    126.8827      0.0000    729.9736      8.3182
  2038.2500    125.0290      0.0000    733.6425      8.7381
  2038.5000    122.3675      0.0000    731.8715      9.1187
  2038.7500    120.3090      0.0000    721.8691      9.4838
  2039.0000    118.9062      0.0000    700.1320      9.8681
  2039.2500    118.0681      0.0000    664.6260     10.2621
  2039.5000    118.1972      0.0000    618.5462     10.6013
  2039.7500    119.2797      0.0000    571.3472     10.8100
  2040.0000    120.2671      0.0000    534.0581     10.8541
  2040.2500    119.8448      0.0000    512.7895     10.7528
  2040.5000    117.5207      0.0000    507.7126     10.5466
  2040.7500    114.0029      0.0000    517.8120     10.2578
  2041.0000    110.7785      0.0000    543.7693      9.8887
  2041.2500    109.1557      0.0000    584.5209      9.4557
  2041.5000    109.4921      0.0000    632.7979      9.0122
  2041.7500    111.3134      0.0000    676.8791      8.6270
  2042.0000    113.8679      0.0000    707.2014      8.3388
  2042.2500    116.5487      0.0000    720.0420      8.1424
  2042.5000    119.3070      0.0000    715.6285      8.0143
  2042.7500    122.6797      0.0000    695.7781      7.9467
  2043.0000    126.7472      0.0000    665.2786      7.9527
  2043.2500    130.1025      0.0000    633.3821      8.0437
  2043.5000    130.7893      0.0000    609.6130      8.2050
  2043.7500    128.7305      0.0000    596.4243      8.3875
  2044.0000    126.4506      0.0000    588.0533      8.5255
  2044.2500    126.5495      0.0000    578.0392      8.5809
  2044.5000    129.0262      0.0000    566.1443      8.5864
  2044.7500    131.8988      0.0000    557.0244      8.6375
  2045.0000    133.8289      0.0000    553.7663      8.8176
  2045.2500    135.0810      0.0000    552.8707      9.0991
  2045.5000    136.2290      0.0000    542.8466      9.2722
  2045.7500    137.0614      0.0000    507.5517      8.9524
  2046.0000    136.9107      0.0000    435.6606      7.7492
  2046.2500    135.4993      0.0000    331.6081      5.5837
  2046.5000    133.4276      0.0000    217.2856      2.8874
  2046.7500    132.0451      0.0000    119.6418      0.3868
  2047.0000    132.6345      0.0000     54.3131     -1.3829
  2047.2500    135.2829      0.0000     20.0302     -2.3482
  2047.5000    138.4227      0.0000      5.9330     -2.7558
  2047.7500    139.6454      0.0000      1.3976     -2.8893
  2048.0000    137.2966      0.0000      0.2564     -2.9233
  2048.2500    131.5690      0.0000   -999.2500   -999.2500
  2048.5000    124.0532      0.0000   -999.2500   -999.2500
  2048.7500    116.4228      0.0000   -999.2500   -999.2500
  2049.0000    110.0787      0.0000   -999.2500   -999.2500
  2049.2500    106.6403      0.0000   -999.2500   -999.2500
  2049.5000    107.4259      0.0000   -999.2500   -999.2500
  2049.7500    112.0178      0.0000   -999.2500   -999.2500
  2050.0000    118.1705      0.0000   -999.2500   -999.2500
  2050.2500    123.4413      0.0000   -999.2500   -999.2500
  2050.5000    126.4257      0.0000   -999.2500   -999.2500
  2050.7500    126.8524      0.0000   -999.2500   -999.2500
  2051.0000    125.5140      0.0000   -999.2500   -999.2500
  2051.2500    123.9549      0.0000   -999.2500   -999.2500
  2051.5000    123.4919      0.0000   -999.2500   -999.2500
  2051.7500    124.4242      0.0000   -999.2500   -999.2500
  2052.0000    126.3530      0.0000   -999.2500   -999.2500
  2052.2500    129.0286      0.0000   -999.2500   -999.2500
  2052.5000    132.5539      0.0000   -999.2500   -999.2500
  2052.7500    136.8847      0.0000   -999.2500   -999.2500
  2053.0000    141.5494      0.0000   -999.2500   -999.2500
  2053.2500    146.0140      0.0000   -999.2500   -999.2500
  2053.5000    149.9419      0.0000   -999.2500   -999.2500
  2053.7500    152.6539      0.0000   -999.2500   -999.2500
  2054.0000    152.5323   -999.2500   -999.2500   -999.2500
  2054.2500    147.8034   -999.2500   -999.2500   -999.2500
  2054.5000    138.4899   -999.2500   -999.2500   -999.2500
  2054.7500    127.4293   -999.2500   -999.2500   -999.2500
  2055.0000    118.7923   -999.2500   -999.2500   -999.2500
  2055.2500    115.0214   -999.2500   -999.2500   -999.2500
  2055.5000    114.5406   -999.2500   -999.2500   -999.2500
  2055.7500    112.0625   -999.2500   -999.2500   -999.2500
  2056.0000    101.7822   -999.2500   -999.2500   -999.2500
  2056.2500     81.7644   -999.2500   -999.2500   -999.2500
  2056.5000     56.0442   -999.2500   -999.2500   -999.2500
  2056.7500     31.9472   -999.2500   -999.2500   -999.2500
  2057.0000     14.8725   -999.2500   -999.2500   -999.2500
  2057.2500      5.5819   -999.2500   -999.2500   -999.2500
  2057.5000      1.6733   -999.2500   -999.2500   -999.2500
  2057.7500      0.3974   -999.2500   -999.2500   -999.2500
  2058.0000      0.0738   -999.2500   -999.2500   -999.2500
  2058.2500      0.0098   -999.2500   -999.2500   -999.2500
