~Version Information
VERS.                      2.0: CWLS Log ASCII Standard - VERSION 2.0
WRAP.                       NO: One line per depth step
~Well Information Block
STRT.FT                -8.8000: 
STOP.FT              2006.2000: 
STEP.FT                 0.1000: 
NULL.                -999.2500: 
COMP.          Petrogulf Corporation: COMPANY
WELL.             J & P 12-33V: WELL
FLD.           Purgatorie River: FIELD
LOC.           2005' FSL & 1928' FEL: LOCATION
CNTY.               Las Animas: COUNTY
SRVC.                         : SERVICE COMPANY
DATE.          Fri Jul 29 13:37:28 2005: LOG DATE
UWI.                          : UNIQUE WELL ID
STAT.                 Colorado: STATE
~Curve Information Block
DEPT.FT            0 000 00 00: Depth
GR.GAPI                       : Gamma Ray
CCL.                          : Casing Collar Locator
TT3.usec                      : CBL 3' Travel Time
AMP3.mV                       : CBL 3' Amplitude
~Parameter Information Block
~A  Depth        GR         CCL         TT3         AMP3    
# ...
  1719.8000    161.8299      0.0000    255.9001     74.8294
  1719.9000    161.8299      0.0000    255.9001     74.8294
  1720.0000    164.5502      0.0000    255.9126     74.7369
  1720.1000    164.5502      0.0000    255.9126     74.7369
  1720.2000    164.5502      0.0000    255.9126     74.7369
  1720.3000    165.7090      0.0000    255.9419     74.5974
  1720.4000    165.7090      0.0000    255.9419     74.5974
  1720.5000    164.0466      0.0000    255.9812     74.4631
  1720.6000    164.0466      0.0000    255.9812     74.4631
  1720.7000    164.0466      0.0000    255.9812     74.4631
  1720.8000    158.8170      0.0000    256.0213     74.3786
  1720.9000    158.8170      0.0000    256.0213     74.3786
  1721.0000    150.6540      0.0000    256.0529     74.3501
  1721.1000    150.6540      0.0000    256.0529     74.3501
  1721.2000    150.6540      0.0000    256.0529     74.3501
  1721.3000    140.9407      0.0000    256.0741     74.3837
  1721.4000    140.9407      0.0000    256.0741     74.3837
  1721.5000    130.9967      0.0000    256.0903     74.5148
  1721.6000    130.9967      0.0000    256.0903     74.5148
  1721.7000    130.9967      0.0000    256.0903     74.5148
  1721.8000    122.1969      0.0000    256.1038     74.7169
  1721.9000    122.1969      0.0000    256.1038     74.7169
  1722.0000    116.1208      0.0000    256.1080     74.8590
  1722.1000    116.1208      0.0000    256.1080     74.8590
  1722.2000    116.1208      0.0000    256.1080     74.8590
  1722.3000    113.6477      0.0000    256.0972     74.8556
  1722.4000    113.6477      0.0000    256.0972     74.8556
  1722.5000    113.9373      0.0000    256.0725     74.7742
  1722.6000    113.9373      0.0000    256.0725     74.7742
  1722.7000    113.9373      0.0000    256.0725     74.7742
  1722.8000    114.9381      0.0000    256.0402     74.7171
  1722.9000    114.9381      0.0000    256.0402     74.7171
  1723.0000    115.1601      0.0000    256.0139     74.6676
  1723.1000    115.1601      0.0000    256.0139     74.6676
  1723.2000    115.1601      0.0000    256.0139     74.6676
  1723.3000    114.7041      0.0000    256.0087     74.5437
  1723.4000    114.7041      0.0000    256.0087     74.5437
  1723.5000    114.5159      0.0000    256.0285     74.3500
  1723.6000    114.5159      0.0000    256.0285     74.3500
  1723.7000    114.5159      0.0000    256.0285     74.3500
  1723.8000    115.1635      0.0000    256.0673     74.1548
  1723.9000    115.1635      0.0000    256.0673     74.1548
  1724.0000    116.8642      0.0000    256.1129     73.9843
  1724.1000    116.8642      0.0000    256.1129     73.9843
  1724.2000    116.8642      0.0000    256.1129     73.9843
  1724.3000    120.3995      0.0000    256.1526     73.8249
  1724.4000    120.3995      0.0000    256.1526     73.8249
  1724.5000    127.0377      0.0000    256.1824     73.6530
  1724.6000    127.0377      0.0000    256.1824     73.6530
  1724.7000    127.0377      0.0000    256.1824     73.6530
  1724.8000    137.0352      0.0000    256.1997     73.4701
  1724.9000    137.0352      0.0000    256.1997     73.4701
  1725.0000    148.6672      0.0000    256.1990     73.3321
  1725.1000    148.6672      0.0000    256.1990     73.3321
  1725.2000    148.6672      0.0000    256.1990     73.3321
  1725.3000    159.1789      0.0000    256.1897     73.2486
  1725.4000    159.1789      0.0000    256.1897     73.2486
  1725.5000    166.4596      0.0000    256.1948     73.1257
  1725.6000    166.4596      0.0000    256.1948     73.1257
  1725.7000    166.4596      0.0000    256.1948     73.1257
  1725.8000    169.6747      0.0000    256.2230     72.9204
  1725.9000    169.6747      0.0000    256.2230     72.9204
  1726.0000    169.0196      0.0000    256.2585     72.7154
  1726.1000    169.0196      0.0000    256.2585     72.7154
  1726.2000    169.0196      0.0000    256.2585     72.7154
  1726.3000    165.6419      0.0000    256.2815     72.5838
  1726.4000    165.6419      0.0000    256.2815     72.5838
  1726.5000    161.5279      0.0000    256.2842     72.5261
  1726.6000    161.5279      0.0000    256.2842     72.5261
  1726.7000    161.5279      0.0000    256.2842     72.5261
  1726.8000    158.6603      0.0000    256.2620     72.5752
  1726.9000    158.6603      0.0000    256.2620     72.5752
  1727.0000    157.9679      0.0000    256.2103     72.7771
  1727.1000    157.9679      0.0000    256.2103     72.7771
  1727.2000    157.9679      0.0000    256.2103     72.7771
  1727.3000    159.1063      0.0000    256.1479     72.9630
  1727.4000    159.1063      0.0000    256.1479     72.9630
  1727.5000    161.0980      0.0000    256.1158     72.8063
  1727.6000    161.0980      0.0000    256.1158     72.8063
  1727.7000    161.0980      0.0000    256.1158     72.8063
  1727.8000    162.9834      0.0000    256.1358     72.2611
  1727.9000    162.9834      0.0000    256.1358     72.2611
  1728.0000    164.0402      0.0000    256.1857     71.6533
  1728.1000    164.0402      0.0000    256.1857     71.6533
  1728.2000    164.0402      0.0000    256.1857     71.6533
  1728.3000    163.8942      0.0000    256.2251     71.2392
  1728.4000    163.8942      0.0000    256.2251     71.2392
  1728.5000    162.5889      0.0000    256.2418     70.9634
  1728.6000    162.5889      0.0000    256.2418     70.9634
  1728.7000    162.5889      0.0000    256.2418     70.9634
  1728.8000    160.3112      0.0000    256.2561     70.6887
  1728.9000    160.3112      0.0000    256.2561     70.6887
  1729.0000    157.1252      0.0000    256.2818     70.4078
  1729.1000    157.1252      0.0000    256.2818     70.4078
  1729.2000    157.1252      0.0000    256.2818     70.4078
  1729.3000    153.1034      0.0000    256.3119     70.2029
  1729.4000    153.1034      0.0000    256.3119     70.2029
  1729.5000    148.4574      0.0000    256.3354     70.1616
  1729.6000    148.4574      0.0000    256.3354     70.1616
  1729.7000    148.4574      0.0000    256.3354     70.1616
  1729.8000    143.4279      0.0000    256.3410     70.2938
  1729.9000    143.4279      0.0000    256.3410     70.2938
  1730.0000    138.3643      0.0000    256.3344     70.3715
  1730.1000    138.3643      0.0000    256.3344     70.3715
  1730.2000    138.3643      0.0000    256.3344     70.3715
  1730.3000    133.9682      0.0000    256.3517     69.9426
  1730.4000    133.9682      0.0000    256.3517     69.9426
  1730.5000    131.1329      0.0000    256.3952     68.7498
  1730.6000    131.1329      0.0000    256.3952     68.7498
  1730.7000    131.1329      0.0000    256.3952     68.7498
  1730.8000    130.4601      0.0000    256.4068     67.0713
  1730.9000    130.4601      0.0000    256.4068     67.0713
  1731.0000    131.8709      0.0000    256.4004     65.3898
  1731.1000    131.8709      0.0000    256.4004     65.3898
  1731.2000    131.8709      0.0000    256.4004     65.3898
  1731.3000    134.4441      0.0000    256.4843     63.7984
  1731.4000    134.4441      0.0000    256.4843     63.7984
  1731.5000    136.7513      0.0000    256.6837     61.9945
  1731.6000    136.7513      0.0000    256.6837     61.9945
  1731.7000    136.7513      0.0000    256.6837     61.9945
  1731.8000    137.8016      0.0000    256.9188     59.8220
  1731.9000    137.8016      0.0000    256.9188     59.8220
  1732.0000    137.6616      0.0000    257.1315     57.5980
  1732.1000    137.6616      0.0000    257.1315     57.5980
  1732.2000    137.6616      0.0000    257.1315     57.5980
  1732.3000    137.0486      0.0000    257.3199     55.7687
  1732.4000    137.0486      0.0000    257.3199     55.7687
  1732.5000    136.5997      0.0000    257.5490     54.3004
  1732.6000    136.5997      0.0000    257.5490     54.3004
  1732.7000    136.5997      0.0000    257.5490     54.3004
  1732.8000    136.4866      0.0000    258.0852     52.6985
  1732.9000    136.4866      0.0000    258.0852     52.6985
  1733.0000    136.1877      0.0000    259.8092     50.5944
  1733.1000    136.1877      0.0000    259.8092     50.5944
