~Version Information
VERS.                      2.0: CWLS Log ASCII Standard - VERSION 2.0
WRAP.                       NO: One line per depth step
~Well Information Block
STRT.FT               555.6000: 
STOP.FT              2132.0000: 
STEP.FT                 0.1000: 
NULL.                -999.2500: 
COMP.          Petrogulf Corporation: COMPANY
WELL.           Montoya 12-41R: WELL
FLD.           Purgatorie River: FIELD
LOC.           1086' FNL & 610' FEL: LOCATION
CNTY.               Las Animas: COUNTY
SRVC.                         : SERVICE COMPANY
DATE.          Thu Nov 18 08:45:51 2004: LOG DATE
UWI.           05 071 08241 00: UNIQUE WELL ID
STAT.                 Colorado: STATE
~Curve Information Block
DEPT.FT            0 000 00 00: Depth
DCAL.in                       : CDL Caliper
RHOB.g/cc                     : CDL Bulk Density
RHOC.g/cc                     : CDL Density Correction
DPOR.pu                       : CDL Density Porosity
GR.GAPI                       : Gamma Ray
NPOR.pu                       : Neutron Porosity
~Parameter Information Block
~A  Depth       DCAL        RHOB        RHOC        DPOR         GR         NPOR    
# ...
  1707.6000      7.9251      2.5453      0.0306      6.3445    134.2567     22.7825
  1707.7000      7.9251      2.5467      0.0373      6.2587    136.0587     23.7257
  1707.8000      7.9095      2.5455      0.0319      6.3319    140.9714     24.6028
  1707.9000      7.9095      2.5444      0.0559      6.4028    143.0529     25.4340
  1708.0000      7.8722      2.5472      0.0502      6.2296    141.6767     25.5230
  1708.1000      7.8722      2.5564      0.0911      5.6748    139.0215     24.8300
  1708.2000      7.8722      2.5687      0.0579      4.9275    135.1258     24.1685
  1708.3000      7.8445      2.5768      0.1046      4.4353    133.9664     23.8988
  1708.4000      7.8445      2.5725      0.0736      4.6993    136.3833     24.2562
  1708.5000      7.8398      2.5600      0.0548      5.4567    139.1817     25.1384
  1708.6000      7.8398      2.5539      0.0696      5.8267    142.3460     25.9247
  1708.7000      7.8398      2.5580      0.0718      5.5774    146.1138     26.0033
  1708.8000      7.8444      2.5663      0.0647      5.0749    146.9799     25.4071
  1708.9000      7.8444      2.5741      0.0771      4.6021    144.2450     25.1881
  1709.0000      7.8451      2.5763      0.0812      4.4646    143.0516     25.5877
  1709.1000      7.8451      2.5687      0.0659      4.9259    145.3931     25.7961
  1709.2000      7.8451      2.5530      0.0441      5.8792    147.0805     25.4239
  1709.3000      7.8424      2.5382      0.0232      6.7743    147.0514     24.5816
  1709.4000      7.8424      2.5336      0.0376      7.0551    149.4067     23.8783
  1709.5000      7.8409      2.5377      0.0558      6.8074    152.9400     23.9714
  1709.6000      7.8409      2.5405      0.0597      6.6385    155.0089     24.8064
  1709.7000      7.8409      2.5389      0.0454      6.7320    155.7566     25.5701
  1709.8000      7.8394      2.5358      0.0250      6.9234    153.4164     25.8253
  1709.9000      7.8394      2.5291      0.0489      7.3258    152.0410     25.8629
  1710.0000      7.8348      2.5225      0.0218      7.7262    157.7782     25.7356
  1710.1000      7.8348      2.5249      0.0341      7.5803    167.3657     25.7332
  1710.2000      7.8348      2.5307      0.0565      7.2320    170.0691     25.9805
  1710.3000      7.8353      2.5253      0.0466      7.5573    165.2092     26.0014
  1710.4000      7.8353      2.5068      0.0637      8.6795    164.4903     26.0346
  1710.5000      7.8472      2.4865      0.0218      9.9107    170.3495     26.5365
  1710.6000      7.8472      2.4742      0.0326     10.6519    176.6906     27.0573
  1710.7000      7.8472      2.4660      0.0532     11.1504    183.0629     27.5449
  1710.8000      7.8816      2.4546      0.0343     11.8418    188.4395     28.3678
  1710.9000      7.8816      2.4403      0.0389     12.7100    187.4820     28.6907
  1711.0000      7.9389      2.4232      0.0386     13.7460    178.7724     27.9465
  1711.1000      7.9389      2.4055      0.0187     14.8209    165.7899     27.0633
  1711.2000      7.9389      2.3765      0.0834     16.5734    154.1465     26.8750
  1711.3000      7.9713      2.3067      0.0555     20.8088    148.1861     27.7265
  1711.4000      7.9713      2.1935      0.0090     27.6694    143.7235     29.4407
  1711.5000      7.9530      2.0774     -0.0708     34.7007    137.1186     30.8090
  1711.6000      7.9530      1.9978     -0.0737     39.5278    133.4630     31.4941
  1711.7000      7.9530      1.9585     -0.0585     41.9073    134.3407     31.8073
  1711.8000      7.9277      1.9516     -0.0727     42.3296    132.9984     31.5376
  1711.9000      7.9277      1.9791     -0.0232     40.6611    127.0129     31.0091
  1712.0000      7.9270      2.0389      0.0615     37.0377    121.9722     30.8178
  1712.1000      7.9270      2.1157      0.1363     32.3802    120.4575     30.8820
  1712.2000      7.9270      2.1966      0.2179     27.4775    122.7748     30.6496
  1712.3000      7.9545      2.2856      0.2285     22.0835    129.1817     29.9905
  1712.4000      7.9545      2.3857      0.2417     16.0208    134.5150     29.4441
  1712.5000      7.9661      2.4706      0.1842     10.8749    133.8842     29.2536
  1712.6000      7.9661      2.5128      0.0950      8.3172    131.3274     28.9040
  1712.7000      7.9661      2.5177      0.0573      8.0164    131.8452     27.9424
  1712.8000      7.9328      2.5054      0.0561      8.7654    136.8456     26.7237
  1712.9000      7.9328      2.4887      0.0469      9.7740    146.5359     25.9178
  1713.0000      7.9082      2.4812     -0.0023     10.2313    157.3658     25.7085
  1713.1000      7.9082      2.4904      0.0495      9.6715    164.9783     25.6669
  1713.2000      7.9082      2.5044      0.0782      8.8272    165.9383     25.4127
  1713.3000      7.9068      2.5163      0.0460      8.1003    160.1064     25.3743
  1713.4000      7.9068      2.5305      0.0682      7.2419    153.3701     25.7162
  1713.5000      7.9071      2.5396      0.0788      6.6885    149.8764     25.9481
  1713.6000      7.9071      2.5427      0.0202      6.5060    151.8056     26.0953
  1713.7000      7.9071      2.5518      0.0528      5.9500    159.3708     26.6598
  1713.8000      7.9036      2.5619      0.0971      5.3379    163.8672     27.8388
  1713.9000      7.9036      2.5555      0.0835      5.7298    158.7894     29.1488
  1714.0000      7.9049      2.5406      0.0143      6.6288    149.2133     29.7727
  1714.1000      7.9049      2.5438      0.0175      6.4363    142.5064     29.2772
  1714.2000      7.9049      2.5608      0.0583      5.4079    143.0156     28.4187
  1714.3000      7.9200      2.5641      0.0611      5.2033    150.3241     28.2262
  1714.4000      7.9200      2.5477      0.0422      6.1983    160.5741     28.5589
  1714.5000      7.9456      2.5300      0.0278      7.2754    170.3645     28.4477
  1714.6000      7.9456      2.5299      0.0286      7.2781    173.2646     27.5713
  1714.7000      7.9456      2.5437      0.0603      6.4423    165.8388     26.6388
  1714.8000      7.9515      2.5494      0.0795      6.0973    158.0419     26.4103
  1714.9000      7.9515      2.5417      0.0284      6.5628    158.4656     26.5022
  1715.0000      7.9321      2.5368      0.0231      6.8625    161.8945     26.1980
  1715.1000      7.9321      2.5458      0.0445      6.3154    162.5981     25.9344
  1715.2000      7.9321      2.5676      0.0396      4.9956    161.0769     26.0349
  1715.3000      7.9180      2.5916      0.0599      3.5421    157.3763     25.7376
  1715.4000      7.9180      2.6045      0.0808      2.7566    151.6691     25.2289
  1715.5000      7.9162      2.6049      0.0689      2.7326    146.0413     25.6505
  1715.6000      7.9162      2.5995      0.0863      3.0635    141.7367     26.8166
  1715.7000      7.9162      2.5907      0.0602      3.5945    139.1289     27.6289
  1715.8000      7.9173      2.5818      0.0722      4.1329    139.6167     27.4399
  1715.9000      7.9173      2.5738      0.0630      4.6178    144.9988     26.6147
  1716.0000      7.9199      2.5642      0.0518      5.1974    152.8041     25.7543
  1716.1000      7.9199      2.5562      0.0489      5.6850    157.4603     24.9841
  1716.2000      7.9199      2.5563      0.0283      5.6758    153.2397     24.3572
  1716.3000      7.9171      2.5687      0.0252      4.9252    141.3947     23.7894
  1716.4000      7.9171      2.5878      0.0462      3.7719    131.8756     23.4780
  1716.5000      7.9003      2.5976      0.0604      3.1755    128.5973     23.5617
  1716.6000      7.9003      2.5860      0.0878      3.8767    127.0472     23.4994
  1716.7000      7.9003      2.5621      0.0208      5.3257    123.3234     23.0143
  1716.8000      7.8681      2.5546      0.0131      5.7840    116.8829     22.3171
  1716.9000      7.8681      2.5773      0.0390      4.4046    110.4922     21.5769
  1717.0000      7.8344      2.6091      0.1082      2.4764    104.7140     21.1451
  1717.1000      7.8344      2.6295      0.0704      1.2448     96.0377     21.4675
