~Version Information
VERS.                      2.0: CWLS Log ASCII Standard - VERSION 2.0
WRAP.                       NO: One line per depth step
~Well Information Block
STRT.FT               750.6000: 
STOP.FT              2495.5000: 
STEP.FT                 0.1000: 
NULL.                -999.2500: 
COMP.                         : COMPANY
WELL.                         : WELL
FLD.                          : FIELD
LOC.                          : LOCATION
CNTY.                         : COUNTY
SRVC.                         : SERVICE COMPANY
DATE.          Sat Feb 28 14:05:57 2004: LOG DATE
UWI.                          : UNIQUE WELL ID
STAT.                         : STATE
~Curve Information Block
DEPT.FT            0 000 00 00: Depth
DCAL.in                       : CDL Caliper
RHOB.g/cc                     : CDL Bulk Density
RHOC.g/cc                     : CDL Density Correction
DPOR.pu                       : CDL Density Porosity
GR.GAPI                       : Gamma Ray
NPOR.pu                       : Neutron Porosity
~Parameter Information Block
~A  Depth       DCAL        RHOB        RHOC        DPOR         GR         NPOR    
# ...
  1576.2000      8.0427      2.5866      0.0627      3.8425    163.8289     27.7884
  1576.3000      8.0492      2.6272      0.0859      1.3795    156.0239     27.2854
  1576.4000      8.0492      2.6487      0.1314      0.0802    155.1569     26.5319
  1576.5000      8.0631      2.6410      0.1363      0.5447    159.8152     25.8757
  1576.6000      8.0631      2.6263      0.1281      1.4378    162.9194     25.2178
  1576.7000      8.0631      2.6115      0.1538      2.3360    157.6936     24.8844
  1576.8000      8.0646      2.5951      0.0619      3.3286    146.7266     25.1496
  1576.9000      8.0646      2.6002     -0.0155      3.0205    138.0627     25.5899
  1577.0000      8.0348      2.6310      0.1200      1.1511    133.1972     25.7425
  1577.1000      8.0348      2.6504      0.1341     -0.0228    128.8589     25.7153
  1577.2000      8.0348      2.6539      0.0282     -0.2364    123.8943     25.2853
  1577.3000      8.0232      2.6687      0.1224     -1.1357    118.8360     24.1093
  1577.4000      8.0232      2.6836      0.1176     -2.0368    112.9817     22.7939
  1577.5000      8.0138      2.6642      0.1648     -0.8588    104.7762     22.4293
  1577.6000      8.0138      2.6140      0.0218      2.1809     94.3934     23.1757
  1577.7000      8.0138      2.5769      0.0054      4.4276     85.1693     23.9941
  1577.8000      8.0172      2.5655      0.1260      5.1194     78.9579     23.9853
  1577.9000      8.0172      2.5596      0.0171      5.4787     72.7542     23.0443
  1578.0000      8.0110      2.5671      0.0007      5.0253     64.2716     21.5001
  1578.1000      8.0110      2.5911      0.0784      3.5703     57.0601     19.9722
  1578.2000      8.0110      2.6059      0.0531      2.6698     54.3839     18.9650
  1578.3000      8.0065      2.6073      0.0462      2.5896     53.8977     18.3028
  1578.4000      8.0065      2.6119      0.0713      2.3115     54.3061     17.8068
  1578.5000      8.0061      2.6254      0.1128      1.4915     56.7827     17.9065
  1578.6000      8.0061      2.6328      0.1039      1.0410     59.7367     18.8097
  1578.7000      8.0061      2.6238      0.0425      1.5888     60.5433     19.5569
  1578.8000      8.0060      2.6038      0.0982      2.7980     60.8419     19.3119
  1578.9000      8.0060      2.5871     -0.0509      3.8106     61.9622     18.3470
  1579.0000      8.0001      2.5951      0.0515      3.3298     60.4733     17.4174
  1579.1000      8.0001      2.6237      0.0480      1.5914     57.6765     17.2579
  1579.2000      8.0001      2.6421      0.1188      0.4791     60.5023     17.5421
  1579.3000      8.0085      2.6338      0.0254      0.9792     68.2494     17.5476
  1579.4000      8.0085      2.6140      0.0301      2.1825     72.9456     17.6353
  1579.5000      8.0112      2.5951      0.0748      3.3286     69.9741     18.2427
  1579.6000      8.0112      2.5829      0.0524      4.0669     63.3959     19.2214
  1579.7000      8.0112      2.5874      0.0717      3.7963     60.8759     20.2820
  1579.8000      8.0085      2.6094      0.0646      2.4636     64.3328     20.7644
  1579.9000      8.0085      2.6403      0.0772      0.5857     69.9662     20.4689
  1580.0000      8.0081      2.6649      0.0409     -0.9039     76.2804     20.2551
  1580.1000      8.0081      2.6702      0.0509     -1.2267     83.5697     20.9366
  1580.2000      8.0081      2.6544      0.1097     -0.2689     91.0773     22.5282
  1580.3000      8.0230      2.6141      0.0820      2.1759     98.8852     24.4307
  1580.4000      8.0230      2.5636     -0.0085      5.2348    107.1656     26.1857
  1580.5000      8.0349      2.5456     -0.0844      6.3250    115.3623     27.6605
  1580.6000      8.0349      2.5712      0.0184      4.7765    124.2831     28.6764
  1580.7000      8.0349      2.5975      0.0792      3.1834    133.2358     28.9328
  1580.8000      8.0358      2.5888      0.0611      3.7094    137.7038     28.4895
  1580.9000      8.0358      2.5570     -0.0006      5.6344    140.4032     28.2807
  1581.0000      8.0441      2.5329      0.0519      7.0999    149.7424     28.8671
  1581.1000      8.0441      2.5222      0.0115      7.7483    164.7121     29.4874
  1581.2000      8.0441      2.5197     -0.0109      7.8978    176.4351     29.5478
  1581.3000      8.0784      2.5331      0.0811      7.0844    178.9812     29.3132
  1581.4000      8.0784      2.5716      0.1063      4.7522    174.2015     29.1794
  1581.5000      8.0776      2.6232      0.1182      1.6212    168.8427     29.3903
  1581.6000      8.0776      2.6568      0.1662     -0.4102    167.3288     29.8594
  1581.7000      8.0776      2.6581      0.1533     -0.4915    168.1909     30.1539
  1581.8000      8.0999      2.6448      0.1606      0.3152    169.9038     29.7599
  1581.9000      8.0999      2.6333      0.1259      1.0130    173.7643     28.7754
  1582.0000      8.1191      2.6239      0.1289      1.5800    176.0497     27.9892
  1582.1000      8.1191      2.6219      0.0944      1.7015    178.0095     27.8719
  1582.2000      8.1191      2.6336      0.1024      0.9969    188.0535     28.3666
  1582.3000      8.0709      2.6383      0.1502      0.7112    198.4042     29.2222
  1582.4000      8.0709      2.6242      0.0297      1.5640    194.5352     29.9807
  1582.5000      8.0927      2.6117      0.0764      2.3191    177.4557     30.4386
  1582.6000      8.0927      2.6107      0.0721      2.3839    163.0255     30.5624
  1582.7000      8.0927      2.6160      0.0940      2.0632    160.2384     30.2354
  1582.8000      8.1077      2.6270      0.0563      1.3933    163.1432     29.5602
  1582.9000      8.1077      2.6412      0.0663      0.5340    166.7301     29.0169
  1583.0000      8.1080      2.6487      0.1454      0.0786    171.0166     28.6726
  1583.1000      8.1080      2.6420      0.1291      0.4870    177.2333     28.2159
  1583.2000      8.1080      2.6219      0.0941      1.7059    185.9068     27.9519
  1583.3000      8.1310      2.6026      0.0316      2.8702    192.9860     28.3109
  1583.4000      8.1310      2.6015      0.0486      2.9378    191.9293     28.8575
  1583.5000      8.1290      2.6068      0.1048      2.6198    181.8255     29.1762
  1583.6000      8.1290      2.5911      0.0859      3.5667    170.3794     29.2908
  1583.7000      8.1290      2.5627      0.0014      5.2902    167.5929     29.3682
  1583.8000      8.1047      2.5571     -0.0090      5.6282    176.4921     29.7353
  1583.9000      8.1047      2.5725      0.0646      4.6970    190.9784     30.3366
  1584.0000      8.1205      2.5732      0.1026      4.6516    198.4355     30.8119
  1584.1000      8.1205      2.5589      0.0259      5.5199    196.9771     30.8503
  1584.2000      8.1205      2.5619      0.0293      5.3374    197.5443     30.3813
  1584.3000      8.2285      2.6016     -0.0099      2.9341    198.4727     29.7122
  1584.4000      8.2285      2.6583      0.1351     -0.5030    193.4643     29.1427
  1584.5000      8.2880      2.6839      0.1834     -2.0535    191.5593     28.9235
  1584.6000      8.2880      2.6602      0.1673     -0.6180    190.8235     29.2163
  1584.7000      8.2880      2.6155      0.0762      2.0896    184.1399     30.0855
  1584.8000      8.2382      2.5856      0.0972      3.9024    180.6436     31.2006
  1584.9000      8.2382      2.5761      0.1055      4.4807    182.0247     31.6679
  1585.0000      8.1968      2.5714      0.0688      4.7617    180.0604     31.3437
  1585.1000      8.1968      2.5717      0.0507      4.7462    175.9326     31.0748
  1585.2000      8.1968      2.5781      0.0964      4.3604    173.8093     31.1293
  1585.3000      8.1091      2.5782      0.0943      4.3493    173.5437     30.9817
  1585.4000      8.1091      2.5728      0.0656      4.6767    172.2107     30.3425
  1585.5000      8.1764      2.5727      0.0886      4.6869    168.4826     29.5823
  1585.6000      8.1764      2.5799      0.0582      4.2466    165.6627     29.2791
  1585.7000      8.1764      2.5934      0.0858      3.4282    164.5008     29.3698
