~Version Information
 VERS.                                  2.0 : CWLS LAS VERSION
 WRAP.                                   NO : WRAPING MODE
 SWARE .                 MController 2.5.0E : SOFTWARE VERSION
~Well Information
 WELL.                    Dude canyon 22-32 : WELL
 COMP.    Pioneer Natural Resources USA Inc : COMPANY
 FLD.                      Purgatoire River : FIELD
 LOC.                SE/NW Sec 32 T32S R67W : LOCATION
 DATE.                         3/06-07/2005 : DATE(S) LOGGED
 SRVC.       Blanco Geological Services LLC : SERVICE COMPANY
 STAT.                                   CO : STATE
 CNTY.                           Las Animas : COUNTY
 CTRY.                                  USA : COUNTRY
 API.                       05-071-08257-00 : API NUMBER
 STRT.FT                             494.00 : START DEPTH
 STOP.FT                            2760.00 : STOP DEPTH
 STEP.FT                               1.00 : DEPTH INCREMENT
 NULL.                                -9999 : NULL VALUE
~Curve information
 DEPTH.FT                                   :
 ROP.MIN/FT                                 :
 GAS.UNITS                                  :
~ASCII Log data
# ...
     1294.00        0.733          1.0 
     1295.00        0.833          1.4 
     1296.00        0.900          2.0 
     1297.00        0.850          1.6 
     1298.00        0.533          0.6 
     1299.00        0.500          0.4 
     1300.00        0.500          0.8 
     1301.00        0.600          2.1 
     1302.00        0.733          2.4 
     1303.00        0.750          2.2 
     1304.00        0.733          5.3 
     1305.00        0.667          8.9 
     1306.00        0.467          9.0 
     1307.00        0.467          8.1 
     1308.00        0.400          6.0 
     1309.00        0.383          4.4 
     1310.00        0.400          3.9 
     1311.00        0.433          2.9 
     1312.00        0.500          2.0 
     1313.00        0.500          1.4 
     1314.00        0.667         13.7 
     1315.00        0.683         29.8 
     1316.00        0.633         29.2 
     1317.00        0.467         16.8 
     1318.00        0.233          5.9 
     1319.00        0.167          3.1 
     1320.00        0.267          1.4 
     1321.00       10.450         82.5 
     1322.00        0.300         29.3 
     1323.00        0.300         17.2 
     1324.00        0.333          7.7 
     1325.00        0.150          2.7 
     1326.00        0.233          1.6 
     1327.00        0.267          0.6 
     1328.00        0.233          0.2 
     1329.00        0.467          0.2 
     1330.00        0.367          0.2 
     1331.00        0.400          0.2 
     1332.00        0.333          0.3 
     1333.00        0.300          0.4 
     1334.00        0.433          0.7 
     1335.00        0.383          0.5 
     1336.00        0.367          0.5 
     1337.00        0.233          0.2 
     1338.00        0.267          0.3 
     1339.00        0.300          0.2 
     1340.00        0.333          0.2 
     1341.00        0.400          0.4 
     1342.00        0.333          0.3 
     1343.00        0.467          0.4 
     1344.00        0.500          4.4 
     1345.00        0.517         18.7 
     1346.00        0.467         18.7 
     1347.00        0.400         12.7 
     1348.00        0.433          6.1 
     1349.00        0.233          3.0 
     1350.00        0.200          2.2 
     1351.00        6.633         58.6 
     1352.00        0.233          8.9 
     1353.00        0.267          4.6 
     1354.00        0.333          2.0 
     1355.00        0.383          0.5 
     1356.00        0.333          0.1 
     1357.00        0.433          0.4 
     1358.00        0.733          1.3 
     1359.00        0.567          1.2 
     1360.00        0.467          1.1 
     1361.00        0.267          0.7 
     1362.00        0.267          0.3 
     1363.00        0.317          0.2 
     1364.00        0.367          0.5 
     1365.00        0.400          0.3 
     1366.00        0.467          0.6 
     1367.00        0.300          0.8 
     1368.00        0.300          0.9 
     1369.00        0.433          1.2 
     1370.00        0.400          0.7 
     1371.00        0.367          0.5 
     1372.00        0.317          0.6 
     1373.00        0.333          1.0 
     1374.00        0.267          0.8 
     1375.00        0.333          0.7 
     1376.00        0.400          0.2 
     1377.00        0.333          0.0 
     1378.00        0.267          0.1 
     1379.00        0.267          0.2 
     1380.00        0.500          0.8 
     1381.00       17.933       1050.3 
     1382.00        0.367          5.9 
     1383.00        0.433          9.9 
     1384.00        0.267         15.6 
     1385.00        0.267         21.2 
     1386.00        0.167         26.8 
     1387.00        0.200         34.3 
     1388.00        0.200         45.6 
     1389.00        0.167         55.7 
     1390.00        0.167         61.0 
     1391.00        0.167         60.8 
     1392.00        0.167         54.7 
     1393.00        0.217         45.5 
     1394.00        0.400         34.2 
     1395.00        0.433         13.2 
     1396.00        0.400          3.1 
     1397.00        0.467          1.2 
     1398.00        0.433          1.2 
     1399.00        0.467          1.3 
     1400.00        0.433          1.3 
     1401.00        0.417          2.9 
     1402.00        0.333          7.3 
     1403.00        0.300         13.5 
     1404.00        0.300         19.0 
     1405.00        0.267         20.4 
     1406.00        0.233         20.9 
     1407.00        0.167         18.9 
     1408.00        0.200         16.1 
     1409.00        0.267         13.3 
     1410.00        0.200          9.8 
     1411.00        6.833         55.3 
     1412.00        0.467         17.9 
     1413.00        0.450          9.4 
     1414.00        0.333          3.0 
     1415.00        0.367          1.6 
     1416.00        0.400          1.1 
     1417.00        0.567          1.0 
     1418.00        0.333          0.4 
     1419.00        0.300          0.7 
     1420.00        0.367          0.2 
     1421.00        0.367          0.0 
     1422.00        0.350          0.3 
     1423.00        0.400          0.5 
     1424.00        0.400          0.7 
     1425.00        0.400          0.7 
     1426.00        0.367          2.0 
     1427.00        0.367          5.5 
     1428.00        0.433          9.7 
     1429.00        0.367         13.3 
     1430.00        0.317         17.8 
     1431.00        0.267         18.4 
     1432.00        0.267         15.6 
     1433.00        0.267         11.2 
     1434.00        0.267          9.9 
     1435.00        0.300          9.8 
     1436.00        0.333          8.1 
     1437.00        0.300          5.2 
     1438.00        0.433          2.6 
     1439.00        0.200         -0.1 
     1440.00        0.267         -0.4 
     1441.00        8.083         52.8 
     1442.00        0.500          3.6 
     1443.00        0.267          3.8 
     1444.00        0.433          3.7 
     1445.00        0.333          1.8 
     1446.00        0.333          1.6 
     1447.00        0.333          1.0 
     1448.00        0.317          1.1 
     1449.00        0.300          0.9 
     1450.00        0.267          0.8 
     1451.00        0.267          0.7 
     1452.00        0.367          8.1 
     1453.00        0.400         27.9 
     1454.00        0.267         41.1 
     1455.00        0.267         50.2 
     1456.00        0.267         59.9 
     1457.00        0.167         63.5 
     1458.00        0.167         70.7 
     1459.00        0.200         90.5 
     1460.00        0.167        118.5 
     1461.00        0.217        132.4 
     1462.00        0.133        132.4 
     1463.00        0.200        126.2 
     1464.00        0.167        102.9 
     1465.00        0.200         79.2 
     1466.00        0.200         57.8 
     1467.00        0.167         41.4 
     1468.00        0.167         30.9 
     1469.00        0.100         23.1 
     1470.00        0.500         19.4 
     1471.00       10.583         95.0 
     1472.00        0.167         20.9 
     1473.00        0.333         21.5 
     1474.00        0.233         18.6 
     1475.00        0.283         13.9 
     1476.00        0.300          7.5 
     1477.00        0.333          3.3 
     1478.00        0.433          0.6 
     1479.00        0.433         -0.5 
     1480.00        0.500          0.5 
     1481.00        0.533          2.4 
     1482.00        0.467          2.2 
     1483.00        0.417          2.3 
     1484.00        0.367          3.2 
     1485.00        0.467          3.9 
     1486.00        0.367          4.2 
     1487.00        0.333          5.9 
     1488.00        0.333          6.3 
     1489.00        0.367          6.1 
     1490.00        0.333          5.3 
     1491.00        0.267          5.0 
     1492.00        0.350          4.0 
     1493.00        0.300          2.8 
