~Version Information
VERS.                      2.0: CWLS Log ASCII Standard - VERSION 2.0
WRAP.                       NO: One line per depth step
~Well Information Block
STRT.FT               -13.5000: 
STOP.FT              2092.5000: 
STEP.FT                 0.2500: 
NULL.                -999.2500: 
COMP.          Petrogulf Corporation: COMPANY
WELL.          Robinson 15-11V: WELL
FLD.           Purgatorie River: FIELD
LOC.           226' FNL & 592' FWL--: LOCATION
CNTY.               Las Animas: COUNTY
SRVC.                         : SERVICE COMPANY
DATE.          Tue Aug 17 13:05:46 2004: LOG DATE
UWI.                          : UNIQUE WELL ID
STAT.                       CO: STATE
~Curve Information Block
DEPT.FT            0 000 00 00: Depth
CCL.                          : Casing Collar Locator
TT3.usec                      : CBL 3' Travel Time
AMP3.mV                       : CBL 3' Amplitude
GR.GAPI                       : Gamma Ray
~Parameter Information Block
~A  Depth       CCL         TT3         AMP3         GR     
# ...
   120.5000      0.0000    311.1376     13.9575     98.2455
   120.7500      0.0000    311.0999     13.9261     93.5580
   121.0000      0.0000    311.0399     13.8737     88.3142
   121.2500      0.0000    311.0105     13.8124     82.8581
   121.5000      0.0000    311.0379     13.7146     78.3532
   121.7500      0.0000    311.1125     13.5549     76.2881
   122.0000      0.0000    311.1998     13.3739     77.1080
   122.2500      0.0000    311.2535     13.2821     79.4892
   122.5000      0.0000    311.2276     13.3818     81.5786
   122.7500      0.0000    311.0917     13.6761     83.0060
   123.0000      0.0000    310.8492     14.0567     85.1169
   123.2500      0.0000    310.5449     14.3825     89.1576
   123.5000      0.0000    310.2478     14.5672     94.8238
   123.7500      0.0000    310.0146     14.6018    100.6793
   124.0000      0.0000    309.8634     14.5213    105.3084
   124.2500      0.0000    309.7805     14.3709    107.8349
   124.5000      0.0000    309.7441     14.1988    107.9938
   124.7500      0.0000    309.7411     14.0601    106.3016
   125.0000      0.0000    309.7688     14.0029    103.9324
   125.2500      0.0000    309.8270     14.0480    101.8697
   125.5000      0.0000    309.9084     14.1788    100.0854
   125.7500      0.0000    309.9988     14.3454     97.7390
   126.0000      0.0000    310.0904     14.4850     94.2703
   126.2500      0.0000    310.1888     14.5503     90.3248
   126.5000      0.0000    310.3006     14.5270     87.4935
   126.7500      0.0000    310.4175     14.4308     86.9364
   127.0000      0.0000    310.5222     14.2983     88.3898
   127.2500      0.0000    310.6015     14.1798     90.7018
   127.5000      0.0000    310.6473     14.1252     93.0381
   127.7500      0.0000    310.6520     14.1624     95.1373
   128.0000      0.0000    310.6192     14.2762     96.6253
   128.2500      0.0000    310.5791     14.4001     96.7772
   128.5000      0.0000    310.5760     14.4459     95.2235
   128.7500      0.0000    310.6332     14.3690     92.7118
   129.0000      0.0000    310.7353     14.2025     90.9019
   129.2500      0.0000    310.8465     14.0203     91.0417
   129.5000      0.0000    310.9377     13.8703     92.6187
   129.7500      0.0000    310.9928     13.7506     93.6419
   130.0000      0.0000    311.0067     13.6444     92.7059
   130.2500      0.0000    310.9867     13.5610     90.5039
   130.5000      0.0000    310.9507     13.5252     88.9760
   130.7500      0.0000    310.9168     13.5294     89.4254
   131.0000      0.0000    310.8987     13.5171     91.8755
   131.2500      0.0000    310.9110     13.4271     95.7648
   131.5000      0.0000    310.9684     13.2507    100.5464
   131.7500      0.0000    311.0748     13.0379    105.6549
   132.0000      0.0000    311.2169     12.8530    110.4709
   132.2500      0.0000    311.3690     12.7291    114.6789
   132.5000      0.0000    311.4993     12.6636    118.5454
   132.7500      0.0000    311.5804     12.6378    122.4117
   133.0000      0.0000    311.6037     12.6313    125.6579
   133.2500      0.0000    311.5903     12.6246    126.7326
   133.5000      0.0000    311.5786     12.6082    124.7177
   133.7500      0.0000    311.5996     12.5961    120.4580
   134.0000      0.0000    311.6662     12.6102    115.6319
   134.2500      0.0000    311.7774     12.6438    110.9376
   134.5000      0.0000    311.9178     12.6570    105.8425
   134.7500      0.0000    312.0538     12.6184    100.2937
   135.0000      0.0000    312.1430     12.5369     96.0496
   135.2500      0.0000    312.1547     12.4509     95.5391
   135.5000      0.0000    312.0897     12.4038     99.1741
   135.7500      0.0000    311.9884     12.4303    104.1887
   136.0000      0.0000    311.9176     12.5368    106.5566
   136.2500      0.0000    311.9339     12.6865    104.1760
   136.5000      0.0000    312.0491     12.8255     98.2089
   136.7500      0.0000    312.2256     12.9364     91.5694
   137.0000      0.0000    312.4033     13.0495     86.4890
   137.2500      0.0000    312.5341     13.1933     83.6281
   137.5000      0.0000    312.6018     13.3548     82.8162
   137.7500      0.0000    312.6516     13.5117     83.6857
   138.0000      0.0000    312.8201     13.6863     85.6207
   138.2500      0.0000    313.6457     13.9327     87.9523
   138.5000      0.0000    316.7193     14.2480     90.4727
   138.7500      0.0000    325.3360     14.4972     93.3873
   139.0000      0.0000    343.2986     14.4688     96.7880
   139.2500      0.0000    370.2568     14.0662    100.4048
   139.5000      0.0000    397.0500     13.4660    103.5961
   139.7500      0.0000    409.2403     13.0333    105.3124
   140.0000      0.0000    399.3164     13.0235    104.4553
   140.2500      0.0000    374.1201     13.3736    100.9360
   140.5000      0.0000    347.8676     13.7923     96.1860
   140.7500      0.0000    330.0055     14.0247     92.0288
   141.0000      0.0000    321.3896     14.0231     89.1081
   141.2500     -2.0000    318.6493     13.9062     86.7365
   141.5000      0.0000    318.7923     13.7877     84.1703
   141.7500      0.0000    320.4098     13.6633     81.7345
   142.0000      0.0000    322.7783     13.4676     80.5443
   142.2500      0.0000    324.8732     13.2089     81.2570
   142.5000      0.0000    325.3659     12.9830     83.4910
   142.7500      0.0000    323.6632     12.8550     86.4564
   143.0000      0.0000    320.5318     12.7871     89.7217
   143.2500      0.0000    317.4150     12.6896     93.2669
   143.5000      0.0000    315.2653     12.5052     97.0941
   143.7500      0.0000    314.1684     12.2501    100.8206
   144.0000      0.0000    313.7553     11.9915    103.4705
   144.2500      0.0000    313.6566     11.7847    103.7907
   144.5000      0.0000    313.6645     11.6347    101.1054
   144.7500      0.0000    313.7106     11.5140     96.0676
   145.0000      0.0000    313.7937     11.3966     90.4551
   145.2500      0.0000    313.9097     11.2741     86.0011
   145.5000      0.0000    314.0313     11.1553     83.3656
   145.7500      0.0000    314.1351     11.0573     82.1428
   146.0000      0.0000    314.2315     10.9868     81.5499
   146.2500      0.0000    314.3568     10.9281     80.9783
   146.5000      0.0000    314.5323     10.8591     80.2632
   146.7500      0.0000    314.7384     10.7810     79.6954
   147.0000      0.0000    314.9262     10.7282     79.5129
   147.2500      0.0000    315.0537     10.7422     79.1622
   147.5000      0.0000    315.1039     10.8365     77.4200
   147.7500      0.0000    315.0742     10.9833     73.6957
   148.0000      0.0000    314.9686     11.1250     69.1846
   148.2500      0.0000    314.8100     11.1981     66.1899
   148.5000      0.0000    314.6520     11.1688     66.0788
   148.7500      0.0000    314.5558     11.0621     68.4130
   149.0000      0.0000    314.5511     10.9553     72.3053
   149.2500      0.0000    314.6181     10.9270     77.7387
   149.5000      0.0000    314.7034     11.0048     84.7195
   149.7500      0.0000    314.7591     11.1559     91.8106
   150.0000      0.0000    314.7766     11.3197     96.7387
   150.2500      0.0000    314.7913     11.4519     98.4812
   150.5000      0.0000    314.8535     11.5412     97.9872
   150.7500      0.0000    314.9881     11.5918     96.8416
   151.0000      0.0000    315.1667     11.6043     95.8815
   151.2500      0.0000    315.3144     11.5863     95.1733
   151.5000      0.0000    315.3592     11.5727     94.5760
   151.7500      0.0000    315.2754     11.6172     93.8739
   152.0000      0.0000    315.0742     11.7517     92.7256
   152.2500      0.0000    314.7715     11.9538     90.9279
   152.5000      0.0000    314.3904     12.1538     88.6457
   152.7500      0.0000    313.9810     12.2861     86.0502
   153.0000      0.0000    313.6026     12.3415     82.6992
   153.2500      0.0000    313.2920     12.3723     77.7363
   153.5000      0.0000    313.0630     12.4461     71.0915
   153.7500      0.0000    312.9270     12.5934     64.2846
