~Version Information
VERS.                      2.0: CWLS Log ASCII Standard - VERSION 2.0
WRAP.                       NO: One line per depth step
~Well Information Block
STRT.FT                 3.0000: 
STOP.FT              1884.7500: 
STEP.FT                 0.2500: 
NULL.                -999.2500: 
COMP.          Pioneer Natural Resources: COMPANY
WELL.          Blackjack 32-11 Tr: WELL
FLD.           Purgatoire River: FIELD
LOC.           2066' FNL & 1453' FEL: LOCATION
PROV.                 Colorado: PROVINCE
CNTY.               Las Animas: COUNTRY
SRVC.                Patterson: SERVICE COMPANY
DATE.          Fri Aug 19 11:07:11 2005: LOG DATE
UWI.           05 071 08310 00: UNIQUE WELL ID
~Curve Information Block
DEPT.FT            0 000 00 00: Depth
CCL.                          : Casing Collar Locator
TT3.usec                      : CBL 3' Travel Time
AMP3.mV                       : CBL 3' Amplitude
GR.GAPI                       : Gamma Ray
~Parameter Information Block
~A  Depth       CCL         TT3         AMP3         GR     
# ...
   740.0000      0.0000    741.6112      9.2371    107.7184
   740.2500      0.0000    731.1504      9.0563    110.0532
   740.5000      0.0000    727.0485      8.8805    112.9655
   740.7500      0.0000    728.2518      8.7375    115.4792
   741.0000      0.0000    735.0159      8.6505    116.9202
   741.2500      0.0000    747.9871      8.6399    117.4861
   741.5000      0.0000    765.6746      8.7122    117.8328
   741.7500      0.0000    783.6997      8.8307    117.9623
   742.0000      0.0000    798.7675      8.8892    116.7550
   742.2500      0.0000    814.0982      8.7383    112.8321
   742.5000      0.0000    837.5425      8.2921    105.8433
   742.7500      0.0000    870.8841      7.6299     96.8657
   743.0000      0.0000    903.7484      6.9641     87.7081
   743.2500      0.0000    922.9313      6.4839     80.0617
   743.5000     -3.0000    925.9118      6.2394     75.2823
   743.7500      3.0000    921.0668      6.1652     74.3986
   744.0000      3.0000    917.1851      6.1656     77.5695
   744.2500      0.0000    916.4644      6.1655     83.4160
   744.5000      0.0000    915.0985      6.1326     89.4505
   744.7500      0.0000    907.3344      6.0967     93.5697
   745.0000      0.0000    890.2954      6.1479     95.1441
   745.2500      0.0000    867.1183      6.3827     94.9128
   745.5000      0.0000    845.5051      6.8351     94.2240
   745.7500      0.0000    832.4362      7.4386     94.3758
   746.0000      0.0000    829.3786      8.0438     96.1844
   746.2500      0.0000    831.6807      8.4954     99.5217
   746.5000      0.0000    832.3431      8.7201    102.9884
   746.7500      0.0000    826.6558      8.7520    104.6497
   747.0000      0.0000    814.0936      8.6814    103.8562
   747.2500      0.0000    796.9914      8.5957    102.0975
   747.5000      0.0000    778.2567      8.5598    101.6001
   747.7500      0.0000    760.4988      8.6239    103.3859
   748.0000      0.0000    746.3630      8.8158    106.8798
   748.2500      0.0000    738.2762      9.1198    110.6739
   748.5000      0.0000    737.2614      9.4762    113.1723
   748.7500      0.0000    741.8426      9.8289    112.9943
   749.0000      0.0000    747.9663     10.1781    109.5194
   749.2500      0.0000    750.9315     10.5639    103.3447
   749.5000      0.0000    749.0630     10.9911     96.1137
   749.7500      0.0000    745.9829     11.3930     89.6327
   750.0000      0.0000    748.8886     11.6863     84.9393
   750.2500      0.0000    764.1300     11.8434     82.0904
   750.5000      0.0000    792.9487     11.8966     80.7253
   750.7500      0.0000    829.1660     11.8825     80.7765
   751.0000      0.0000    860.9689     11.7986     82.5667
   751.2500      0.0000    877.7064     11.6236     86.1852
   751.5000      0.0000    877.1610     11.3733     90.9864
   751.7500      0.0000    866.1288     11.1154     95.7401
   752.0000      0.0000    854.0156     10.9178     98.9268
   752.2500      0.0000    847.4842     10.7996     98.9535
   752.5000      0.0000    850.2933     10.7493     94.9370
   752.7500      0.0000    863.6911     10.7729     87.7272
   753.0000      0.0000    884.8228     10.8977     79.6776
   753.2500      0.0000    907.3554     11.1254     72.9095
   753.5000      0.0000    925.5953     11.3999     67.9016
   753.7500      0.0000    937.4178     11.6342     63.9203
   754.0000      0.0000    943.2517     11.7685     60.4621
   754.2500      0.0000    943.3081     11.7957     57.8097
   754.5000      0.0000    936.1827     11.7343     56.5437
   754.7500      0.0000    920.2188     11.5961     57.3440
   755.0000      0.0000    896.9590     11.3970     61.3199
   755.2500      0.0000    872.6808     11.1851     69.6690
   755.5000      0.0000    854.3265     11.0342     82.3022
   755.7500      0.0000    843.3004     10.9977     96.9142
   756.0000      0.0000    834.5116     11.0742    109.9936
   756.2500      0.0000    821.7162     11.2168    119.1301
   756.5000      0.0000    803.5959     11.3706    124.2963
   756.7500      0.0000    785.3776     11.4917    126.8845
   757.0000      0.0000    775.0627     11.5401    127.8352
   757.2500      0.0000    777.7350     11.4767    126.9242
   757.5000      0.0000    793.0295     11.2903    123.5128
   757.7500      0.0000    816.6811     11.0264    117.5754
   758.0000      0.0000    842.6594     10.7733    110.2705
   758.2500      0.0000    864.4335     10.6080    103.9080
   758.5000      0.0000    877.4967     10.5501    100.9809
   758.7500      0.0000    882.4939     10.5601    102.4899
   759.0000      0.0000    884.5178     10.5770    106.9974
   759.2500      0.0000    887.8352     10.5666    111.5140
   759.5000      0.0000    892.0963     10.5426    113.4004
   759.7500      0.0000    894.5753     10.5376    111.6384
   760.0000      0.0000    894.4218     10.5568    106.7819
   760.2500      0.0000    892.6548     10.5728    100.1430
   760.5000      0.0000    889.7667     10.5670     93.2199
   760.7500      0.0000    886.6862     10.5544     87.7139
   761.0000      0.0000    887.2565     10.5623     85.3768
   761.2500      0.0000    895.3264     10.6017     87.1636
   761.5000      0.0000    908.7415     10.6667     92.4673
   761.7500      0.0000    919.6255     10.7468     99.4345
   762.0000      0.0000    921.5185     10.8273    106.0205
   762.2500      0.0000    913.8698     10.8884    110.7106
   762.5000      0.0000    899.8721     10.9093    112.6390
   762.7500      0.0000    883.0847     10.8769    111.5938
   763.0000      0.0000    866.6482     10.7955    108.1263
   763.2500      0.0000    853.3745     10.6971    103.4668
   763.5000      0.0000    845.4189     10.6286     99.0070
   763.7500      0.0000    844.1160     10.6151     95.6275
   764.0000      0.0000    849.6062     10.6372     93.5211
   764.2500      0.0000    859.7860     10.6460     92.7081
   764.5000      0.0000    870.1489     10.5975     93.4419
   764.7500      0.0000    876.2259     10.4766     95.8573
   765.0000      0.0000    877.0934     10.2996     99.3031
   765.2500      0.0000    875.6721     10.0972    102.2738
   765.5000      0.0000    875.2256      9.8929    103.1730
   765.7500      0.0000    876.9825      9.7007    101.2692
   766.0000      0.0000    881.4645      9.5414     97.0305
   766.2500      0.0000    889.5205      9.4448     91.6946
   766.5000      0.0000    900.0817      9.4274     86.5771
   766.7500      0.0000    908.5426      9.4694     82.7105
   767.0000      0.0000    910.2429      9.5221     80.8374
   767.2500      0.0000    905.6487      9.5420     81.2231
   767.5000      0.0000    900.0166      9.5217     83.1501
   767.7500      0.0000    897.6865      9.4909     84.8115
   768.0000      0.0000    898.0394      9.4825     84.2094
   768.2500      0.0000    896.8794      9.4967     80.5049
   768.5000      0.0000    890.7552      9.5036     74.6045
   768.7500      0.0000    880.0367      9.4842     68.3847
   769.0000      0.0000    868.3372      9.4616     63.2600
   769.2500      0.0000    859.2477      9.4848     59.4908
   769.5000      0.0000    853.9509      9.5692     56.6848
   769.7500      0.0000    851.6646      9.6489     54.5966
   770.0000      0.0000    851.4340      9.6116     53.3178
   770.2500      0.0000    853.2382      9.4046     52.9221
   770.5000      0.0000    857.9030      9.0948     53.0896
   770.7500      0.0000    866.1453      8.7999     53.1845
   771.0000      0.0000    877.4667      8.5802     52.7422
   771.2500      0.0000    890.2578      8.4193     51.7652
   771.5000      0.0000    902.9783      8.2832     50.5405
   771.7500      0.0000    914.3373      8.1644     49.3634
   772.0000      0.0000    922.1907      8.0734     48.3809
   772.2500      0.0000    924.1295      8.0119     47.5313
   772.5000      0.0000    920.2857      7.9639     46.7240
   772.7500      0.0000    914.1478      7.9053     46.1950
   773.0000      0.0000    909.1493      7.8255     46.5864
   773.2500      0.0000    904.8373      7.7382     48.4854
