~Version Information
VERS.                      2.0: CWLS Log ASCII Standard - VERSION 2.0
WRAP.                       NO: One line per depth step
~Well Information Block
STRT.FT                -7.2500: 
STOP.FT              2610.0000: 
STEP.FT                 0.2500: 
NULL.                -999.2500: 
COMP.          Pioneer Natural Resources: COMPANY
WELL.              Wagner 13-9: WELL
FLD.           Purgatorie River: FIELD
LOC.           1819' FSL & 1111' FWL--: LOCATION
PROV.                       CO: PROVINCE
CNTY.               Las Animas: COUNTRY
SRVC.          Patterson Wireline: SERVICE COMPANY
DATE.          Wed May 18 09:08:26 2005: LOG DATE
UWI.           05 071 08302 00: UNIQUE WELL ID
~Curve Information Block
DEPT.FT            0 000 00 00: Depth
CCL.                          : Casing Collar Locator
TT3.usec                      : CBL 3' Travel Time
AMP3.mV                       : CBL 3' Amplitude
GR.GAPI                       : Gamma Ray
~Parameter Information Block
~A  Depth       CCL         TT3         AMP3         GR     
    -7.2500   -999.2500   -999.2500   -999.2500     72.7643
    -7.0000   -999.2500   -999.2500   -999.2500     70.4670
    -6.7500   -999.2500   -999.2500   -999.2500     67.4854
    -6.5000   -999.2500   -999.2500   -999.2500     65.7233
    -6.2500   -999.2500   -999.2500   -999.2500     66.0839
    -6.0000   -999.2500   -999.2500   -999.2500     67.9804
    -5.7500   -999.2500   -999.2500   -999.2500     70.4115
    -5.5000   -999.2500   -999.2500   -999.2500     73.0555
    -5.2500   -999.2500   -999.2500   -999.2500     76.0788
    -5.0000   -999.2500   -999.2500   -999.2500     79.1591
    -4.7500   -999.2500   -999.2500   -999.2500     81.2907
    -4.5000   -999.2500   -999.2500   -999.2500     81.7403
    -4.2500   -999.2500   -999.2500   -999.2500     80.7989
    -4.0000   -999.2500   -999.2500   -999.2500     79.2022
    -3.7500   -999.2500   -999.2500   -999.2500     77.0668
    -3.5000   -999.2500   -999.2500   -999.2500     73.9244
    -3.2500   -999.2500   -999.2500   -999.2500     69.7880
    -3.0000   -999.2500   -999.2500   -999.2500     65.6197
    -2.7500   -999.2500   -999.2500   -999.2500     62.5115
    -2.5000   -999.2500   1161.0000      0.6351     60.8658
    -2.2500   -999.2500   1161.0000      0.6122     60.5906
    -2.0000   -999.2500   1161.0000      0.5916     61.5088
    -1.7500   -999.2500   1161.0000      0.5793     63.0198
    -1.5000   -999.2500   1161.0000      0.5788     63.5967
    -1.2500   -999.2500   1161.0000      0.5866     61.4470
    -1.0000   -999.2500   1161.0000      0.5954     56.1199
    -0.7500   -999.2500   1161.0000      0.6006     49.0651
    -0.5000   -999.2500   1161.0000      0.6032     42.2277
    -0.2500   -999.2500   1161.0000      0.6058     36.4182
     0.0000   -999.2500   1161.0000      0.6069     26.8031
     0.2500   -999.2500   1161.0000      0.6008     23.2099
     0.5000   -999.2500   1161.0000      0.5944     21.1808
     0.7500   -999.2500   1161.0000      0.5962     20.8996
     1.0000   -999.2500   1161.0000      0.6117     22.1161
     1.2500   -999.2500   1161.0000      0.6383     24.5180
     1.5000   -999.2500   1161.0000      0.6670     27.7817
     1.7500   -999.2500   1161.0000      0.6897     31.3872
     2.0000   -999.2500   1161.0000      0.7042     34.8553
     2.2500   -999.2500   1161.0000      0.7131     38.1459
     2.5000      0.0000   1161.0000      0.7175     41.3745
     2.7500      0.0000   1161.0000      0.7140     44.1990
     3.0000      0.0000   1161.0000      0.6990     46.0846
     3.2500      0.0000   1161.0000      0.6744     47.2177
     3.5000      0.0000   1161.0000      0.6471     48.5318
     3.7500      0.0000   1161.0000      0.6250     50.5606
     4.0000     -2.0000   1161.0000      0.6148     52.7856
     4.2500      2.0000   1161.0000      0.6197     54.4471
     4.5000      0.0000   1161.0000      0.6364     55.5281
     4.7500      0.0000   1161.0000      0.6557     56.4886
     5.0000      0.0000   1161.0000      0.6676     57.4572
     5.2500     -2.0000   1161.0000      0.6680     58.2394
     5.5000      0.0000   1161.0000      0.6589     58.7898
     5.7500      0.0000   1161.0000      0.6447     59.1600
     6.0000      0.0000   1161.0000      0.6296     59.2779
     6.2500      0.0000   1161.0000      0.6182     59.3285
     6.5000      0.0000   1161.0000      0.6147     60.1111
     6.7500      0.0000   1161.0000      0.6219     62.3135
     7.0000      0.0000   1161.0000      0.6397     65.3118
     7.2500      0.0000   1161.0000      0.6651     67.3151
     7.5000      0.0000   1161.0000      0.6923     67.1501
     7.7500      0.0000   1161.0000      0.7147     65.5002
     8.0000      0.0000   1161.0000      0.7279     63.9142
     8.2500      0.0000   1161.0000      0.7332     63.0377
     8.5000      0.0000   1161.0000      0.7362     62.3991
     8.7500      0.0000   1161.0000      0.7416     61.5063
     9.0000      0.0000   1161.0000      0.7496     60.4390
     9.2500      0.0000   1161.0000      0.7572     59.5242
     9.5000      0.0000   1161.0000      0.7620     58.9928
     9.7500      0.0000   1161.0000      0.7651     58.9572
    10.0000      0.0000   1161.0000      0.7811     59.4222
    10.2500     -2.0000   1161.0000      0.8710     60.2176
    10.5000      0.0000   1161.0000      1.1883     60.8650
    10.7500      0.0000   1161.0000      1.9760     60.5540
    11.0000      0.0000   1161.0000      3.4200     58.5825
    11.2500      0.0000   1161.0000      5.3984     55.1450
    11.5000      0.0000   1161.0000      7.3933     51.6188
    11.7500      2.0000   1161.0000      8.7707     49.7682
    12.0000      0.0000   1161.0000      9.2124     50.5190
    12.2500      0.0000   1161.0000      8.8701     53.4823
    12.5000      0.0000   1161.0000      8.1479     57.4284
    12.7500      0.0000   1161.0000      7.3996     61.0312
    13.0000      0.0000   1161.0000      6.7876     63.4025
    13.2500      0.0000   1161.0000      6.3228     64.4564
    13.5000      0.0000   1161.0000      5.9630     64.8803
    13.7500      0.0000   1161.0000      5.6652     65.3717
    14.0000      0.0000   1161.0000      5.3872     65.7637
    14.2500      0.0000   1161.0000      5.1044     65.1970
    14.5000      0.0000   1161.0000      4.8571     63.2372
    14.7500      0.0000   1161.0000      4.7373     60.4915
    15.0000      0.0000   1161.0000      4.7919     57.9483
    15.2500      0.0000   1161.0000      4.9612     55.9732
    15.5000     -2.0000   1161.0000      5.1374     54.2426
    15.7500     -2.0000   1161.0000      5.2630     52.5887
    16.0000      0.0000   1161.0000      5.3700     51.5893
    16.2500      0.0000   1161.0000      5.5490     52.0333
    16.5000      0.0000   1161.0000      5.8858     53.8012
    16.7500      0.0000   1161.0000      6.3901     55.6775
    17.0000      0.0000   1161.0000      6.9748     56.5952
    17.2500      0.0000   1161.0000      7.5234     56.7609
    17.5000      0.0000   1161.0000      7.9716     57.2280
    17.7500      0.0000   1161.0000      8.3095     58.7449
    18.0000      0.0000   1161.0000      8.5356     61.2310
    18.2500      0.0000   1161.0000      8.6417     63.8480
    18.5000      0.0000   1161.0000      8.6324     65.3746
    18.7500      0.0000   1161.0000      8.5342     65.1004
    19.0000      0.0000   1161.0000      8.3880     63.6129
    19.2500      0.0000   1161.0000      8.2375     62.3782
    19.5000      0.0000   1161.0000      8.1184     62.6352
    19.7500      0.0000   1161.0000      8.0473     64.9976
    20.0000      0.0000   1161.0000      8.0194     69.5920
    20.2500      0.0000   1161.0000      8.0188     75.6798
    20.5000      0.0000   1161.0000      8.0332     81.2692
    20.7500      0.0000   1161.0000      8.0595     84.0539
    21.0000      0.0000   1161.0000      8.0957     83.2022
    21.2500      0.0000   1161.0000      8.1295     79.9425
    21.5000      0.0000   1161.0000      8.1358     76.3386
    21.7500      0.0000   1161.0000      8.0948     73.7659
    22.0000      0.0000   1161.0000      8.0151     72.3736
    22.2500      0.0000   1161.0000      7.9350     71.5184
    22.5000      0.0000   1161.0000      7.8928     70.6936
    22.7500      0.0000   1161.0000      7.8956     70.2482
    23.0000      0.0000   1161.0000      7.9210     71.0650
    23.2500      0.0000   1161.0000      7.9432     73.3530
    23.5000      0.0000   1161.0000      7.9537     75.9734
    23.7500      0.0000   1161.0000      7.9599     77.3859
    24.0000      0.0000   1161.0000      7.9724     77.3178
    24.2500      0.0000   1161.0000      7.9956     76.9170
    24.5000      0.0000   1161.0000      8.0282     76.9198
    24.7500      0.0000   1161.0000      8.0705     76.3450
    25.0000      0.0000   1161.0000      8.1305     73.6802
    25.2500      0.0000   1161.0000      8.2155     68.9086
    25.5000      0.0000   1161.0000      8.3180     63.6780
    25.7500      0.0000   1161.0000      8.4135     59.6982
    26.0000      0.0000   1161.0000      8.4803     57.3880
