~Version Information
VERS.                      2.0: CWLS Log ASCII Standard - VERSION 2.0
WRAP.                       NO: One line per depth step
~Well Information Block
STRT.FT               423.0000: 
STOP.FT              2308.2500: 
STEP.FT                 0.2500: 
NULL.                -999.2500: 
COMP.          Pioneer Natural Resources: COMPANY
WELL.             Culver 14-12: WELL
FLD.           Purgatoire River: FIELD
LOC.           913' FSL & 1140' FWL: LOCATION
PROV.                 Colorado: PROVINCE
CNTY.               Las Animas: COUNTRY
SRVC.                Patterson: SERVICE COMPANY
DATE.          Tue Jun 07 00:21:41 2005: LOG DATE
UWI.           05 071 08386 00: UNIQUE WELL ID
~Curve Information Block
DEPT.FT            0 000 00 00: Depth
SN.Ohm-m                      : IEL Short Normal
SP.mV                         : IEL Spontaneous Potential
DIR.Ohm-m                     : IEL Induction Resistivity
GR.GAPI                       : Gamma Ray
~Parameter Information Block
~A  Depth        SN          SP         DIR          GR     
# ...
  2031.0000     54.0728      0.7309     45.7235     48.4946
  2031.2500     53.7696      0.5741     45.9949     49.4899
  2031.5000     53.1488      0.4557     45.8703     50.4256
  2031.7500     52.2125      0.3762     45.2956     50.8586
  2032.0000     50.9774      0.3254     44.2218     51.8814
  2032.2500     49.4388      0.2891     42.6953     53.2702
  2032.5000     47.5613      0.2572     40.8837     57.2552
  2032.7500     45.3783      0.2290     39.0059     61.4700
  2033.0000     43.0900      0.2107     37.2383     69.5097
  2033.2500     40.9524      0.2085     35.6676     75.0315
  2033.5000     39.0613      0.2253     34.2973     81.9762
  2033.7500     37.3306      0.2642     33.0863     85.3476
  2034.0000     35.6851      0.3342     31.9897     88.6757
  2034.2500     34.1764      0.4504     30.9912     89.9745
  2034.5000     32.9122      0.6260     30.1144     90.8351
  2034.7500     31.9574      0.8593     29.4083     90.7242
  2035.0000     31.3050      1.1268     28.9125     89.3918
  2035.2500     30.9002      1.3918     28.6198     87.5660
  2035.5000     30.6810      1.6237     28.4663     83.1171
  2035.7500     30.5950      1.8068     28.3633     78.9441
  2036.0000     30.6002      1.9330     28.2514     71.2331
  2036.2500     30.7103      1.9892     28.1236     65.6329
  2036.5000     31.0548      1.9577     27.9996     57.6527
  2036.7500     31.8372      1.8309     27.8926     53.2079
  2037.0000     33.1724      1.6306     27.8121     48.6161
  2037.2500     34.8814      1.4214     27.7891     47.2920
  2037.5000     36.4507      1.3035     27.8816     48.4089
  2037.7500     37.3490      1.3763     28.1472     51.2541
  2038.0000     37.4156      1.6887     28.6092     57.8017
  2038.2500     36.8674      2.2053     29.2451     62.7230
  2038.5000     36.0472      2.8088     29.9975     69.3960
  2038.7500     35.2647      3.3426     30.7976     72.9520
  2039.0000     34.7395      3.6687     31.5779     76.9725
  2039.2500     34.5516      3.7093     32.2682     78.8796
  2039.5000     34.6379      3.4549     32.7840     80.5667
  2039.7500     34.8654      2.9510     33.0409     80.8690
  2040.0000     35.1277      2.2776     33.0063     80.1354
  2040.2500     35.3787      1.5269     32.7477     78.8894
  2040.5000     35.5988      0.7790     32.4254     75.9042
  2040.7500     35.7705      0.0878     32.2222     73.2808
  2041.0000     35.8934     -0.5160     32.2640     68.8860
  2041.2500     35.9989     -1.0127     32.5738     65.9983
  2041.5000     36.1312     -1.3879     33.0748     62.3635
  2041.7500     36.3099     -1.6347     33.6351     60.9084
  2042.0000     36.4931     -1.7569     34.1350     61.0142
  2042.2500     36.5860     -1.7681     34.5136     62.6499
  2042.5000     36.5116     -1.6899     34.7636     66.4191
  2042.7500     36.2514     -1.5471     34.8895     68.8732
  2043.0000     35.8197     -1.3635     34.8718     71.0612
  2043.2500     35.2683     -1.1581     34.6702     71.1078
  2043.5000     34.6906     -0.9422     34.2581     69.3640
  2043.7500     34.1641     -0.7141     33.6640     67.7072
  2044.0000     33.7178     -0.4576     32.9817     65.8426
  2044.2500     33.3599     -0.1500     32.3364     65.3577
  2044.5000     33.1146      0.2235     31.8287     65.2990
  2044.7500     33.0149      0.6574     31.4946     65.1367
  2045.0000     33.0255      1.1258     31.2998     64.1122
  2045.2500     33.0165      1.5903     31.1625     63.0294
  2045.5000     32.9146      2.0130     30.9900     61.6060
  2045.7500     32.8080      2.3670     30.7165     61.2478
  2046.0000     32.7925      2.6371     30.3337     61.7861
  2046.2500     32.8238      2.8129     29.8977     62.5801
  2046.5000     32.7832      2.8777     29.5030     63.6708
  2046.7500     32.6010      2.8062     29.2337     63.9987
  2047.0000     32.2969      2.5741     29.1223     63.7763
  2047.2500     31.9489      2.1728     29.1414     63.3388
  2047.5000     31.6517      1.6167     29.2356     62.7051
  2047.7500     31.4843      0.9359     29.3759     62.4369
  2048.0000     31.4857      0.1592     29.5953     62.1577
  2048.2500     31.6536     -0.6993     29.9660     61.9101
  2048.5000     31.9632     -1.6408     30.5316     61.3208
  2048.7500     32.3784     -2.6704     31.2548     60.7562
  2049.0000     32.8650     -3.7858     32.0340     59.4674
  2049.2500     33.4158     -4.9746     32.7849     58.1716
  2049.5000     34.0485     -6.2218     33.5109     55.7129
  2049.7500     34.7744     -7.5135     34.2962     54.1023
  2050.0000     35.5821     -8.8324     35.2281     52.3214
  2050.2500     36.4214    -10.1539     36.3226     51.5662
  2050.5000     37.1957    -11.4531     37.5072     50.6469
  2050.7500     37.8549    -12.7204     38.6695     50.0054
  2051.0000     38.4789    -13.9744     39.7456     49.2153
  2051.2500     39.1692    -15.2681     40.7775     49.0666
  2051.5000     39.9262    -16.6774     41.8820     49.4677
  2051.7500     40.6896    -18.2707     43.1508     49.8365
  2052.0000     41.4136    -20.0654     44.5715     49.9378
  2052.2500     42.0717    -21.9979     46.0279     49.6681
  2052.5000     42.6502    -23.9380     47.3580     49.1851
  2052.7500     43.1600    -25.7473     48.4068     49.0163
  2053.0000     43.6298    -27.3430     49.0451     48.9863
  2053.2500     44.0887    -28.7189     49.1839     49.0860
  2053.5000     44.5721    -29.9199     48.8200     49.5709
  2053.7500     45.1240    -31.0003     48.0765     50.1582
  2054.0000     45.7329    -31.9946     47.1837     51.0648
  2054.2500     46.2727    -32.9080     46.3928     51.3607
  2054.5000     46.6127    -33.7242     45.8753     51.1268
  2054.7500     46.7641    -34.4239     45.6661     50.6686
  2055.0000     46.8198    -35.0006     45.6612     49.9807
  2055.2500     46.8297    -35.4679     45.6661     49.7350
  2055.5000     46.7964    -35.8522     45.4651     49.7854
  2055.7500     46.7172    -36.1774     44.8881     50.0205
  2056.0000     46.5762    -36.4501     43.8415     50.5613
  2056.2500     46.3038    -36.6547     42.3129     51.0825
  2056.5000     45.7712    -36.7563     40.3738     52.2404
  2056.7500     44.8438    -36.7137     38.1858     53.3207
  2057.0000     43.4480    -36.4944     35.9808     55.5807
  2057.2500     41.6109    -36.0888     33.9993     57.7912
  2057.5000     39.4713    -35.5163     32.4199     62.8623
  2057.7500     37.2651    -34.8242     31.3246     67.6095
  2058.0000     35.2748    -34.0778     30.7041     76.0330
  2058.2500     33.7363    -33.3385     30.4875     81.4384
  2058.5000     32.7641    -32.6389     30.5779     86.9402
  2058.7500     32.3669    -31.9707     30.8849     87.7047
  2059.0000     32.5313    -31.2947     31.3436     83.5187
  2059.2500     33.3447    -30.5659     31.9053     77.5009
  2059.5000     35.0847    -29.7525     32.5059     65.6963
  2059.7500     38.1507    -28.8400     33.0434     57.6141
  2060.0000     42.8436    -27.8193     33.3987     47.6001
  2060.2500     49.1051    -26.6739     33.4956     43.0422
  2060.5000     56.2557    -25.3760     33.3430     39.1909
  2060.7500     62.9747    -23.8945     33.0123     38.0017
  2061.0000     67.8853    -22.2024     32.5629     37.3115
  2061.2500     70.3174    -20.2738     31.9814     37.3863
  2061.5000     70.3227    -18.0740     31.1831     38.6324
  2061.7500     68.0572    -15.5653     30.0784     40.5810
  2062.0000     63.4962    -12.7329     28.6553     45.5762
  2062.2500     56.7864     -9.6188     27.0043     50.2179
  2062.5000     48.6669     -6.3354     25.2672     58.5943
  2062.7500     40.4104     -3.0477     23.5694     64.7117
  2063.0000     33.2820      0.0633     21.9907     73.9564
  2063.2500     27.9947      2.8368     20.5748     79.6696
  2063.5000     24.5842      5.1594     19.3461     86.8197
  2063.7500     22.6518      6.9858     18.3166     90.5371
  2064.0000     21.6915      8.3448     17.4861     94.9583
  2064.2500     21.3187      9.3220     16.8422     97.3712
