~Version Information
 VERS.                                  2.0 : CWLS LAS VERSION
 WRAP.                                   NO : WRAPING MODE
 SWARE .                 MController 2.5.0N : SOFTWARE VERSION
~Well Information
 WELL.                      Piggyback 33-25 : WELL
 COMP.    Pioneer Natural Resources USA Inc : COMPANY
 FLD.                      Purgatoire River : FIELD
 LOC.                NW/SE Sec 25 T34S R65W : LOCATION
 DATE.                               4/29/05: DATE(S) LOGGED
 SRVC.       Blanco Geological Services LLC : SERVICE COMPANY
 STAT.                                   CO : STATE
 CNTY.                           Las Animas : COUNTY
 CTRY.                                  USA : COUNTRY
 API.                       05-071-08233-00 : API NUMBER
 STRT.FT                             260.00 : START DEPTH
 STOP.FT                            1000.00 : STOP DEPTH
 STEP.FT                               1.00 : DEPTH INCREMENT
 NULL.                                -9999 : NULL VALUE
~Curve information
 DEPTH.FT                                   :
 ROP.MIN/FT                                 :
 GAS.UNITS                                  :
~ASCII Log data
# ...
       660.0         0.33        236.7 
       661.0         0.33        173.6 
       662.0         0.27        107.2 
       663.0         0.22        105.1 
       664.0         0.23         86.5 
       665.0         0.20         84.2 
       666.0         0.30         82.5 
       667.0         0.23         76.8 
       668.0         0.23         75.7 
       669.0         0.20         75.0 
       670.0         0.23         72.7 
       671.0         0.27         71.8 
       672.0         0.23         71.8 
       673.0         0.23         71.5 
       674.0         0.27         72.0 
       675.0         0.30         73.0 
       676.0         0.27         73.4 
       677.0         0.32         72.7 
       678.0         0.23         72.3 
       679.0         0.23         71.9 
       680.0         0.20         71.6 
       681.0         0.20         71.5 
       682.0         0.17         71.4 
       683.0         0.20         71.2 
       684.0         0.23         71.7 
       685.0         0.20         70.9 
       686.0         2.62        142.9 
       687.0         0.53        350.3 
       688.0         0.20        353.6 
       689.0         0.20        241.5 
       690.0         0.27        179.8 
       691.0         0.23        145.5 
       692.0         0.20        136.3 
       693.0         0.27        128.1 
       694.0         0.28        106.2 
       695.0         0.20         85.7 
       696.0         0.13         80.7 
       697.0         0.23         78.2 
       698.0         0.20         74.0 
       699.0         0.20         73.7 
       700.0         0.20         70.6 
       701.0         0.13         69.9 
       702.0         0.30         69.2 
       703.0         0.23         68.3 
       704.0         0.17         68.0 
       705.0         0.27         68.0 
       706.0         0.23         67.5 
       707.0         0.23         67.2 
       708.0         0.33         66.2 
       709.0         0.38         65.3 
       710.0         0.30         64.9 
       711.0         0.37         64.7 
       712.0         0.37         64.1 
       713.0         0.33         63.8 
       714.0         0.33         63.6 
       715.0         0.33         63.7 
       716.0         1.88         93.1 
       717.0         0.23        118.7 
       718.0         0.10        137.7 
       719.0         0.40        164.3 
       720.0         0.20        298.9 
       721.0         0.37        370.9 
       722.0         0.37        344.6 
       723.0         0.37        221.4 
       724.0         0.27        133.8 
       725.0         0.42        120.2 
       726.0         0.40         82.0 
       727.0         0.17         70.6 
       728.0         0.23         66.1 
       729.0         0.17         70.0 
       730.0         0.17         70.0 
       731.0         0.17        146.3 
       732.0         0.20        154.7 
       733.0         0.20        196.5 
       734.0         0.23        215.1 
       735.0         0.33        210.9 
       736.0         0.27        201.5 
       737.0         0.30        192.0 
       738.0         0.27        188.4 
       739.0         0.28        180.1 
       740.0         0.37        168.6 
       741.0         0.20        163.4 
       742.0         0.13        161.9 
       743.0         0.20        160.5 
       744.0         0.27        156.8 
       745.0         0.27        154.0 
       746.0         2.72        206.1 
       747.0         0.30        311.4 
       748.0         0.20        311.4 
       749.0         0.13        408.1 
       750.0         0.43       1199.0 
       751.0         0.40        983.7 
       752.0         0.40        710.1 
       753.0         0.47        440.0 
       754.0         0.28        178.9 
       755.0         0.27        156.2 
       756.0         0.30        147.6 
       757.0         0.27        142.0 
       758.0         0.33        133.4 
       759.0         0.30        130.5 
       760.0         0.30        129.6 
       761.0         0.27        127.9 
       762.0         0.37        126.0 
       763.0         0.30        124.9 
       764.0         0.27        124.2 
       765.0         0.35        124.0 
       766.0         0.27        123.5 
       767.0         0.30        122.5 
       768.0         0.30        122.1 
       769.0         0.27        121.1 
       770.0         0.50        124.7 
       771.0         0.23        128.3 
       772.0         0.27        128.5 
       773.0         0.23        128.0 
       774.0         0.27        126.5 
       775.0         0.30        124.5 
       776.0         2.72        442.2 
       777.0         0.33        447.3 
       778.0         0.20        387.4 
       779.0         0.13        318.6 
       780.0         0.25        283.5 
       781.0         0.27        218.4 
       782.0         0.33        168.9 
       783.0         0.30        149.2 
       784.0         0.47        135.9 
       785.0         0.30        126.7 
       786.0         0.30        118.4 
       787.0         0.33        117.7 
       788.0         0.27        115.0 
       789.0         0.33        112.5 
       790.0         0.27        111.7 
       791.0         0.28        111.6 
       792.0         0.27        110.8 
       793.0         0.33        110.6 
       794.0         0.43        110.2 
       795.0         0.33        109.5 
       796.0         0.33        109.1 
       797.0         0.30        108.9 
       798.0         0.23        108.0 
       799.0         0.20        107.9 
       800.0         0.13        107.9 
       801.0         0.13        116.5 
       802.0         0.23        127.4 
       803.0         0.28        162.1 
       804.0         0.23        179.1 
       805.0         0.67        173.5 
       806.0         1.20        218.0 
       807.0         0.20        258.7 
       808.0         0.23        379.5 
       809.0         0.20       1101.0 
       810.0         0.23       1266.7 
       811.0         0.68       1224.8 
       812.0         0.27       1041.1 
       813.0         0.30        883.2 
       814.0         0.23        748.8 
       815.0         0.27        701.7 
       816.0         0.23        635.7 
       817.0         0.27        631.5 
       818.0         0.23        589.6 
       819.0         0.27        571.2 
       820.0         0.23        565.7 
       821.0         0.23        560.3 
       822.0         0.23        537.7 
       823.0         0.28        529.3 
       824.0         0.23        524.2 
       825.0         0.23        518.7 
       826.0         0.23        512.6 
       827.0         0.23        509.0 
       828.0         0.20        507.4 
       829.0         0.23        504.2 
       830.0         0.27        502.2 
       831.0         0.30        492.3 
       832.0         0.30        483.2 
       833.0         0.27        479.7 
       834.0         0.27        474.5 
       835.0         0.23        479.7 
       836.0         2.88       1063.6 
       837.0         0.37       2079.1 
       838.0         0.42       2870.3 
       839.0         0.33       2928.3 
       840.0         0.33       2238.3 
       841.0         0.30       1544.8 
       842.0         0.33        897.0 
       843.0         0.27        684.3 
       844.0         0.23        539.6 
       845.0         0.23        530.6 
       846.0         0.27        480.7 
       847.0         0.23        476.8 
       848.0         0.23        454.2 
       849.0         0.27        445.5 
       850.0         0.22        441.0 
       851.0         0.27        440.0 
       852.0         0.23        224.9 
       853.0         0.23        224.0 
       854.0         0.27        221.4 
       855.0         0.23        220.7 
       856.0         0.23        220.6 
       857.0         0.23        220.6 
       858.0         0.23        220.5 
       859.0         0.27        220.1 
