~Version Information
VERS.                      2.0: CWLS Log ASCII Standard - VERSION 2.0
WRAP.                       NO: One line per depth step
~Well Information Block
STRT.FT               752.0000: 
STOP.FT              2474.2000: 
STEP.FT                 0.1000: 
NULL.                -999.2500: 
COMP.          Petrogulf Corporation: COMPANY
WELL.            Montoya 7-14V: WELL
FLD.           Purgatorie River: FIELD
LOC.           535' FSL & 491' FWL: LOCATION
CNTY.               Las Animas: COUNTY
SRVC.                         : SERVICE COMPANY
DATE.          Mon Aug 23 10:41:01 2004: LOG DATE
UWI.           05 071 08019 00: UNIQUE WELL ID
STAT.                 Colorado: STATE
~Curve Information Block
DEPT.FT            0 000 00 00: Depth
DCAL.in                       : CDL Caliper
RHOB.g/cc                     : CDL Bulk Density
RHOC.g/cc                     : CDL Density Correction
DPOR.pu                       : CDL Density Porosity
GR.GAPI                       : Gamma Ray
NPOR.pu                       : Neutron Porosity
~Parameter Information Block
~A  Depth       DCAL        RHOB        RHOC        DPOR         GR         NPOR    
# ...
  1328.0000      8.2310      2.5503      0.2432      6.0443    119.9478     25.8884
  1328.1000      8.2310      2.5648      0.2306      5.1664    120.5425     26.5606
  1328.2000      8.2310      2.5748      0.2486      4.5556    120.7982     27.2532
  1328.3000      8.2347      2.5770      0.2125      4.4241    119.0343     27.6404
  1328.4000      8.2347      2.5755      0.1736      4.5143    113.3066     27.8583
  1328.5000      8.2523      2.5763      0.1870      4.4645    106.4067     27.8677
  1328.6000      8.2523      2.5751      0.1797      4.5402    104.0589     27.4725
  1328.7000      8.2523      2.5624      0.1625      5.3104    104.8489     27.1207
  1328.8000      8.2847      2.5369      0.1051      6.8519    105.5274     27.1274
  1328.9000      8.2847      2.5124      0.0830      8.3394    108.2525     26.9963
  1329.0000      8.2725      2.5093      0.0544      8.5299    111.8331     26.4911
  1329.1000      8.2725      2.5351      0.0534      6.9641    111.9815     26.1583
  1329.2000      8.2725      2.5687      0.1225      4.9266    109.6076     26.4212
  1329.3000      8.2698      2.5735      0.1429      4.6339    108.1573     26.6616
  1329.4000      8.2698      2.5337      0.1040      7.0490    110.3092     26.3196
  1329.5000      8.2710      2.4678      0.0997     11.0442    115.9802     25.9865
  1329.6000      8.2710      2.4059      0.1139     14.7910    121.2057     25.8383
  1329.7000      8.2710      2.3677      0.0781     17.1105    122.7503     25.4254
  1329.8000      8.3187      2.3572      0.0835     17.7468    120.5539     25.2085
  1329.9000      8.3187      2.3739      0.0911     16.7337    116.1403     25.8462
  1330.0000      8.6281      2.4197      0.1193     13.9559    113.1202     26.7520
  1330.1000      8.6281      2.4801      0.2756     10.2955    112.7936     27.1514
  1330.2000      8.6281      2.5254      0.3688      7.5517    110.9177     27.2882
  1330.3000      8.9160      2.5458      0.3926      6.3172    106.7640     27.6878
  1330.4000      8.9160      2.5585      0.3422      5.5481    104.4286     28.4371
  1330.5000      8.7671      2.5812      0.3148      4.1700    102.7742     29.0864
  1330.6000      8.7671      2.6129      0.3415      2.2489     97.7951     28.9441
  1330.7000      8.7671      2.6396      0.3241      0.6298     92.6042     28.0931
  1330.8000      8.6891      2.6536      0.2984     -0.2182     92.5204     27.4574
  1330.9000      8.6891      2.6525      0.2963     -0.1491     93.8948     27.5133
  1331.0000      8.4499      2.6262      0.2892      1.4399     92.0030     27.6080
  1331.1000      8.4499      2.5702      0.1918      4.8371     88.5064     27.1634
  1331.2000      8.4499      2.5027      0.1039      8.9260     85.5094     26.9685
  1331.3000      8.2905      2.4563      0.0484     11.7380     84.9579     27.6547
  1331.4000      8.2905      2.4497      0.0547     12.1390     89.0452     28.5036
  1331.5000      8.2435      2.4703      0.0783     10.8899     95.8590     28.8595
  1331.6000      8.2435      2.4979      0.0981      9.2166     98.7461     28.9699
  1331.7000      8.2435      2.5318      0.1435      7.1649     94.0275     29.0350
  1331.8000      8.3944      2.5730      0.2288      4.6683     86.5360     28.6875
  1331.9000      8.3944      2.6030      0.2827      2.8495     84.3971     28.0107
  1332.0000      8.4587      2.6104      0.2629      2.3991     89.7293     27.5551
  1332.1000      8.4587      2.6085      0.2682      2.5134     97.7927     27.4474
  1332.2000      8.4587      2.6093      0.2264      2.4695    104.3713     27.5568
  1332.3000      8.4965      2.5998      0.2495      3.0440    107.9846     27.9174
  1332.4000      8.4965      2.5620      0.1632      5.3354    106.2969     28.3215
  1332.5000      8.3693      2.5078      0.0860      8.6211    100.5892     28.4376
  1332.6000      8.3693      2.4629      0.0097     11.3411     96.7162     28.2999
  1332.7000      8.3693      2.4329      0.0367     13.1604     95.3867     28.1381
  1332.8000      8.2908      2.4119     -0.0023     14.4298     92.9275     28.1207
  1332.9000      8.2908      2.4098     -0.0042     14.5551     90.7341     28.0823
  1333.0000      8.2491      2.4386     -0.0125     12.8097     92.2502     27.8310
  1333.1000      8.2491      2.4915      0.0484      9.6032     96.3480     27.4266
  1333.2000      8.2491      2.5513      0.0544      5.9821    100.0069     26.9295
  1333.3000      8.2420      2.5930      0.1671      3.4543    102.2291     26.8613
  1333.4000      8.2420      2.5893      0.1752      3.6812    103.5096     27.4645
  1333.5000      8.2445      2.5464      0.1559      6.2807    103.1842     27.9938
  1333.6000      8.2445      2.4968      0.1460      9.2831     99.9786     28.2805
  1333.7000      8.2445      2.4614      0.1200     11.4278     97.0142     28.6597
  1333.8000      8.2442      2.4534      0.0750     11.9128     94.5044     28.9433
  1333.9000      8.2442      2.4835      0.0789     10.0935     87.9917     28.9272
  1334.0000      8.2456      2.5412      0.1239      6.5931     80.7285     28.6637
  1334.1000      8.2456      2.5936      0.2089      3.4157     79.7613     28.1908
  1334.2000      8.2456      2.6067      0.2408      2.6253     83.6338     27.6631
  1334.3000      8.2892      2.5764      0.2171      4.4613     87.7463     27.3210
  1334.4000      8.2892      2.5310      0.2132      7.2135     93.0888     27.3441
  1334.5000      8.2636      2.4952      0.1691      9.3848     97.7326     27.4059
  1334.6000      8.2636      2.4704      0.1789     10.8859     96.0909     26.9804
  1334.7000      8.2636      2.4500      0.1158     12.1206     91.0119     26.4495
  1334.8000      8.2450      2.4423      0.0698     12.5863     87.8199     26.4287
  1334.9000      8.2450      2.4574      0.0978     11.6731     87.4312     26.4802
  1335.0000      8.2371      2.4874      0.1390      9.8571     89.0173     26.3117
  1335.1000      8.2371      2.5185      0.2399      7.9725     89.6462     26.3703
  1335.2000      8.2371      2.5379      0.2932      6.7961     87.3529     26.3884
  1335.3000      8.2716      2.5346      0.3148      6.9914     85.2584     26.1784
  1335.4000      8.2716      2.5019      0.3335      8.9732     87.7255     26.3859
  1335.5000      8.3685      2.4461      0.2628     12.3555     93.2875     27.1105
  1335.6000      8.3685      2.3929      0.2321     15.5804     96.4411     27.7370
  1335.7000      8.3685      2.3633      0.2420     17.3738     97.3515     27.8666
  1335.8000      8.5374      2.3645      0.2248     17.3048    100.3940     27.6434
  1335.9000      8.5374      2.3980      0.2850     15.2752    104.5742     27.7088
  1336.0000      8.7882      2.4467      0.3734     12.3220    104.5546     28.5720
  1336.1000      8.7882      2.4842      0.4072     10.0458    101.8916     30.0848
  1336.2000      8.7882      2.5000      0.4252      9.0938    103.8265     31.3937
  1336.3000      8.8631      2.4878      0.4420      9.8301    108.7036     31.7019
  1336.4000      8.8631      2.4438      0.3556     12.4975    110.8545     31.3830
  1336.5000      8.6379      2.3795      0.3014     16.3952    110.4340     31.3306
  1336.6000      8.6379      2.3119      0.2908     20.4922    108.2209     31.7448
  1336.7000      8.6379      2.2551      0.2429     23.9306    105.9482     32.2101
  1336.8000      8.6886      2.2157      0.2634     26.3191    105.4903     31.9634
  1336.9000      8.6886      2.1856      0.2201     28.1467    105.0823     30.5745
  1337.0000      8.9068      2.1489      0.2270     30.3689    104.8101     28.8984
  1337.1000      8.9068      2.0924      0.2633     33.7916    105.8319     28.5414
  1337.2000      8.9068      2.0246      0.2898     37.9050    106.2068     29.5630
  1337.3000      8.8092      1.9773      0.2805     40.7673    104.9301     30.6326
  1337.4000      8.8092      1.9807      0.2752     40.5664    102.5903     31.2271
  1337.5000      8.8392      2.0493      0.2813     36.4081     99.7452     31.6253
