~Version Information
VERS.                      2.0: CWLS Log ASCII Standard - VERSION 2.0
WRAP.                       NO: One line per depth step
~Well Information Block
STRT.FT               845.0000: 
STOP.FT              2308.2000: 
STEP.FT                 0.1000: 
NULL.                -999.2500: 
COMP.          Pioneer Natural Resources: COMPANY
WELL.             Vector 33-23: WELL
FLD.           Purgatoire River: FIELD
LOC.           1560' FEL & 1988' FSL----: LOCATION
PROV.                 Colorado: PROVINCE
CNTY.               Las Animas: COUNTRY
SRVC.                Patterson: SERVICE COMPANY
DATE.          Mon Mar 28 08:17:25 2005: LOG DATE
UWI.           05 071 08336 00: UNIQUE WELL ID
~Curve Information Block
DEPT.FT            0 000 00 00: Depth
DCAL.in                       : CDL Caliper
RHOB.g/cc                     : CDL Bulk Density
RHOC.g/cc                     : CDL Density Correction
DPOR.pu                       : CDL Density Porosity
NPOR.pu                       : Neutron Porosity
GR.GAPI                       : Gamma Ray
~Parameter Information Block
~A  Depth       DCAL        RHOB        RHOC        DPOR        NPOR         GR     
# ...
  1325.0000      8.1224      2.6728      0.0642     -1.3839     16.6315     86.2301
  1325.1000      8.1224      2.6817      0.1184     -1.9231     16.1997     90.8149
  1325.2000      8.1224      2.6763      0.0583     -1.5965     15.9446     96.0356
  1325.3000      8.1225      2.6726      0.0600     -1.3691     15.7746     98.4363
  1325.4000      8.1225      2.6846      0.0910     -2.0986     15.5507     94.9930
  1325.5000      8.1237      2.7030      0.0776     -3.2130     15.2708     87.8407
  1325.6000      8.1237      2.7135      0.0791     -3.8514     15.3891     84.6633
  1325.7000      8.1237      2.7106      0.1057     -3.6735     16.0434     89.3893
  1325.8000      8.1242      2.6994      0.0864     -2.9946     16.6520     95.5305
  1325.9000      8.1242      2.6930      0.0550     -2.6051     16.8583     96.1633
  1326.0000      8.1233      2.6908      0.0826     -2.4700     17.0708     92.8770
  1326.1000      8.1233      2.6775      0.0815     -1.6648     17.5444     92.1514
  1326.2000      8.1233      2.6501      0.0721     -0.0083     17.8423     95.5357
  1326.3000      8.1238      2.6268      0.0497      1.4067     17.6530     98.0200
  1326.4000      8.1238      2.6226      0.0654      1.6598     17.2758     99.2656
  1326.5000      8.1240      2.6305      0.0429      1.1825     17.0124    102.0454
  1326.6000      8.1240      2.6364      0.0603      0.8270     16.7699    103.4735
  1326.7000      8.1240      2.6362      0.0484      0.8366     16.2722    101.1981
  1326.8000      8.1227      2.6375      0.0321      0.7571     15.9700     97.4778
  1326.9000      8.1227      2.6479      0.0399      0.1302     16.5743     93.6211
  1327.0000      8.1208      2.6617      0.0796     -0.7074     17.6741     91.1421
  1327.1000      8.1208      2.6618      0.0967     -0.7129     18.5988     91.5725
  1327.2000      8.1208      2.6421      0.0578      0.4806     19.2681     92.8998
  1327.3000      8.1203      2.6221      0.0323      1.6917     19.7995     95.1716
  1327.4000      8.1203      2.6218      0.0158      1.7075     20.0133     99.0759
  1327.5000      8.1225      2.6408      0.0492      0.5590     19.3734    100.1604
  1327.6000      8.1225      2.6622      0.0855     -0.7411     18.3448     96.5053
  1327.7000      8.1225      2.6681      0.0808     -1.0996     18.0932     91.8032
  1327.8000      8.1248      2.6504      0.0795     -0.0241     18.6568     91.1629
  1327.9000      8.1248      2.6183      0.0359      1.9193     19.0879     92.4497
  1328.0000      8.1233      2.5958      0.0627      3.2836     18.9256     90.2170
  1328.1000      8.1233      2.5938      0.0639      3.4046     18.4762     87.9251
  1328.2000      8.1233      2.5994      0.0990      3.0651     18.1303     89.5609
  1328.3000      8.1198      2.5961      0.0850      3.2653     18.1828     91.1799
  1328.4000      8.1198      2.5852      0.0837      3.9255     18.5210     90.1248
  1328.5000      8.1198      2.5771      0.0471      4.4159     18.4519     89.0096
  1328.6000      8.1198      2.5718      0.0848      4.7411     17.5831     87.9411
  1328.7000      8.1198      2.5638      0.0586      5.2220     16.8425     82.9076
  1328.8000      8.1225      2.5561      0.0677      5.6917     17.1074     76.0952
  1328.9000      8.1225      2.5497      0.0756      6.0762     17.8637     73.5953
  1329.0000      8.1237      2.5432      0.0527      6.4708     18.4719     75.0444
  1329.1000      8.1237      2.5419      0.0358      6.5516     18.8639     76.1083
  1329.2000      8.1237      2.5462      0.0695      6.2923     18.9237     74.4504
  1329.3000      8.1216      2.5477      0.0584      6.1973     18.7099     71.0924
  1329.4000      8.1216      2.5492      0.0237      6.1099     18.4352     66.9232
  1329.5000      8.1182      2.5545      0.0898      5.7881     18.2501     63.6937
  1329.6000      8.1182      2.5553      0.0654      5.7376     18.1947     62.7768
  1329.7000      8.1182      2.5505      0.0598      6.0322     17.9575     62.4501
  1329.8000      8.1160      2.5474      0.0429      6.2200     17.5483     61.7039
  1329.9000      8.1160      2.5506      0.0575      6.0216     17.4335     60.8267
  1330.0000      8.1148      2.5593      0.0492      5.4979     17.8006     60.0007
  1330.1000      8.1148      2.5673      0.1038      5.0121     18.5770     58.7849
  1330.2000      8.1148      2.5697      0.0801      4.8672     19.4302     59.6473
  1330.3000      8.1177      2.5669      0.0880      5.0376     19.7376     62.4004
  1330.4000      8.1177      2.5558      0.0610      5.7079     19.1957     62.6169
  1330.5000      8.1216      2.5367      0.0473      6.8695     18.3813     61.9291
  1330.6000      8.1216      2.5176      0.0672      8.0213     17.9452     62.9268
  1330.7000      8.1216      2.5052      0.0949      8.7728     18.0493     63.5648
  1330.8000      8.1219      2.5012      0.0639      9.0186     18.3868     62.1614
  1330.9000      8.1219      2.5005      0.0796      9.0579     18.5573     59.9204
  1331.0000      8.1198      2.5004      0.0586      9.0654     18.6423     58.1469
  1331.1000      8.1198      2.5055      0.0551      8.7595     18.7018     57.3148
  1331.2000      8.1198      2.5104      0.0818      8.4614     18.6224     58.6305
  1331.3000      8.1192      2.5063      0.0681      8.7084     18.7422     61.5618
  1331.4000      8.1192      2.5074      0.0261      8.6423     19.4501     62.6370
  1331.5000      8.1205      2.5284      0.0891      7.3670     20.1893     61.5652
  1331.6000      8.1205      2.5534      0.0918      5.8560     20.0579     59.6938
  1331.7000      8.1205      2.5591      0.1366      5.5113     19.4051     58.0681
  1331.8000      8.1204      2.5475      0.0841      6.2101     19.0860     57.2668
  1331.9000      8.1204      2.5387      0.0804      6.7465     18.9252     55.8651
  1332.0000      8.1198      2.5321      0.0984      7.1447     18.5261     54.4370
  1332.1000      8.1198      2.5149      0.0602      8.1866     18.3437     53.8396
  1332.2000      8.1198      2.4921      0.0640      9.5683     18.8437     51.9850
  1332.3000      8.1207      2.4776      0.0456     10.4487     19.4520     47.7161
  1332.4000      8.1207      2.4749      0.0581     10.6147     19.4248     41.9089
  1332.5000      8.1226      2.4701      0.0914     10.9040     19.0607     37.1258
  1332.6000      8.1226      2.4566      0.0269     11.7223     18.7598     35.3946
  1332.7000      8.1226      2.4456      0.0299     12.3890     18.4580     35.5420
  1332.8000      8.1224      2.4386      0.0795     12.8098     18.2817     36.9979
  1332.9000      8.1224      2.4326      0.0602     13.1768     18.5469     40.6181
  1333.0000      8.1194      2.4333      0.0675     13.1330     19.3866     44.1253
  1333.1000      8.1194      2.4435      0.0962     12.5143     20.3924     44.7940
  1333.2000      8.1194      2.4556      0.1284     11.7841     20.6937     44.7983
  1333.3000      8.1172      2.4584      0.1249     11.6151     19.8228     46.1345
  1333.4000      8.1172      2.4557      0.1377     11.7763     18.4318     46.0004
  1333.5000      8.1185      2.4579      0.1295     11.6406     17.5091     44.5341
  1333.6000      8.1185      2.4603      0.1500     11.4997     17.6417     46.0589
  1333.7000      8.1185      2.4577      0.0981     11.6536     18.6820     49.1992
  1333.8000      8.1193      2.4622      0.1114     11.3817     19.8245     48.5016
  1333.9000      8.1193      2.4797      0.1372     10.3199     20.2837     44.5012
  1334.0000      8.1189      2.5005      0.1313      9.0599     19.9164     42.1456
  1334.1000      8.1189      2.5132      0.1715      8.2912     19.3854     43.7717
  1334.2000      8.1189      2.5140      0.1484      8.2416     19.1162     47.3856
  1334.3000      8.1179      2.5155      0.1140      8.1545     18.9133     48.8763
  1334.4000      8.1179      2.5364      0.1043      6.8849     18.7107     47.7201
  1334.5000      8.1173      2.5767      0.1276      4.4447     18.6620     49.0785
