~Version Information
VERS.                      2.0: CWLS Log ASCII Standard - VERSION 2.0
WRAP.                       NO: One line per depth step
~Well Information Block
STRT.FT                -7.5000: 
STOP.FT              1716.7500: 
STEP.FT                 0.2500: 
NULL.                -999.2500: 
COMP.          Pioneer Natural Resources: COMPANY
WELL.          Lookout Point 31-23 Tr: WELL
FLD.           Purgatorie River: FIELD
LOC.           541' FNL & 1786' FEL--------: LOCATION
PROV.                       CO: PROVINCE
CNTY.               Las Animas: COUNTRY
SRVC.                         : SERVICE COMPANY
DATE.          Fri Jan 28 08:30:47 2005: LOG DATE
UWI.         005 071 08260 : UNIQUE WELL ID
~Curve Information Block
DEPT.FT            0 000 00 00: Depth
CCL.                          : Casing Collar Locator
TT3.usec                      : CBL 3' Travel Time
AMP3.mV                       : CBL 3' Amplitude
GR.GAPI                       : Gamma Ray
~Parameter Information Block
~A  Depth       CCL         TT3         AMP3         GR     
# ...
   227.0000      0.0000    771.5499      4.9801     56.8585
   227.2500      0.0000    780.7753      4.9013     56.4254
   227.5000      0.0000    786.1841      4.7816     56.4159
   227.7500      0.0000    788.2606      4.6684     56.2102
   228.0000      0.0000    787.6143      4.6250     55.5312
   228.2500      0.0000    784.9841      4.6727     55.2755
   228.5000      0.0000    782.0193      4.7554     56.6172
   228.7500      0.0000    780.9165      4.7889     59.3474
   229.0000      0.0000    782.8511      4.7458     61.9285
   229.2500      0.0000    787.0516      4.6750     63.4091
   229.5000      0.0000    791.6022      4.6430     64.5426
   229.7500      0.0000    794.9935      4.6784     66.4504
   230.0000      0.0000    796.8657      4.7719     68.6587
   230.2500      0.0000    797.6381      4.9019     69.1627
   230.5000      0.0000    797.8163      5.0471     66.3926
   230.7500      0.0000    797.6245      5.1793     60.7108
   231.0000      0.0000    796.9841      5.2654     54.0998
   231.2500      0.0000    795.6751      5.2880     48.7798
   231.5000      0.0000    793.5926      5.2612     46.0155
   231.7500      0.0000    790.9766      5.2179     45.6696
   232.0000      0.0000    788.4243      5.1821     46.5688
   232.2500      0.0000    786.6271      5.1577     47.4021
   232.5000      0.0000    785.9994      5.1371     47.5280
   232.7500      0.0000    786.4355      5.1150     47.1581
   233.0000      0.0000    787.4046      5.0928     46.9215
   233.2500      0.0000    788.3613      5.0708     47.3254
   233.5000      0.0000    789.0429      5.0431     48.4449
   233.7500      0.0000    789.1903      5.0036     49.7651
   234.0000      0.0000    787.9699      4.9547     50.2397
   234.2500      0.0000    784.0441      4.9040     48.8975
   234.5000      0.0000    776.5632      4.8560     45.8119
   234.7500      0.0000    765.9793      4.8180     42.3973
   235.0000      0.0000    753.7144      4.8064     40.3862
   235.2500      0.0000    741.3885      4.8331     40.3756
   235.5000      0.0000    730.6395      4.8827     41.4562
   235.7500      0.0000    723.1249      4.9177     42.1737
   236.0000      0.0000    719.8701      4.9130     41.7276
   236.2500      0.0000    720.3948      4.8803     40.3316
   236.5000      0.0000    722.7957      4.8560     38.8009
   236.7500      0.0000    725.2980      4.8612     37.9342
   237.0000      0.0000    728.1626      4.8672     37.9737
   237.2500      0.0000    733.5218      4.8091     38.5113
   237.5000      0.0000    742.4845      4.6510     39.2500
   237.7500      0.0000    752.7977      4.4310     40.7559
   238.0000      0.0000    760.5605      4.2264     43.8372
   238.2500      0.0000    764.1303      4.0846     48.3052
   238.5000     -2.0000    765.0499      3.9977     53.2344
   238.7500      2.0000    764.8091      3.9351     58.5969
   239.0000      0.0000    762.1744      3.8916     65.6880
   239.2500      0.0000    755.0307      3.9004     75.3170
   239.5000      0.0000    744.4249      3.9905     86.0073
   239.7500      0.0000    735.2690      4.1281     94.7090
   240.0000      0.0000    732.3806      4.2241     99.6212
   240.2500      0.0000    736.2844      4.2240    102.0570
   240.5000      0.0000    743.0069      4.1709    104.9345
   240.7500      0.0000    747.7344      4.1510    109.3201
   241.0000      0.0000    748.9717      4.1975    113.2321
   241.2500      0.0000    749.5421      4.2754    114.1345
   241.5000      0.0000    753.4659      4.3363    111.8021
   241.7500      0.0000    761.7356      4.3558    108.1623
   242.0000      0.0000    771.1695      4.3292    104.8201
   242.2500      0.0000    777.2047      4.2691    101.3718
   242.5000      0.0000    777.5696      4.2095     96.1375
   242.7500      0.0000    773.4376      4.1899     88.1174
   243.0000      0.0000    767.6960      4.2287     78.0381
   243.2500      0.0000    762.4694      4.3152     67.7509
   243.5000      0.0000    758.1702      4.4279     58.8345
   243.7500      0.0000    754.4539      4.5470     51.7770
   244.0000      0.0000    751.6983      4.6509     46.3727
   244.2500      0.0000    751.3243      4.7170     42.5713
   244.5000      0.0000    754.6776      4.7414     40.6340
   244.7500      0.0000    761.7849      4.7444     40.5679
   245.0000      0.0000    771.1372      4.7411     41.7593
   245.2500      0.0000    780.2823      4.7132     43.3943
   245.5000      0.0000    786.5560      4.6253     45.2368
   245.7500      0.0000    787.6469      4.4656     47.8168
   246.0000      0.0000    782.0381      4.2586     51.7927
   246.2500      0.0000    769.6100      4.0426     57.3141
   246.5000      0.0000    752.2671      3.8444     64.1164
   246.7500      0.0000    733.5408      3.6757     72.0594
   247.0000      0.0000    716.8100      3.5484     81.1278
   247.2500      0.0000    703.7967      3.4784     90.5806
   247.5000      0.0000    694.9194      3.4683     98.4054
   247.7500      0.0000    690.4531      3.4908    102.2591
   248.0000      0.0000    690.4755      3.5043    101.2512
   248.2500      0.0000    693.8959      3.4873     96.8107
   248.5000      0.0000    698.4984      3.4557     91.7650
   248.7500      0.0000    702.2997      3.4454     88.2661
   249.0000      0.0000    704.5788      3.4825     86.2758
   249.2500      0.0000    705.6454      3.5692     84.1065
   249.5000      0.0000    706.0562      3.6924     80.3981
   249.7500      0.0000    706.2045      3.8332     75.2917
   250.0000      0.0000    706.4072      3.9667     70.0180
   250.2500      0.0000    707.1216      4.0637     66.0657
   250.5000      0.0000    708.8688      4.1024     64.7974
   250.7500      0.0000    711.6996      4.0812     67.2879
   251.0000      0.0000    714.7159      4.0248     74.0439
   251.2500      0.0000    716.5482      3.9745     84.5354
   251.5000      0.0000    716.7368      3.9645     96.8314
   251.7500      0.0000    716.3436      4.0009    108.0011
   252.0000      0.0000    716.6752      4.0619    115.3639
   252.2500      0.0000    717.5414      4.1159    117.7116
   252.5000      0.0000    717.4445      4.1410    115.6245
   252.7500      0.0000    715.7112      4.1319    110.9201
   253.0000      0.0000    713.8332      4.1000    105.8061
   253.2500      0.0000    714.2365      4.0682    102.0728
   253.5000      0.0000    718.0617      4.0570    100.4928
   253.7500      0.0000    724.5109      4.0675    100.6509
   254.0000      0.0000    731.7957      4.0825    101.1858
   254.2500      0.0000    738.4233      4.0914    100.4837
   254.5000      0.0000    744.2955      4.1047     97.9754
   254.7500      0.0000    750.8663      4.1387     95.0462
   255.0000      0.0000    759.3672      4.1904     94.2073
   255.2500      0.0000    768.5104      4.2410     97.1038
   255.5000      0.0000    774.4728      4.2800    103.2395
   255.7500      0.0000    773.4568      4.3156    110.2540
   256.0000      0.0000    764.5862      4.3605    115.3304
   256.2500      0.0000    751.2443      4.4156    116.9146
   256.5000      0.0000    739.8651      4.4707    115.6643
   256.7500      0.0000    735.7501      4.5123    113.6548
   257.0000      0.0000    738.6271      4.5340    112.2465
   257.2500      0.0000    742.9895      4.5381    110.7355
   257.5000      0.0000    743.5791      4.5305    107.2874
   257.7500      0.0000    739.8545      4.5156    101.0835
   258.0000      0.0000    734.7802      4.5009     93.2489
   258.2500      0.0000    730.7345      4.4989     85.6040
   258.5000      0.0000    727.8891      4.5131     78.9912
   258.7500      0.0000    725.9561      4.5262     73.2785
   259.0000      0.0000    725.7145      4.5193     68.5605
   259.2500      0.0000    727.8988      4.4999     65.6008
   259.5000      0.0000    731.2340      4.4944     64.9846
   259.7500      0.0000    732.8203      4.5134     66.1230
   260.0000      0.0000    730.8401      4.5407     67.2044
   260.2500      0.0000    726.2523      4.5563     66.2899
