~Version Information
VERS.                      2.0: CWLS Log ASCII Standard - VERSION 2.0
WRAP.                       NO: One line per depth step
~Well Information Block
STRT.FT                -6.7500: 
STOP.FT              2058.2500: 
STEP.FT                 0.2500: 
NULL.                -999.2500: 
COMP.          Petrogulf Corporation: COMPANY
WELL.           Schedler 9-23R: WELL
FLD.           Purgatorie River: FIELD
LOC.           2084' FSL & 2331' FWL--: LOCATION
PROV.                       CO: PROVINCE
CNTY.               Las Animas: COUNTRY
SRVC.                         : SERVICE COMPANY
DATE.          Fri Nov 12 13:22:46 2004: LOG DATE
UWI.       005 071 08040 : UNIQUE WELL ID
~Curve Information Block
DEPT.FT            0 000 00 00: Depth
GR.GAPI                       : Gamma Ray
CCL.                          : Casing Collar Locator
TT3.usec                      : CBL 3' Travel Time
AMP3.mV                       : CBL 3' Amplitude
~Parameter Information Block
~A  Depth        GR         CCL         TT3         AMP3    
# ...
   797.2500     94.3959      0.0000    799.9114     10.0219
   797.5000     96.8737      0.0000    803.5825     10.0138
   797.7500     98.5619      0.0000    806.8967     10.0785
   798.0000     98.1727      0.0000    809.7952     10.2310
   798.2500     95.1716      0.0000    812.5801     10.4787
   798.5000     89.4224      0.0000    815.2426     10.8030
   798.7500     80.9882      0.0000    816.7457     11.1672
   799.0000     70.6096      0.0000    815.2643     11.5427
   799.2500     60.0237      0.0000    809.5783     11.9299
   799.5000     51.2668      0.0000    800.4841     12.3514
   799.7500     45.3333      0.0000    790.7335     12.8194
   800.0000     41.4800      0.0000    783.3250     13.3110
   800.2500     38.0688      0.0000    779.5546     13.7744
   800.5000     34.2812      0.0000    778.4004     14.1599
   800.7500     30.9046      0.0000    777.6899     14.4446
   801.0000     29.3812      0.0000    775.9710     14.6342
   801.2500     30.3996      0.0000    773.3580     14.7431
   801.5000     33.5111      0.0000    770.8289     14.7675
   801.7500     37.7223      0.0000    768.8541     14.6748
   802.0000     42.0486      0.0000    766.4031     14.4220
   802.2500     45.6666      0.0000    760.5177     14.0077
   802.5000     48.1469      0.0000    747.9136     13.5150
   802.7500     49.9049      0.0000    730.2270     13.0677
   803.0000     52.1989      0.0000    718.7399     12.6966
   803.2500     56.3070      0.0000    729.1620     12.2810
   803.5000     62.5865      0.0000    766.8918     11.6976
   803.7500     70.3202      0.0000    819.4908     11.0028
   804.0000     78.2778      0.0000    867.0666     10.3976
   804.2500     85.2921      0.0000    897.8445     10.0320
   804.5000     90.5278      0.0000    912.0529      9.9072
   804.7500     93.5290      0.0000    914.7906      9.9447
   805.0000     94.2671      0.0000    908.9539     10.1055
   805.2500     93.2736      0.0000    893.6171     10.4378
   805.5000     91.6003      0.0000    866.6521     10.9985
   805.7500     90.3822      0.0000    829.1047     11.6995
   806.0000     90.1816      0.0000    788.4785     12.2687
   806.2500     90.7224      0.0000    756.6379     12.4568
   806.5000     91.4331      0.0000    741.8781     12.2734
   806.7500     92.1137      0.0000    742.6747     11.9533
   807.0000     92.7269      0.0000    750.4880     11.7200
   807.2500     92.7538      0.0000    757.7248     11.6480
   807.5000     91.3291      0.0000    761.8428     11.7090
   807.7500     88.0623      0.0000    763.8217     11.8591
   808.0000     83.5153      0.0000    765.4388     12.0658
   808.2500     79.1263      0.0000    768.0570     12.2953
   808.5000     76.6733      0.0000    772.4109     12.5095
   808.7500     76.9909      0.0000    778.4290     12.6762
   809.0000     78.7245      0.0000    785.2982     12.7869
   809.2500     78.9566      0.0000    791.8101     12.8650
   809.5000     75.6326      0.0000    796.7643     12.9532
   809.7500     69.3208      0.0000    799.3339     13.0884
   810.0000     62.7475      0.0000    799.4943     13.2825
   810.2500     58.9318      0.0000    797.9465     13.5171
   810.5000     59.4289      0.0000    795.4624     13.7475
   810.7500     63.5847      0.0000    792.8175     13.9204
   811.0000     69.0630      0.0000    791.3565     14.0030
   811.2500     73.1521      0.0000    792.4232     14.0024
   811.5000     74.1208      0.0000    795.5624     13.9509
   811.7500     72.1833      0.0000    798.0331     13.8738
   812.0000     69.4778      0.0000    796.8545     13.7775
   812.2500     68.6399      0.0000    791.3708     13.6628
   812.5000     71.0032      0.0000    783.9197     13.5354
   812.7500     76.1077      0.0000    778.2145     13.3962
   813.0000     82.5442      0.0000    776.6946     13.2350
   813.2500     88.8721      0.0000    778.6529     13.0403
   813.5000     93.9241      0.0000    780.4336     12.8084
   813.7500     96.8151      0.0000    777.7825     12.5359
   814.0000     97.0549      0.0000    768.9260     12.2182
   814.2500     94.7611      0.0000    755.9641     11.8745
   814.5000     90.6798      0.0000    743.2820     11.5682
   814.7500     85.9479      0.0000    734.5856     11.3758
   815.0000     81.8152      0.0000    731.7047     11.3296
   815.2500     79.2793      0.0000    735.2761     11.4034
   815.5000     78.6866      0.0000    744.5983     11.5475
   815.7500     79.6930      0.0000    756.9903     11.7203
   816.0000     81.6096      0.0000    769.7642     11.8846
   816.2500     83.6451      0.0000    783.6412     12.0004
   816.5000     84.9992      0.0000    802.5245     12.0466
   816.7500     85.0837      0.0000    828.6515     12.0404
   817.0000     83.7235      0.0000    858.5573     12.0179
   817.2500     81.0131      0.0000    884.7303     11.9981
   817.5000     77.1820      0.0000    900.7095     11.9714
   817.7500     72.8424      0.0000    903.9742     11.9171
   818.0000     69.0609      0.0000    895.3509     11.8226
   818.2500     66.9284      0.0000    877.9784     11.6862
   818.5000     67.2017      0.0000    856.9865     11.5111
   818.7500     70.0941      0.0000    838.0355     11.3100
   819.0000     74.7517      0.0000    824.7067     11.1164
   819.2500     79.0825      0.0000    817.2786     10.9809
   819.5000     81.0237      0.0000    813.9338     10.9434
   819.7500     80.1283      0.0000    812.6570     11.0067
   820.0000     77.3535      0.0000    812.1619     11.1376
   820.2500     73.5878      0.0000    811.7500     11.2938
   820.5000     69.2640      0.0000    810.7690     11.4516
   820.7500     65.1473      0.0000    808.2448     11.6137
   821.0000     62.5027      0.0000    803.0566     11.7996
   821.2500     62.2489      0.0000    794.5920     12.0308
   821.5000     64.4252      0.0000    783.2300     12.3222
   821.7500     68.5381      0.0000    770.1844     12.6759
   822.0000     73.9253      0.0000    757.1108     13.0723
   822.2500     79.4923      0.0000    746.0172     13.4646
   822.5000     83.5091      0.0000    739.0615     13.7922
   822.7500     84.4747      0.0000    737.6387     14.0125
   823.0000     82.4441      0.0000    741.3150     14.1244
   823.2500     79.0578      0.0000    747.7806     14.1637
   823.5000     76.1095      0.0000    754.1321     14.1767
   823.7500     74.3016      0.0000    758.4548     14.1968
   824.0000     73.1001      0.0000    760.4163     14.2398
   824.2500     71.3342      0.0000    760.6501     14.3103
   824.5000     68.2160      0.0000    759.7637     14.4048
   824.7500     64.2245      0.0000    757.5760     14.5146
   825.0000     61.0043      0.0000    752.7402     14.6403
   825.2500     60.1957      0.0000    742.9496     14.8094
   825.5000     62.3353      0.0000    726.3068     15.0761
   825.7500     66.7967      0.0000    703.6525     15.4902
   826.0000     72.4634      0.0000    679.3868     16.0533
   826.2500     78.2998      0.0000    658.0771     16.6983
   826.5000     83.5594      0.0000    640.0398     17.3099
   826.7500     87.7725      0.0000    623.0018     17.7783
   827.0000     90.6111      0.0000    608.8549     18.0419
   827.2500     91.8091      0.0000    605.1763     18.0850
   827.5000     91.3968      0.0000    618.5154     17.9080
   827.7500     89.9823      0.0000    648.1528     17.5261
   828.0000     88.4876      0.0000    686.1585     17.0023
   828.2500     87.5733      0.0000    721.7324     16.4612
   828.5000     87.4677      0.0000    746.7141     16.0382
   828.7500     88.1617      0.0000    759.1981     15.7895
   829.0000     89.5543      0.0000    762.5868     15.6403
   829.2500     91.5802      0.0000    761.3723     15.4271
   829.5000     94.4075      0.0000    757.9443     15.0061
   829.7500     98.0951      0.0000    752.6253     14.3469
   830.0000    101.7755      0.0000    745.6656     13.5516
   830.2500    103.7163      0.0000    738.7526     12.7865
   830.5000    102.6783      0.0000    734.5612     12.1722
