~Version Information
 VERS.                      2.0: CWLS Log ASCII Standard - VERSION 2.0
 WRAP.                       NO: One line per depth step
 ~Well Information Block
 STRT.FT               886.1000: 
 STOP.FT              2599.0000: 
 STEP.FT                 0.1000: 
 NULL.                -999.2500: 
 COMP.          Petrogulf Corporation: COMPANY
 WELL.               YWAM 7-23V: WELL
 FLD.           Purgatorie River: FIELD
 LOC.           230' FSL & 225' FWL: LOCATION
 CNTY.               Las Animas: COUNTY
 SRVC.                         : SERVICE COMPANY
 DATE.          Sat Oct 30 10:42:52 2004: LOG DATE
 UWI.           05 071 08227 00: UNIQUE WELL ID
 STAT.                 Colorado: STATE
 PROV.                         :Province
 ~Curve Information Block
 DEPT.FT            0 000 00 00: Depth
 DCAL.in                       : CDL Caliper
 RHOB.g/cc                     : CDL Bulk Density
 RHOC.g/cc                     : CDL Density Correction
 DPOR.pu                       : CDL Density Porosity
 GR.GAPI                       : Gamma Ray
 NPOR.pu                       : Neutron Porosity
 ~Parameter Information Block
 ~A  Depth       DCAL        RHOB        RHOC        DPOR         GR         NPOR    
# ...
  2470.1000      7.8144      2.4918      0.0514      9.5849     72.9822     20.4591
  2470.2000      7.8144      2.5256      0.0977      7.5372     77.2725     20.6507
  2470.3000      7.7849      2.5583      0.1199      5.5593     78.7430     20.8386
  2470.4000      7.7849      2.5685      0.1036      4.9377     76.1116     20.4865
  2470.5000      7.7999      2.5570      0.0618      5.6346     72.5645     20.1965
  2470.6000      7.7999      2.5337      0.0715      7.0496     71.7700     20.9957
  2470.7000      7.7999      2.5077      0.0852      8.6267     74.0760     22.7605
  2470.8000      7.9456      2.4909      0.0508      9.6446     76.8296     23.6940
  2470.9000      7.9456      2.4930      0.0557      9.5156     77.5971     22.5712
  2471.0000      7.9837      2.5183      0.0713      7.9825     76.9683     20.8205
  2471.1000      7.9837      2.5543      0.1077      5.7986     74.8299     19.9617
  2471.2000      7.9837      2.5701      0.0984      4.8451     68.2522     19.8820
  2471.3000      7.9726      2.5500      0.0686      6.0615     60.0907     20.4544
  2471.4000      7.9726      2.5137      0.0215      8.2618     57.0782     21.5686
  2471.5000      7.9740      2.4915      0.0165      9.6085     61.8254     22.5635
  2471.6000      7.9740      2.4935      0.0676      9.4850     71.2858     23.0733
  2471.7000      7.9740      2.5144      0.0197      8.2174     79.2693     22.9944
  2471.8000      7.9753      2.5413      0.1313      6.5881     81.5107     22.3141
  2471.9000      7.9753      2.5544      0.0764      5.7924     78.2261     21.6639
  2472.0000      7.9773      2.5425      0.0801      6.5141     72.0476     21.6681
  2472.1000      7.9773      2.4995      0.0972      9.1195     65.8550     22.3271
  2472.2000      7.9773      2.4326      0.0797     13.1730     64.6711     23.6404
  2472.3000      7.9771      2.3670      0.0477     17.1506     72.5263     25.0122
  2472.4000      7.9771      2.3275     -0.0080     19.5468     83.9260     25.2568
  2472.5000      8.0012      2.3341     -0.0331     19.1438     88.4685     24.6273
  2472.6000      8.0012      2.3860      0.0535     16.0019     84.9590     24.1453
  2472.7000      8.0012      2.4491      0.1296     12.1758     81.5730     24.3067
  2472.8000      8.0359      2.4946      0.1713      9.4155     82.8948     24.5481
  2472.9000      8.0359      2.5264      0.1537      7.4883     86.1294     23.9098
  2473.0000      8.0664      2.5591      0.1834      5.5066     87.5751     23.4555
  2473.1000      8.0664      2.5902      0.2565      3.6242     87.3868     24.5930
  2473.2000      8.0664      2.5993      0.2919      3.0751     86.5266     26.0336
  2473.3000      8.0956      2.5759      0.1364      4.4898     85.0270     25.9368
  2473.4000      8.0956      2.5403      0.0933      6.6491     83.7007     24.7043
  2473.5000      8.1201      2.5162      0.0358      8.1109     80.6587     23.8995
  2473.6000      8.1201      2.5053      0.0717      8.7724     72.8741     24.1221
  2473.7000      8.1201      2.4967      0.0504      9.2892     64.4697     24.4756
  2473.8000      8.0939      2.4920      0.0557      9.5761     63.4256     24.4202
  2473.9000      8.0939      2.4989      0.0275      9.1595     69.3064     24.2052
  2474.0000      8.0915      2.5107      0.0945      8.4400     74.7047     23.8570
  2474.1000      8.0915      2.5185      0.0867      7.9690     75.6367     23.5511
  2474.2000      8.0915      2.5271      0.0653      7.4483     72.0951     23.6409
  2474.3000      8.0972      2.5411      0.0746      6.6007     66.4513     24.4771
  2474.4000      8.0972      2.5541      0.0927      5.8130     62.4136     25.8612
  2474.5000      8.1019      2.5549      0.0525      5.7619     62.6944     26.4771
  2474.6000      8.1019      2.5413      0.0476      6.5867     65.6335     25.5549
  2474.7000      8.1019      2.5252     -0.0161      7.5624     65.7827     23.8462
  2474.8000      8.0867      2.5160      0.0194      8.1195     62.0757     22.6988
  2474.9000      8.0867      2.5061      0.0700      8.7204     56.8211     22.8573
  2475.0000      8.0856      2.4936      0.0376      9.4771     53.6908     23.3810
  2475.1000      8.0856      2.4892      0.0400      9.7461     54.4747     23.0170
  2475.2000      8.0856      2.4897      0.0377      9.7151     56.0547     22.2334
  2475.3000      8.0838      2.4810      0.0507     10.2432     56.9525     21.9140
  2475.4000      8.0838      2.4652     -0.0072     11.1994     57.2557     21.9553
  2475.5000      8.0819      2.4654      0.0435     11.1878     54.6715     21.9355
  2475.6000      8.0819      2.4936      0.0321      9.4762     52.2969     21.8998
  2475.7000      8.0819      2.5342      0.0847      7.0203     53.8188     22.0848
  2475.8000      8.0713      2.5583      0.0785      5.5580     55.5865     22.1424
  2475.9000      8.0713      2.5535      0.0585      5.8514     56.5183     21.6413
  2476.0000      8.0562      2.5338      0.0694      7.0428     59.3261     21.1575
  2476.1000      8.0562      2.5183      0.0369      7.9840     61.0682     21.0392
  2476.2000      8.0562      2.5107      0.0740      8.4424     59.4631     20.9427
  2476.3000      8.0484      2.5040      0.0664      8.8511     57.4837     20.8377
  2476.4000      8.0484      2.4898      0.0733      9.7069     57.1631     20.9086
  2476.5000      7.9989      2.4662      0.0085     11.1392     58.1527     21.2037
  2476.6000      7.9989      2.4469      0.0140     12.3099     58.2990     21.5158
  2476.7000      7.9989      2.4413      0.0343     12.6512     57.0977     21.5351
  2476.8000      7.9509      2.4411     -0.0124     12.6595     57.2472     21.4538
  2476.9000      7.9509      2.4388      0.0198     12.8012     60.6729     21.5818
  2477.0000      7.9179      2.4346      0.0140     13.0560     65.0511     21.2671
  2477.1000      7.9179      2.4394      0.0390     12.7661     68.4152     20.0281
  2477.2000      7.9179      2.4638      0.0038     11.2873     71.1783     18.7342
  2477.3000      7.8787      2.4999      0.1219      9.0957     70.5979     18.4755
  2477.4000      7.8787      2.5287      0.0986      7.3544     65.8879     19.0893
  2477.5000      7.8383      2.5397      0.1044      6.6837     61.8875     19.7053
  2477.6000      7.8383      2.5352      0.1058      6.9580     62.3167     20.2093
  2477.7000      7.8383      2.5317      0.0560      7.1713     65.9079     20.4897
  2477.8000      7.8245      2.5373      0.1008      6.8301     71.1518     20.3381
  2477.9000      7.8245      2.5355      0.0952      6.9370     76.3853     20.0071
  2478.0000      7.8202      2.5221      0.0638      7.7495     76.7269     19.4358
  2478.1000      7.8202      2.5087      0.0869      8.5621     74.2291     19.1389
  2478.2000      7.8202      2.5014      0.0663      9.0072     76.2766     19.5382
  2478.3000      7.8158      2.5077      0.0218      8.6238     80.5868     19.8184
  2478.4000      7.8158      2.5309      0.1007      7.2160     79.7742     19.7542
  2478.5000      7.8066      2.5548      0.1270      5.7718     75.2810     20.0479
  2478.6000      7.8066      2.5630      0.0976      5.2736     73.4177     20.8053
  2478.7000      7.8066      2.5590      0.0855      5.5176     73.3844     21.0990
  2478.8000      7.8243      2.5510      0.0954      5.9991     72.4315     20.6795
  2478.9000      7.8243      2.5428      0.0378      6.4984     73.1841     20.4079
  2479.0000      7.8183      2.5360      0.0966      6.9070     76.6827     20.7225
  2479.1000      7.8183      2.5313      0.0707      7.1955     79.3924     21.3139
  2479.2000      7.8183      2.5314      0.0280      7.1899     82.3973     21.3650
  2479.3000      7.7787      2.5329      0.0878      7.0979     87.9245     21.2807
  2479.4000      7.7787      2.5261      0.1043      7.5085     92.0049     22.1303
  2479.5000      7.7712      2.5138      0.0942      8.2548     94.2665     22.9216
  2479.6000      7.7712      2.5078      0.0992      8.6153     98.1953     22.4430
