~Version Information
 VERS.                                  2.0 : CWLS LAS VERSION
 WRAP.                                   NO : WRAPING MODE
 SWARE .                 MController 2.5.0N : SOFTWARE VERSION
~Well Information
 WELL.                          Border 21-3 : WELL
 COMP.              Pioneer Natural Resouce : COMPANY
 FLD.                 NE/NW Sec 3 T35S R65W : FIELD
 LOC.                      Purgatiore River : LOCATION
 DATE.                             12/09/04 : DATE(S) LOGGED
 SRVC.       Blanco Geological Services LLC : SERVICE COMPANY
 STAT.                                   CO : STATE
 CNTY.                           Las Animas : COUNTY
 CTRY.                                  USA : COUNTRY
 API.                          05-071-08169 : API NUMBER
 STRT.FT                             250.00 : START DEPTH
 STOP.FT                            1525.00 : STOP DEPTH
 STEP.FT                               1.00 : DEPTH INCREMENT
 NULL.                                -9999 : NULL VALUE
~Curve information
 DEPTH.FT                                   :
 ROP.MIN/FT                                 :
 GAS.UNITS                                  :
~ASCII Log data
# ...
      1250.0         0.27         56.9 
      1251.0         0.27         83.8 
      1252.0         0.27        101.0 
      1253.0         0.27        100.9 
      1254.0         0.17         93.5 
      1255.0         1.80         91.7 
      1256.0         0.32         27.4 
      1257.0         0.50         30.3 
      1258.0         0.37         29.4 
      1259.0         0.33         29.5 
      1260.0         0.30         30.0 
      1261.0         0.30         22.7 
      1262.0         0.33         20.0 
      1263.0         0.30         21.4 
      1264.0         0.27         23.0 
      1265.0         0.27         25.6 
      1266.0         0.65         26.5 
      1267.0         0.57         25.1 
      1268.0         0.40         25.8 
      1269.0         0.27         24.9 
      1270.0         0.30         24.8 
      1271.0         0.27         24.9 
      1272.0         0.27         24.2 
      1273.0         0.23         23.9 
      1274.0         0.23         24.3 
      1275.0         0.20         24.3 
      1276.0         0.32         23.3 
      1277.0         0.23         22.8 
      1278.0         0.30         20.5 
      1279.0         0.23         16.3 
      1280.0         0.27         15.8 
      1281.0         0.27         26.1 
      1282.0         0.27         53.8 
      1283.0         0.27         81.1 
      1284.0         0.27        107.4 
      1285.0         0.23        107.4 
      1286.0         2.95        112.1 
      1287.0         0.37         32.2 
      1288.0         0.40         27.5 
      1289.0         0.30         24.5 
      1290.0         0.25         24.7 
      1291.0         0.20         23.8 
      1292.0         0.23         23.2 
      1293.0         0.27         23.2 
      1294.0         0.27         23.5 
      1295.0         0.23         24.0 
      1296.0         0.23         23.6 
      1297.0         0.23         24.5 
      1298.0         0.27         24.2 
      1299.0         0.23         24.0 
      1300.0         0.27         23.6 
      1301.0         0.35         23.1 
      1302.0         0.30         24.0 
      1303.0         0.27         23.4 
      1304.0         0.30         24.6 
      1305.0         0.30         23.9 
      1306.0         0.30         21.9 
      1307.0         0.30         20.8 
      1308.0         0.30         17.3 
      1309.0         0.30         23.6 
      1310.0         0.32         53.0 
      1311.0         0.27         63.9 
      1312.0         0.23         89.7 
      1313.0         0.27         93.2 
      1314.0         0.27        103.3 
      1315.0         0.27        109.6 
      1316.0         2.35         90.5 
      1317.0         0.43         39.7 
      1318.0         0.37         34.6 
      1319.0         0.43         32.0 
      1320.0         0.33         25.5 
      1321.0         0.33         23.5 
      1322.0         0.33         24.5 
      1323.0         0.33         25.9 
      1324.0         0.23         26.5 
      1325.0         0.15         28.0 
      1326.0         0.67         29.0 
      1327.0         0.43         28.0 
      1328.0         0.33         26.9 
      1329.0         0.20         23.3 
      1330.0         0.17         21.3 
      1331.0         0.17         21.3 
      1332.0         0.23         37.6 
      1333.0         0.23         63.1 
      1334.0         0.20         94.9 
      1335.0         0.20         94.9 
      1336.0         0.27        117.7 
      1337.0         0.25        109.3 
      1338.0         0.17        105.4 
      1339.0         0.27         59.7 
      1340.0         0.27         61.5 
      1341.0         0.27         57.7 
      1342.0         0.27         52.4 
      1343.0         0.13         42.3 
      1344.0         0.20         37.1 
      1345.0         0.27         34.0 
      1346.0         1.85         32.1 
      1347.0         0.30         28.4 
      1348.0         0.23         27.6 
      1349.0         0.33         26.9 
      1350.0         0.23         56.9 
      1351.0         0.30         81.3 
      1352.0         0.23         91.5 
      1353.0         0.23         98.2 
      1354.0         0.23         98.4 
      1355.0         0.27         99.1 
      1356.0         0.23        100.1 
      1357.0         0.23        100.8 
      1358.0         0.25         99.8 
      1359.0         0.17         99.8 
      1360.0         0.20         94.6 
      1361.0         0.20         85.5 
      1362.0         0.23         68.3 
      1363.0         0.20         75.2 
      1364.0         0.20        111.7 
      1365.0         0.20        111.7 
      1366.0         0.20        170.2 
      1367.0         0.17        196.8 
      1368.0         0.20        250.4 
      1369.0         0.20        354.4 
      1370.0         0.20        345.0 
      1371.0         0.27        334.8 
      1372.0         1.22        226.8 
      1373.0         1.17        160.1 
      1374.0         0.07        117.9 
      1375.0         0.37        119.8 
      1376.0         0.30        118.5 
      1377.0         0.27        115.6 
      1378.0         0.27        115.1 
      1379.0         0.23        107.7 
      1380.0         0.25        107.3 
      1381.0         0.20        103.6 
      1382.0         0.23        100.9 
      1383.0         0.23         99.2 
      1384.0         0.27         97.5 
      1385.0         0.30         94.5 
      1386.0         0.30         92.9 
      1387.0         0.23         90.4 
      1388.0         0.27         88.8 
      1389.0         0.23         86.6 
      1390.0         0.23         85.9 
      1391.0         0.27         86.8 
      1392.0         0.30         87.0 
      1393.0         0.32         82.3 
      1394.0         0.27         66.1 
      1395.0         0.23         57.2 
      1396.0         0.23         64.9 
      1397.0         0.20         72.7 
      1398.0         0.23         91.8 
      1399.0         0.20        137.4 
      1400.0         0.23        175.8 
      1401.0         0.20        265.7 
      1402.0         0.22        272.0 
      1403.0         0.23        272.0 
      1404.0         0.27        262.4 
      1405.0         0.27        217.0 
      1406.0         1.43        210.6 
      1407.0         0.60        100.2 
      1408.0         0.37         96.2 
      1409.0         0.35         94.8 
      1410.0         0.30         92.4 
      1411.0         0.27         89.9 
      1412.0         0.23         85.3 
      1413.0         0.27         83.0 
      1414.0         0.27         81.1 
      1415.0         0.27         81.0 
      1416.0         0.30         77.7 
      1417.0         0.27         75.6 
      1418.0         0.23         73.5 
      1419.0         0.27         72.7 
      1420.0         0.27         71.3 
      1421.0         0.28         70.6 
      1422.0         0.27         70.2 
      1423.0         0.23         70.1 
      1424.0         0.23         68.9 
      1425.0         0.23         67.6 
      1426.0         0.23         65.2 
      1427.0         0.27         57.4 
      1428.0         0.23         53.9 
      1429.0         0.27         44.3 
      1430.0         0.27         71.2 
      1431.0         0.23         71.2 
      1432.0         0.23        103.0 
      1433.0         0.27        150.8 
      1434.0         0.25        215.1 
      1435.0         0.30        275.2 
      1436.0         2.17        278.6 
      1437.0         0.70        120.1 
      1438.0         0.48        125.7 
      1439.0         0.33        108.1 
      1440.0         0.27         66.7 
      1441.0         0.30         60.4 
      1442.0         1.32         62.2 
      1443.0         1.67         62.2 
      1444.0         0.37         43.5 
      1445.0         0.40         42.9 
      1446.0         0.30         42.8 
      1447.0         0.35         41.6 
      1448.0         0.37         41.1 
      1449.0         0.37         41.2 
