~Version Information
VERS.                      2.0: CWLS Log ASCII Standard - VERSION 2.0
WRAP.                       NO: One line per depth step
~Well Information Block
STRT.FT               -19.0000: 
STOP.FT              1343.5000: 
STEP.FT                 0.5000: 
NULL.                -999.2500: 
COMP.          Evergreen Operating Corporation: COMPANY
WELL.            Trigger 13-35: WELL
FLD.           Purgatorie River: FIELD
LOC.           2245' FSL & 594' FWL: LOCATION
PROV.                 Colorado: PROVINCE
CNTY.               Las Animas: COUNTRY
SRVC.                         : SERVICE COMPANY
DATE.          Mon Jun 23 12:06:52 2003: LOG DATE
UWI.           05-071-07838-00: UNIQUE WELL ID
~Curve Information Block
DEPT.FT            0 000 00 00: Depth
TT3.usec                      : CBL 3' Travel Time
AMP3.mV                       : CBL 3' Amplitude
GR.GAPI                       : Gamma Ray
CCL.                          : Casing Collar Locator
~Parameter Information Block
~A  Depth       TT3         AMP3         GR         CCL     
# ...
   718.0000    766.2622      2.0566    166.4235      0.0000
   718.5000    766.2211      1.9199    149.7558      0.0000
   719.0000    766.0953      1.9450    135.3821      0.0000
   719.5000    766.1891      2.0436    139.1212      0.0000
   720.0000    767.1499      2.1731    145.4069      0.0000
   720.5000    764.1255      2.2521    137.5002      0.0000
   721.0000    741.2479      2.3272    124.3784      0.0000
   721.5000    712.9879      2.4638    121.9441      0.0000
   722.0000    706.0023      2.6446    129.2212      0.0000
   722.5000    728.7512      2.7525    146.8815      0.0000
   723.0000    747.3847      2.8558    160.2956      0.0000
   723.5000    759.4717      2.9312    149.3472      0.0000
   724.0000    776.5037      2.9611    135.0392      0.0000
   724.5000    787.2632      2.9497    134.3716      0.0000
   725.0000    785.5422      2.7851    147.6821      0.0000
   725.5000    745.8036      2.5076    168.7957      0.0000
   726.0000    661.4472      2.3307    178.8862      0.0000
   726.5000    693.7749      2.2251    167.7933      0.0000
   727.0000    755.0612      2.1647    156.6728      0.0000
   727.5000    754.5995      2.2225    162.9282      0.0000
   728.0000    688.0579      2.4351    170.5898      0.0000
   728.5000    643.9948      2.5754    172.0377      0.0000
   729.0000    752.1438      2.6998    166.0819      0.0000
   729.5000    812.0113      2.9267    153.8587      0.0000
   730.0000    781.3113      3.1347    145.2808      0.0000
   730.5000    767.9485      3.5611    145.5108      0.0000
   731.0000    772.4387      4.0521    144.8970      0.0000
   731.5000    772.3561      4.1180    140.3546      0.0000
   732.0000    765.7740      3.8636    137.3581      0.0000
   732.5000    765.5060      3.5558    135.9551      0.0000
   733.0000    772.6211      3.2686    133.3114      0.0000
   733.5000    774.6380      3.0370    129.7007      0.0000
   734.0000    783.8534      2.7953    127.5531      0.0000
   734.5000    806.3828      2.6240    130.5153      0.0000
   735.0000    789.4382      2.5190    141.1417      0.0000
   735.5000    764.3388      2.4082    161.9013      0.0000
   736.0000    754.4558      2.4219    185.4535      0.0000
   736.5000    767.3038      2.3611    193.6866      0.0000
   737.0000    792.2913      2.4804    188.0276      5.0000
   737.5000    824.3038      2.5254    179.6918      0.0000
   738.0000    828.0416      2.4058    167.3018      0.0000
   738.5000    820.1172      2.4558    144.0393      0.0000
   739.0000    815.1532      2.6454    122.9888      0.0000
   739.5000    809.9335      2.6411    109.5438      0.0000
   740.0000    785.2904      2.4927     97.9789      0.0000
   740.5000    766.0663      2.2814     90.8825      0.0000
   741.0000    762.6846      2.1845     86.1169      0.0000
   741.5000    773.4363      2.1987     88.4543      0.0000
   742.0000    783.4242      2.1769     98.7394      0.0000
   742.5000    768.0339      2.1356    109.3340      0.0000
   743.0000    741.2988      2.1016    122.9342      0.0000
   743.5000    725.0645      2.1427    132.5165      0.0000
   744.0000    740.7376      2.2883    132.1082      0.0000
   744.5000    761.6667      2.4696    133.7229      0.0000
   745.0000    776.6249      2.6381    149.8693      0.0000
   745.5000    782.9176      2.7020    170.2409      0.0000
   746.0000    774.1434      2.7114    177.4687      0.0000
   746.5000    771.8513      2.7144    177.9028      0.0000
   747.0000    761.6741      2.7367    173.2142      0.0000
   747.5000    751.1454      2.5592    156.5958      0.0000
   748.0000    767.9814      2.4032    135.1973      0.0000
   748.5000    766.2372      2.2718    117.0050      0.0000
   749.0000    710.6064      2.1336    102.9292      0.0000
   749.5000    721.1940      2.0563     93.5125      0.0000
   750.0000    756.0536      2.0654     87.6193      0.0000
   750.5000    760.6560      2.0970     83.6872      0.0000
   751.0000    760.2622      2.0395     83.1220      0.0000
   751.5000    760.9455      1.9335     86.3709      0.0000
   752.0000    762.9771      1.8777     93.5093      0.0000
   752.5000    767.8837      1.8510    101.9348      0.0000
   753.0000    778.2962      1.8599    103.5040      0.0000
   753.5000    787.7173      1.8902     98.0873      0.0000
   754.0000    789.4144      1.9082     91.8049      0.0000
   754.5000    790.7865      1.8774     85.9158      0.0000
   755.0000    796.1788      1.8288     81.4997      0.0000
   755.5000    797.4104      1.8495     83.0371      0.0000
   756.0000    798.1495      1.9166     90.2017      0.0000
   756.5000    798.9579      1.9859     96.8161      0.0000
   757.0000    800.0843      2.0081     95.7452      0.0000
   757.5000    800.1639      2.0328     87.9572      0.0000
   758.0000    785.7537      2.1070     85.4033      0.0000
   758.5000    751.9558      2.1724     91.8823      0.0000
   759.0000    723.2181      2.1657    101.9388      0.0000
   759.5000    702.5789      2.1335    115.3085      0.0000
   760.0000    730.6034      2.0903    131.8261      0.0000
   760.5000    758.4873      2.0893    131.8956      0.0000
   761.0000    760.8644      2.1559    114.0388      0.0000
   761.5000    755.1794      2.2336    101.9170      0.0000
   762.0000    758.4791      2.3092     99.3690      0.0000
   762.5000    750.7662      2.3715     96.8811      0.0000
   763.0000    731.8214      2.4604    108.7213      0.0000
   763.5000    737.5437      2.6151    130.9629      0.0000
   764.0000    751.5476      2.6604    146.8864      0.0000
   764.5000    742.0067      2.6647    149.5803      0.0000
   765.0000    702.3765      2.7211    150.4964      0.0000
   765.5000    709.9177      2.8600    150.2271      0.0000
   766.0000    731.3133      3.0065    142.0239      0.0000
   766.5000    748.1956      3.0920    141.4310      0.0000
   767.0000    753.5817      3.0594    145.3769      0.0000
   767.5000    720.4178      2.9402    151.0197      0.0000
   768.0000    721.9572      2.7902    169.5089      0.0000
   768.5000    729.2374      2.6920    186.0916      0.0000
   769.0000    744.3099      2.6556    186.1344      0.0000
   769.5000    768.4233      2.4936    171.8732      0.0000
   770.0000    767.8137      2.2916    150.3807      0.0000
   770.5000    778.3450      2.2431    123.3829      0.0000
   771.0000    802.2210      2.2682     95.1094      0.0000
   771.5000    799.5035      2.2726     77.0663      0.0000
   772.0000    777.9088      2.2812     72.6351      0.0000
   772.5000    781.3441      2.3162     77.5093      0.0000
   773.0000    775.0540      2.4655     83.0971      0.0000
   773.5000    764.4828      2.6181     90.7773      0.0000
   774.0000    772.8681      2.7574    110.4663      0.0000
   774.5000    797.4646      2.8073    133.7564      0.0000
   775.0000    812.3205      2.7681    156.4695      0.0000
   775.5000    814.9966      2.8224    171.8848      0.0000
   776.0000    809.7725      3.0845    171.1944      0.0000
   776.5000    799.0583      3.4496    164.8364      0.0000
   777.0000    803.2682      3.6042    161.7527      0.0000
   777.5000    784.3750      3.5908    159.7276      0.0000
   778.0000    771.9877      3.8452    158.2251      0.0000
   778.5000    777.5093      4.3410    165.9816      0.0000
   779.0000    774.1074      4.4977    173.6976      0.0000
   779.5000    787.2168      3.5928    174.2438      0.0000
   780.0000    779.8689      2.6767    172.1643      0.0000
   780.5000    755.0779      2.3034    162.7335     -5.0000
   781.0000    764.4675      1.9390    146.5587      0.0000
   781.5000    772.4843      1.7152    131.3515      0.0000
   782.0000    757.6645      1.9161    120.3621      0.0000
   782.5000    761.0082      2.2397    113.7949      0.0000
   783.0000    761.3597      2.1873    109.5810      0.0000
   783.5000    752.5904      2.0527    111.2931      0.0000
   784.0000    728.0674      2.0555    113.2299      0.0000
   784.5000    713.2018      2.0744    113.3845      0.0000
