~Version Information
VERS.                      2.0: CWLS Log ASCII Standard - VERSION 2.0
WRAP.                       NO: One line per depth step
~Well Information Block
STRT.FT                -9.0000: 
STOP.FT              2518.0000: 
STEP.FT                 0.2500: 
NULL.                -999.2500: 
COMP.          Petrogulf Corporation: COMPANY
WELL.            Montoya 7-12V: WELL
FLD.           Purgatorie River: FIELD
LOC.           1764' FNL & 728' FWL: LOCATION
CNTY.               Las Animas: COUNTY
SRVC.                         : SERVICE COMPANY
DATE.          Mon Mar 08 16:11:04 2004: LOG DATE
UWI.           05-071-07887-00: UNIQUE WELL ID
STAT.                 Colorado: STATE
~Curve Information Block
DEPT.FT            0 000 00 00: Depth
GR.GAPI                       : Gamma Ray
CCL.                          : Casing Collar Locator
TT3.usec                      : CBL 3' Travel Time
AMP3.mV                       : CBL 3' Amplitude
~Parameter Information Block
~A  Depth        GR         CCL         TT3         AMP3    
# ...
  1800.0000    153.6002      0.0000    309.8701     14.5733
  1800.2500    155.2803      0.0000    309.7817     14.8838
  1800.5000    158.6258      0.0000    309.8126     15.4198
  1800.7500    161.7776      0.0000    309.7886     16.2946
  1801.0000    163.7388      0.0000    309.4567     17.6434
  1801.2500    164.9306      0.0000    308.8050     19.2098
  1801.5000    166.3065      0.0000    308.0770     20.4727
  1801.7500    168.0558      0.0000    307.4343     21.3244
  1802.0000    169.5221      0.0000    306.8282     22.1721
  1802.2500    169.9817      0.0000    306.2472     23.2811
  1802.5000    168.9224      0.0000    305.8288     24.3581
  1802.7500    165.8524      0.0000    305.7097     24.8030
  1803.0000    160.3710      0.0000    306.0902     24.1502
  1803.2500    152.3131      0.0000    307.7100     22.3053
  1803.5000    141.7554      0.0000    312.2972     19.5863
  1803.7500    129.1292      0.0000    322.4641     16.5649
  1804.0000    115.2908      0.0000    341.8455     13.7648
  1804.2500    101.3485      0.0000    374.3683     11.4722
  1804.5000     88.5238      0.0000    413.8206      9.7515
  1804.7500     78.0331      0.0000    435.6723      8.5716
  1805.0000     70.6439      0.0000    422.9416      7.9053
  1805.2500     66.2163      0.0000    391.1882      7.7237
  1805.5000     63.8705      0.0000    364.6141      7.9701
  1805.7500     62.6463      0.0000    350.2957      8.5394
  1806.0000     61.9563      0.0000    344.2379      9.2428
  1806.2500     61.5596      0.0000    341.9749      9.8270
  1806.5000     61.2289      0.0000    341.1309     10.1131
  1806.7500     60.4665      0.0000    341.0786     10.1039
  1807.0000     58.7683      0.0000    342.9751      9.8720
  1807.2500     56.3083      0.0000    351.4258      9.4325
  1807.5000     54.0137      0.0000    373.7082      8.7990
  1807.7500     52.6555      0.0000    409.1147      8.0388
  1808.0000     52.1112      0.0000    443.0279      7.2307
  1808.2500     51.6974      0.0000    470.4504      6.4479
  1808.5000     50.8958      0.0000    508.1902      5.7507
  1808.7500     49.6017      0.0000    559.5263      5.1341
  1809.0000     47.9861      0.0000    604.0277      4.5184
  1809.2500     46.4484      0.0000    632.9164      3.8540
  1809.5000     45.5674      0.0000    655.3415      3.1992
  1809.7500     45.6990      0.0000    677.0859      2.6548
  1810.0000     46.4911      0.0000    695.0959      2.2823
  1810.2500     47.0192      0.0000    704.3180      2.0772
  1810.5000     46.5899      0.0000    703.5097      1.9784
  1810.7500     45.4280      0.0000    696.1061      1.9273
  1811.0000     44.5243      0.0000    688.2360      1.9148
  1811.2500     44.7731      0.0000    687.2257      1.9560
  1811.5000     46.3055      0.0000    693.0677      2.0360
  1811.7500     48.6974      0.0000    692.3195      2.1043
  1812.0000     51.6321      0.0000    676.5571      2.1248
  1812.2500     55.0713      0.0000    656.3772      2.1068
  1812.5000     58.7676      0.0000    639.9587      2.0655
  1812.7500     61.9907      0.0000    624.4622      1.9995
  1813.0000     64.0276      0.0000    619.1596      1.9405
  1813.2500     64.7635      0.0000    634.5154      1.9393
  1813.5000     64.4422      0.0000    653.7714      1.9868
  1813.7500     63.0158      0.0000    650.3030      2.0414
  1814.0000     60.1771      0.0000    619.4761      2.0899
  1814.2500     56.1589      0.0000    581.1695      2.1213
  1814.5000     52.0372      0.0000    554.2193      2.1069
  1814.7500     48.8612      0.0000    536.8232      2.0252
  1815.0000     46.7625      0.0000    519.3022      1.8890
  1815.2500     45.3132      0.0000    496.4721      1.7553
  1815.5000     44.6028      0.0000    467.6076      1.6713
  1815.7500     45.5245      0.0000    441.5718      1.6219
  1816.0000     48.8037      0.0000    430.9384      1.5966
  1816.2500     53.8470      0.0000    439.1305      1.6351
  1816.5000     58.7767      0.0000    461.4413      1.7436
  1816.7500     61.7090      0.0000    485.6349      1.8628
  1817.0000     61.9827      0.0000    489.8622      1.9461
  1817.2500     60.3009      0.0000    464.1583      1.9964
  1817.5000     58.0543      0.0000    427.7070      2.0078
  1817.7500     56.6802      0.0000    403.2057      1.9563
  1818.0000     57.2991      0.0000    393.3463      1.8704
  1818.2500     60.3841      0.0000    390.6056      1.8229
  1818.5000     65.4916      0.0000    390.0275      1.8522
  1818.7500     71.4838      0.0000    390.1841      1.9519
  1819.0000     77.2138      0.0000    390.9612      2.0995
  1819.2500     82.2109      0.0000    392.3813      2.2520
  1819.5000     87.0678      0.0000    394.2456      2.3646
  1819.7500     93.1465      0.0000    396.7365      2.4345
  1820.0000    101.2586      0.0000    402.2288      2.4815
  1820.2500    110.3773      0.0000    417.8858      2.5106
  1820.5000    118.2660      0.0000    454.4214      2.5323
  1820.7500    123.6412      0.0000    512.7513      2.5810
  1821.0000    127.3616      0.0000    569.6146      2.6982
  1821.2500    131.5293      0.0000    593.1783      2.8905
  1821.5000    137.7939      0.0000    575.8625      3.1082
  1821.7500    146.2400      0.0000    536.0595      3.3603
  1822.0000    155.2570      0.0000    496.5677      3.7906
  1822.2500    162.3572      0.0000    475.8530      4.4377
  1822.5000    165.4058      0.0000    486.6621      5.0494
  1822.7500    163.5519      0.0000    524.3200      5.3991
  1823.0000    157.6084      0.0000    564.8596      5.5652
  1823.2500    149.7917      3.5742    592.7903      5.7015
  1823.5000    142.7442      0.0000    612.5138      5.8332
  1823.7500    138.4330     -5.0000    625.7440      5.9524
  1824.0000    137.5681      0.0000    626.9304      6.0673
  1824.2500    139.5078      0.0000    619.4752      6.1424
  1824.5000    142.6360      0.0000    618.0031      6.1058
  1824.7500    145.5468      0.0000    630.9736      5.9554
  1825.0000    148.2795      0.0000    648.4879      5.8033
  1825.2500    151.7475      0.0000    657.5482      5.7330
  1825.5000    155.5871      0.0000    658.7548      5.7058
  1825.7500    157.4122      0.0000    659.6482      5.6992
  1826.0000    154.9033      0.0000    661.2535      5.7733
  1826.2500    148.0084      0.0000    655.2206      5.9768
  1826.5000    138.3344      0.0000    631.2189      6.2913
  1826.7500    127.1021      0.0000    589.3871      6.6181
  1827.0000    114.9955      0.0000    542.8356      6.8334
  1827.2500    103.7319      0.0000    499.5951      6.8944
  1827.5000     96.2374      0.0000    457.9472      6.8541
  1827.7500     94.6839      0.0000    425.2439      6.8050
  1828.0000     98.9341      0.0000    415.7665      6.8164
  1828.2500    107.0256      0.0000    434.8020      6.8684
  1828.5000    116.5690      0.0000    477.7939      6.8524
  1828.7500    125.6922      0.0000    533.3773      6.6860
  1829.0000    133.3440      0.0000    581.7825      6.4174
  1829.2500    139.1906      0.0000    603.3723      6.1526
  1829.5000    143.3377      0.0000    599.3375      5.9286
  1829.7500    146.2301      0.0000    592.3942      5.7261
  1830.0000    148.7223      0.0000    599.1230      5.5375
  1830.2500    151.7174      0.0000    615.4382      5.3750
  1830.5000    155.3354      0.0000    631.1764      5.2556
  1830.7500    158.6551      0.0000    642.2004      5.2205
  1831.0000    160.5523      0.0000    649.2099      5.3475
  1831.2500    160.6915      0.0000    653.7292      5.6742
  1831.5000    159.6209      0.0000    655.4100      6.0953
  1831.7500    158.0452      0.0000    655.6785      6.4253
  1832.0000    156.1296      0.0000    660.6245      6.6000
  1832.2500    153.4957      0.0000    670.9193      6.7141
  1832.5000    149.9024      0.0000    677.8364      6.8614
  1832.7500    146.1405      0.0000    675.6540      7.0671
  1833.0000    144.2321      0.0000    661.7289      7.3740
  1833.2500    145.9905      0.0000    625.5674      7.8670
