~Version Information
VERS.                      2.0: CWLS Log ASCII Standard - VERSION 2.0
WRAP.                       NO: One line per depth step
~Well Information Block
STRT.FT               275.0000: 
STOP.FT              1682.2500: 
STEP.FT                 0.2500: 
NULL.                -999.2500: 
COMP.          Pioneer Natural Resources: COMPANY
WELL.               Elmo 14-21: WELL
FLD.           Purgatoire River: FIELD
LOC.           623' FSL & 450' FWL----: LOCATION
PROV.                 Colorado: PROVINCE
CNTY.               Las Animas: COUNTRY
SRVC.                Patterson: SERVICE COMPANY
DATE.          Tue May 17 16:07:31 2005: LOG DATE
UWI.           05 071 08360 00: UNIQUE WELL ID
~Curve Information Block
DEPT.FT            0 000 00 00: Depth
SN.Ohm-m                      : IEL Short Normal
SP.mV                         : IEL Spontaneous Potential
DIR.Ohm-m                     : IEL Induction Resistivity
GR.GAPI                       : Gamma Ray
~Parameter Information Block
~A  Depth        SN          SP         DIR          GR     
# ...
   375.5000   2000.0000   2000.0000     16.9204    124.3306
   375.7500   2000.0000   2000.0000     16.9189    122.3916
   376.0000   2000.0000   2000.0000     17.0380    120.5799
   376.2500   2000.0000   2000.0000     17.2621    119.6187
   376.5000   2000.0000   2000.0000     17.5659    117.8501
   376.7500   2000.0000   2000.0000     17.9136    116.1419
   377.0000   2000.0000   2000.0000     18.2622    112.5671
   377.2500   2000.0000   2000.0000     18.5741    109.8691
   377.5000   2000.0000   2000.0000     18.8286    106.8446
   377.7500   2000.0000   2000.0000     19.0251    106.4334
   378.0000   2000.0000   2000.0000     19.1739    108.8749
   378.2500   2000.0000   2000.0000     19.2826    112.1957
   378.5000   2000.0000   2000.0000     19.3510    118.3060
   378.7500   2000.0000   2000.0000     19.3753    122.1662
   379.0000   2000.0000   2000.0000     19.3566    126.1708
   379.2500   2000.0000   2000.0000     19.3032    127.1423
   379.5000   2000.0000   2000.0000     19.2278    126.3493
   379.7500   2000.0000   2000.0000     19.1457    125.2192
   380.0000   2000.0000   2000.0000     19.0769    124.4183
   380.2500   2000.0000   2000.0000     19.0465    124.9616
   380.5000   2000.0000   2000.0000     19.0787    126.8294
   380.7500   2000.0000   2000.0000     19.1859    127.9311
   381.0000   2000.0000   2000.0000     19.3631    127.9090
   381.2500   2000.0000   2000.0000     19.5932    126.3663
   381.5000   2000.0000   2000.0000     19.8595    122.2289
   381.7500   2000.0000   2000.0000     20.1555    118.9784
   382.0000   2000.0000   2000.0000     20.4816    114.5051
   382.2500   2000.0000   2000.0000     20.8331    112.1755
   382.5000   2000.0000   2000.0000     21.1928    109.9624
   382.7500   2000.0000   2000.0000     21.5386    109.3328
   383.0000   2000.0000   2000.0000     21.8607    109.2982
   383.2500   2000.0000   2000.0000     22.1746    109.5892
   383.5000   2000.0000   2000.0000     22.5134    110.0051
   383.7500   2000.0000   2000.0000     22.9077    109.8386
   384.0000   2000.0000   2000.0000     23.3663    107.8843
   384.2500   2000.0000   2000.0000     23.8744    105.0771
   384.5000   2000.0000   2000.0000     24.4107     99.2890
   384.7500   2000.0000   2000.0000     24.9710     95.4229
   385.0000   2000.0000   2000.0000     25.5785     91.1180
   385.2500   2000.0000   2000.0000     26.2710     89.3125
   385.5000   2000.0000   2000.0000     27.0737     87.1408
   385.7500   2000.0000   2000.0000     27.9767     85.4173
   386.0000   2000.0000   2000.0000     28.9320     82.1745
   386.2500   2000.0000   2000.0000     29.8731     79.8237
   386.5000   2000.0000   2000.0000     30.7443     76.5256
   386.7500   2000.0000   2000.0000     31.5167     74.6878
   387.0000   2000.0000   2000.0000     32.1775     72.7570
   387.2500   2000.0000   2000.0000     32.7008     72.1562
   387.5000   2000.0000   2000.0000     33.0298     72.3916
   387.7500   2000.0000   2000.0000     33.0839     73.2667
   388.0000   2000.0000   2000.0000     32.7926     75.3538
   388.2500   2000.0000   2000.0000     32.1318     76.9132
   388.5000   2000.0000   2000.0000     31.1404     78.7984
   388.7500   2000.0000   2000.0000     29.9046     79.5780
   389.0000   2000.0000   2000.0000     28.5247     80.5330
   389.2500   2000.0000   2000.0000     27.0888     81.6817
   389.5000   2000.0000   2000.0000     25.6635     85.3477
   389.7500   2000.0000   2000.0000     24.2929     89.4790
   390.0000   2000.0000   2000.0000     22.9987     97.8773
   390.2500   2000.0000   2000.0000     21.7810    104.1175
   390.5000   2000.0000   2000.0000     20.6262    112.6151
   390.7500   2000.0000   2000.0000     19.5211    116.9819
   391.0000   2000.0000   2000.0000     18.4656    121.5786
   391.2500   2000.0000   2000.0000     17.4731    123.9218
   391.5000   2000.0000   2000.0000     16.5620    127.3582
   391.7500   2000.0000   2000.0000     15.7450    129.6091
   392.0000   2000.0000   2000.0000     15.0250    131.9009
   392.2500   2000.0000   2000.0000     14.3985    132.1134
   392.5000   2000.0000   2000.0000     13.8621    130.6169
   392.7500   2000.0000   2000.0000     13.4150    129.1759
   393.0000   2000.0000   2000.0000     13.0578    127.7393
   393.2500   2000.0000   2000.0000     12.7874    127.4909
   393.5000   2000.0000   2000.0000     12.5929    127.2912
   393.7500   2000.0000   2000.0000     12.4554    126.4751
   394.0000   2000.0000   2000.0000     12.3537    123.6634
   394.2500   2000.0000   2000.0000     12.2732    121.1497
   394.5000   2000.0000   2000.0000     12.2123    117.7801
   394.7500   2000.0000   2000.0000     12.1815    116.4627
   395.0000   2000.0000   2000.0000     12.1956    116.3494
   395.2500   2000.0000   2000.0000     12.2643    117.3496
   395.5000   2000.0000   2000.0000     12.3846    119.3145
   395.7500   2000.0000   2000.0000     12.5386    119.8714
   396.0000   2000.0000   2000.0000     12.6970    117.9694
   396.2500   2000.0000   2000.0000     12.8265    114.7036
   396.5000   2000.0000   2000.0000     12.9017    108.3391
   396.7500   2000.0000   2000.0000     12.9135    104.7169
   397.0000   2000.0000   2000.0000     12.8721    102.5859
   397.2500   2000.0000   2000.0000     12.8017    103.7656
   397.5000   2000.0000   2000.0000     12.7317    108.3561
   397.7500   2000.0000   2000.0000     12.6898    112.2623
   398.0000   2000.0000   2000.0000     12.6978    118.0207
   398.2500   2000.0000   2000.0000     12.7683    121.3505
   398.5000   2000.0000   2000.0000     12.9047    125.1962
   398.7500   2000.0000   2000.0000     13.1021    126.8082
   399.0000   2000.0000   2000.0000     13.3535    127.2646
   399.2500   2000.0000   2000.0000     13.6549    125.9048
   399.5000   2000.0000   2000.0000     14.0094    121.3253
   399.7500   2000.0000   2000.0000     14.4268    117.0474
   400.0000   2000.0000   2000.0000     14.9207    109.9018
   400.2500   2000.0000   2000.0000     15.5039    105.1294
   400.5000   2000.0000   2000.0000     16.1800     98.5307
   400.7500   2000.0000   2000.0000     16.9328     94.8874
   401.0000   2000.0000   2000.0000     17.7177     91.2271
   401.2500   2000.0000   2000.0000     18.4650     90.1767
   401.5000   2000.0000   2000.0000     19.0994     90.4596
   401.7500   2000.0000   2000.0000     19.5670     91.5553
   402.0000   2000.0000   2000.0000     19.8508     94.0623
   402.2500   2000.0000   2000.0000     19.9650     96.1877
   402.5000   2000.0000   2000.0000     19.9369     99.8796
   402.7500   2000.0000   2000.0000     19.7948    102.3650
   403.0000   2000.0000   2000.0000     19.5676    105.1938
   403.2500   2000.0000   2000.0000     19.2879    105.9916
   403.5000   2000.0000   2000.0000     18.9900    105.5072
   403.7500   2000.0000   2000.0000     18.7010    104.6239
   404.0000   2000.0000   2000.0000     18.4331    103.7728
   404.2500   2000.0000   2000.0000     18.1827    103.8531
   404.5000   2000.0000   2000.0000     17.9360    104.3435
   404.7500   2000.0000   2000.0000     17.6781    104.3967
   405.0000   2000.0000   2000.0000     17.4002    104.0539
   405.2500   2000.0000   2000.0000     17.1022    104.0776
   405.5000   2000.0000   2000.0000     16.7900    105.5940
   405.7500   2000.0000   2000.0000     16.4710    108.0222
   406.0000   2000.0000   2000.0000     16.1499    113.7603
   406.2500   2000.0000   2000.0000     15.8290    118.3056
   406.5000   2000.0000   2000.0000     15.5108    124.2538
   406.7500   2000.0000   2000.0000     15.2003    126.7274
   407.0000   2000.0000   2000.0000     14.9041    128.0509
   407.2500   2000.0000   2000.0000     14.6300    127.9099
   407.5000   2000.0000   2000.0000     14.3856    127.1629
   407.7500   2000.0000   2000.0000     14.1787    126.5566
   408.0000   2000.0000   2000.0000     14.0165    125.4882
   408.2500   2000.0000   2000.0000     13.9051    124.6104
   408.5000   2000.0000   2000.0000     13.8470    122.9991
   408.7500   2000.0000   2000.0000     13.8399    121.7911
