~Version Information
VERS.                      2.0: CWLS Log ASCII Standard - VERSION 2.0
WRAP.                       NO: One line per depth step
~Well Information Block
STRT.FT               472.0000: 
STOP.FT              2641.5000: 
STEP.FT                 0.1000: 
NULL.                -999.2500: 
COMP.          Pioneer Natural Resources: COMPANY
WELL.              Wagner 13-9: WELL
FLD.           Purgatoire River: FIELD
LOC.           1819' FSL & 1111' FWL: LOCATION
PROV.                 Colorado: PROVINCE
CNTY.               Las Animas: COUNTRY
SRVC.                Patterson: SERVICE COMPANY
DATE.          Tue Apr 19 08:56:38 2005: LOG DATE
UWI.           05 071 08302 00: UNIQUE WELL ID
~Curve Information Block
DEPT.FT            0 000 00 00: Depth
DCAL.in                       : CDL Caliper
RHOB.g/cc                     : CDL Bulk Density
RHOC.g/cc                     : CDL Density Correction
DPOR.pu                       : CDL Density Porosity
GR.GAPI                       : Gamma Ray
NPOR.pu                       : Neutron Porosity
~Parameter Information Block
~A  Depth       DCAL        RHOB        RHOC        DPOR         GR         NPOR    
# ...
  1480.0000      8.0017      2.5087     -0.0015      8.5614     48.6075     17.2597
  1480.1000      8.0017      2.5055      0.0492      8.7603     52.7376     18.5161
  1480.2000      8.0017      2.5149      0.0123      8.1898     53.9085     18.6265
  1480.3000      8.0008      2.5333      0.0405      7.0739     53.2572     17.7382
  1480.4000      8.0008      2.5591      0.0392      5.5119     52.7543     16.6533
  1480.5000      8.0001      2.5787      0.1058      4.3206     52.5885     15.9492
  1480.6000      8.0001      2.5795      0.0565      4.2715     53.7193     15.6863
  1480.7000      8.0001      2.5706      0.0560      4.8134     54.4949     15.7940
  1480.8000      7.9995      2.5633      0.0644      5.2565     53.2233     16.2438
  1480.9000      7.9995      2.5560      0.0494      5.6942     51.4617     16.6816
  1481.0000      7.9996      2.5486      0.0529      6.1465     50.7278     16.8184
  1481.1000      7.9996      2.5445      0.0891      6.3953     50.5254     16.5212
  1481.2000      7.9996      2.5472      0.0826      6.2311     49.9725     15.9543
  1481.3000      7.9997      2.5593      0.0845      5.4982     49.2975     15.8621
  1481.4000      7.9997      2.5723      0.0875      4.7121     48.3531     16.1460
  1481.5000      7.9992      2.5749      0.0613      4.5494     47.6673     15.8662
  1481.6000      7.9992      2.5670      0.0733      5.0273     48.2673     15.2197
  1481.7000      7.9992      2.5521      0.0937      5.9317     49.2607     15.2896
  1481.8000      7.9994      2.5393      0.0731      6.7104     50.0124     16.3013
  1481.9000      7.9994      2.5398      0.0644      6.6781     50.4610     17.3068
  1482.0000      8.0000      2.5544      0.0909      5.7937     51.1230     17.6964
  1482.1000      8.0000      2.5756      0.0682      4.5101     51.9004     17.9062
  1482.2000      8.0000      2.5928      0.1137      3.4641     51.0920     17.6848
  1482.3000      8.0002      2.5979      0.0780      3.1563     48.5011     16.6822
  1482.4000      8.0002      2.5914      0.0626      3.5543     47.0816     15.9814
  1482.5000      7.9999      2.5866     -0.0021      3.8443     50.6538     15.9556
  1482.6000      7.9999      2.6021      0.0404      2.9023     57.5171     16.1925
  1482.7000      7.9999      2.6308      0.0680      1.1652     60.6226     16.9402
  1482.8000      7.9990      2.6407      0.0784      0.5640     57.1966     18.1349
  1482.9000      7.9990      2.6217      0.0408      1.7150     53.3319     18.9600
  1483.0000      7.9986      2.5931      0.0127      3.4470     55.7303     18.9308
  1483.1000      7.9986      2.5718     -0.0116      4.7412     61.5581     18.3607
  1483.2000      7.9986      2.5657     -0.0102      5.1064     63.4395     17.8489
  1483.3000      7.9981      2.5746      0.0074      4.5694     61.0789     17.5408
  1483.4000      7.9981      2.5860      0.0420      3.8799     59.7366     16.9326
  1483.5000      7.9978      2.5877      0.0392      3.7764     61.4833     15.8921
  1483.6000      7.9978      2.5799      0.0263      4.2477     64.6758     15.4946
  1483.7000      7.9978      2.5707      0.0221      4.8034     68.1147     16.3277
  1483.8000      7.9992      2.5624      0.0466      5.3071     70.7557     17.4190
  1483.9000      7.9992      2.5539      0.0157      5.8223     71.5818     17.6820
  1484.0000      8.0003      2.5471      0.0279      6.2351     72.9250     17.0353
  1484.1000      8.0003      2.5439      0.0309      6.4300     76.2934     16.3756
  1484.2000      8.0003      2.5464      0.0367      6.2809     77.6257     16.4770
  1484.3000      8.0002      2.5485      0.0339      6.1496     74.0151     17.5903
  1484.4000      8.0002      2.5362      0.0175      6.8958     68.2683     19.3071
  1484.5000      8.0000      2.5140      0.0107      8.2434     66.0677     20.6184
  1484.6000      8.0000      2.5035      0.0104      8.8804     68.5398     20.9629
  1484.7000      8.0000      2.5094      0.0646      8.5238     72.6586     20.4436
  1484.8000      8.0000      2.5215      0.0363      7.7890     77.4639     19.2444
  1484.9000      8.0000      2.5381      0.0447      6.7813     82.9599     17.9139
  1485.0000      7.9997      2.5554      0.0576      5.7319     86.6217     17.6610
  1485.1000      7.9997      2.5632      0.0532      5.2633     85.9117     18.7240
  1485.2000      7.9997      2.5717     -0.0028      4.7439     82.0812     19.7432
  1485.3000      7.9991      2.6007      0.0434      2.9876     81.0923     19.5457
  1485.4000      7.9991      2.6350      0.0749      0.9064     88.3197     18.6649
  1485.5000      7.9983      2.6476      0.0730      0.1434    101.0343     18.7693
  1485.6000      7.9983      2.6433      0.0315      0.4063    110.6080     20.7229
  1485.7000      7.9983      2.6386      0.0296      0.6934    111.6454     22.9101
  1485.8000      7.9979      2.6344      0.0658      0.9430    106.7186     23.0189
  1485.9000      7.9979      2.6282      0.0440      1.3242    104.0090     21.9402
  1486.0000      7.9981      2.6242      0.0127      1.5666    107.5594     21.7952
  1486.1000      7.9981      2.6267      0.0198      1.4092    115.7646     22.5252
  1486.2000      7.9981      2.6265      0.0137      1.4242    121.4783     23.4171
  1486.3000      7.9974      2.6059      0.0522      2.6732    117.6167     24.5962
  1486.4000      7.9974      2.5642      0.0087      5.1984    109.2903     25.9312
  1486.5000      7.9964      2.5224      0.0119      7.7329    106.3055     26.8288
  1486.6000      7.9964      2.5063     -0.0347      8.7110    109.9053     27.0254
  1486.7000      7.9964      2.5260     -0.0025      7.5171    115.4854     26.6576
  1486.8000      7.9979      2.5618      0.0292      5.3465    120.7178     25.9649
  1486.9000      7.9979      2.5916      0.0528      3.5420    126.2959     25.3126
  1487.0000      7.9999      2.6150      0.0873      2.1232    129.8401     24.8880
  1487.1000      7.9999      2.6384      0.1307      0.7033    127.7466     24.3940
  1487.2000      7.9999      2.6599      0.1086     -0.6018    121.1439     23.7663
  1487.3000      8.0007      2.6676      0.1758     -1.0666    114.0894     23.4200
  1487.4000      8.0007      2.6582      0.1771     -0.4980    109.1592     23.6354
  1487.5000      7.9996      2.6545      0.0795     -0.2740    104.8339     24.2512
  1487.6000      7.9996      2.6742      0.0703     -1.4652     99.4389     24.7743
  1487.7000      7.9996      2.7062      0.0522     -3.4069     95.1082     24.5109
  1487.8000      7.9966      2.7361      0.0930     -5.2189     92.4252     23.0513
  1487.9000      7.9966      2.7650      0.0766     -6.9673     87.8511     21.0831
  1488.0000      7.9928      2.7922      0.1622     -8.6152     80.2479     19.8921
  1488.1000      7.9928      2.8062      0.1146     -9.4652     72.8018     19.3433
  1488.2000      7.9928      2.8132      0.0830     -9.8894     70.0682     18.3866
  1488.3000      7.9912      2.8248      0.1033    -10.5946     71.1372     17.4693
  1488.4000      7.9912      2.8264      0.0930    -10.6918     68.4169     17.3520
  1488.5000      7.9930      2.8062      0.0173     -9.4642     62.2118     17.2974
  1488.6000      7.9930      2.7846     -0.0274     -8.1575     60.3957     16.5148
  1488.7000      7.9930      2.7866      0.0081     -8.2809     64.5500     15.2518
  1488.8000      7.9962      2.8174      0.0111    -10.1445     68.8400     14.2983
  1488.9000      7.9962      2.8608      0.0252    -12.7739     67.9438     14.3146
  1489.0000      8.0014      2.8845      0.0857    -14.2106     63.4194     15.0508
  1489.1000      8.0014      2.8727      0.0406    -13.4990     59.3986     15.6444
  1489.2000      8.0014      2.8462      0.0490    -11.8938     57.5487     15.7833
  1489.3000      8.0050      2.8252      0.0221    -10.6180     57.2958     15.9946
  1489.4000      8.0050      2.8147      0.0070     -9.9841     57.9075     16.5062
  1489.5000      8.0015      2.8146      0.0154     -9.9745     60.2749     17.0562
