~Version Information
VERS.                      2.0: CWLS Log ASCII Standard - VERSION 2.0
WRAP.                       NO: One line per depth step
~Well Information Block
STRT.FT               -11.2500: 
STOP.FT              1934.7500: 
STEP.FT                 0.2500: 
NULL.                -999.2500: 
COMP.          Pioneer Natural Resources: COMPANY
WELL.          Commander 43-26 Tr: WELL
FLD.           Purgatorie River: FIELD
LOC.           2439' FSL  & 446' FEL--------: LOCATION
PROV.                       CO: PROVINCE
CNTY.               Las Animas: COUNTRY
SRVC.          Patterson Wireline: SERVICE COMPANY
DATE.          Tue Apr 26 09:07:23 2005: LOG DATE
UWI.           05 071 08341 00: UNIQUE WELL ID
~Curve Information Block
DEPT.FT            0 000 00 00: Depth
CCL.                          : Casing Collar Locator
TT3.usec                      : CBL 3' Travel Time
AMP3.mV                       : CBL 3' Amplitude
GR.GAPI                       : Gamma Ray
~Parameter Information Block
~A  Depth       CCL         TT3         AMP3         GR     
# ...
  1395.7500      0.0000    718.5288      4.2601    125.5623
  1396.0000      0.0000    702.0153      4.3001    127.1876
  1396.2500      0.0000    685.1462      4.4044    126.8024
  1396.5000      0.0000    669.1602      4.4922    124.5049
  1396.7500      0.0000    651.2324      4.5022    121.9623
  1397.0000      0.0000    632.7460      4.4343    121.3420
  1397.2500      0.0000    623.6401      4.3401    123.4815
  1397.5000      0.0000    634.7142      4.2767    127.4292
  1397.7500      0.0000    664.9675      4.2745    131.2522
  1398.0000      0.0000    697.4295      4.3417    132.9588
  1398.2500      0.0000    709.6389      4.4805    131.2899
  1398.5000      0.0000    691.3694      4.6844    126.3857
  1398.7500      0.0000    654.1058      4.9288    119.7549
  1399.0000      0.0000    623.5188      5.1677    113.4675
  1399.2500      0.0000    621.8001      5.3503    109.2173
  1399.5000      0.0000    654.2458      5.4526    107.7503
  1399.7500      0.0000    708.4322      5.4901    108.7547
  1400.0000      0.0000    764.3248      5.4965    111.0860
  1400.2500      0.0000    806.9349      5.4887    113.1600
  1400.5000      0.0000    832.2903      5.4597    113.4675
  1400.7500      0.0000    844.4356      5.4024    111.1014
  1401.0000      0.0000    849.2534      5.3277    105.9117
  1401.2500      0.0000    850.8826      5.2513     98.2620
  1401.5000      0.0000    851.4021      5.1726     89.0760
  1401.7500      0.0000    851.6364      5.0726     80.2114
  1402.0000      0.0000    851.7977      4.9340     74.0284
  1402.2500      0.0000    851.8298      4.7619     71.8556
  1402.5000      0.0000    851.5402      4.5855     73.0912
  1402.7500      0.0000    850.6409      4.4420     76.3182
  1403.0000      0.0000    848.8166      4.3591     81.0175
  1403.2500      0.0000    845.9744      4.3471     87.6035
  1403.5000      0.0000    842.4573      4.3983     95.9789
  1403.7500      0.0000    838.7435      4.4912    104.7719
  1404.0000      0.0000    834.8693      4.6089    112.1627
  1404.2500      0.0000    830.6677      4.7614    117.1409
  1404.5000      0.0000    826.8119      4.9769    119.9021
  1404.7500      0.0000    824.8784      5.2684    121.3147
  1405.0000      0.0000    825.7266      5.6196    122.2012
  1405.2500      0.0000    828.3223      6.0013    122.9805
  1405.5000      0.0000    830.8951      6.3863    123.6195
  1405.7500      0.0000    832.8881      6.7529    123.7540
  1406.0000      0.0000    834.8914      7.0862    123.0395
  1406.2500      0.0000    836.8868      7.3825    121.5487
  1406.5000      0.0000    837.7749      7.6433    119.8216
  1406.7500      0.0000    837.0405      7.8647    118.5359
  1407.0000      0.0000    836.0251      8.0339    118.2560
  1407.2500      0.0000    836.8002      8.1408    119.4624
  1407.5000      0.0000    840.0410      8.1937    122.3406
  1407.7500      0.0000    844.5163      8.2147    126.3161
  1408.0000      0.0000    848.4548      8.2070    130.0261
  1408.2500      0.0000    850.9327      8.1365    131.9391
  1408.5000      0.0000    852.0717      7.9651    131.2372
  1408.7500      0.0000    852.4635      7.7006    128.4605
  1409.0000      0.0000    852.6319      7.4040    125.2029
  1409.2500      0.0000    852.8348      7.1517    122.8665
  1409.5000      0.0000    853.0924      6.9914    121.7788
  1409.7500      0.0000    853.2833      6.9240    121.5304
  1410.0000      0.0000    853.2432      6.9035    121.7400
  1410.2500      0.0000    852.8491      6.8576    122.2855
  1410.5000      0.0000    852.0382      6.7309    123.0293
  1410.7500      0.0000    850.7005      6.5199    123.4313
  1411.0000      0.0000    848.6104      6.2660    122.6409
  1411.2500      0.0000    845.7002      6.0203    120.4816
  1411.5000      0.0000    842.5309      5.8155    118.1673
  1411.7500      0.0000    840.1798      5.6583    117.2351
  1412.0000      0.0000    839.1821      5.5337    117.6974
  1412.2500      0.0000    838.5516      5.4164    117.9378
  1412.5000      0.0000    835.9833      5.2877    116.5809
  1412.7500      0.0000    829.1863      5.1398    114.0121
  1413.0000      0.0000    817.3762      4.9742    111.9921
  1413.2500      0.0000    801.8644      4.8071    112.0940
  1413.5000      0.0000    785.2679      4.6631    114.3936
  1413.7500      0.0000    770.6303      4.5480    117.2251
  1414.0000      0.0000    761.7177      4.4461    118.2793
  1414.2500      0.0000    762.5325      4.3585    116.4218
  1414.5000      0.0000    774.0084      4.3192    112.6083
  1414.7500      0.0000    791.2875      4.3538    108.7691
  1415.0000     -2.0000    806.3865      4.4428    105.7371
  1415.2500      2.0000    814.0945      4.5463    102.7767
  1415.5000      2.0000    814.4466      4.6463     99.4076
  1415.7500      0.0000    810.0528      4.7515     96.9836
  1416.0000      0.0000    802.8784      4.8705     97.7217
  1416.2500      0.0000    793.9166      4.9882    102.3825
  1416.5000      0.0000    784.3138      5.0628    109.2300
  1416.7500      0.0000    775.5786      5.0548    115.0722
  1417.0000      0.0000    769.1391      4.9816    117.3291
  1417.2500      0.0000    766.3483      4.9257    115.6214
  1417.5000      0.0000    768.1996      4.9601    111.6504
  1417.7500      0.0000    774.1906      5.0798    107.4750
  1418.0000      0.0000    781.8425      5.2181    104.0120
  1418.2500      0.0000    787.9781      5.3060    101.1052
  1418.5000      0.0000    790.5929      5.3084     98.2470
  1418.7500      0.0000    789.7181      5.2331     94.7416
  1419.0000      0.0000    786.8027      5.1238     90.0132
  1419.2500      0.0000    783.2094      5.0292     84.7825
  1419.5000      0.0000    779.2143      4.9643     81.5738
  1419.7500      0.0000    774.5789      4.9085     83.0946
  1420.0000      0.0000    769.0072      4.8389     89.9811
  1420.2500      0.0000    760.9484      4.7532    100.2884
  1420.5000      0.0000    747.8309      4.6575    110.7177
  1420.7500      0.0000    730.0247      4.5499    118.1769
  1421.0000      0.0000    713.1964      4.4265    121.0240
  1421.2500      0.0000    703.8624      4.2990    119.7062
  1421.5000      0.0000    703.2366      4.1980    116.2626
  1421.7500      0.0000    707.2449      4.1559    113.0063
  1422.0000      0.0000    711.4024      4.1870    111.5302
  1422.2500      0.0000    713.8851      4.2787    112.4852
  1422.5000      0.0000    714.9799      4.4017    115.5453
  1422.7500      0.0000    715.6145      4.5228    119.5436
  1423.0000      0.0000    716.9849      4.6169    123.3311
  1423.2500      0.0000    720.8962      4.6778    126.7779
  1423.5000      0.0000    729.4615      4.7179    130.4715
  1423.7500      0.0000    743.6945      4.7534    134.4030
  1424.0000      0.0000    762.1636      4.7897    137.4743
  1424.2500      0.0000    781.2001      4.8240    138.5081
  1424.5000      0.0000    796.3044      4.8588    137.5788
  1424.7500      0.0000    803.6622      4.8982    136.2787
  1425.0000      0.0000    801.3925      4.9307    136.3707
  1425.2500      0.0000    790.2207      4.9291    137.8799
  1425.5000      0.0000    773.3284      4.8752    138.7915
  1425.7500      0.0000    755.5616      4.7820    137.0517
  1426.0000      0.0000    741.8449      4.6848    132.8461
  1426.2500      0.0000    734.9061      4.6119    128.6616
  1426.5000      0.0000    733.7938      4.5675    127.0774
  1426.7500      0.0000    734.6981      4.5410    128.5860
  1427.0000      0.0000    733.8159      4.5305    131.3699
  1427.2500      0.0000    729.9562      4.5545    132.9865
  1427.5000      0.0000    724.8088      4.6377    132.4314
  1427.7500      0.0000    721.2391      4.7902    130.8106
  1428.0000      0.0000    721.9594      5.0088    129.9614
  1428.2500      0.0000    729.4727      5.2965    130.3945
  1428.5000      0.0000    745.6403      5.6670    130.7887
  1428.7500      0.0000    769.7346      6.1152    129.4600
  1429.0000      0.0000    797.1033      6.5841    125.9461
