~Version Information
VERS.                      2.0: CWLS Log ASCII Standard - VERSION 2.0
WRAP.                       NO: One line per depth step
~Well Information Block
STRT.FT               -11.7500: 
STOP.FT              2025.5000: 
STEP.FT                 0.2500: 
NULL.                -999.2500: 
COMP.          Evergreen Operating Corp.: COMPANY
WELL.            Sumatra 34-22: WELL
FLD.           Purgatorie River: FIELD
LOC.           542 FSL & 2438 FEL--: LOCATION
PROV.                       CO: PROVINCE
CNTY.               Las Animas: COUNTRY
SRVC.          Patterson Wireline, Inc.: SERVICE COMPANY
DATE.          Wed Apr 02 10:17:21 2003: LOG DATE
UWI.           05 071 07804 00: UNIQUE WELL ID
~Curve Information Block
DEPT.FT            0 000 00 00: Depth
CCL.                          : Casing Collar Locator
TT3.usec                      : CBL 3' Travel Time
AMP3.mV                       : CBL 3' Amplitude
GR.GAPI                       : Gamma Ray
~Parameter Information Block
~A  Depth       CCL         TT3         AMP3         GR     
# ...
  1998.2500      0.0000    514.2527      2.6726     70.1443
  1998.5000      0.0000    523.7267      2.7595     70.8822
  1998.7500      0.0000    515.3043      2.7869     72.7415
  1999.0000      0.0000    479.3607      2.7988     75.9477
  1999.2500      0.0000    441.7126      2.8377     80.4379
  1999.5000      0.0000    425.5015      2.8379     85.5625
  1999.7500      0.0000    433.7659      2.8016     90.4146
  2000.0000      0.0000    454.6999      2.8593     94.4775
  2000.2500      0.0000    467.1751      2.9750     97.6122
  2000.5000      0.0000    462.7296      3.0475     99.3970
  2000.7500      0.0000    462.2719      3.1288     98.9966
  2001.0000      0.0000    485.4303      3.1894     96.0105
  2001.2500      0.0000    514.2069      3.1476     91.1932
  2001.5000      0.0000    513.4068      3.0816     86.1216
  2001.7500      0.0000    479.5393      3.0391     82.2315
  2002.0000      0.0000    441.6941      3.0121     80.1732
  2002.2500      0.0000    420.7575      3.0233     79.9139
  2002.5000      0.0000    414.6703      2.9729     81.2312
  2002.7500      0.0000    414.6334      2.8088     83.9033
  2003.0000      0.0000    416.3322      2.6962     87.3778
  2003.2500      0.0000    420.1629      2.6917     90.7118
  2003.5000      0.0000    431.2744      2.7037     93.2236
  2003.7500      0.0000    460.2242      2.7837     94.9365
  2004.0000      0.0000    512.7972      2.9690     96.0712
  2004.2500      0.0000    571.0335      3.0622     96.4096
  2004.5000      0.0000    598.9067      2.9586     95.6331
  2004.7500      0.0000    581.9156      2.8249     94.0456
  2005.0000      0.0000    550.2833      2.7537     92.4380
  2005.2500      0.0000    543.6117      2.7281     91.4166
  2005.5000      0.0000    556.1550      2.8257     91.2458
  2005.7500      0.0000    548.6210      3.0057     91.9413
  2006.0000      0.0000    511.1343      3.0139     92.9265
  2006.2500      0.0000    471.4420      2.8009     92.9081
  2006.5000      0.0000    448.2698      2.6340     90.7104
  2006.7500      0.0000    436.9200      2.6376     86.2766
  2007.0000      0.0000    430.1155      2.6527     80.7879
  2007.2500      0.0000    426.2679      2.6135     76.0670
  2007.5000      0.0000    424.6458      2.6649     73.7738
  2007.7500      0.0000    423.9776      2.8405     74.6327
  2008.0000      0.0000    423.6062      2.9596     78.0391
  2008.2500      0.0000    423.6083      2.9352     82.3902
  2008.5000      0.0000    425.2533      2.8667     85.9492
  2008.7500      0.0000    433.8487      2.7879     87.6484
  2009.0000      0.0000    460.6739      2.6896     87.4727
  2009.2500      0.0000    513.4188      2.6989     86.3622
  2009.5000      0.0000    579.5077      2.8906     85.5939
  2009.7500      0.0000    632.5151      3.0561     85.9069
  2010.0000      0.0000    659.6332      2.9770     87.0181
  2010.2500      0.0000    667.6757      2.8020     87.9278
  2010.5000      0.0000    666.5908      2.8092     87.6875
  2010.7500      0.0000    661.4160      2.9217     85.9229
  2011.0000      0.0000    655.0082      2.8309     82.4950
  2011.2500      0.0000    648.8962      2.5550     76.5893
  2011.5000      0.0000    643.7197      2.4455     66.6735
  2011.7500      0.0000    641.9023      2.6067     52.1960
  2012.0000      0.0000    645.7861      2.7427     35.3013
  2012.2500      0.0000    653.2214      2.6191     19.9911
  2012.5000      0.0000    659.2332      2.3778      9.2738
  2012.7500      0.0000    661.6849      2.3134      3.4727
  2013.0000      0.0000    662.9556      2.4977      1.0390
  2013.2500      0.0000    667.1501      2.7092      0.2464
  2013.5000      0.0000    676.4293      2.6768      0.0457
  2013.7500      0.0000    688.3805      2.4189      0.0060
  2014.0000      0.0000    697.9426      2.2603      0.0000
  2014.2500      0.0000    702.6347      2.4490   -999.2500
  2014.5000      0.0000    703.5396      2.9005   -999.2500
  2014.7500      0.0000    701.8010      3.2607   -999.2500
  2015.0000      0.0000    696.1843      3.2226   -999.2500
  2015.2500      0.0000    684.4904      2.9038   -999.2500
  2015.5000      0.0000    668.3147      2.7180   -999.2500
  2015.7500      0.0000    654.8477      2.7988   -999.2500
  2016.0000      0.0000    649.9759      2.8865   -999.2500
  2016.2500      0.0000    650.3331      2.8410   -999.2500
  2016.5000      0.0000    644.6362      2.7675   -999.2500
  2016.7500      0.0000    616.5203      2.5490   -999.2500
  2017.0000      0.0000    541.2504      1.8293   -999.2500
  2017.2500      0.0000    402.7895      0.5223   -999.2500
  2017.5000      0.0000    232.9823     -0.9778   -999.2500
  2017.7500      0.0000     97.7059     -2.1214   -999.2500
  2018.0000      0.0000     28.3486     -2.6968   -999.2500
  2018.2500      0.0000      5.5252     -2.8853   -999.2500
  2018.5000      0.0000      0.7084     -2.9252   -999.2500
  2018.7500      0.0000      0.0566     -2.9306   -999.2500
  2019.0000      0.0000   -999.2500   -999.2500   -999.2500
  2019.2500      0.0000   -999.2500   -999.2500   -999.2500
  2019.5000      0.0000   -999.2500   -999.2500   -999.2500
  2019.7500      0.0000   -999.2500   -999.2500   -999.2500
  2020.0000      0.0000   -999.2500   -999.2500   -999.2500
  2020.2500      0.0000   -999.2500   -999.2500   -999.2500
  2020.5000      0.0000   -999.2500   -999.2500   -999.2500
  2020.7500      0.0000   -999.2500   -999.2500   -999.2500
  2021.0000      0.0000   -999.2500   -999.2500   -999.2500
  2021.2500      0.0000   -999.2500   -999.2500   -999.2500
  2021.5000      0.0000   -999.2500   -999.2500   -999.2500
  2021.7500      0.0000   -999.2500   -999.2500   -999.2500
  2022.0000      0.0000   -999.2500   -999.2500   -999.2500
  2022.2500      0.0000   -999.2500   -999.2500   -999.2500
  2022.5000      0.0000   -999.2500   -999.2500   -999.2500
  2022.7500      0.0000   -999.2500   -999.2500   -999.2500
  2023.0000      0.0000   -999.2500   -999.2500   -999.2500
  2023.2500      0.0000   -999.2500   -999.2500   -999.2500
  2023.5000      0.0000   -999.2500   -999.2500   -999.2500
  2023.7500      0.0000   -999.2500   -999.2500   -999.2500
  2024.0000      0.0000   -999.2500   -999.2500   -999.2500
  2024.2500      0.0000   -999.2500   -999.2500   -999.2500
  2024.5000      0.0000   -999.2500   -999.2500   -999.2500
  2024.7500      0.0000   -999.2500   -999.2500   -999.2500
  2025.0000   -999.2500   -999.2500   -999.2500   -999.2500
  2025.2500   -999.2500   -999.2500   -999.2500   -999.2500
  2025.5000   -999.2500   -999.2500   -999.2500   -999.2500
