~Version Information
VERS.                      2.0: CWLS Log ASCII Standard - VERSION 2.0
WRAP.                       NO: One line per depth step
~Well Information Block
STRT.FT                -7.7500: 
STOP.FT               973.7500: 
STEP.FT                 0.2500: 
NULL.                -999.2500: 
COMP.          Pioneer Natural Resources: COMPANY
WELL.              Dylan 42-25: WELL
FLD.           Purgatorie River: FIELD
LOC.           2160' FNL & 855' FEL: LOCATION
PROV.                 Colorado: PROVINCE
CNTY.               Las Animas: COUNTRY
SRVC.          Patterson Wireline: SERVICE COMPANY
DATE.          Fri Apr 29 16:36:17 2005: LOG DATE
UWI.           05-071-08229-00: UNIQUE WELL ID
~Curve Information Block
DEPT.FT            0 000 00 00: Depth
CCL.                          : Casing Collar Locator
TT3.usec                      : CBL 3' Travel Time
AMP3.mV                       : CBL 3' Amplitude
GR.GAPI                       : Gamma Ray
~Parameter Information Block
~A  Depth       CCL         TT3         AMP3         GR     
# ...
   293.7500      0.0000    815.6064      5.7185     55.8890
   294.0000      0.0000    823.2714      5.7514     56.2242
   294.2500      0.0000    825.1711      5.7739     56.8722
   294.5000      0.0000    820.9457      5.7653     57.6798
   294.7500      0.0000    812.5734      5.7106     58.7833
   295.0000      0.0000    802.5253      5.6107     60.0833
   295.2500      0.0000    791.7073      5.4864     60.9919
   295.5000      0.0000    779.9203      5.3684     60.8630
   295.7500      0.0000    767.7657      5.2784     59.5546
   296.0000      0.0000    757.0746      5.2208     57.6335
   296.2500      0.0000    749.4020      5.1879     56.1235
   296.5000      0.0000    744.6714      5.1742     55.8433
   296.7500      0.0000    741.5691      5.1838     56.8223
   297.0000      0.0000    739.0723      5.2233     58.3743
   297.2500      0.0000    737.6830      5.2885     59.7039
   297.5000      0.0000    739.5099      5.3586     60.3743
   297.7500      0.0000    747.2499      5.4063     60.3500
   298.0000      0.0000    762.7205      5.4150     59.9221
   298.2500      0.0000    785.4498      5.3866     59.8872
   298.5000      0.0000    811.9611      5.3344     61.7297
   298.7500      0.0000    836.8162      5.2709     67.0881
   299.0000      0.0000    855.3024      5.2037     76.4249
   299.2500      0.0000    865.4144      5.1425     87.9867
   299.5000      0.0000    867.1978      5.1027     98.3130
   299.7500      0.0000    860.7112      5.0972    104.2210
   300.0000      0.0000    845.5595      5.1258    104.8310
   300.2500      0.0000    822.8851      5.1751    102.1527
   300.5000      0.0000    797.1155      5.2289     99.7548
   300.7500      0.0000    774.5116      5.2769    100.2889
   301.0000      0.0000    759.5886      5.3153    103.6345
   301.2500      0.0000    753.3434      5.3450    107.2533
   301.5000      0.0000    754.3288      5.3659    108.5613
   301.7500      0.0000    759.8626      5.3741    107.1749
   302.0000      0.0000    766.0131      5.3647    104.9011
   302.2500      0.0000    768.5560      5.3410    103.7372
   302.5000      0.0000    765.9250      5.3143    104.2844
   302.7500      0.0000    761.0318      5.2928    106.1161
   303.0000      0.0000    759.0520      5.2792    108.8180
   303.2500      0.0000    763.3882      5.2793    112.0075
   303.5000      0.0000    773.8691      5.3047    114.8837
   303.7500      0.0000    787.9363      5.3644    116.5786
   304.0000      0.0000    801.9639      5.4584    116.9675
   304.2500      0.0000    811.0122      5.5763    116.8000
   304.5000      0.0000    809.6651      5.6944    116.9522
   304.7500      0.0000    796.5401      5.7776    117.4655
   305.0000      0.0000    778.0037      5.7937    117.2323
   305.2500      0.0000    764.5677      5.7346    114.8100
   305.5000      0.0000    762.3973      5.6226    109.7176
   305.7500      0.0000    769.1736      5.4980    102.8359
   306.0000      0.0000    777.5151      5.4009     95.5987
   306.2500      0.0000    780.7422      5.3542     89.0265
   306.5000      0.0000    776.7425      5.3538     83.3364
   306.7500      0.0000    769.3141      5.3748     78.0709
   307.0000      0.0000    765.3152      5.3921     72.7282
   307.2500      0.0000    768.2592      5.3969     67.6075
   307.5000      0.0000    775.1077      5.3916     63.8356
   307.7500      0.0000    780.5883      5.3777     62.3471
   308.0000      0.0000    783.4144      5.3530     62.9809
   308.2500      0.0000    786.7194      5.3185     64.6381
   308.5000      0.0000    793.2994      5.2815     66.0678
   308.7500      0.0000    801.9689      5.2501     66.5368
   309.0000      0.0000    808.2024      5.2250     66.1772
   309.2500      0.0000    807.8219      5.1995     65.8328
   309.5000      0.0000    800.5988      5.1670     66.3205
   309.7500      0.0000    790.4539      5.1307     67.7665
   310.0000      0.0000    781.8947      5.1017     69.7588
   310.2500      0.0000    776.7988      5.0895     72.0311
   310.5000      0.0000    774.7219      5.0948     74.7446
   310.7500      0.0000    774.4573      5.1152     77.9296
   311.0000      0.0000    774.0258      5.1532     80.7667
   311.2500      0.0000    770.8376      5.2112     81.9423
   311.5000      0.0000    763.7305      5.2718     81.0825
   311.7500      0.0000    754.3907      5.2904     79.4910
   312.0000      0.0000    746.1913      5.2227     79.0261
   312.2500      0.0000    742.1973      5.0747     80.3710
   312.5000      0.0000    743.7837      4.9189     82.6171
   312.7500      0.0000    749.5945      4.8478     84.3329
   313.0000      0.0000    755.9659      4.9062     84.7841
   313.2500      0.0000    760.7592      5.0659     84.3029
   313.5000      0.0000    767.6733      5.2549     83.8169
   313.7500      0.0000    784.8503      5.4070     84.0562
   314.0000      0.0000    816.5884      5.4975     85.0932
   314.2500      0.0000    855.6125      5.5475     86.6422
   314.5000      0.0000    884.8406      5.6077     88.6416
   314.7500      0.0000    889.0136      5.7330     91.2876
   315.0000      0.0000    866.0312      5.9457     94.5350
   315.2500      0.0000    827.1600      6.2001     97.8730
   315.5000      0.0000    787.2354      6.3949    100.6699
   315.7500      0.0000    756.0874      6.4523    102.6052
   316.0000      0.0000    737.1859      6.3835    103.9190
   316.2500      0.0000    729.5695      6.2619    105.2458
   316.5000      0.0000    729.2275      6.1468    106.7556
   316.7500      0.0000    730.9034      6.0508    107.4329
   317.0000      0.0000    730.8304      5.9637    105.9369
   317.2500      0.0000    728.7874      5.8817    102.3404
   317.5000      0.0000    727.7138      5.8129     98.2761
   317.7500      0.0000    730.8210      5.7659     95.1420
   318.0000      0.0000    738.2273      5.7430     92.8865
   318.2500      0.0000    746.6558      5.7415     90.7725
   318.5000      0.0000    753.0601      5.7526     88.6609
   318.7500      0.0000    757.7120      5.7597     87.2248
   319.0000      0.0000    762.5063      5.7445     87.3496
   319.2500      0.0000    766.8607      5.7005     89.6454
   319.5000      0.0000    767.2637      5.6390     94.1431
   319.7500      0.0000    761.4805      5.5799     99.9976
   320.0000      0.0000    751.8240      5.5390    105.6715
   320.2500      0.0000    743.2432      5.5242    109.8186
   320.5000      0.0000    739.0123      5.5348    112.1146
   320.7500      0.0000    739.2297      5.5624    113.0818
   321.0000      0.0000    742.8961      5.5962    113.1620
   321.2500      0.0000    750.2940      5.6317    112.2746
   321.5000      0.0000    762.9813      5.6721    110.2599
   321.7500      0.0000    781.7090      5.7162    107.2637
   322.0000      0.0000    804.5950      5.7509    103.5126
   322.2500      0.0000    827.5168      5.7587     99.2370
   322.5000      0.0000    846.3788      5.7375     95.2575
   322.7500      0.0000    859.0408      5.7096     93.1955
   323.0000      0.0000    865.5093      5.7084     94.4209
   323.2500      0.0000    866.9086      5.7499     98.9570
   323.5000      0.0000    864.7313      5.8157    105.7338
   323.7500      0.0000    861.0112      5.8636    113.2701
   324.0000      0.0000    858.4095      5.8550    119.6292
   324.2500      0.0000    859.0290      5.7796    122.6405
   324.5000      0.0000    862.8602      5.6606    121.1636
   324.7500      0.0000    867.9050      5.5421    115.8025
   325.0000      0.0000    872.0331      5.4656    107.9148
   325.2500      0.0000    874.4592      5.4505     98.3063
   325.5000      0.0000    875.6116      5.4915     87.2916
   325.7500      0.0000    876.1763      5.5672     75.7833
   326.0000      0.0000    876.5032      5.6498     65.8130
   326.2500      0.0000    876.6357      5.7101     59.6082
   326.5000      0.0000    876.5660      5.7257     58.0403
   326.7500      0.0000    876.3640      5.6908     60.1808
   327.0000      0.0000    876.1447      5.6189     64.3889
