~Version Information
VERS.                      2.0: CWLS Log ASCII Standard - VERSION 2.0
WRAP.                       NO: One line per depth step
~Well Information Block
STRT.FT               230.0000: 
STOP.FT              1527.0000: 
STEP.FT                 0.1000: 
NULL.                -999.2500: 
COMP.          Pioneer Natural Resources: COMPANY
WELL.              Border 21-3: WELL
FLD.           Purgatorie River: FIELD
LOC.           865' FNL & 1415' FWL: LOCATION
PROV.                 Colorado: PROVINCE
CNTY.               Las Animas: COUNTRY
SRVC.                         : SERVICE COMPANY
DATE.          Thu Dec 09 16:57:34 2004: LOG DATE
UWI.           05 071 08169 00: UNIQUE WELL ID
~Curve Information Block
DEPT.FT            0 000 00 00: Depth
LTEN.lb                       : Surface Line Tension
DCAL.in                       : CDL Caliper
RHOB.g/cc                     : CDL Bulk Density
RHOC.g/cc                     : CDL Density Correction
DPOR.pu                       : CDL Density Porosity
GR.GAPI                       : Gamma Ray
NPOR.pu                       : Neutron Porosity
~Parameter Information Block
~A  Depth       LTEN        DCAL        RHOB        RHOC        DPOR         GR         NPOR    
# ...
   742.4000    921.8726      7.8891      2.4218      0.0446     13.8305     77.1876     18.8109
   742.5000    944.8378      7.8894      2.3995      0.0517     15.1839     71.6539     18.4756
   742.6000    944.8378      7.8894      2.3806      0.0045     16.3256     68.9658     17.9830
   742.7000    944.8378      7.8894      2.3713      0.0346     16.8888     69.8024     17.5334
   742.8000    914.8153      7.8884      2.3687      0.0147     17.0481     72.3278     17.2599
   742.9000    914.8153      7.8884      2.3700      0.0399     16.9707     73.3909     17.1193
   743.0000    888.1249      7.8901      2.3758      0.0364     16.6203     70.7364     17.0992
   743.1000    888.1249      7.8901      2.3802      0.0719     16.3528     67.8074     17.0906
   743.2000    888.1249      7.8901      2.3761      0.0528     16.5994     69.0656     16.8418
   743.3000    881.9818      7.8875      2.3631      0.0847     17.3872     72.8673     16.5634
   743.4000    881.9818      7.8875      2.3453      0.0589     18.4681     73.6999     16.6999
   743.5000    963.6106      7.8907      2.3311      0.0641     19.3248     70.3876     17.0162
   743.6000    963.6106      7.8907      2.3251      0.0200     19.6916     68.5198     17.1079
   743.7000    963.6106      7.8907      2.3261      0.0076     19.6302     71.8375     16.9822
   743.8000    958.0905      7.8904      2.3333      0.0342     19.1919     76.6165     16.7955
   743.9000    958.0905      7.8904      2.3446      0.0562     18.5065     77.4879     16.7780
   744.0000    918.5905      7.8914      2.3650      0.0824     17.2743     74.8751     17.2154
   744.1000    918.5905      7.8914      2.4068      0.1209     14.7395     73.3004     17.8207
   744.2000    918.5905      7.8914      2.4656      0.1854     11.1773     73.0322     18.1388
   744.3000    909.2556      7.8904      2.5157      0.2375      8.1390     72.1346     18.1385
   744.4000    909.2556      7.8904      2.5353      0.2325      6.9497     72.2290     17.9140
   744.5000    916.4677      7.9013      2.5261      0.2107      7.5090     74.7354     17.6895
   744.6000    916.4677      7.9013      2.5068      0.1825      8.6760     77.3709     17.5502
   744.7000    916.4677      7.9013      2.4875      0.1675      9.8500     79.9785     17.5301
   744.8000    928.7153      7.9758      2.4625      0.1461     11.3654     84.0613     17.6499
   744.9000    928.7153      7.9758      2.4324      0.0904     13.1872     86.4426     17.7486
   745.0000    924.2991      7.9846      2.4133      0.0394     14.3426     83.3393     17.6245
   745.1000    924.2991      7.9846      2.4162      0.0441     14.1707     77.3545     17.1890
   745.2000    924.2991      7.9846      2.4262      0.0707     13.5623     73.6988     16.5752
   745.3000    915.2081      7.9851      2.4175      0.1054     14.0892     72.3861     16.1597
   745.4000    915.2081      7.9851      2.3892      0.0670     15.8048     70.4245     16.1453
   745.5000    931.0913      7.9847      2.3669      0.0629     17.1552     68.0956     16.3319
   745.6000    931.0913      7.9847      2.3606      0.0674     17.5412     67.7795     16.5549
   745.7000    931.0913      7.9847      2.3591      0.0823     17.6308     69.9641     16.6023
   745.8000    930.3118      7.9866      2.3604      0.0340     17.5518     71.3961     16.2959
   745.9000    930.3118      7.9866      2.3689      0.1036     17.0387     69.5415     16.0252
   746.0000    925.4775      7.9858      2.3799      0.0563     16.3689     66.7566     16.1054
   746.1000    925.4775      7.9858      2.3899      0.0885     15.7623     64.9873     16.2845
   746.2000    925.4775      7.9858      2.4048      0.0963     14.8626     63.5434     16.3780
   746.3000    911.4686      7.9857      2.4259      0.1482     13.5843     62.0579     16.3263
   746.4000    911.4686      7.9857      2.4391      0.1604     12.7825     61.2753     16.1289
   746.5000    928.6436      7.9859      2.4338      0.1574     13.1007     63.3845     16.0352
   746.6000    928.6436      7.9859      2.4234      0.0863     13.7352     66.5217     16.1557
   746.7000    928.6436      7.9859      2.4291      0.1049     13.3885     66.7655     16.3442
   746.8000    948.3759      7.9843      2.4465      0.1445     12.3305     66.4057     16.5737
   746.9000    948.3759      7.9843      2.4574      0.1341     11.6712     67.7856     16.8808
   747.0000    957.5172      7.9848      2.4608      0.1157     11.4646     71.0998     17.2198
   747.1000    957.5172      7.9848      2.4623      0.1195     11.3737     75.3965     17.3559
   747.2000    957.5172      7.9848      2.4597      0.0864     11.5361     77.7681     17.0140
   747.3000    931.9830      7.9853      2.4523      0.0873     11.9791     77.8731     16.3909
   747.4000    931.9830      7.9853      2.4432      0.0747     12.5322     77.1672     16.2395
   747.5000    912.9555      7.9856      2.4336      0.0631     13.1171     74.4337     16.7390
   747.6000    912.9555      7.9856      2.4260      0.0581     13.5769     69.3452     17.2484
   747.7000    912.9555      7.9856      2.4258      0.0353     13.5895     65.2604     17.4249
   747.8000    921.7316      7.9848      2.4318      0.0641     13.2227     64.2920     17.4512
   747.9000    921.7316      7.9848      2.4380      0.0673     12.8501     63.7926     17.5759
   748.0000    924.9899      7.9853      2.4431      0.0678     12.5398     61.4029     17.9182
   748.1000    924.9899      7.9853      2.4454      0.0548     12.3983     58.0219     18.5460
   748.2000    924.9899      7.9853      2.4473      0.0672     12.2844     54.5321     19.1915
   748.3000    924.8007      7.9935      2.4566      0.0547     11.7198     52.2937     19.3547
   748.4000    924.8007      7.9935      2.4784      0.0626     10.4017     52.7205     19.1958
   748.5000    921.2355      7.9850      2.5132      0.1056      8.2905     54.5778     19.0808
   748.6000    921.2355      7.9850      2.5548      0.1332      5.7684     55.5486     19.1882
   748.7000    921.2355      7.9850      2.5940      0.1386      3.3937     55.7675     19.4346
   748.8000    949.1182      7.9896      2.6263      0.1543      1.4352     57.7954     19.4806
   748.9000    949.1182      7.9896      2.6458      0.1747      0.2572     61.7914     19.1961
   749.0000    954.9476      7.9815      2.6478      0.1372      0.1359     65.3745     18.8049
   749.1000    954.9476      7.9815      2.6359      0.1419      0.8556     67.6537     18.8015
   749.2000    954.9476      7.9815      2.6170      0.1199      2.0003     67.6079     19.4214
   749.3000    924.4070      7.9850      2.6005      0.1018      3.0024     63.8095     20.2575
   749.4000    924.4070      7.9850      2.5941      0.0882      3.3906     58.3343     20.6266
   749.5000    921.8761      7.9853      2.5970      0.0819      3.2136     55.2704     20.2132
   749.6000    921.8761      7.9853      2.5991      0.0696      3.0827     57.4079     19.3738
   749.7000    921.8761      7.9853      2.5947      0.0531      3.3527     63.7554     18.7541
   749.8000    927.8226      7.9847      2.5906      0.0512      3.5986     70.8333     18.5880
   749.9000    927.8226      7.9847      2.5985      0.0239      3.1191     77.0803     18.6248
   750.0000    910.8947      7.9835      2.6155      0.0691      2.0888     81.0843     18.6038
   750.1000    910.8947      7.9835      2.6251      0.0738      1.5095     79.9171     18.4089
   750.2000    910.8947      7.9835      2.6269      0.0527      1.3986     73.6590     18.1305
   750.3000    925.5117      7.9825      2.6286      0.0675      1.2990     66.8472     17.9408
   750.4000    925.5117      7.9825      2.6245      0.0735      1.5440     63.2986     17.8584
   750.5000    947.3663      7.9836      2.6138      0.0427      2.1950     64.6830     17.8413
   750.6000    947.3663      7.9836      2.6086      0.0229      2.5118     70.1897     17.7903
   750.7000    947.3663      7.9836      2.6134      0.0350      2.2207     75.3024     17.7099
