~Version Information
VERS.                      2.0: CWLS Log ASCII Standard - VERSION 2.0
WRAP.                       NO: One line per depth step
~Well Information Block
STRT.FT                -7.5000: 
STOP.FT              2339.2500: 
STEP.FT                 0.2500: 
NULL.                -999.2500: 
COMP.          Pioneer Natural Resources: COMPANY
WELL.            Harrier 44-33: WELL
FLD.           Purgatorie River: FIELD
LOC.           456' FSL & 930' FEL--: LOCATION
PROV.                       CO: PROVINCE
CNTY.               Las Animas: COUNTRY
SRVC.          Patterson Wireline: SERVICE COMPANY
DATE.          Wed Jun 29 11:08:51 2005: LOG DATE
UWI.           05 071 08398 00: UNIQUE WELL ID
~Curve Information Block
DEPT.FT            0 000 00 00: Depth
CCL.                          : Casing Collar Locator
TT3.usec                      : CBL 3' Travel Time
AMP3.mV                       : CBL 3' Amplitude
GR.GAPI                       : Gamma Ray
~Parameter Information Block
~A  Depth       CCL         TT3         AMP3         GR     
# ...
  2304.0000      0.0000    280.4424     38.5657     69.2538
  2304.2500      0.0000    284.0850     35.4197     68.8010
  2304.5000      0.0000    287.0114     32.8535     66.6839
  2304.7500      0.0000    288.3927     31.6905     63.6800
  2305.0000     -2.0000    287.2621     32.2390     60.7071
  2305.2500      0.0000    284.0614     34.0440     58.7042
  2305.5000      0.0000    280.7954     36.3453     58.2351
  2305.7500      0.0000    279.1292     38.7735     59.2189
  2306.0000      0.0000    278.7022     41.4679     61.0470
  2306.2500      0.0000    277.6891     44.5377     63.0792
  2306.5000      0.0000    274.8579     47.7274     65.1285
  2306.7500      0.0000    270.7119     50.8100     67.4263
  2307.0000      0.0000    266.6903     53.9469     70.2051
  2307.2500      0.0000    263.7803     57.2935     73.4107
  2307.5000      0.0000    262.0831     60.5103     76.6311
  2307.7500      0.0000    261.2421     63.0110     79.0735
  2308.0000      0.0000    260.8859     64.5274     79.7120
  2308.2500      0.0000    260.7682     65.2357     77.7404
  2308.5000      0.0000    260.7505     65.4841     73.0491
  2308.7500      0.0000    260.7597     65.5652     66.4080
  2309.0000      0.0000    260.7549     65.6655     59.3092
  2309.2500      0.0000    260.7238     65.8603     53.5004
  2309.5000      0.0000    260.6798     66.1249     50.3634
  2309.7500      0.0000    260.6444     66.3900     50.5751
  2310.0000      0.0000    260.6253     66.6109     54.1252
  2310.2500      0.0000    260.6127     66.7730     60.4083
  2310.5000      0.0000    260.5944     66.8534     68.3903
  2310.7500      0.0000    260.5678     66.8241     77.2520
  2311.0000      0.0000    260.5392     66.6943     87.1339
  2311.2500      0.0000    260.5168     66.5317     98.5206
  2311.5000      0.0000    260.5053     66.4465    110.2898
  2311.7500      0.0000    260.5035     66.5540    119.1304
  2312.0000      0.0000    260.5061     66.9144    121.9375
  2312.2500      0.0000    260.5097     67.4737    118.4541
  2312.5000      0.0000    260.5163     68.0681    110.9800
  2312.7500      0.0000    260.5311     68.5168    102.2210
  2313.0000      0.0000    260.5530     68.7417     94.1213
  2313.2500      0.0000    260.5703     68.8105     88.0220
  2313.5000      0.0000    260.5682     68.8550     84.8774
  2313.7500      0.0000    260.5431     68.9490     85.0897
  2314.0000      0.0000    260.5052     69.0692     88.1455
  2314.2500      0.0000    260.4674     69.1466     92.3235
  2314.5000      0.0000    260.4361     69.1276     95.0523
  2314.7500      0.0000    260.4081     68.9877     94.4017
  2315.0000      0.0000    260.3741     68.7195     90.6837
  2315.2500      0.0000    260.3254     68.3370     86.3283
  2315.5000      0.0000    260.2610     67.9073     83.8379
  2315.7500      0.0000    260.1898     67.5582     83.7109
  2316.0000      0.0000    260.1283     67.4113     84.2446
  2316.2500      0.0000    260.0960     67.4733     83.2013
  2316.5000      0.0000    260.1082     67.6049     79.7998
  2316.7500      0.0000    260.1631     67.6335     75.3859
  2317.0000      0.0000    260.2370     67.4930     72.2707
  2317.2500      0.0000    260.2950     67.2362     71.8179
  2317.5000      0.0000    260.3100     66.9370     73.4381
  2317.7500      0.0000    260.2759     66.6227     75.1986
  2318.0000      0.0000    260.2097     66.3011     75.4224
  2318.2500      0.0000    260.1408     66.0056     73.9167
  2318.5000      0.0000    260.0952     65.7655     71.7440
  2318.7500      0.0000    260.0876     65.5334     69.9508
  2319.0000      0.0000    260.1180     65.1743     68.7968
  2319.2500      0.0000    260.1701     64.5688     68.1398
  2319.5000      0.0000    260.2180     63.7573     68.0050
  2319.7500      0.0000    260.2440     63.0107     68.4698
  2320.0000      0.0000    260.2514     62.7088     69.2824
  2320.2500      0.0000    260.2558     63.0389     70.0218
  2320.5000      0.0000    260.2680     63.7850     70.5947
  2320.7500      0.0000    260.2902     64.4973     71.2413
  2321.0000      0.0000    260.3214     64.8945     71.9617
  2321.2500      0.0000    260.3627     65.0388     72.2900
  2321.5000      0.0000    260.4137     65.1192     71.9289
  2321.7500      0.0000    260.4689     65.1772     71.3300
  2322.0000      0.0000    260.5197     65.0991     71.2247
  2322.2500      0.0000    260.5616     64.7947     71.8288
  2322.5000      0.0000    260.5948     64.3147     72.8766
  2322.7500      0.0000    260.6169     63.8161     74.2968
  2323.0000      0.0000    260.6215     63.4097     76.6125
  2323.2500      0.0000    260.6132     63.0003     80.6475
  2323.5000      0.0000    260.6161     62.3026     86.6997
  2323.7500      0.0000    260.6585     61.0632     93.9090
  2324.0000      0.0000    260.7544     59.2410    100.6015
  2324.2500      0.0000    260.9071     56.9530    105.2276
  2324.5000      0.0000    261.1258     54.3198    106.7750
  2324.7500      0.0000    261.4325     51.4091    104.3884
  2325.0000      0.0000    261.8828     48.2843     96.8566
  2325.2500      0.0000    262.6456     45.0468     83.0233
  2325.5000      0.0000    264.1397     41.8275     63.5018
  2325.7500      0.0000    267.0643     38.7577     41.8836
  2326.0000      0.0000    272.0573     35.9347     23.1653
  2326.2500      0.0000    279.0104     33.3935     10.5270
  2326.5000      0.0000    286.7001     31.1103      3.8739
  2326.7500      0.0000    293.3915     29.0395      1.1422
  2327.0000      0.0000    297.9822     27.1408      0.2678
  2327.2500      0.0000    300.5295     25.3744      0.0490
  2327.5000      0.0000    301.7967     23.6980      0.0063
  2327.7500      0.0000    302.5257     22.1002      0.0000
  2328.0000      0.0000    303.0941     20.6385   -999.2500
  2328.2500      0.0000    303.5631     19.4290   -999.2500
  2328.5000      0.0000    303.8595     18.5966   -999.2500
  2328.7500      0.0000    303.9286     18.2112   -999.2500
  2329.0000      0.0000    303.8031     18.2425   -999.2500
  2329.2500      0.0000    303.5626     18.5766   -999.2500
  2329.5000      0.0000    303.2148     19.0942   -999.2500
  2329.7500      0.0000    302.3723     19.7166   -999.2500
  2330.0000      0.0000    299.5636     20.3431   -999.2500
  2330.2500      0.0000    291.2115     20.7019   -999.2500
  2330.5000      0.0000    271.4131     20.2668   -999.2500
  2330.7500      0.0000    234.6396     18.4602   -999.2500
  2331.0000      0.0000    181.2992     15.1532   -999.2500
  2331.2500      0.0000    120.9539     11.0071   -999.2500
  2331.5000      0.0000     67.7431      7.1513   -999.2500
  2331.7500      0.0000     31.1867      4.4212   -999.2500
  2332.0000      0.0000     11.6232      2.9335   -999.2500
  2332.2500      0.0000      3.4686      2.3062   -999.2500
  2332.5000      0.0000      0.8213      2.1011   -999.2500
  2332.7500      0.0000      0.1520      2.0490   -999.2500
  2333.0000      0.0000      0.0202      2.0386   -999.2500
  2333.2500      0.0000   -999.2500   -999.2500   -999.2500
  2333.5000      0.0000   -999.2500   -999.2500   -999.2500
  2333.7500      0.0000   -999.2500   -999.2500   -999.2500
  2334.0000      0.0000   -999.2500   -999.2500   -999.2500
  2334.2500      0.0000   -999.2500   -999.2500   -999.2500
  2334.5000      0.0000   -999.2500   -999.2500   -999.2500
  2334.7500      0.0000   -999.2500   -999.2500   -999.2500
  2335.0000      0.0000   -999.2500   -999.2500   -999.2500
  2335.2500      0.0000   -999.2500   -999.2500   -999.2500
  2335.5000      0.0000   -999.2500   -999.2500   -999.2500
  2335.7500      0.0000   -999.2500   -999.2500   -999.2500
  2336.0000      0.0000   -999.2500   -999.2500   -999.2500
  2336.2500      0.0000   -999.2500   -999.2500   -999.2500
  2336.5000      0.0000   -999.2500   -999.2500   -999.2500
  2336.7500      0.0000   -999.2500   -999.2500   -999.2500
  2337.0000      0.0000   -999.2500   -999.2500   -999.2500
  2337.2500      0.0000   -999.2500   -999.2500   -999.2500
