~Version Information
VERS.                      2.0: CWLS Log ASCII Standard - VERSION 2.0
WRAP.                       NO: One line per depth step
~Well Information Block
STRT.FT                -4.5000: 
STOP.FT              1680.2500: 
STEP.FT                 0.2500: 
NULL.                -999.2500: 
COMP.          Pioneer Natural Resources: COMPANY
WELL.            Salty 42-6 Tr: WELL
FLD.           Purgatorie River: FIELD
LOC.           2409' FNL & 599' FEL--: LOCATION
PROV.                       CO: PROVINCE
CNTY.               Las Animas: COUNTRY
SRVC.                         : SERVICE COMPANY
DATE.          Mon Dec 20 13:36:48 2004: LOG DATE
UWI.           071-08238      : UNIQUE WELL ID
~Curve Information Block
DEPT.FT            0 000 00 00: Depth
HVOLTA.V                      : Head Voltage Apparent
GR.GAPI                       : Gamma Ray
CCL.                          : Casing Collar Locator
TT3.usec                      : CBL 3' Travel Time
AMP3.mV                       : CBL 3' Amplitude
~Parameter Information Block
~A  Depth      HVOLTA        GR         CCL         TT3         AMP3    
# ...
   779.5000     97.1584     57.6529      0.0000    762.3254      8.2052
   779.7500     97.1213     56.8067      0.0000    762.4337      8.2055
   780.0000     97.3089     56.0812      0.0000    762.5398      8.2117
   780.2500     97.3460     56.6074      0.0000    762.6800      8.2441
   780.5000     97.2779     59.2769      0.0000    762.8099      8.3001
   780.7500     97.1584     63.6326      0.0000    762.8179      8.3489
   781.0000     97.0700     67.7712      0.0000    762.6231      8.3534
   781.2500     97.2815     69.7137      0.0000    762.2443      8.2968
   781.5000     97.2026     68.9325      0.0000    761.7723      8.1888
   781.7500     97.3902     66.4691      0.0000    761.3225      8.0499
   782.0000     97.4045     63.8323      0.0000    761.0439      7.8986
   782.2500     97.3078     62.0861      0.0000    761.2416      7.7534
   782.5000     97.2850     61.8683      0.0000    762.6596      7.6412
   782.7500     97.2911     63.7299      0.0000    766.8588      7.5886
   783.0000     97.2946     67.8312      0.0000    776.0437      7.5945
   783.2500     97.1548     73.1866      0.0000    791.1846      7.6162
   783.5000     97.3424     77.9260      0.0000    808.9722      7.5977
   783.7500     97.3974     80.8640      0.0000    821.4793      7.5208
   784.0000     97.3018     82.4255      0.0000    821.4678      7.4258
   784.2500     97.3221     83.8681      0.0000    808.9436      7.3765
   784.5000     97.2062     86.4325      0.0000    791.1485      7.4050
   784.7500     97.3185     91.4476      0.0000    775.9889      7.4919
   785.0000     97.2265     99.9113      0.0000    766.7293      7.5982
   785.2500     97.2504    110.8986      0.0000    762.3621      7.7065
   785.5000     97.1823    121.0504      0.0000    760.6848      7.8233
   785.7500     97.1859    126.8749      0.0000    760.1724      7.9484
   786.0000     97.1477    127.8384      0.0000    760.0852      8.0542
   786.2500     97.0486    126.7961      0.0000    759.9984      8.1006
   786.5000     97.0999    127.1290      0.0000    759.4699      8.0675
   786.7500     97.1238    129.5452      0.0000    758.0250      7.9717
   787.0000     97.2600    132.0783      0.0000    755.4578      7.8542
   787.2500     97.2875    133.2149      0.0000    752.1232      7.7544
   787.5000     97.3221    134.2598      0.0000    748.6960      7.6958
   787.7500     97.2839    138.0116      0.0000    745.5758      7.6892
   788.0000     97.1680    145.3764      0.0000    742.9343      7.7344
   788.2500     97.2230    153.9422      0.0000    741.3104      7.8142
   788.5000     97.1680    160.1386      0.0000    741.3574      7.8919
   788.7500     97.1274    162.4589      0.0000    742.8092      7.9289
   789.0000     97.2911    162.2998      0.0000    744.3748      7.9158
   789.2500     97.0104    161.9684      0.0000    744.7072      7.8839
   789.5000     97.2361    162.4808      0.0000    742.9847      7.8812
   789.7500     97.3556    163.3430      0.0000    738.9883      7.9381
   790.0000     97.2875    163.6825      0.0000    733.4408      8.0579
   790.2500     97.0343    162.8929      0.0000    728.0775      8.2290
   790.5000     97.2397    160.4859      0.0000    724.8353      8.4281
   790.7500     97.2122    155.9664      0.0000    724.9700      8.6193
   791.0000     97.2087    149.1710      0.0000    728.7442      8.7660
   791.2500     97.3831    140.8604      0.0000    735.2849      8.8530
   791.5000     97.1537    132.9627      0.0000    742.5547      8.8926
   791.7500     97.2122    127.7349      0.0000    748.1122      8.9149
   792.0000     96.9865    126.2030      0.0000    750.5316      8.9532
   792.2500     97.1071    127.3882      0.0000    750.1115      9.0262
   792.5000     97.1167    129.0790      0.0000    748.0457      9.1234
   792.7500     97.1370    129.4403      0.0000    745.0752      9.2109
   793.0000     97.1477    128.3162      0.0000    741.3412      9.2627
   793.2500     97.3424    127.2416      0.0000    737.3042      9.2796
   793.5000     97.2361    128.0714      0.0000    733.8283      9.2759
   793.7500     97.2469    131.4969      0.0000    730.9584      9.2571
   794.0000     97.1716    136.6110      0.0000    727.4660      9.2221
   794.2500     97.2230    141.4893      0.0000    722.3930      9.1816
   794.5000     97.1884    144.3678      0.0000    716.6952      9.1622
   794.7500     97.1441    144.7882      0.0000    712.6279      9.1901
   795.0000     97.4452    143.5279      0.0000    711.5689      9.2699
   795.2500     97.1441    141.3892      0.0000    713.0007      9.3778
   795.5000     97.3938    138.7442      0.0000    715.6509      9.4735
   795.7500     97.0582    136.4771      0.0000    718.8501      9.5258
   796.0000     97.1370    136.1033      0.0000    721.9624      9.5326
   796.2500     97.0211    138.0161      0.0000    722.0777      9.5153
   796.5000     97.0856    140.3522      0.0000    712.7533      9.4963
   796.7500     97.2122    140.3583      0.0000    687.1849      9.4809
   797.0000     97.3221    136.5396      0.0000    645.2272      9.4555
   797.2500     97.3150    129.4356      0.0000    597.8271      9.3888
   797.5000     97.2946    120.8942      0.0000    562.2898      9.2350
   797.7500     97.3007    112.8214      0.0000    551.0319      8.9648
   798.0000     97.3831    106.3787      0.0000    564.3491      8.6136
   798.2500     97.0211    101.9781      0.0000    593.4371      8.2833
   798.5000     97.0593     99.4927      0.0000    628.6561      8.0693
   798.7500     97.2098     98.2310      0.0000    663.9313      7.9870
   799.0000     97.3902     97.0525      0.0000    695.5329      7.9798
   799.2500     97.3424     94.9520      0.0000    720.3716      7.9829
   799.5000     97.2982     91.6362      0.0000    736.4218      7.9655
   799.7500     97.1167     87.8829      0.0000    743.6018      7.9287
   800.0000     97.1680     85.5024     -2.0000    743.9965      7.8877
   800.2500     97.2301     86.3337     -2.0000    741.3607      7.8578
   800.5000     97.1955     90.4885      0.0000    739.8313      7.8592
   800.7500     97.1238     95.6832      0.0000    742.2825      7.9316
   801.0000     97.1955     98.8920      0.0000    748.8677      8.1129
   801.2500     97.1620     98.9255      0.0000    756.3243      8.3787
   801.5000     97.3795     97.2145      0.0000    759.4368      8.6383
   801.7500     97.2922     96.0025      0.0000    755.0793      8.8345
   802.0000     97.0724     95.8662      0.0000    745.0646      9.0060
   802.2500     97.2600     95.1637      0.0000    734.2953      9.2058
   802.5000     97.2194     91.8364      0.0000    726.5335      9.4091
   802.7500     97.3185     85.5000      0.0000    722.4751      9.5503
   803.0000     97.2529     77.7618      0.0000    720.9199      9.6055
   803.2500     97.2397     70.8528      0.0000    720.5391      9.6011
   803.5000     97.1848     66.0853      0.0000    720.5777      9.5706
   803.7500     97.3460     63.3888      0.0000    720.7292      9.5263
   804.0000     96.9950     61.9741      0.0000    720.8600      9.4636
   804.2500     96.5836     61.2332      0.0000    720.8895      9.3759
   804.5000     97.0724     60.9909      0.0000    720.7938      9.2671
   804.7500     97.3710     61.2310      0.0000    720.6072      9.1508
   805.0000     97.3257     62.0150      0.0000    720.3845      9.0377
   805.2500     97.1441     63.6256      0.0000    720.1640      8.9244
   805.5000     97.1991     66.4210      0.0000    719.9709      8.7991
   805.7500     97.3018     70.4910      0.0000    719.8701      8.6621
   806.0000     97.3531     75.4999      0.0000    720.0631      8.5393
   806.2500     97.1620     80.6659      0.0000    721.0227      8.4652
   806.5000     97.1787     84.8810      0.0000    723.5259      8.4491
   806.7500     97.2672     87.2896      0.0000    728.2980      8.4630
   807.0000     97.0521     87.8455      0.0000    735.2679      8.4667
   807.2500     97.2301     86.9530      0.0000    743.1381      8.4433
