~Version Information
VERS.                      2.0: CWLS Log ASCII Standard - VERSION 2.0
WRAP.                       NO: One line per depth step
~Well Information Block
STRT.FT               -19.2500: 
STOP.FT              2421.5000: 
STEP.FT                 0.2500: 
NULL.                -999.2500: 
COMP.          Petrogulf Corporation: COMPANY
WELL.           Montoya 13-41V: WELL
FLD.           Purgatorie River: FIELD
LOC.           449' FNL & 891' FEL: LOCATION
CNTY.               Las Animas: COUNTY
SRVC.                         : SERVICE COMPANY
DATE.          Mon Sep 13 13:48:36 2004: LOG DATE
UWI.                       N/A: UNIQUE WELL ID
STAT.                 Colorado: STATE
~Curve Information Block
DEPT.FT            0 000 00 00: Depth
TT3.usec                      : CBL 3' Travel Time
AMP3.mV                       : CBL 3' Amplitude
GR.GAPI                       : Gamma Ray
CCL.                          : Casing Collar Locator
~Parameter Information Block
~A  Depth       TT3         AMP3         GR         CCL     
# ...
  1421.2500    742.9755      3.1847    135.8465      0.0000
  1421.5000    705.4479      2.8928    131.8448      0.0000
  1421.7500    631.5785      2.7677    129.7620      0.0000
  1422.0000    539.3143      2.8407    130.4028      0.0000
  1422.2500    464.0795      3.0551    132.7710      0.0000
  1422.5000    423.6133      3.3047    135.2379      0.0000
  1422.7500    408.7059      3.5188    136.6657      0.0000
  1423.0000    404.8780      3.6939    136.4112      0.0000
  1423.2500    406.4024      3.8295    133.9408      0.0000
  1423.5000    416.8138      3.9080    129.0410      0.0000
  1423.7500    443.2413      3.9507    122.4816      0.0000
  1424.0000    479.5489      3.9834    116.1194      0.0000
  1424.2500    497.2372      3.9556    111.9593      0.0000
  1424.5000    477.7200      3.8395    110.8728      0.0000
  1424.7500    441.0095      3.7237    112.0079      0.0000
  1425.0000    415.9102      3.6813    113.3361      0.0000
  1425.2500    409.8283      3.6919    113.0886      2.2842
  1425.5000    422.1617      3.6983    111.1507      2.5482
  1425.7500    461.6077      3.6147    109.3391     -3.5645
  1426.0000    535.6857      3.3567    110.1958      0.0000
  1426.2500    626.9210      2.9509    115.0681      0.0000
  1426.5000    699.9041      2.5398    123.0285      0.0000
  1426.7500    737.4008      2.2258    131.7630      0.0000
  1427.0000    749.0769      1.9803    139.5062      0.0000
  1427.2500    750.2396      1.7555    145.8158      0.0000
  1427.5000    749.4500      1.5997    150.7044      0.0000
  1427.7500    749.5824      1.5687    153.9290      0.0000
  1428.0000    750.6951      1.6350    155.3753      0.0000
  1428.2500    752.2548      1.7423    155.4819      0.0000
  1428.5000    754.3850      1.8518    154.9518      0.0000
  1428.7500    757.6266      1.9345    154.4863      0.0000
  1429.0000    761.8028      1.9808    154.8843      0.0000
  1429.2500    765.4522      2.0120    156.7394      0.0000
  1429.5000    767.2154      2.0533    159.6944      0.0000
  1429.7500    767.3917      2.0971    162.3250      0.0000
  1430.0000    767.1254      2.1240    163.0324      0.0000
  1430.2500    767.0186      2.1473    161.1454      0.0000
  1430.5000    767.1105      2.1918    157.3553      0.0000
  1430.7500    766.8757      2.2544    153.1833      0.0000
  1431.0000    765.1705      2.3138    149.7358      0.0000
  1431.2500    761.5676      2.3514    146.8348      0.0000
  1431.5000    757.0073      2.3476    143.4697      0.0000
  1431.7500    751.2694      2.2838    139.0282      0.0000
  1432.0000    739.4339      2.1703    134.0120      0.0000
  1432.2500    713.5195      2.0599    129.8681      0.0000
  1432.5000    676.9402      2.0078    128.1634      0.0000
  1432.7500    654.0850      2.0181    129.4707      0.0000
  1433.0000    662.9205      2.0427    132.7547      0.0000
  1433.2500    688.7913      2.0237    136.0585      0.0000
  1433.5000    708.4017      1.9374    138.0698      0.0000
  1433.7500    716.6774      1.8103    139.2553      0.0000
  1434.0000    720.3297      1.6982    141.6823      0.0000
  1434.2500    725.4485      1.6443    147.4991      0.0000
  1434.5000    733.5284      1.6511    156.9447      0.0000
  1434.7500    741.4846      1.6906    167.5888      0.0000
  1435.0000    746.0095      1.7273    175.8758      0.0000
  1435.2500    746.7278      1.7269    179.8506      0.0000
  1435.5000    744.3873      1.6697    180.3193      0.0000
  1435.7500    740.5848      1.5780    179.2785      0.0000
  1436.0000    738.6158      1.4967    177.7866      0.0000
  1436.2500    738.6976      1.4392    175.7227      0.0000
  1436.5000    735.4795      1.3854    172.8332      0.0000
  1436.7500    725.3861      1.3323    169.1013      0.0000
  1437.0000    710.4756      1.3150    164.1649      0.0000
  1437.2500    694.6209      1.3866    156.9878      0.0000
  1437.5000    677.2241      1.6009    146.6559      0.0000
  1437.7500    646.6212      1.9785    133.7341      0.0000
  1438.0000    591.8746      2.4617    120.3849      0.0000
  1438.2500    530.5472      2.9068    108.8763      0.0000
  1438.5000    506.7603      3.1334    100.5787      0.0000
  1438.7500    546.5699      3.0395     96.6878      0.0000
  1439.0000    625.5676      2.7007     98.7515      0.0000
  1439.2500    694.0169      2.3078    107.3351      0.0000
  1439.5000    726.2602      2.0176    120.4298      0.0000
  1439.7500    732.2590      1.8884    134.0746      0.0000
  1440.0000    734.1911      1.8976    144.8530      0.0000
  1440.2500    743.6147      1.9799    151.7654      0.0000
  1440.5000    756.1110      2.0749    155.9414      0.0000
  1440.7500    764.2776      2.1570    158.9323      0.0000
  1441.0000    767.8203      2.2269    161.4102      0.0000
  1441.2500    769.1459      2.2982    163.2727      0.0000
  1441.5000    769.2976      2.3885    164.6032      0.0000
  1441.7500    771.6207      2.5103    166.1717      0.0000
  1442.0000    782.3220      2.6690    168.8841      0.0000
  1442.2500    802.7937      2.8513    172.8536      0.0000
  1442.5000    824.6139      3.0236    177.1205      0.0000
  1442.7500    835.8904      3.1650    180.3014      0.0000
  1443.0000    832.4001      3.2889    181.5298      0.0000
  1443.2500    820.6413      3.4282    180.9589      0.0000
  1443.5000    808.3972      3.6342    179.6319      0.0000
  1443.7500    796.8937      3.9663    178.8228      0.0000
  1444.0000    785.8688      4.4244    179.1793      0.0000
  1444.2500    776.7432      4.8914    180.5294      0.0000
  1444.5000    770.0211      5.1815    182.6645      0.0000
  1444.7500    769.7474      5.1702    185.8158      0.0000
  1445.0000    783.6755      4.8788    189.8408      0.0000
  1445.2500    810.4547      4.4318    193.5465      0.0000
  1445.5000    835.2220      3.9449    195.6806      0.0000
  1445.7500    842.9374      3.4731    196.1539      0.0000
  1446.0000    830.8015      3.0429    195.2720      0.0000
  1446.2500    807.7333      2.6823    192.0651      0.0000
  1446.5000    784.7586      2.4085    184.7491      0.0000
  1446.7500    765.9297      2.2096    173.2701      0.0000
  1447.0000    749.8110      2.0550    160.4489      0.0000
  1447.2500    736.2292      1.9202    149.9131      0.0000
  1447.5000    726.3848      1.7951    143.3701      0.0000
  1447.7500    721.7850      1.6808    140.2642      0.0000
  1448.0000    724.9373      1.5779    139.3503      0.0000
  1448.2500    733.1931      1.4831    139.7113      0.0000
  1448.5000    735.1328      1.4076    140.6522      0.0000
  1448.7500    717.7375      1.3824    141.7025      0.0000
  1449.0000    672.4582      1.4403    142.8395      0.0000
  1449.2500    600.0200      1.6004    143.9984      0.0000
  1449.5000    518.9985      1.8515    144.2281      0.0000
  1449.7500    458.4258      2.1425    141.8894      0.0000
  1450.0000    435.0571      2.3978    136.0586      0.0000
  1450.2500    451.6213      2.5407    127.7475      0.0000
  1450.5000    507.2606      2.5231    119.6570      0.0000
  1450.7500    588.2800      2.3541    114.5756      0.0000
  1451.0000    663.1683      2.0942    113.8552      0.0000
  1451.2500    708.2210      1.8305    117.2292      0.0000
  1451.5000    727.4055      1.6435    123.7219      0.0000
  1451.7500    735.5852      1.5573    132.3551      0.0000
  1452.0000    736.9070      1.5305    142.0739      0.0000
  1452.2500    729.2321      1.5143    151.4658      0.0000
  1452.5000    717.0723      1.4969    159.0299      0.0000
  1452.7500    709.9332      1.4864    163.8942      0.0000
  1453.0000    711.6306      1.4814    166.2779      0.0000
  1453.2500    718.4028      1.4749    167.1964      0.0000
  1453.5000    727.1733      1.4689    167.4255      0.0000
  1453.7500    737.9810      1.4690    166.5332      0.0000
  1454.0000    748.4732      1.4778    163.3044      0.0000
  1454.2500    754.4830      1.5042    157.5612      0.0000
  1454.5000    754.3701      1.5652    150.9957      0.0000
