~Version Information
VERS.                      2.0: CWLS Log ASCII Standard - VERSION 2.0
WRAP.                       NO: One line per depth step
~Well Information Block
STRT.FT               952.6000: 
STOP.FT              2511.5000: 
STEP.FT                 0.1000: 
NULL.                -999.2500: 
COMP.          Petrogulf Corporation: COMPANY
WELL.             Royal 8-33 V: WELL
FLD.           Purgatoire River: FIELD
LOC.           2365' FSL & 2336' FEL: LOCATION
PROV.                 Colorado: PROVINCE
CNTY.               Las Animas: COUNTRY
SRVC.                Patterson: SERVICE COMPANY
DATE.          Fri Dec 05 09:15:49 2003: LOG DATE
UWI.                          : UNIQUE WELL ID
~Curve Information Block
DEPT.FT            0 000 00 00: Depth
DCAL.in                       : CDL Caliper
RHOB.g/cc                     : CDL Bulk Density
RHOC.g/cc                     : CDL Density Correction
DPOR.pu                       : CDL Density Porosity
GR.GAPI                       : Gamma Ray
NPOR.pu                       : Neutron Porosity
~Parameter Information Block
~A  Depth       DCAL        RHOB        RHOC        DPOR         GR         NPOR    
# ...
  1077.4000      8.1974      2.5892      0.0191      3.6869    116.2944     22.4406
  1077.5000      8.1946      2.5551      0.0172      5.7523    112.2649     22.7815
  1077.6000      8.1946      2.5233      0.0350      7.6803    116.7299     23.8270
  1077.7000      8.1946      2.4809      0.0478     10.2496    124.2164     25.3915
  1077.8000      8.1835      2.4392     -0.0923     12.7763    130.1844     26.5422
  1077.9000      8.1835      2.4232     -0.0319     13.7473    133.0016     27.2559
  1078.0000      8.1656      2.4214      0.0407     13.8530    131.0850     28.1028
  1078.1000      8.1656      2.4234     -0.0262     13.7332    126.5931     28.9535
  1078.2000      8.1656      2.4510      0.0246     12.0625    125.3247     29.4993
  1078.3000      8.1663      2.5061      0.0967      8.7190    128.7617     29.6624
  1078.4000      8.1663      2.5598      0.1618      5.4644    134.4680     29.4265
  1078.5000      8.1898      2.5953      0.1852      3.3132    137.6999     28.9253
  1078.6000      8.1898      2.6233      0.2622      1.6209    135.6188     28.0685
  1078.7000      8.1898      2.6563      0.2370     -0.3813    133.2031     26.9400
  1078.8000      8.1586      2.6910      0.2557     -2.4829    133.9952     26.0761
  1078.9000      8.1586      2.7108      0.2148     -3.6866    134.9875     25.5873
  1079.0000      8.1286      2.7089      0.1839     -3.5727    132.3621     25.3882
  1079.1000      8.1286      2.6958      0.0937     -2.7757    127.1527     25.5207
  1079.2000      8.1286      2.6890     -0.0014     -2.3632    124.4954     25.6500
  1079.3000      8.1242      2.7012      0.0720     -3.1017    125.5850     25.5732
  1079.4000      8.1242      2.7173      0.2132     -4.0770    124.2301     25.8350
  1079.5000      8.0924      2.7027      0.2179     -3.1945    117.5003     26.6362
  1079.6000      8.0924      2.6547      0.1250     -0.2847    112.3589     27.1988
  1079.7000      8.0924      2.6070      0.0993      2.6063    111.7502     27.0990
  1079.8000      8.0895      2.5773      0.1031      4.4068    112.7075     26.6678
  1079.9000      8.0895      2.5514      0.1066      5.9774    114.9322     26.0345
  1080.0000      8.0928      2.5271      0.0641      7.4499    117.7195     25.3577
  1080.1000      8.0928      2.5214      0.0323      7.7948    121.2408     25.1620
  1080.2000      8.0928      2.5350      0.0520      6.9716    126.0491     25.3580
  1080.3000      8.0866      2.5585      0.0123      5.5468    128.5267     25.2147
  1080.4000      8.0866      2.5890      0.0927      3.6950    124.0456     24.5930
  1080.5000      8.0980      2.6165      0.1333      2.0288    113.6886     24.1173
  1080.6000      8.0980      2.6254      0.1345      1.4899    105.4559     24.6504
  1080.7000      8.0980      2.6126      0.1416      2.2641    105.9961     26.4748
  1080.8000      8.0912      2.5935      0.1459      3.4266    112.7670     28.5930
  1080.9000      8.0912      2.5883      0.1571      3.7403    119.9351     29.8770
  1081.0000      8.1006      2.6059      0.1668      2.6721    125.9802     30.3980
  1081.1000      8.1006      2.6414      0.1995      0.5220    130.0699     30.9543
  1081.2000      8.1006      2.6779      0.1856     -1.6904    131.3877     31.6909
  1081.3000      8.0802      2.6958      0.2501     -2.7786    130.4957     31.8671
  1081.4000      8.0802      2.6929      0.1607     -2.6002    128.8162     31.4144
  1081.5000      8.0880      2.6876      0.2068     -2.2770    128.0648     31.3111
  1081.6000      8.0880      2.6914      0.2059     -2.5065    126.8338     31.7738
  1081.7000      8.0880      2.7080      0.1184     -3.5170    124.9611     31.5875
  1081.8000      8.1058      2.7325      0.1885     -5.0027    126.1266     30.3587
  1081.9000      8.1058      2.7374      0.1241     -5.2946    130.5863     29.1368
  1082.0000      8.1548      2.7192      0.0975     -4.1948    133.4977     28.4171
  1082.1000      8.1548      2.7105      0.1079     -3.6665    131.2768     28.0013
  1082.2000      8.1548      2.7198      0.1157     -4.2330    125.1987     27.7539
  1082.3000      8.1329      2.7187      0.1210     -4.1629    121.3624     27.5619
  1082.4000      8.1329      2.6922      0.0787     -2.5563    121.7451     27.1515
  1082.5000      8.1313      2.6586      0.0219     -0.5189    121.8915     26.7622
  1082.6000      8.1313      2.6364      0.0321      0.8229    121.1088     26.6001
  1082.7000      8.1313      2.6305      0.0001      1.1814    121.3784     26.3410
  1082.8000      8.1462      2.6373      0.1010      0.7676    122.5412     26.0158
  1082.9000      8.1462      2.6401      0.0248      0.6013    125.7112     26.1320
  1083.0000      8.1340      2.6289      0.0481      1.2763    128.0635     26.9707
  1083.1000      8.1340      2.6139      0.0901      2.1886    126.0029     28.0072
  1083.2000      8.1340      2.6102      0.0658      2.4148    124.2232     28.2419
  1083.3000      8.1167      2.6187      0.0925      1.8963    127.2076     27.5313
  1083.4000      8.1167      2.6302      0.0495      1.2012    134.6531     26.6459
  1083.5000      8.1189      2.6400      0.1370      0.6077    145.3557     26.1738
  1083.6000      8.1189      2.6413      0.1307      0.5260    153.1331     26.3264
  1083.7000      8.1189      2.6308      0.1143      1.1638    152.7610     26.8799
  1083.8000      8.1031      2.6151      0.1293      2.1175    148.5246     27.0910
  1083.9000      8.1031      2.6011      0.1129      2.9647    145.1936     26.4934
  1084.0000      8.1116      2.5924      0.0894      3.4938    141.7458     25.7112
  1084.1000      8.1116      2.5948      0.0871      3.3425    139.7986     25.6992
  1084.2000      8.1116      2.6098      0.1207      2.4359    140.3464     26.1050
  1084.3000      8.1132      2.6229      0.1099      1.6416    136.9110     25.9324
  1084.4000      8.1132      2.6205      0.0915      1.7887    128.8342     25.0722
  1084.5000      8.1343      2.6027      0.0496      2.8661    125.9228     23.9856
  1084.6000      8.1343      2.5822      0.0965      4.1094    127.0700     23.2354
  1084.7000      8.1343      2.5774      0.0541      4.4029    121.5468     22.8802
  1084.8000      8.1429      2.5889      0.1567      3.7004    110.9072     22.2844
  1084.9000      8.1429      2.5987      0.1217      3.1079    101.1904     21.3566
  1085.0000      8.1143      2.6095      0.0791      2.4547     91.8994     20.7353
  1085.1000      8.1143      2.6340      0.1526      0.9676     84.4602     20.7393
  1085.2000      8.1143      2.6615      0.1745     -0.6977     80.1846     20.9874
  1085.3000      8.0878      2.6784      0.1817     -1.7230     75.6247     20.8004
  1085.4000      8.0878      2.6838      0.1369     -2.0501     70.4280     20.1413
  1085.5000      8.0724      2.6766      0.2178     -1.6107     66.8436     19.6227
  1085.6000      8.0724      2.6530      0.1601     -0.1804     65.3411     19.4327
  1085.7000      8.0724      2.6251      0.1157      1.5104     63.7941     19.2036
  1085.8000      8.0826      2.6230      0.0760      1.6352     61.5698     18.7749
  1085.9000      8.0826      2.6548      0.1526     -0.2912     61.3594     18.3483
  1086.0000      8.0943      2.6873      0.1942     -2.2577     61.0463     18.1790
  1086.1000      8.0943      2.7028      0.1750     -3.2020     57.2109     18.1903
  1086.2000      8.0943      2.7172      0.1694     -4.0728     53.9106     18.3157
  1086.3000      8.0792      2.7387      0.1585     -5.3778     55.4004     18.8018
  1086.4000      8.0792      2.7530      0.1940     -6.2422     60.3531     19.5540
  1086.5000      8.0631      2.7462      0.1341     -5.8304     65.9441     20.0372
  1086.6000      8.0631      2.7176      0.2221     -4.0956     69.2265     20.3141
  1086.7000      8.0631      2.6737      0.1379     -1.4373     70.7267     20.7496
  1086.8000      8.0623      2.6385      0.0520      0.6987     73.2377     21.3231
  1086.9000      8.0623      2.6357      0.0255      0.8659     73.7568     21.8274
