~Version Information
VERS.                      2.0: CWLS Log ASCII Standard - VERSION 2.0
WRAP.                       NO: One line per depth step
~Well Information Block
STRT.FT               -11.0000: 
STOP.FT              1896.2500: 
STEP.FT                 0.2500: 
NULL.                -999.2500: 
COMP.          Pioneer Natural Resources: COMPANY
WELL.            Summers 21-19: WELL
FLD.           Purgatoire River: FIELD
LOC.           900' FNL & 1950' FWL--: LOCATION
PROV.                 Colorado: PROVINCE
CNTY.               Las Animas: COUNTRY
SRVC.                Patterson: SERVICE COMPANY
DATE.          Thu Oct 20 15:06:00 2005: LOG DATE
UWI.           05 071 08315 00: UNIQUE WELL ID
~Curve Information Block
DEPT.FT            0 000 00 00: Depth
GR.GAPI                       : Gamma Ray
CCL.                          : Casing Collar Locator
TT3.usec                      : CBL 3' Travel Time
AMP3.mV                       : CBL 3' Amplitude
~Parameter Information Block
~A  Depth        GR         CCL         TT3         AMP3    
# ...
   223.5000     76.0861      0.0000    729.1691      5.1031
   223.7500     69.0984      0.0000    748.0461      5.0935
   224.0000     64.1798      0.0000    761.8822      5.1117
   224.2500     62.3349      0.0000    768.9745      5.1551
   224.5000     63.4618      0.0000    767.5208      5.2161
   224.7500     66.2361      0.0000    753.8135      5.2858
   225.0000     69.0295      0.0000    723.5929      5.3638
   225.2500     71.1368      0.0000    677.9763      5.4541
   225.5000     73.0384      0.0000    628.9766      5.5492
   225.7500     75.5211      0.0000    596.2908      5.6285
   226.0000     78.8461      0.0000    594.3186      5.6750
   226.2500     82.6387      0.0000    620.7931      5.6864
   226.5000     86.1456      0.0000    659.3255      5.6700
   226.7500     88.5940      0.0000    692.9484      5.6355
   227.0000     89.7763      0.0000    713.6000      5.5929
   227.2500     90.3246      0.0000    720.9103      5.5507
   227.5000     91.0388      0.0000    718.1888      5.5138
   227.7500     92.0117      0.0000    712.2473      5.4844
   228.0000     92.7650      0.0000    712.3210      5.4648
   228.2500     92.9979      0.0000    723.6625      5.4531
   228.5000     92.6890      0.0000    742.6232      5.4388
   228.7500     91.6383      0.0000    760.6243      5.4083
   229.0000     89.4441      0.0000    771.8820      5.3570
   229.2500     86.0775      0.0000    776.2643      5.2913
   229.5000     82.2103      0.0000    777.2938      5.2208
   229.7500     78.8445      0.0000    779.8926      5.1544
   230.0000     76.7086      0.0000    788.4840      5.1014
   230.2500     75.8846      0.0000    803.7636      5.0683
   230.5000     75.8141      0.0000    820.2310      5.0542
   230.7500     75.7542      0.0000    828.9448      5.0548
   231.0000     75.4308      0.0000    824.7102      5.0703
   231.2500     75.1774      0.0000    810.4796      5.0980
   231.5000     75.3938      0.0000    794.3731      5.1194
   231.7500     76.0856      0.0000    783.6456      5.1110
   232.0000     76.9798      0.0000    781.6111      5.0719
   232.2500     77.7739      0.0000    787.3950      5.0315
   232.5000     78.1150      0.0000    796.1613      5.0196
   232.7500     77.6085      0.0000    800.7223      5.0385
   233.0000     76.0379      0.0000    795.8046      5.0675
   233.2500     73.5254      0.0000    782.2390      5.0865
   233.5000     70.4951      0.0000    766.4605      5.0887
   233.7500     67.5483      0.0000    755.1172      5.0794
   234.0000     65.3307      0.0000    750.1472      5.0709
   234.2500     64.3823      0.0000    748.8871      5.0773
   234.5000     64.9669      0.0000    748.0363      5.1036
   234.7500     66.8333      0.0000    747.0837      5.1382
   235.0000     69.2716      0.0000    748.4462      5.1642
   235.2500     71.8348      0.0000    754.5892      5.1784
   235.5000     74.9601      0.0000    764.8617      5.1944
   235.7500     79.1817      0.0000    775.5341      5.2237
   236.0000     83.4992      0.0000    783.4702      5.2577
   236.2500     85.3340      0.0000    788.8179      5.2748
   236.5000     82.8744      0.0000    792.8229      5.2618
   236.7500     77.1863      0.0000    794.1770      5.2259
   237.0000     71.4091      0.0000    790.1232      5.1841
   237.2500     68.0326      0.0000    780.9092      5.1483
   237.5000     67.5011      0.0000    770.5626      5.1236
   237.7500     69.0599      0.0000    762.9841      5.1150
   238.0000     71.9349      0.0000    759.0569      5.1285
   238.2500     75.5169      0.0000    757.5289      5.1598
   238.5000     79.1129      0.0000    757.0471      5.1892
   238.7500     81.9985      0.0000    756.9317      5.1940
   239.0000     83.7333      0.0000    756.9287      5.1694
   239.2500     84.4373      0.0000    756.9121      5.1308
   239.5000     84.7279      0.0000    756.8066      5.0948
   239.7500     85.1926      0.0000    756.6153      5.0628
   240.0000     85.7184      0.0000    756.4200      5.0276
   240.2500     85.4415      0.0000    756.4286      4.9881
   240.5000     83.6734      0.0000    757.1041      4.9538
   240.7500     80.9183      0.0000    759.3332      4.9321
   241.0000     78.6701      0.0000    764.2199      4.9190
   241.2500     78.0370      0.0000    772.2138      4.9038
   241.5000     78.7961      0.0000    782.1121      4.8824
   241.7500     79.9565      0.0000    791.1656      4.8613
   242.0000     81.0219      0.0000    796.3671      4.8487
   242.2500     82.4318      0.0000    795.5970      4.8453
   242.5000     84.8392      0.0000    788.0656      4.8460
   242.7500     88.1892      0.0000    774.5404      4.8499
   243.0000     91.5145      0.0000    757.3790      4.8651
   243.2500     93.5716      0.0000    740.1509      4.9029
   243.5000     93.7532      0.0000    726.9114      4.9649
   243.7500     92.5617      0.0000    720.9573      5.0364
   244.0000     91.3584      0.0000    723.5505      5.0978
   244.2500     91.6146      0.0000    733.7823      5.1433
   244.5000     93.8824      0.0000    749.2435      5.1856
   244.7500     97.0328      0.0000    766.1105      5.2397
   245.0000     98.7571      0.0000    779.2288      5.3077
   245.2500     97.4329      0.0000    784.3148      5.3785
   245.5000     93.6740      0.0000    781.0930      5.4395
   245.7500     89.7543      0.0000    773.4328      5.4852
   246.0000     87.3940      0.0000    765.9329      5.5173
   246.2500     86.3703      0.0000    760.9009      5.5361
   246.5000     85.4060      0.0000    758.2759      5.5366
   246.7500     84.0308      0.0000    757.1346      5.5171
   247.0000     83.1305      0.0000    756.7351      5.4913
   247.2500     83.8301      0.0000    756.6881      5.4816
   247.5000     86.4179      0.0000    756.8792      5.4982
   247.7500     90.4754      0.0000    757.5652      5.5265
   248.0000     95.4952      0.0000    759.8167      5.5398
   248.2500    100.8951      0.0000    765.9199      5.5215
   248.5000    105.5396      0.0000    778.5095      5.4771
   248.7500    107.8318      0.0000    797.7272      5.4252
   249.0000    106.8955      0.0000    818.4362      5.3800
   249.2500    103.7382      0.0000    831.3386      5.3455
   249.5000    100.6603      0.0000    828.6480      5.3259
   249.7500     99.1543      0.0000    809.8864      5.3331
   250.0000     98.7340      0.0000    782.7214      5.3783
   250.2500     98.1227      0.0000    758.1968      5.4535
   250.5000     97.0748      0.0000    744.5129      5.5292
   250.7500     96.3719      0.0000    743.8858      5.5755
   251.0000     96.2481      0.0000    752.9127      5.5855
   251.2500     95.6678      0.0000    764.4355      5.5741
   251.5000     93.4799      0.0000    770.5879      5.5586
   251.7500     89.8412      0.0000    767.0197      5.5436
   252.0000     86.1480      0.0000    755.4567      5.5263
   252.2500     83.8107      0.0000    741.6630      5.5102
   252.5000     83.3062      0.0000    730.7085      5.5097
   252.7500     84.1812      0.0000    724.2393      5.5408
   253.0000     85.6157      0.0000    721.2670      5.6067
   253.2500     86.9744      0.0000    720.2011      5.6932
   253.5000     87.9490      0.0000    719.9614      5.7794
   253.7500     88.3797      0.0000    720.0500      5.8519
   254.0000     88.2692      0.0000    720.2723      5.9095
   254.2500     88.1396      0.0000    720.5082      5.9561
   254.5000     89.0955      0.0000    720.6292      5.9939
   254.7500     92.1099      0.0000    720.5572      6.0212
   255.0000     96.9929      0.0000    720.3402      6.0329
   255.2500    102.0978      0.0000    720.0442      6.0191
   255.5000    105.2449      0.0000    719.4858      5.9649
   255.7500    105.1077      0.0000    718.0926      5.8470
   256.0000    101.8988      0.0000    715.4260      5.6411
   256.2500     96.9330      0.0000    712.4025      5.3445
   256.5000     91.6314      0.0000    711.8524      4.9926
   256.7500     86.9178      0.0000    716.6072      4.6339
