~Version Information
VERS.                      2.0: CWLS Log ASCII Standard - VERSION 2.0
WRAP.                       NO: One line per depth step
~Well Information Block
STRT.FT                -7.5000: 
STOP.FT              1702.2500: 
STEP.FT                 0.2500: 
NULL.                -999.2500: 
COMP.          Pioneer Natural Resources: COMPANY
WELL.          Warrior 33-1 Tr: WELL
FLD.           Purgatoire River: FIELD
LOC.           2648' FSL & 2341' FEL--: LOCATION
PROV.                 Colorado: PROVINCE
CNTY.               Las Animas: COUNTRY
SRVC.                Patterson: SERVICE COMPANY
DATE.          Wed Jun 22 12:18:08 2005: LOG DATE
UWI.           05 071 08412 00: UNIQUE WELL ID
~Curve Information Block
DEPT.FT            0 000 00 00: Depth
CCL.                          : Casing Collar Locator
TT3.usec                      : CBL 3' Travel Time
AMP3.mV                       : CBL 3' Amplitude
GR.GAPI                       : Gamma Ray
~Parameter Information Block
~A  Depth       CCL         TT3         AMP3         GR     
# ...
  1098.0000      0.0000    713.6944      9.4220     57.4569
  1098.2500      0.0000    708.9136      9.4603     56.2358
  1098.5000      0.0000    706.9015      9.4704     54.5165
  1098.7500      0.0000    707.5928      9.4290     51.6163
  1099.0000      0.0000    709.8717      9.3271     47.7340
  1099.2500      0.0000    712.6074      9.1709     43.7282
  1099.5000      0.0000    716.0372      8.9706     40.5265
  1099.7500      0.0000    721.5851      8.7385     38.7429
  1100.0000      0.0000    729.8972      8.4964     38.6843
  1100.2500      0.0000    739.2959      8.2749     40.3372
  1100.5000      0.0000    746.5519      8.1001     43.1230
  1100.7500      0.0000    749.2717      7.9786     45.8132
  1101.0000      0.0000    747.4120      7.8903     47.0357
  1101.2500      0.0000    742.4822      7.8021     46.1427
  1101.5000      0.0000    736.0375      7.6930     43.7099
  1101.7500      0.0000    729.8753      7.5655     41.1805
  1102.0000      0.0000    726.8894      7.4317     39.9718
  1102.2500      0.0000    729.2959      7.2947     40.9214
  1102.5000      0.0000    735.3204      7.1486     44.6137
  1102.7500      0.0000    739.4943      6.9927     51.9361
  1103.0000      0.0000    737.1568      6.8401     63.6295
  1103.2500      0.0000    727.7566      6.7135     78.8906
  1103.5000      0.0000    713.9295      6.6364     94.8304
  1103.7500      0.0000    698.9999      6.6207    107.9650
  1104.0000      0.0000    685.6754      6.6562    116.2602
  1104.2500      0.0000    675.6841      6.7132    119.5524
  1104.5000      0.0000    669.4889      6.7615    118.6787
  1104.7500      0.0000    666.3835      6.7892    115.1520
  1105.0000      0.0000    665.1807      6.8027    111.2111
  1105.2500      0.0000    664.9009      6.8089    108.7755
  1105.5000      0.0000    664.9557      6.8003    107.9374
  1105.7500      0.0000    665.0049      6.7649    107.1145
  1106.0000      0.0000    664.8679      6.7069    104.9987
  1106.2500      0.0000    664.5334      6.6527    102.0370
  1106.5000      0.0000    664.0985      6.6320     99.9569
  1106.7500      0.0000    663.6159      6.6513    100.1473
  1107.0000      0.0000    662.9393      6.6869    102.5467
  1107.2500      0.0000    661.5876      6.7071    105.8960
  1107.5000      0.0000    658.6929      6.7031    108.8433
  1107.7500      0.0000    653.3535      6.6954    110.7014
  1108.0000      0.0000    645.4733      6.7074    111.3441
  1108.2500      0.0000    636.5035      6.7375    110.9156
  1108.5000      0.0000    629.3314      6.7623    110.0263
  1108.7500      0.0000    627.1854      6.7651    109.8163
  1109.0000      0.0000    632.0406      6.7551    111.1272
  1109.2500      0.0000    643.3874      6.7576    113.5523
  1109.5000      0.0000    658.3605      6.7892    115.5808
  1109.7500      0.0000    673.1228      6.8459    115.7670
  1110.0000      0.0000    684.2625      6.9116    113.9135
  1110.2500      0.0000    689.7846      6.9747    111.3024
  1110.5000      0.0000    690.1057      7.0369    109.6523
  1110.7500      0.0000    688.3734      7.1090    109.6812
  1111.0000      0.0000    688.8555      7.1976    110.8492
  1111.2500      0.0000    694.0614      7.2950    112.3982
  1111.5000      0.0000    703.1691      7.3835    114.1188
  1111.7500      0.0000    713.2484      7.4531    116.0245
  1112.0000      0.0000    721.7581      7.5111    117.7761
  1112.2500      0.0000    727.7747      7.5711    118.6984
  1112.5000      0.0000    731.3931      7.6350    118.3606
  1112.7500      0.0000    732.6813      7.6917    117.1360
  1113.0000      0.0000    731.0865      7.7288    115.9872
  1113.2500      0.0000    725.3552      7.7457    115.3868
  1113.5000      0.0000    714.2581      7.7558    114.5813
  1113.7500      0.0000    698.0267      7.7779    112.2100
  1114.0000      0.0000    679.0267      7.8207    107.6904
  1114.2500      0.0000    660.3490      7.8711    102.0239
  1114.5000      0.0000    643.5432      7.8994     97.3092
  1114.7500      0.0000    627.9589      7.8788     95.3057
  1115.0000      0.0000    612.1940      7.8050     96.1196
  1115.2500      0.0000    595.9641      7.7017     98.1142
  1115.5000      0.0000    580.8173      7.6089     99.2365
  1115.7500      0.0000    569.4464      7.5613     98.6865
  1116.0000      0.0000    564.2797      7.5738     97.4683
  1116.2500      0.0000    566.2332      7.6416     97.2169
  1116.5000      0.0000    574.1304      7.7460     98.4282
  1116.7500      0.0000    584.7904      7.8584     99.9550
  1117.0000      0.0000    593.8616      7.9478    100.1876
  1117.2500      0.0000    597.7483      7.9937     98.5113
  1117.5000      0.0000    595.7292      7.9909     95.6190
  1117.7500      0.0000    590.1037      7.9420     92.7544
  1118.0000      0.0000    584.2047      7.8528     90.8551
  1118.2500      0.0000    580.6467      7.7377     90.1394
  1118.5000      0.0000    581.0671      7.6169     90.0409
  1118.7500      0.0000    586.4199      7.4987     89.5561
  1119.0000      0.0000    597.2474      7.3625     87.9962
  1119.2500      0.0000    613.8155      7.1685     85.4604
  1119.5000      0.0000    635.0179      6.8975     82.5199
  1119.7500      0.0000    656.1663      6.5894     79.6388
  1120.0000      0.0000    669.4012      6.3354     76.9479
  1120.2500      0.0000    668.9149      6.2151     74.3814
  1120.5000      2.0000    655.6444      6.2351     72.0624
  1120.7500     -2.0000    634.1792      6.3296     70.5248
  1121.0000     -2.0000    605.2863      6.4194     70.3409
  1121.2500      2.0000    565.9545      6.4750     71.6181
  1121.5000      0.0000    517.7672      6.5531     74.0148
  1121.7500      0.0000    470.0121      6.7855     77.0155
  1122.0000      0.0000    432.2207      7.2843     79.9750
  1122.2500      0.0000    407.0179      7.9954     82.2501
  1122.5000      0.0000    391.3874      8.6708     83.5422
  1122.7500      0.0000    381.6678      9.0567     83.9283
  1123.0000      0.0000    375.7673      9.0986     83.5110
  1123.2500      0.0000    372.5472      8.9275     82.3524
  1123.5000      0.0000    371.0508      8.6983     80.9175
  1123.7500      0.0000    370.4444      8.4901     80.4502
  1124.0000      0.0000    370.1923      8.3200     82.4792
  1124.2500      0.0000    370.0518      8.1875     87.3588
  1124.5000      0.0000    369.9266      8.0934     93.1851
  1124.7500      0.0000    369.7902      8.0349     96.6604
  1125.0000      0.0000    369.7127      7.9961     95.4212
  1125.2500      0.0000    369.8984      7.9517     89.6973
  1125.5000      0.0000    370.8486      7.8826     82.0622
  1125.7500      0.0000    373.9334      7.7865     75.7810
  1126.0000      0.0000    382.4504      7.6744     73.0530
  1126.2500      0.0000    401.9853      7.5617     74.3382
  1126.5000      0.0000    437.8674      7.4620     79.0230
  1126.7500      0.0000    489.7883      7.3838     86.4229
  1127.0000      0.0000    548.7520      7.3303     95.9492
  1127.2500      0.0000    601.5921      7.3003    106.6410
  1127.5000      0.0000    639.6954      7.2886    116.9811
  1127.7500      0.0000    662.7134      7.2861    125.2679
  1128.0000      0.0000    674.6017      7.2851    130.2787
  1128.2500      0.0000    678.6055      7.2860    131.7964
  1128.5000      0.0000    676.8852      7.2947    130.3817
  1128.7500      0.0000    672.8692      7.3101    126.7411
  1129.0000      0.0000    671.4282      7.3172    121.8491
  1129.2500      0.0000    676.1371      7.2967    117.4142
  1129.5000      0.0000    686.8745      7.2420    114.9306
  1129.7500      0.0000    699.9904      7.1665    113.8770
  1130.0000      0.0000    710.3047      7.0966    111.8515
  1130.2500      0.0000    713.2040      7.0597    107.1149
  1130.5000      0.0000    705.7599      7.0726    100.7028
  1130.7500      0.0000    687.4593      7.1334     95.7725
  1131.0000      0.0000    661.7554      7.2257     94.9637
  1131.2500      0.0000    636.9895      7.3299     98.3508
