~Version Information
VERS.                      2.0: CWLS Log ASCII Standard - VERSION 2.0
WRAP.                       NO: One line per depth step
~Well Information Block
STRT.FT               507.5000: 
STOP.FT              2145.0000: 
STEP.FT                 0.2500: 
NULL.                -999.2500: 
COMP.          Petrogulf Corporation: COMPANY
WELL.            Montoya 1-44R: WELL
FLD.           Purgatorie River: FIELD
LOC.           658' FSL & 1052' FWL: LOCATION
CNTY.               Las Animas: COUNTY
SRVC.                         : SERVICE COMPANY
DATE.          Tue Nov 16 02:59:24 2004: LOG DATE
UWI.           05 071 08239 00: UNIQUE WELL ID
STAT.                 Colorado: STATE
~Curve Information Block
DEPT.FT            0 000 00 00: Depth
SP.mV                         : DIL Spontaneous Potential
RILD.Ohm-m                    : DIL Deep Resistivity
RILM.Ohm-m                    : DIL Medium Resistivity
RLL3.Ohm-m                    : DIL Shallow Resistivity
GR.GAPI                       : Gamma Ray
~Parameter Information Block
~A  Depth        SP         RILD        RILM        RLL3         GR     
# ...
  1991.5000     -2.8158     26.4385     29.1812     42.5313    118.0816
  1991.7500     -1.7348     27.0377     30.4026     44.3392    112.8225
  1992.0000     -1.0257     27.5819     31.6171     45.4942    106.2135
  1992.2500     -0.8130     28.0689     32.7809     45.9969    102.8144
  1992.5000     -1.1422     28.5080     33.8549     45.9417     99.1507
  1992.7500     -1.9669     28.9165     34.8109     45.4934     97.4868
  1993.0000     -3.1668     29.3126     35.6376     44.8588     95.6738
  1993.2500     -4.5708     29.7120     36.3387     44.2588     94.5219
  1993.5000     -5.9893     30.1224     36.9291     43.9070     91.9195
  1993.7500     -7.2609     30.5437     37.4231     43.9896     89.0091
  1994.0000     -8.2770     30.9709     37.8282     44.6452     82.4127
  1994.2500     -8.9982     31.3952     38.1403     45.9363     76.8532
  1994.5000     -9.4430     31.8096     38.3474     47.8197     68.2314
  1994.7500     -9.6586     32.2090     38.4382     50.1273     63.1854
  1995.0000     -9.6932     32.5929     38.4124     52.5751     57.2547
  1995.2500     -9.5766     32.9633     38.2903     54.8139     54.1223
  1995.5000     -9.3247     33.3242     38.1103     56.5141     50.0439
  1995.7500     -8.9578     33.6810     37.9229     57.4622     47.7645
  1996.0000     -8.5256     34.0367     37.7796     57.6333     45.6379
  1996.2500     -8.1192     34.3929     37.7182     57.2065     45.4183
  1996.5000     -7.8542     34.7482     37.7598     56.5140     46.7521
  1996.7500     -7.8416     35.0974     37.9045     55.9352     48.1628
  1997.0000     -8.1396     35.4337     38.1382     55.7757     49.7609
  1997.2500     -8.7264     35.7490     38.4386     56.1772     50.1116
  1997.5000     -9.4872     36.0373     38.7880     57.0937     50.0175
  1997.7500    -10.2395     36.2966     39.1824     58.3407     50.1139
  1998.0000    -10.7828     36.5276     39.6365     59.6905     51.1939
  1998.2500    -10.9526     36.7314     40.1837     60.9682     52.6007
  1998.5000    -10.6689     36.9056     40.8653     62.1040     55.3148
  1998.7500     -9.9540     37.0378     41.7201     63.1271     57.0695
  1999.0000     -8.9229     37.1017     42.7675     64.1170     58.7892
  1999.2500     -7.7431     37.0602     43.9908     65.1551     58.9969
  1999.5000     -6.5874     36.8723     45.3249     66.2992     57.7868
  1999.7500     -5.5836     36.5050     46.6503     67.5929     56.1362
  2000.0000     -4.7962     35.9446     47.8041     69.0837     52.8945
  2000.2500     -4.2205     35.2034     48.6074     70.8176     50.5460
  2000.5000     -3.8030     34.3177     48.9145     72.7917     47.2407
  2000.7500     -3.4720     33.3379     48.6567     74.8769     45.3815
  2001.0000     -3.1743     32.3160     47.8636     76.7627     43.3414
  2001.2500     -2.8971     31.2962     46.6490     77.9663     42.7225
  2001.5000     -2.6757     30.3088     45.1701     77.9393     43.7231
  2001.7500     -2.5831     29.3701     43.5823     76.2507     46.2568
  2002.0000     -2.6891     28.4838     42.0095     72.7813     53.7720
  2002.2500     -3.0220     27.6437     40.5323     67.8414     61.7826
  2002.5000     -3.5316     26.8371     39.1856     62.1443     78.8379
  2002.7500     -4.0720     26.0483     37.9650     56.6268     92.9291
  2003.0000     -4.4274     25.2618     36.8333     52.1734    114.2395
  2003.2500     -4.3592     24.4652     35.7292     49.3469    125.2054
  2003.5000     -3.6700     23.6538     34.5803     48.2278    132.4692
  2003.7500     -2.2722     22.8320     33.3186     48.4143    131.0832
  2004.0000     -0.2154     22.0137     31.9011     49.1765    123.6199
  2004.2500      2.3131     21.2193     30.3235     49.6937    118.3112
  2004.5000      5.0266     20.4723     28.6236     49.2912    114.0654
  2004.7500      7.6021     19.7950     26.8732     47.6022    114.6298
  2005.0000      9.7547     19.2046     25.1562     44.6192    119.8452
  2005.2500     11.2884     18.7117     23.5503     40.6400    125.0894
  2005.5000     12.1194     18.3199     22.1142     36.1452    133.4785
  2005.7500     12.2645     18.0270     20.8838     31.6552    138.4980
  2006.0000     11.8056     17.8270     19.8750     27.6140    144.6297
  2006.2500     10.8507     17.7115     19.0893     24.3223    148.0589
  2006.5000      9.5110     17.6724     18.5208     21.9259    152.9913
  2006.7500      7.8908     17.7032     18.1597     20.4484    156.2569
  2007.0000      6.1036     17.8007     17.9968     19.8399    160.3720
  2007.2500      4.2804     17.9653     18.0253     20.0218    161.8449
  2007.5000      2.5685     18.2013     18.2415     20.9142    161.1578
  2007.7500      1.1090     18.5162     18.6463     22.4436    158.6941
  2008.0000      0.0016     18.9187     19.2433     24.5366    152.7914
  2008.2500     -0.7252     19.4174     20.0384     27.1050    148.1672
  2008.5000     -1.1279     20.0177     21.0374     30.0378    141.4002
  2008.7500     -1.3312     20.7177     22.2416     33.2006    137.3313
  2009.0000     -1.4917     21.5063     23.6435     36.4453    131.6489
  2009.2500     -1.7536     22.3589     25.2192     39.6276    127.5992
  2009.5000     -2.2107     23.2372     26.9212     42.6289    119.8884
  2009.7500     -2.8879     24.0893     28.6706     45.3696    113.1582
  2010.0000     -3.7480     24.8570     30.3545     47.8055    100.9218
  2010.2500     -4.7171     25.4833     31.8315     49.9002     92.0862
  2010.5000     -5.7095     25.9229     32.9498     51.5841     79.3476
  2010.7500     -6.6527     26.1491     33.5767     52.7167     71.9741
  2011.0000     -7.5123     26.1561     33.6332     53.0853     63.9050
  2011.2500     -8.2842     25.9559     33.1159     52.4547     61.3209
  2011.5000     -8.9874     25.5721     32.0987     50.6584     62.5434
  2011.7500     -9.6454     25.0346     30.7097     47.6923     66.7315
  2012.0000    -10.2512     24.3753     29.0969     43.7631     77.1821
  2012.2500    -10.7597     23.6260     27.3984     39.2636     86.0926
  2012.5000    -11.0911     22.8178     25.7229     34.6778    100.4515
  2012.7500    -11.1540     21.9801     24.1440     30.4615    109.3366
  2013.0000    -10.8829     21.1398     22.7046     26.9405    119.6355
  2013.2500    -10.2724     20.3203     21.4227     24.2632    124.0428
  2013.5000     -9.3913     19.5394     20.3005     22.4081    127.7446
  2013.7500     -8.3645     18.8095     19.3301     21.2314    129.1584
  2014.0000     -7.3382     18.1373     18.4987     20.5295    130.9297
  2014.2500     -6.4311     17.5250     17.7922     20.0968    132.3760
  2014.5000     -5.7080     16.9716     17.1967     19.7704    135.8977
  2014.7500     -5.1655     16.4750     16.6997     19.4521    139.5787
  2015.0000     -4.7518     16.0332     16.2898     19.1110    146.5426
  2015.2500     -4.3983     15.6460     15.9568     18.7661    150.9639
  2015.5000     -4.0515     15.3150     15.6905     18.4600    155.0736
  2015.7500     -3.6982     15.0441     15.4808     18.2303    155.5690
  2016.0000     -3.3669     14.8383     15.3179     18.0906    153.6765
  2016.2500     -3.1170     14.7027     15.1928     18.0244    151.7107
  2016.5000     -3.0153     14.6418     15.0984     17.9914    149.2247
  2016.7500     -3.1146     14.6582     15.0316     17.9428    148.0668
  2017.0000     -3.4381     14.7517     14.9932     17.8412    146.7140
  2017.2500     -3.9679     14.9191     14.9891     17.6816    146.2164
  2017.5000     -4.6545     15.1540     15.0297     17.5074    147.3806
  2017.7500     -5.4268     15.4463     15.1279     17.4173    150.1533
  2018.0000     -6.2076     15.7839     15.2978     17.5580    157.1068
  2018.2500     -6.9315     16.1528     15.5525     18.1007    162.6084
  2018.5000     -7.5524     16.5395     15.9019     19.2026    169.9810
  2018.7500     -8.0461     16.9318     16.3516     20.9592    173.3277
  2019.0000     -8.4067     17.3220     16.9009     23.3595    175.1414
  2019.2500     -8.6322     17.7065     17.5424     26.2569    174.0678
