~Version Information
VERS.                      2.0: CWLS Log ASCII Standard - VERSION 2.0
WRAP.                       NO: One line per depth step
~Well Information Block
STRT.FT               480.0000: 
STOP.FT              1625.5000: 
STEP.FT                 0.1000: 
NULL.                -999.2500: 
COMP.          Pioneer Natural Resources: COMPANY
WELL.          Dude Canyon 22-32 Tr: WELL
FLD.           Purgatoire River: FIELD
LOC.           1741' FNL & 2331' FWL: LOCATION
PROV.                 Colorado: PROVINCE
CNTY.               Las Animas: COUNTRY
SRVC.                Patterson: SERVICE COMPANY
DATE.          Mon Jul 11 10:33:06 2005: LOG DATE
UWI.           05 071 08421 00: UNIQUE WELL ID
~Curve Information Block
DEPT.FT            0 000 00 00: Depth
DCAL.in                       : CDL Caliper
RHOB.g/cc                     : CDL Bulk Density
RHOC.g/cc                     : CDL Density Correction
DPOR.pu                       : CDL Density Porosity
GR.GAPI                       : Gamma Ray
NPOR.pu                       : Neutron Porosity
~Parameter Information Block
~A  Depth       DCAL        RHOB        RHOC        DPOR         GR         NPOR    
# ...
  1084.8000      8.1015      2.5672      0.0597      5.0199    141.7934     31.4286
  1084.9000      8.1015      2.5641      0.1077      5.2042    139.0290     31.0817
  1085.0000      8.0805      2.5555      0.0707      5.7253    134.2009     31.2252
  1085.1000      8.0805      2.5397      0.0343      6.6879    128.8672     31.5164
  1085.2000      8.0805      2.5311      0.0668      7.2084    124.6825     31.9091
  1085.3000      8.1045      2.5388      0.0578      6.7366    122.3845     32.7569
  1085.4000      8.1045      2.5535      0.0855      5.8481    120.6899     33.5458
  1085.5000      8.1138      2.5599      0.0781      5.4583    121.4945     33.5222
  1085.6000      8.1138      2.5675      0.0499      5.0004    126.6012     32.6268
  1085.7000      8.1138      2.5857      0.1421      3.8974    132.8879     31.5698
  1085.8000      8.1345      2.5994      0.1255      3.0668    134.5951     31.0438
  1085.9000      8.1345      2.6012      0.1207      2.9583    127.3421     30.8189
  1086.0000      8.1240      2.6027      0.1723      2.8668    118.2210     30.5936
  1086.1000      8.1240      2.6146      0.1171      2.1455    118.2001     30.3594
  1086.2000      8.1240      2.6347      0.1663      0.9246    124.5379     30.0798
  1086.3000      8.0971      2.6575      0.1299     -0.4573    128.2155     29.9379
  1086.4000      8.0971      2.6792      0.1572     -1.7691    127.7044     30.0893
  1086.5000      8.1007      2.6856      0.1130     -2.1552    125.5295     30.1202
  1086.6000      8.1007      2.6743      0.1342     -1.4750    123.8088     29.6707
  1086.7000      8.1007      2.6624      0.1102     -0.7511    125.0158     29.2015
  1086.8000      8.1165      2.6537      0.0880     -0.2226    126.1600     29.1960
  1086.9000      8.1165      2.6428      0.0337      0.4339    124.3176     29.3658
  1087.0000      8.1206      2.6325      0.0846      1.0592    122.4669     29.3849
  1087.1000      8.1206      2.6239      0.1053      1.5842    120.0322     29.3233
  1087.2000      8.1206      2.6160      0.0551      2.0632    118.0257     29.2894
  1087.3000      8.1311      2.6107      0.0486      2.3805    123.0758     29.2359
  1087.4000      8.1311      2.6069      0.1071      2.6091    133.3607     29.2967
  1087.5000      8.1478      2.6038      0.1238      2.8020    140.3916     29.5551
  1087.6000      8.1478      2.6007      0.0982      2.9893    141.8002     30.0692
  1087.7000      8.1478      2.5911      0.1117      3.5690    138.3948     31.0044
  1087.8000      8.1386      2.5727      0.0627      4.6857    132.2905     31.7549
  1087.9000      8.1386      2.5553      0.0342      5.7366    128.9279     31.5262
  1088.0000      8.1437      2.5455      0.0451      6.3361    130.0324     30.9830
  1088.1000      8.1437      2.5395      0.0567      6.6944    132.4614     31.2066
  1088.2000      8.1437      2.5310      0.0723      7.2136    136.0315     31.8165
  1088.3000      8.1590      2.5135      0.1165      8.2703    141.7173     32.0726
  1088.4000      8.1590      2.4928      0.0991      9.5286    145.6974     32.2309
  1088.5000      8.1561      2.4856      0.1200      9.9636    146.9445     32.5157
  1088.6000      8.1561      2.4936      0.0910      9.4801    149.8835     32.6908
  1088.7000      8.1561      2.4945      0.1619      9.4224    151.5453     33.0045
  1088.8000      8.1366      2.4753      0.1070     10.5861    147.8149     34.0128
  1088.9000      8.1366      2.4535      0.0952     11.9101    145.4370     35.2343
  1089.0000      8.1415      2.4406      0.1617     12.6901    145.6321     35.5397
  1089.1000      8.1415      2.4325      0.0921     13.1843    140.7540     34.8299
  1089.2000      8.1415      2.4312      0.1515     13.2633    133.0599     34.3490
  1089.3000      8.2020      2.4305      0.1363     13.3057    130.7298     34.7398
  1089.4000      8.2020      2.4326      0.0638     13.1747    132.5398     34.8021
  1089.5000      8.2393      2.4479      0.1029     12.2475    129.5891     33.6693
  1089.6000      8.2393      2.4625      0.0956     11.3612    122.3269     32.1869
  1089.7000      8.2393      2.4481      0.1019     12.2335    119.6385     31.3561
  1089.8000      8.1830      2.3828      0.0474     16.1951    121.9765     31.7959
  1089.9000      8.1830      2.2673      0.0434     23.1917    124.2627     32.9343
  1090.0000      8.1674      2.1282     -0.0530     31.6215    127.6803     32.9626
  1090.1000      8.1674      1.9917     -0.1004     39.8990    130.7296     31.3357
  1090.2000      8.1674      1.8560     -0.1061     48.1207    126.8683     29.6381
  1090.3000      8.1649      1.7165     -0.1316     56.5748    117.4791     29.0573
  1090.4000      8.1649      1.5966     -0.1612     63.8410    109.6374     29.6618
  1090.5000      8.1813      1.5163     -0.0616     68.7113    105.1712     31.4240
  1090.6000      8.1813      1.4731     -0.0522     71.3295    100.7025     33.4086
  1090.7000      8.1813      1.4692     -0.0116     71.5636     93.4722     34.4713
  1090.8000      8.2457      1.5008      0.0937     69.6512     83.7053     34.5343
  1090.9000      8.2457      1.5491      0.0791     66.7202     74.4276     34.0135
  1091.0000      8.3161      1.6006      0.1057     63.6001     66.6693     33.7694
  1091.1000      8.3161      1.6426      0.1211     61.0539     62.6901     34.1368
  1091.2000      8.3161      1.6677      0.1285     59.5331     66.9133     34.7850
  1091.3000      8.3312      1.6800      0.1330     58.7866     75.2589     35.4153
  1091.4000      8.3312      1.6839      0.0750     58.5493     79.5733     35.4558
  1091.5000      8.2431      1.6728      0.0990     59.2259     78.9449     34.6758
  1091.6000      8.2431      1.6386      0.0071     61.2996     78.2548     33.5978
  1091.7000      8.2431      1.5991     -0.0515     63.6936     79.7807     33.0892
  1091.8000      8.2058      1.5873     -0.0233     64.4068     78.4734     33.5755
  1091.9000      8.2058      1.6167      0.0354     62.6227     72.2851     34.6114
  1092.0000      8.1766      1.6777      0.0946     58.9271     67.2034     35.5228
  1092.1000      8.1766      1.7626      0.0861     53.7811     67.0664     36.1394
  1092.2000      8.1766      1.8703      0.1409     47.2568     70.9047     36.2495
  1092.3000      8.1920      1.9879      0.1301     40.1293     76.0352     35.4541
  1092.4000      8.1920      2.1034      0.1797     33.1302     80.5413     34.0556
  1092.5000      8.2049      2.2201      0.2012     26.0558     84.6527     33.0472
  1092.6000      8.2049      2.3328      0.2336     19.2230     87.6324     32.9061
  1092.7000      8.2049      2.4084      0.2869     14.6410     90.9288     33.1686
  1092.8000      8.1812      2.4268      0.1374     13.5263     98.3947     33.2492
  1092.9000      8.1812      2.4141      0.0224     14.2993    108.4124     32.6203
  1093.0000      8.1957      2.4058     -0.0217     14.7990    114.7788     31.1050
  1093.1000      8.1957      2.4157      0.0541     14.1980    116.5847     29.0626
  1093.2000      8.1957      2.4446      0.0295     12.4512    118.1253     27.1563
  1093.3000      8.1310      2.4842      0.0897     10.0501    119.6588     26.1350
  1093.4000      8.1310      2.5123      0.1328      8.3446    117.5902     26.0369
  1093.5000      8.1621      2.5230      0.1025      7.6987    112.1034     26.3497
  1093.6000      8.1621      2.5355      0.1125      6.9406    110.3312     26.5985
  1093.7000      8.1621      2.5575      0.1281      5.6073    115.1217     26.5835
  1093.8000      8.1349      2.5779      0.1344      4.3669    119.3827     26.5104
  1093.9000      8.1349      2.5835      0.1463      4.0307    119.1155     26.2446
  1094.0000      8.0683      2.5749      0.0623      4.5524    117.6150     25.5634
  1094.1000      8.0683      2.5713      0.0759      4.7671    116.8869     25.1069
  1094.2000      8.0683      2.5835      0.0790      4.0293    118.3810     25.3108
  1094.3000      8.0542      2.6047      0.0887      2.7474    121.1961     25.3435
