~Version Information
VERS.                      2.0: CWLS Log ASCII Standard - VERSION 2.0
WRAP.                       NO: One line per depth step
~Well Information Block
STRT.FT               545.0000: 
STOP.FT              1920.5000: 
STEP.FT                 0.1000: 
NULL.                -999.2500: 
COMP.          Pioneer Natural Resources: COMPANY
WELL.            Summers 21-19: WELL
FLD.           Purgatoire River: FIELD
LOC.           900' FNL & 1950' FWL: LOCATION
PROV.                 Colorado: PROVINCE
CNTY.               Las Animas: COUNTRY
SRVC.                Patterson: SERVICE COMPANY
DATE.          Mon Oct 17 07:05:22 2005: LOG DATE
UWI.           05 071 08315 00: UNIQUE WELL ID
~Curve Information Block
DEPT.FT            0 000 00 00: Depth
DCAL.in                       : CDL Caliper
RHOB.g/cc                     : CDL Bulk Density
RHOC.g/cc                     : CDL Density Correction
DPOR.pu                       : CDL Density Porosity
GR.GAPI                       : Gamma Ray
NPOR.pu                       : Neutron Porosity
~Parameter Information Block
~A  Depth       DCAL        RHOB        RHOC        DPOR         GR         NPOR    
# ...
  1457.0000      7.9885      2.6026      0.0676      2.8736     79.0345     20.7734
  1457.1000      7.9885      2.6073      0.0790      2.5900     78.3357     20.5644
  1457.2000      7.9885      2.6143      0.1544      2.1612     77.4151     20.6462
  1457.3000      7.9527      2.6186      0.1421      1.9024     75.4883     21.0120
  1457.4000      7.9527      2.6078      0.1367      2.5576     69.8418     21.1834
  1457.5000      7.8331      2.5832      0.0922      4.0503     63.2558     21.3352
  1457.6000      7.8331      2.5666      0.0272      5.0519     59.1757     21.8879
  1457.7000      7.8331      2.5715      0.0790      4.7547     57.2505     22.0250
  1457.8000      7.8166      2.5827      0.0674      4.0795     56.4875     21.1153
  1457.9000      7.8166      2.5868      0.0455      3.8333     56.6676     20.3031
  1458.0000      7.8657      2.5856      0.0632      3.9037     56.5576     20.5703
  1458.1000      7.8657      2.5745      0.1053      4.5760     54.2394     21.1644
  1458.2000      7.8657      2.5504      0.0515      6.0336     53.0341     20.9912
  1458.3000      7.8940      2.5216      0.0879      7.7822     55.1153     20.6034
  1458.4000      7.8940      2.4924      0.0603      9.5492     57.3314     21.1783
  1458.5000      7.9050      2.4722      0.0198     10.7748     60.1753     22.2194
  1458.6000      7.9050      2.4731      0.0189     10.7185     63.0636     22.9568
  1458.7000      7.9050      2.4900      0.0471      9.6988     62.1497     23.7356
  1458.8000      7.8993      2.5088      0.0616      8.5547     59.4072     24.8354
  1458.9000      7.8993      2.5135      0.1430      8.2751     58.4758     25.9117
  1459.0000      7.9050      2.4874      0.1019      9.8571     60.9629     26.7051
  1459.1000      7.9050      2.4439      0.0375     12.4889     68.0909     27.5876
  1459.2000      7.9050      2.4167      0.0349     14.1395     80.3003     28.4256
  1459.3000      7.9068      2.4120      0.1069     14.4220     95.3844     28.9272
  1459.4000      7.9068      2.4052      0.1016     14.8350    106.1727     29.1951
  1459.5000      7.8979      2.3805      0.1012     16.3304    108.8625     29.3350
  1459.6000      7.8979      2.3546      0.0358     17.9046    108.7578     29.9711
  1459.7000      7.8979      2.3515      0.0595     18.0915    111.9194     30.6962
  1459.8000      7.9120      2.3615      0.1355     17.4860    119.6150     30.3835
  1459.9000      7.9120      2.3647      0.1205     17.2889    127.2250     29.8766
  1460.0000      7.9794      2.3798      0.0688     16.3750    130.0619     30.2734
  1460.1000      7.9794      2.4227      0.1565     13.7763    129.2696     30.9214
  1460.2000      7.9794      2.4632      0.1238     11.3200    127.1569     30.7536
  1460.3000      7.9825      2.4740      0.0958     10.6660    126.0082     30.1053
  1460.4000      7.9825      2.4672      0.0766     11.0789    126.4439     30.1895
  1460.5000      7.9549      2.4645      0.0915     11.2454    126.0674     30.8836
  1460.6000      7.9549      2.4711      0.0415     10.8453    126.2994     31.1643
  1460.7000      7.9549      2.4805      0.0962     10.2715    130.4052     30.7010
  1460.8000      8.0190      2.4870      0.0360      9.8768    135.7924     30.1028
  1460.9000      8.0190      2.4994      0.0463      9.1255    136.0706     29.6680
  1461.0000      8.0315      2.5215      0.0499      7.7884    132.1212     29.0841
  1461.1000      8.0315      2.5350      0.1090      6.9691    132.5803     28.5868
  1461.2000      8.0315      2.5293      0.0847      7.3176    140.1434     28.3029
  1461.3000      8.0285      2.5184      0.0911      7.9784    147.6090     27.9601
  1461.4000      8.0285      2.5094      0.1107      8.5187    148.3161     27.6950
  1461.5000      8.0483      2.4958      0.0760      9.3426    141.7783     27.7987
  1461.6000      8.0483      2.4834      0.0842     10.0987    133.4585     28.2058
  1461.7000      8.0483      2.4909      0.0269      9.6402    128.3929     28.3099
  1461.8000      8.0380      2.5256      0.0737      7.5388    126.7034     27.6914
  1461.9000      8.0380      2.5597      0.1329      5.4747    128.6401     27.2599
  1462.0000      7.9743      2.5679      0.0982      4.9774    131.8752     27.6659
  1462.1000      7.9743      2.5649      0.0837      5.1555    130.3762     28.0852
  1462.2000      7.9743      2.5654      0.0993      5.1253    124.8616     28.1879
  1462.3000      8.0167      2.5591      0.1425      5.5117    121.7621     28.2632
  1462.4000      8.0167      2.5419      0.1022      6.5528    125.4555     28.5013
  1462.5000      8.0257      2.5246      0.0772      7.6030    133.0377     29.2969
  1462.6000      8.0257      2.5071      0.1001      8.6587    137.6231     30.2448
  1462.7000      8.0257      2.4891      0.0568      9.7515    135.1422     30.1540
  1462.8000      8.0954      2.4870      0.0208      9.8811    127.4558     29.3549
  1462.9000      8.0954      2.5058      0.1170      8.7390    122.0616     29.1729
  1463.0000      8.1172      2.5255      0.0969      7.5435    122.3844     29.3666
  1463.1000      8.1172      2.5296      0.1301      7.2982    122.4990     29.0692
  1463.2000      8.1172      2.5159      0.1247      8.1281    117.8446     28.5893
  1463.3000      8.0607      2.4969      0.0933      9.2801    111.3626     28.5537
  1463.4000      8.0607      2.4862      0.0921      9.9267    110.9579     28.7231
  1463.5000      8.0428      2.4813      0.0702     10.2261    120.3396     28.8273
  1463.6000      8.0428      2.4698      0.0637     10.9205    129.8099     29.0605
  1463.7000      8.0428      2.4456      0.0487     12.3874    131.3802     29.3173
  1463.8000      8.0862      2.4227      0.0332     13.7764    131.7670     29.8438
  1463.9000      8.0862      2.4190      0.0418     13.9971    140.6532     30.9109
  1464.0000      8.0849      2.4232      0.0753     13.7448    152.1192     31.9826
  1464.1000      8.0849      2.4083      0.0677     14.6480    153.7261     32.4352
  1464.2000      8.0849      2.3736      0.0577     16.7537    147.2810     32.0415
  1464.3000      8.1221      2.3425      0.0333     18.6367    138.5634     31.1296
  1464.4000      8.1221      2.3362      0.0355     19.0196    130.3522     29.9840
  1464.5000      8.1333      2.3592      0.0331     17.6263    127.6843     29.2090
  1464.6000      8.1333      2.3956      0.0405     15.4168    127.9736     29.7176
  1464.7000      8.1333      2.4218      0.0682     13.8307    123.6739     31.0350
  1464.8000      8.1342      2.4266      0.0880     13.5373    118.6082     32.1725
  1464.9000      8.1342      2.4107      0.1212     14.5035    119.6787     32.6689
  1465.0000      8.1192      2.3847      0.1099     16.0800    123.6933     32.6881
  1465.1000      8.1192      2.3686      0.1446     17.0535    125.3969     32.6565
  1465.2000      8.1192      2.3643      0.1782     17.3165    125.3007     32.8065
  1465.3000      8.2230      2.3538      0.1180     17.9538    126.8514     33.2568
  1465.4000      8.2230      2.3455      0.0441     18.4528    129.0261     33.7464
  1465.5000      8.2801      2.3792      0.0323     16.4133    127.9502     33.5558
  1465.6000      8.2801      2.4636      0.1815     11.2984    124.0765     32.7422
  1465.7000      8.2801      2.5574      0.2943      5.6100    119.6391     32.3941
  1465.8000      8.3165      2.6260      0.3229      1.4534    115.3888     32.6082
  1465.9000      8.3165      2.6614      0.3876     -0.6904    112.4723     32.3176
  1466.0000      8.4794      2.6600      0.3150     -0.6054    112.1542     31.5177
  1466.1000      8.4794      2.6265      0.2903      1.4237    115.5332     31.3797
  1466.2000      8.4794      2.5713      0.2500      4.7686    122.1789     32.2969
  1466.3000      8.6166      2.5082      0.1994      8.5949    127.2999     33.2897
  1466.4000      8.6166      2.4605      0.1226     11.4873    127.0383     33.1894
  1466.5000      8.7743      2.4343      0.0832     13.0699    124.1852     32.2914
