~Version Information
VERS.                      2.0: CWLS Log ASCII Standard - VERSION 2.0
WRAP.                       NO: One line per depth step
~Well Information Block
STRT.FT               510.0000: 
STOP.FT              1861.5000: 
STEP.FT                 0.1000: 
NULL.                -999.2500: 
COMP.          Pioneer Natural Resources: COMPANY
WELL.           Guajardo 24-16: WELL
FLD.           Purgatoire River: FIELD
LOC.           883' FSL & 2147' FWL: LOCATION
PROV.                 Colorado: PROVINCE
CNTY.               Las Animas: COUNTRY
SRVC.                Patterson: SERVICE COMPANY
DATE.          Mon Aug 08 09:13:01 2005: LOG DATE
UWI.           05 071 08377 00: UNIQUE WELL ID
~Curve Information Block
DEPT.FT            0 000 00 00: Depth
DCAL.in                       : CDL Caliper
RHOB.g/cc                     : CDL Bulk Density
RHOC.g/cc                     : CDL Density Correction
DPOR.pu                       : CDL Density Porosity
GR.GAPI                       : Gamma Ray
NPOR.pu                       : Neutron Porosity
~Parameter Information Block
~A  Depth       DCAL        RHOB        RHOC        DPOR         GR         NPOR    
# ...
   951.6000      8.2311      2.5189      0.0828      7.9447    112.9970     30.9085
   951.7000      8.2311      2.5226      0.0361      7.7202    107.9226     27.9579
   951.8000      8.2223      2.5314      0.0861      7.1906    104.1109     25.6251
   951.9000      8.2223      2.5467      0.0370      6.2628    104.6445     25.2052
   952.0000      8.2286      2.5494      0.0926      6.0968    106.6915     26.0088
   952.1000      8.2286      2.5356      0.0320      6.9317    104.0745     25.4161
   952.2000      8.2286      2.5324      0.0334      7.1252     97.3404     23.8049
   952.3000      8.2306      2.5475      0.0939      6.2113     91.4576     24.4827
   952.4000      8.2306      2.5565      0.0930      5.6673     88.7859     27.2353
   952.5000      8.2239      2.5502      0.0336      6.0494     92.6631     30.4140
   952.6000      8.2239      2.5461      0.0384      6.2972    102.7318     32.7464
   952.7000      8.2239      2.5574      0.0275      5.6138    109.3893     32.4498
   952.8000      8.2202      2.5749      0.0228      4.5522    105.8237     29.3266
   952.9000      8.2202      2.5772      0.1144      4.4128     96.5900     26.4926
   953.0000      8.2191      2.5586     -0.0136      5.5374     90.4584     25.9097
   953.1000      8.2191      2.5312      0.0378      7.2005     91.1311     27.7038
   953.2000      8.2191      2.5067     -0.0390      8.6821     95.8251     30.3336
   953.3000      8.2134      2.5032     -0.0416      8.8980     99.2657     31.9862
   953.4000      8.2134      2.5209      0.0275      7.8243     99.4320     32.2870
   953.5000      8.2118      2.5396      0.0125      6.6901     99.9657     32.0657
   953.6000      8.2118      2.5486      0.0316      6.1435    102.8949     31.0619
   953.7000      8.2118      2.5452      0.0456      6.3541    106.5406     28.9794
   953.8000      8.2101      2.5324      0.0648      7.1256    111.3601     27.3240
   953.9000      8.2101      2.5201      0.0515      7.8754    114.4612     26.8429
   954.0000      8.2141      2.5128      0.0513      8.3142    111.4360     26.5129
   954.1000      8.2141      2.5030      0.0220      8.9073    106.0429     26.0453
   954.2000      8.2141      2.4824      0.0478     10.1558    103.1242     26.7675
   954.3000      8.2134      2.4634     -0.0086     11.3063    102.5358     28.7624
   954.4000      8.2134      2.4665      0.0320     11.1217    102.4334     30.2473
   954.5000      8.2206      2.4828      0.0476     10.1306    101.1788     29.3318
   954.6000      8.2206      2.4996     -0.0275      9.1181     97.9890     27.3976
   954.7000      8.2206      2.5149      0.0627      8.1877     96.5077     26.1628
   954.8000      8.2212      2.5119      0.0357      8.3697     99.1108     25.4843
   954.9000      8.2212      2.4859     -0.0121      9.9465    101.5229     25.4287
   955.0000      8.2220      2.4641     -0.0166     11.2638    102.5178     26.8843
   955.1000      8.2220      2.4703      0.0022     10.8898    103.7294     29.5388
   955.2000      8.2220      2.4915      0.0550      9.6063    104.7010     31.9910
   955.3000      8.2250      2.4981      0.0051      9.2051    102.5728     33.0203
   955.4000      8.2250      2.4866     -0.0255      9.9020     96.1805     33.0273
   955.5000      8.2230      2.4733      0.0003     10.7072     91.4088     32.1027
   955.6000      8.2230      2.4662     -0.0085     11.1413     92.4690     30.4569
   955.7000      8.2230      2.4673     -0.0061     11.0758     94.7662     29.3198
   955.8000      8.2226      2.4798      0.0156     10.3171     95.6299     28.8283
   955.9000      8.2226      2.4939      0.0687      9.4634     97.6755     27.9298
   956.0000      8.2039      2.4961      0.0154      9.3252    101.1542     27.2990
   956.1000      8.2039      2.4911      0.0177      9.6306    105.1749     28.1861
   956.2000      8.2039      2.4829      0.0576     10.1293    110.9682     29.6033
   956.3000      8.2159      2.4693      0.0103     10.9518    115.1308     29.6302
   956.4000      8.2159      2.4517      0.0394     12.0174    113.3113     28.5815
   956.5000      8.2167      2.4367     -0.0262     12.9284    111.5917     28.1812
   956.6000      8.2167      2.4431     -0.0736     12.5418    115.2842     29.1800
   956.7000      8.2167      2.4720      0.0713     10.7850    118.9484     30.2577
   956.8000      8.2137      2.4973      0.0343      9.2528    119.2863     29.9072
   956.9000      8.2137      2.5032      0.0799      8.8941    118.5603     29.4509
   957.0000      8.2119      2.4844      0.0486     10.0351    117.8076     30.0340
   957.1000      8.2119      2.4497      0.0209     12.1400    117.8584     30.7424
   957.2000      8.2119      2.4294     -0.0043     13.3718    118.1981     29.8980
   957.3000      8.2211      2.4446      0.0407     12.4503    114.0598     27.6414
   957.4000      8.2211      2.4837      0.0534     10.0806    103.8821     25.6975
   957.5000      8.1718      2.5253      0.0560      7.5581     95.8546     25.0890
   957.6000      8.1718      2.5637      0.0464      5.2323     97.4792     25.4259
   957.7000      8.1718      2.5952      0.1311      3.3233    105.7495     26.0752
   957.8000      8.1755      2.6078      0.1429      2.5555    113.8503     27.3460
   957.9000      8.1755      2.5964      0.1689      3.2463    118.7285     28.9790
   958.0000      8.1816      2.5618      0.1163      5.3484    120.7124     30.1000
   958.1000      8.1816      2.5122      0.0843      8.3500    119.1752     29.8821
   958.2000      8.1816      2.4710      0.0303     10.8462    115.4950     28.1959
   958.3000      8.1873      2.4601     -0.0161     11.5066    116.2627     26.5530
   958.4000      8.1873      2.4831      0.0178     10.1134    121.5190     26.5846
   958.5000      8.1999      2.5250      0.0781      7.5739    123.3009     28.4911
   958.6000      8.1999      2.5690      0.0957      4.9083    119.9802     30.6353
   958.7000      8.1999      2.6043      0.1311      2.7676    116.5218     30.3721
   958.8000      8.2189      2.6184      0.1528      1.9163    116.1071     28.1106
   958.9000      8.2189      2.6139      0.0792      2.1851    116.6057     26.6050
   959.0000      8.2257      2.6091      0.1029      2.4778    116.8484     27.1264
   959.1000      8.2257      2.6034      0.1070      2.8253    116.9210     28.8115
   959.2000      8.2257      2.5955      0.0569      3.3030    114.3481     29.3583
   959.3000      8.2226      2.5993      0.0467      3.0746    110.4040     28.0746
   959.4000      8.2226      2.6094     -0.0122      2.4628    105.1877     27.1171
   959.5000      8.2220      2.6095      0.0020      2.4553     96.8517     27.4428
   959.6000      8.2220      2.6092      0.0093      2.4754     90.0629     27.9781
   959.7000      8.2220      2.6222      0.0135      1.6871     90.9122     28.0417
   959.8000      8.1976      2.6316      0.0698      1.1138     97.8990     27.5541
   959.9000      8.1976      2.6146      0.0471      2.1483    105.5454     25.7752
   960.0000      8.1653      2.5763      0.0141      4.4642    110.4297     22.7619
   960.1000      8.1653      2.5391      0.0089      6.7228    111.2504     21.3385
   960.2000      8.1653      2.5191      0.0099      7.9356    109.3475     24.0724
   960.3000      8.1673      2.5153      0.0360      8.1609    105.7519     27.0765
   960.4000      8.1673      2.5126      0.0487      8.3264    101.1390     28.9403
   960.5000      8.1613      2.5061      0.0210      8.7226     99.6573     29.1705
   960.6000      8.1613      2.5077      0.0488      8.6273    102.8665     28.5817
   960.7000      8.1613      2.5204      0.0176      7.8565    105.2417     28.3474
   960.8000      8.1617      2.5349      0.0362      6.9756    103.4985     28.4910
   960.9000      8.1617      2.5430      0.0536      6.4845     99.7174     27.6525
   961.0000      8.1593      2.5500      0.0219      6.0592     95.8300     25.3782
   961.1000      8.1593      2.5692      0.0297      4.8996     92.2364     23.2828
