~Version Information
VERS.                      2.0: CWLS Log ASCII Standard - VERSION 2.0
WRAP.                       NO: One line per depth step
~Well Information Block
STRT.FT                 0.0000: 
STOP.FT              1390.5000: 
STEP.FT                 0.2500: 
NULL.                -999.2500: 
COMP.          Petrogulf Corporation: COMPANY
WELL.             Leier 17-42R: WELL
FLD.           Purgatorie River: FIELD
LOC.           2398' FNL & 1109' FEL: LOCATION
PROV.                 Colorado: PROVINCE
CNTY.               Las Animas: COUNTRY
SRVC.                Patterson: SERVICE COMPANY
DATE.          Thu Nov 10 14:34:29 2005: LOG DATE
UWI.                          : UNIQUE WELL ID
~Curve Information Block
DEPT.FT            0 000 00 00: Depth
CCL.                          : Casing Collar Locator
TT3.usec                      : CBL 3' Travel Time
AMP3.mV                       : CBL 3' Amplitude
GR.GAPI                       : Gamma Ray
~Parameter Information Block
~A  Depth       CCL         TT3         AMP3         GR     
# ...
  1005.0000      0.0000    486.9036     13.0997    119.9053
  1005.2500      0.0000    532.1813     11.3628    115.4282
  1005.5000      0.0000    565.4038      9.8111    108.6197
  1005.7500      0.0000    587.9106      8.5684     99.4731
  1006.0000      0.0000    601.3907      7.7611     88.4123
  1006.2500      0.0000    610.2603      7.4493     76.5896
  1006.5000      0.0000    619.3101      7.5778     65.7748
  1006.7500      0.0000    626.9937      7.9893     57.8537
  1007.0000      0.0000    625.8152      8.5147     54.1603
  1007.2500      0.0000    613.3554      9.0298     54.8847
  1007.5000      0.0000    596.1724      9.4239     58.7775
  1007.7500      0.0000    578.0961      9.6368     63.5494
  1008.0000      0.0000    553.1497      9.7302     67.0731
  1008.2500      0.0000    517.0268      9.7953     68.5975
  1008.5000      0.0000    480.9248      9.8509     68.8351
  1008.7500      0.0000    460.3770      9.9030     68.9005
  1009.0000      0.0000    452.5767      9.9848     69.2317
  1009.2500      0.0000    452.7556     10.1119     69.4571
  1009.5000      0.0000    473.5515     10.2597     69.1775
  1009.7500      0.0000    516.5336     10.3363     68.8803
  1010.0000      0.0000    562.6450     10.2668     70.0864
  1010.2500      0.0000    598.1715     10.2120     74.3715
  1010.5000      0.0000    616.3450     10.4949     81.9126
  1010.7500      0.0000    606.0249     11.2835     90.7765
  1011.0000      0.0000    556.8102     12.5618     97.7667
  1011.2500      0.0000    475.8149     14.2769    100.4915
  1011.5000      0.0000    392.6300     16.3094     99.2447
  1011.7500      0.0000    335.7641     18.4590     97.0689
  1012.0000      0.0000    309.6009     20.5702     97.6040
  1012.2500      0.0000    301.4353     22.5643    102.3630
  1012.5000      0.0000    299.6257     24.3820    109.9083
  1012.7500      0.0000    299.2970     25.9790    117.5985
  1013.0000      0.0000    299.4617     27.3328    123.7165
  1013.2500      0.0000    301.3726     28.2516    127.7505
  1013.5000      0.0000    310.3955     28.1298    129.4282
  1013.7500      0.0000    336.7324     26.3452    128.4394
  1014.0000      0.0000    384.0740     23.1615    125.0274
  1014.2500      0.0000    432.5931     19.7215    120.2895
  1014.5000      0.0000    454.4358     16.8733    115.6574
  1014.7500      0.0000    456.4301     14.5511    111.9767
  1015.0000     -2.0000    474.8119     12.3714    109.0700
  1015.2500     -2.0000    522.6403     10.2195    106.2028
  1015.5000      2.0000    578.2869      8.1911    102.8054
  1015.7500      0.0000    618.9647      6.4105     98.6343
  1016.0000      0.0000    639.5970      4.9777     93.5450
  1016.2500      0.0000    648.9875      3.9144     87.3900
  1016.5000      0.0000    656.2206      3.1632     80.1543
  1016.7500      0.0000    659.6366      2.6513     72.2433
  1017.0000      0.0000    656.3831      2.3329     64.6542
  1017.2500      0.0000    655.3072      2.1726     58.7880
  1017.5000      0.0000    665.4841      2.1196     56.1643
  1017.7500      0.0000    681.3607      2.1442     58.3210
  1018.0000      0.0000    690.8275      2.2515     66.3534
  1018.2500      0.0000    687.9741      2.4320     79.8058
  1018.5000      0.0000    674.2338      2.6770     96.1053
  1018.7500      0.0000    657.5022      3.0159    111.6940
  1019.0000      0.0000    647.1496      3.4754    123.9292
  1019.2500      0.0000    646.3909      4.0918    131.8567
  1019.5000      0.0000    651.9389      4.9693    135.7147
  1019.7500      0.0000    656.5991      6.2104    136.3671
  1020.0000      0.0000    651.2002      7.8184    134.9616
  1020.2500      0.0000    626.6244      9.7584    132.4144
  1020.5000      0.0000    578.1711     12.0403    129.1685
  1020.7500      0.0000    510.7128     14.6898    125.6682
  1021.0000      0.0000    436.8158     17.7425    122.6561
  1021.2500      0.0000    371.4551     21.3104    120.6417
  1021.5000      0.0000    326.1822     25.5604    119.3932
  1021.7500      0.0000    300.7324     30.5757    118.1607
  1022.0000      0.0000    285.3015     36.2103    116.1172
  1022.2500      0.0000    273.0916     42.0787    112.6933
  1022.5000      0.0000    264.1335     47.7774    107.9813
  1022.7500      0.0000    259.3918     53.0151    102.8652
  1023.0000      0.0000    257.6561     57.4052     98.3884
  1023.2500      0.0000    257.2110     60.4410     94.9579
  1023.5000      0.0000    257.1591     61.9508     92.4216
  1023.7500      0.0000    257.2066     62.3792     90.7851
  1024.0000      0.0000    257.2635     62.3963     90.4382
  1024.2500      0.0000    257.3007     62.3363     91.6170
  1024.5000      0.0000    257.3166     62.1473     93.9002
  1024.7500      0.0000    257.3208     61.7002     96.3093
  1025.0000      0.0000    257.3287     60.9437     97.8346
  1025.2500      0.0000    257.3543     59.8573     98.0051
  1025.5000      0.0000    257.4313     58.3546     97.1759
  1025.7500      0.0000    257.7760     56.2485     96.3677
  1026.0000      0.0000    259.2169     53.3498     96.6469
  1026.2500      0.0000    263.4738     49.5834     98.4440
  1026.5000      0.0000    272.0157     45.0124    101.3010
  1026.7500      0.0000    285.0240     39.8599    104.0193
  1027.0000      0.0000    305.9765     34.5097    105.0458
  1027.2500      0.0000    347.4427     29.3113    103.2314
  1027.5000      0.0000    419.1995     24.4127     98.5888
  1027.7500      0.0000    505.4521     19.9032     92.3555
  1028.0000      0.0000    573.8138     15.9871     86.4323
  1028.2500      0.0000    610.1738     12.8586     82.5778
  1028.5000      0.0000    625.2499     10.4698     81.4117
  1028.7500      0.0000    633.8605      8.5646     81.8081
  1029.0000      0.0000    641.7176      6.9504     81.7331
  1029.2500      0.0000    647.4769      5.6596     80.0775
  1029.5000      0.0000    649.2632      4.7935     77.5844
  1029.7500      0.0000    647.8732      4.3171     76.1800
  1030.0000      0.0000    647.6802      4.1152     77.6810
  1030.2500      0.0000    653.1712      4.1221     82.7554
  1030.5000      0.0000    663.9924      4.3261     90.5167
  1030.7500      0.0000    675.1515      4.7406     99.0637
  1031.0000      0.0000    679.3651      5.3726    106.6808
  1031.2500      0.0000    672.6260      6.1786    112.7937
  1031.5000      0.0000    658.9655      7.1119    118.0151
  1031.7500      0.0000    641.5990      8.2612    123.2202
  1032.0000      0.0000    609.6972      9.8546    128.2628
  1032.2500      0.0000    547.5933     12.0141    131.5597
  1032.5000      0.0000    463.1048     14.5467    131.3735
  1032.7500      0.0000    387.2005     17.0851    127.7065
  1033.0000      0.0000    339.4727     19.3384    122.6912
  1033.2500      0.0000    315.6653     21.1088    118.9955
  1033.5000      0.0000    305.1949     22.2476    117.9293
  1033.7500      0.0000    302.4394     22.6918    118.9425
  1034.0000      0.0000    306.5347     22.3842    120.6357
  1034.2500      0.0000    320.1521     21.2298    122.0926
  1034.5000      0.0000    348.6104     19.3869    123.2627
  1034.7500      0.0000    399.2075     17.3776    124.1579
  1035.0000      0.0000    474.4530     15.6114    124.0467
  1035.2500      0.0000    558.2448     14.0704    121.9283
  1035.5000      0.0000    622.2751     12.6183    117.8906
  1035.7500      0.0000    654.3669     11.3181    113.5723
  1036.0000      0.0000    664.6081     10.3274    111.0423
  1036.2500      0.0000    666.5620      9.6392    111.2478
  1036.5000      0.0000    666.6975      9.0569    113.4200
  1036.7500      0.0000    666.8362      8.4084    115.8398
  1037.0000      0.0000    668.1962      7.7211    117.4688
  1037.2500      0.0000    672.6716      7.1726    118.9088
  1037.5000      0.0000    680.8911      6.9103    121.5652
  1037.7500      0.0000    689.5116      6.9312    126.0027
  1038.0000      0.0000    693.4822      7.1033    131.2285
  1038.2500      0.0000    690.0610      7.2893    135.1728
