~Version Information
 VERS.                                  2.0 : CWLS LAS VERSION
 WRAP.                                   NO : WRAPING MODE
 SWARE .                 MController 2.5.0I : SOFTWARE VERSION
~Well Information
 WELL.                        Montoya 7-21v : WELL
 COMP.                       Petrogulf Corp : COMPANY
 FLD.                      Purgatorie River : FIELD
 LOC.                 NE/NW Sec 7 T33S R67W : LOCATION
 DATE.                                  N/A : DATE(S) LOGGED
 SRVC.       Blanco Geological Services LLC : SERVICE COMPANY
 STAT.                                   CO : STATE
 CNTY.                           Las Animas : COUNTY
 CTRY.                                  USA : COUNTRY
 API.                       05-071-08018-00 : API NUMBER
 STRT.FT                             836.00 : START DEPTH
 STOP.FT                            2421.00 : STOP DEPTH
 STEP.FT                               1.00 : DEPTH INCREMENT
 NULL.                                -9999 : NULL VALUE
~Curve information
 DEPTH.FT                                   :
 ROP.MIN/FT                                 :
 GAS.UNITS                                  :
~ASCII Log data
# ...
      1236.0          0.3          3.1 
      1237.0          0.5          3.1 
      1238.0          0.7          3.2 
      1239.0          0.4          3.3 
      1240.0          0.3          3.1 
      1241.0          0.3          3.2 
      1242.0          0.3          3.2 
      1243.0          0.3          3.3 
      1244.0          0.2          3.2 
      1245.0          0.3          3.4 
      1246.0          0.3          3.2 
      1247.0          0.3          3.3 
      1248.0          0.2          3.4 
      1249.0          0.2          3.3 
      1250.0          0.2          3.3 
      1251.0          0.2          3.3 
      1252.0          0.2          3.3 
      1253.0          0.2          3.4 
      1254.0          0.3          3.4 
      1255.0          0.4          3.3 
      1256.0          0.2          3.1 
      1257.0          0.2          3.3 
      1258.0          0.2          3.4 
      1259.0          0.2          3.7 
      1260.0          3.3          4.2 
      1261.0          0.1          3.5 
      1262.0          0.4          3.5 
      1263.0          0.4          3.6 
      1264.0          0.3          3.4 
      1265.0          0.4          3.8 
      1266.0          0.6          3.9 
      1267.0          0.4          4.0 
      1268.0          0.3          3.9 
      1269.0          0.2          3.8 
      1270.0          0.3          3.8 
      1271.0          0.3          3.9 
      1272.0          0.3          3.9 
      1273.0          0.3          4.0 
      1274.0          0.3          4.1 
      1275.0          0.2          4.0 
      1276.0          0.2          4.2 
      1277.0          0.2          4.1 
      1278.0          0.4          4.1 
      1279.0          0.2          4.3 
      1280.0          0.3          4.3 
      1281.0          0.3          4.0 
      1282.0          0.4          4.6 
      1283.0          0.3          4.2 
      1284.0          0.2          4.1 
      1285.0          0.2          4.4 
      1286.0          0.3          4.1 
      1287.0          0.3          3.8 
      1288.0          0.3          5.0 
      1289.0          0.2          6.8 
      1290.0          2.8         13.7 
      1291.0          0.6         14.0 
      1292.0          0.4         19.5 
      1293.0          0.6         21.8 
      1294.0          0.9         21.4 
      1295.0          0.6         17.6 
      1296.0          0.3         14.1 
      1297.0          0.3         12.8 
      1298.0          0.3         11.8 
      1299.0          0.1         11.5 
      1300.0          0.2         11.7 
      1301.0          0.2         12.0 
      1302.0          0.2         11.9 
      1303.0          0.2         12.1 
      1304.0          0.1         12.5 
      1305.0          0.2         12.8 
      1306.0          0.2         12.9 
      1307.0          0.3         13.5 
      1308.0          0.2         13.5 
      1309.0          0.3         13.0 
      1310.0          0.2         12.7 
      1311.0          0.2         12.3 
      1312.0          0.3         12.2 
      1313.0          0.2         11.9 
      1314.0          0.2         11.6 
      1315.0          0.2         11.7 
      1316.0          0.3         11.9 
      1317.0          0.3         12.6 
      1318.0          0.3         12.4 
      1319.0          0.1         12.5 
      1320.0          2.6         49.2 
      1321.0          0.5         42.6 
      1322.0          0.3         23.3 
      1323.0          0.3         24.0 
      1324.0          0.4         24.6 
      1325.0          0.5         23.2 
      1326.0          0.5         19.7 
      1327.0          0.4         16.9 
      1328.0          0.4         15.0 
      1329.0          0.4         13.9 
      1330.0          0.4         13.0 
      1331.0          0.3         12.5 
      1332.0          0.3         12.3 
      1333.0          0.3         12.4 
      1334.0          0.3         11.8 
      1335.0          0.3         11.8 
      1336.0          0.3         11.9 
      1337.0          0.3         11.8 
      1338.0          0.3         11.9 
      1339.0          0.3         12.0 
      1340.0          0.3         12.2 
      1341.0          0.3         12.1 
      1342.0          0.3         12.2 
      1343.0          0.3         12.4 
      1344.0          0.3         12.4 
      1345.0          0.3         12.9 
      1346.0          0.3         12.6 
      1347.0          0.4         12.2 
      1348.0          0.3         12.3 
      1349.0          0.2         12.7 
      1350.0          3.4         76.4 
      1351.0          0.9         56.9 
      1352.0          0.6         21.9 
      1353.0          0.5         18.6 
      1354.0          0.5         17.1 
      1355.0          0.4         16.2 
      1356.0          0.4         15.4 
      1357.0          0.5         14.7 
      1358.0          0.5         13.7 
      1359.0          0.4         13.1 
      1360.0          0.4         13.1 
      1361.0          0.4         13.0 
      1362.0          0.3         13.2 
      1363.0          0.4         13.0 
      1364.0          0.3         13.2 
      1365.0          0.6         12.9 
      1366.0          0.3         12.8 
      1367.0          0.4         13.1 
      1368.0          0.5         13.5 
      1369.0          0.5         13.7 
      1370.0          0.5         13.6 
      1371.0          0.5         13.6 
      1372.0          0.4         13.4 
      1373.0          0.5         13.4 
      1374.0          0.4         13.4 
      1375.0          0.3         13.9 
      1376.0          0.2         12.9 
      1377.0          0.3         13.7 
      1378.0          0.3         13.8 
      1379.0          0.2         14.4 
      1380.0          3.7         62.7 
      1381.0          0.5         29.2 
      1382.0          0.6         22.1 
      1383.0          0.8         23.9 
      1384.0          0.6         21.6 
      1385.0          0.4         17.0 
      1386.0          0.5         14.9 
      1387.0          0.3         14.6 
      1388.0          0.4         14.1 
      1389.0          0.3         13.5 
      1390.0          0.3         12.6 
      1391.0          0.4         12.4 
      1392.0          0.4         12.8 
      1393.0          0.3         12.9 
      1394.0          0.2         13.1 
      1395.0          0.3         13.0 
      1396.0          0.3         13.0 
      1397.0          0.3         13.0 
      1398.0          0.2         12.6 
      1399.0          0.2         12.7 
      1400.0          0.2         12.7 
      1401.0          0.3         12.6 
      1402.0          0.4         12.7 
      1403.0          0.6         12.8 
      1404.0          0.4         12.6 
      1405.0          0.4         12.3 
      1406.0          0.4         12.5 
      1407.0          0.3         12.6 
      1408.0          0.3         13.1 
      1409.0          0.2         13.4 
      1410.0          3.2         73.9 
      1411.0          0.7         65.5 
      1412.0          0.4         26.8 
      1413.0          0.4         21.8 
      1414.0          0.4         19.5 
      1415.0          0.8         18.6 
      1416.0          0.8         19.4 
      1417.0          0.5         17.7 
      1418.0          0.4         15.5 
      1419.0          0.3         14.1 
      1420.0          0.4         13.1 
      1421.0          0.3         12.9 
      1422.0          0.3         12.5 
      1423.0          0.3         12.7 
      1424.0          0.4         12.7 
      1425.0          0.4         12.9 
      1426.0          0.4         12.8 
      1427.0          0.5         12.8 
      1428.0          0.3         12.8 
      1429.0          0.6         12.4 
      1430.0          0.4         12.5 
      1431.0          0.4         12.5 
      1432.0          0.3         12.7 
      1433.0          0.4         12.6 
      1434.0          0.4         13.0 
      1435.0          0.4         13.3 
