~Version Information
VERS.                      2.0: CWLS Log ASCII Standard - VERSION 2.0
WRAP.                       NO: One line per depth step
~Well Information Block
STRT.FT                 3.7500: 
STOP.FT               979.7500: 
STEP.FT                 0.2500: 
NULL.                -999.2500: 
COMP.          Pioneer Natural Resources: COMPANY
WELL.          Rising Star 22-11: WELL
FLD.           Purgatoire River: FIELD
LOC.           2152' FNL & 2105' FWL: LOCATION
PROV.                 Colorado: PROVINCE
CNTY.               Las Animas: COUNTRY
SRVC.                Patterson: SERVICE COMPANY
DATE.          Sat Apr 16 09:17:01 2005: LOG DATE
UWI.           05 071 08354 00: UNIQUE WELL ID
~Curve Information Block
DEPT.FT            0 000 00 00: Depth
GR.GAPI                       : Gamma Ray
CCL.                          : Casing Collar Locator
TT3.usec                      : CBL 3' Travel Time
AMP3.mV                       : CBL 3' Amplitude
~Parameter Information Block
~A  Depth        GR         CCL         TT3         AMP3    
# ...
   439.2500     70.7152      0.0000   1248.9077      4.6957
   439.5000     76.7142      0.0000   1289.3040      4.6527
   439.7500     84.3017      0.0000   1321.1733      4.6472
   440.0000     92.7916      0.0000   1339.1720      4.7089
   440.2500    101.4095      0.0000   1346.7853      4.8040
   440.5000    109.5734      0.0000   1349.2463      4.8936
   440.7500    117.0961      0.0000   1349.8607      4.9686
   441.0000    123.9840      0.0000   1349.9835      5.0445
   441.2500    130.1125      0.0000   1350.0000      5.1353
   441.5000    135.1249      0.0000   1350.0000      5.2402
   441.7500    138.6848      0.0000   1350.0000      5.3499
   442.0000    140.8857      0.0000   1350.0000      5.4547
   442.2500    142.2793      0.0000   1350.0000      5.5451
   442.5000    143.3075      0.0000   1350.0000      5.6100
   442.7500    143.8090      0.0000   1350.0000      5.6402
   443.0000    143.2423      0.0000   1350.0000      5.6356
   443.2500    141.2666      0.0000   1350.0000      5.6092
   443.5000    138.0107      0.0000   1350.0000      5.5818
   443.7500    134.0974      0.0000   1350.0000      5.5704
   444.0000    130.6775      0.0000   1350.0000      5.5821
   444.2500    129.0309      0.0000   1350.0000      5.6125
   444.5000    129.5632      0.0000   1350.0000      5.6457
   444.7500    131.4938      0.0000   1350.0000      5.6579
   445.0000    134.0111      0.0000   1350.0000      5.6298
   445.2500    137.2762      0.0000   1350.0000      5.5633
   445.5000    141.6370      0.0000   1350.0000      5.4834
   445.7500    146.0700      0.0000   1350.0000      5.4216
   446.0000    148.0781      0.0000   1350.0000      5.3952
   446.2500    145.4701      0.0000   1350.0000      5.3979
   446.5000    138.3555      0.0000   1350.0000      5.4084
   446.7500    129.4682      0.0000   1350.0000      5.4092
   447.0000    122.3855      0.0000   1349.9867      5.4025
   447.2500    119.1184      0.0000   1349.9131      5.4072
   447.5000    119.0785      0.0000   1349.5588      5.4411
   447.7500    120.0244      0.0000   1348.2190      5.5047
   448.0000    119.8549      0.0000   1344.3527      5.5841
   448.2500    117.6654      0.0000   1335.6675      5.6643
   448.5000    113.6622      0.0000   1319.9491      5.7333
   448.7500    108.8493      0.0000   1295.5115      5.7776
   449.0000    104.9002      0.0000   1260.3281      5.7808
   449.2500    103.5357      0.0000   1213.4827      5.7308
   449.5000    105.3425      0.0000   1162.2870      5.6317
   449.7500    109.1674      0.0000   1125.8127      5.5111
   450.0000    112.8084      0.0000   1121.9899      5.4084
   450.2500    114.5775      0.0000   1149.2296      5.3486
   450.5000    114.6387      0.0000   1188.4562      5.3274
   450.7500    114.7615      0.0000   1223.9818      5.3200
   451.0000    116.4276      0.0000   1254.4437      5.3010
   451.2500    119.5049      0.0000   1283.5831      5.2581
   451.5000    122.9385      0.0000   1309.4413      5.1967
   451.7500    125.9167      0.0000   1324.8641      5.1344
   452.0000    127.8578      0.0000   1321.7351      5.0865
   452.2500    128.0547      0.0000   1291.6483      5.0545
   452.5000    126.1201      0.0000   1228.3956      5.0297
   452.7500    122.6093      0.0000   1137.2020      5.0048
   453.0000    118.8026      0.0000   1042.0175      4.9778
   453.2500    115.7824      0.0000    977.5856      4.9464
   453.5000    113.7486      0.0000    967.5869      4.9091
   453.7500    112.2231      0.0000   1007.7682      4.8698
   454.0000    110.8367      0.0000   1071.3402      4.8343
   454.2500    109.8318      0.0000   1132.7166      4.8030
   454.5000    109.7700      0.0000   1184.8463      4.7747
   454.7500    110.7680      0.0000   1232.7822      4.7537
   455.0000    112.1197      0.0000   1277.3779      4.7511
   455.2500    113.0203      0.0000   1311.9125      4.7778
   455.5000    113.6826      0.0000   1330.1588      4.8363
   455.7500    115.1031      0.0000   1330.3403      4.9173
   456.0000    117.4343      0.0000   1313.2032      5.0026
   456.2500    119.2773      0.0000   1283.2782      5.0743
   456.5000    118.9627      0.0000   1253.2306      5.1227
   456.7500    115.9551      0.0000   1240.3873      5.1486
   457.0000    110.7680      0.0000   1253.2672      5.1619
   457.2500    104.2734      0.0000   1283.5166      5.1828
   457.5000     97.6467      0.0000   1314.4139      5.2356
   457.7500     92.4132      0.0000   1335.1655      5.3366
   458.0000     89.7851      0.0000   1345.1840      5.4853
   458.2500     89.9536      0.0000   1348.7823      5.6665
   458.5000     92.2683      0.0000   1349.7603      5.8607
   458.7500     95.9366      0.0000   1349.9633      6.0486
   459.0000    100.3371      0.0000   1349.9918      6.2126
   459.2500    104.8022      0.0000   1349.9382      6.3445
   459.5000    108.4050      0.0000   1349.6663      6.4571
   459.7500    110.2822      0.0000   1348.5906      6.5785
   460.0000    110.4337      0.0000   1345.2473      6.7274
   460.2500    109.9287      0.0000   1337.1329      6.8992
   460.5000    109.7133      0.0000   1321.4847      7.0821
   460.7500    109.2643      0.0000   1296.9495      7.2729
   461.0000    107.1148      0.0000   1264.3049      7.4717
   461.2500    102.8984      0.0000   1225.6998      7.6764
   461.5000     98.2811      0.0000   1184.9161      7.8856
   461.7500     95.4547      0.0000   1148.8412      8.0931
   462.0000     94.9878      0.0000   1124.1293      8.2812
   462.2500     95.5082      0.0000   1108.2739      8.4349
   462.5000     95.4227      0.0000   1088.3500      8.5516
   462.7500     94.5840      0.0000   1054.3949      8.6261
   463.0000     93.9750      0.0000   1010.5771      8.6498
   463.2500     93.9496      0.0000    968.2072      8.6432
   463.5000     93.4356      0.0000    933.4141      8.6635
   463.7500     91.3399      0.0000    909.0590      8.7524
   464.0000     88.4068      0.0000    903.1031      8.8917
   464.2500     86.8514      0.0000    923.4743      9.0325
   464.5000     87.9082      0.0000    963.1540      9.1491
   464.7500     90.2203      0.0000    998.5179      9.2394
   465.0000     90.9490      0.0000   1009.6412      9.2881
   465.2500     88.3325      0.0000   1001.9728      9.2637
   465.5000     83.2100      0.0000   1002.5138      9.1553
   465.7500     78.2355      0.0000   1033.0907      8.9922
   466.0000     75.6157      0.0000   1090.9619      8.8227
   466.2500     75.5206      0.0000   1155.5289      8.6835
   466.5000     76.5600      0.0000   1208.1589      8.5860
   466.7500     77.4764      0.0000   1243.0352      8.5214
   467.0000     78.1775      0.0000   1264.2736      8.4737
   467.2500     79.4128      0.0000   1277.9691      8.4313
   467.5000     81.7375      0.0000   1286.6526      8.3884
   467.7500     84.7060      0.0000   1288.7816      8.3376
   468.0000     86.9137      0.0000   1282.1406      8.2625
   468.2500     86.9920      0.0000   1266.9475      8.1388
   468.5000     84.7580      0.0000   1245.2781      7.9458
   468.7500     81.3666      0.0000   1218.5149      7.6848
   469.0000     78.2901      0.0000   1187.2228      7.3872
   469.2500     76.2112      0.0000   1153.2233      7.0998
   469.5000     74.9448      0.0000   1119.0824      6.8619
   469.7500     74.2319      0.0000   1084.3281      6.6952
   470.0000     74.1522      0.0000   1046.9017      6.6014
   470.2500     74.5489      0.0000   1012.6645      6.5549
   470.5000     74.5402      0.0000    997.5439      6.5069
   470.7500     73.1638      0.0000   1012.5950      6.4077
   471.0000     70.5780      0.0000   1050.2694      6.2371
   471.2500     68.4373      0.0000   1091.2949      6.0140
   471.5000     68.6911      0.0000   1121.9192      5.7808
   471.7500     71.6910      0.0000   1140.3416      5.5779
   472.0000     75.5988      0.0000   1152.1484      5.4251
   472.2500     77.9139      0.0000   1165.5958      5.3208
   472.5000     77.4616      0.0000   1187.1652      5.2535
