~Version Information
VERS.                      2.0: CWLS Log ASCII Standard - VERSION 2.0
WRAP.                       NO: One line per depth step
~Well Information Block
STRT.FT               743.8000: 
STOP.FT              1975.8000: 
STEP.FT                 0.1000: 
NULL.                -999.2500: 
COMP.          Petrogulf Corporation: COMPANY
WELL.            Montoya 6-14V: WELL
FLD.           Purgatorie River: FIELD
LOC.           318' FSL & 882' FWL: LOCATION
CNTY.               Las Animas: COUNTY
SRVC.                         : SERVICE COMPANY
DATE.          Sat Aug 14 09:19:43 2004: LOG DATE
UWI.           05 071 08020 00: UNIQUE WELL ID
STAT.                 Colorado: STATE
~Curve Information Block
DEPT.FT            0 000 00 00: Depth
DCAL.in                       : CDL Caliper
RHOB.g/cc                     : CDL Bulk Density
RHOC.g/cc                     : CDL Density Correction
DPOR.pu                       : CDL Density Porosity
GR.GAPI                       : Gamma Ray
NPOR.pu                       : Neutron Porosity
~Parameter Information Block
~A  Depth       DCAL        RHOB        RHOC        DPOR         GR         NPOR    
# ...
  1223.8000      7.9540      2.6192      0.0513      1.8665     93.3246     20.7980
  1223.9000      7.9540      2.6298      0.0567      1.2212     97.9131     21.0922
  1224.0000      7.9482      2.6326      0.0311      1.0543     96.7688     20.2644
  1224.1000      7.9482      2.6337      0.0297      0.9856     89.7922     19.1453
  1224.2000      7.9482      2.6362      0.0265      0.8382     85.5585     18.2916
  1224.3000      7.9139      2.6378      0.0182      0.7402     92.2941     18.1175
  1224.4000      7.9139      2.6374      0.0076      0.7622    105.0021     18.8579
  1224.5000      7.9146      2.6298     -0.0112      1.2270    112.0480     19.7841
  1224.6000      7.9146      2.6111     -0.0028      2.3582    106.7716     20.1496
  1224.7000      7.9146      2.5910     -0.0401      3.5766     97.0356     20.2793
  1224.8000      7.9374      2.5830     -0.0074      4.0619     94.9984     20.1706
  1224.9000      7.9374      2.5891     -0.0210      3.6911     99.0417     19.6399
  1225.0000      7.9413      2.5985      0.0318      3.1182    100.3936     19.2258
  1225.1000      7.9413      2.6013      0.0039      2.9523     99.0795     18.6719
  1225.2000      7.9413      2.6043      0.0199      2.7725    100.9073     17.4391
  1225.3000      7.9596      2.6134      0.0251      2.2167    108.3768     16.4002
  1225.4000      7.9596      2.6205      0.0342      1.7895    113.5289     16.0451
  1225.5000      7.9077      2.6214      0.0197      1.7352    108.1579     15.7461
  1225.6000      7.9077      2.6228      0.0443      1.6490     98.7709     15.1074
  1225.7000      7.9077      2.6190      0.0399      1.8778     92.6824     14.2424
  1225.8000      7.8672      2.6006     -0.0016      2.9969     91.6946     13.3720
  1225.9000      7.8672      2.5796     -0.0241      4.2678     97.0150     12.6590
  1226.0000      7.8550      2.5724      0.0017      4.7001    102.7943     12.3461
  1226.1000      7.8550      2.5771      0.0297      4.4153    101.4877     12.4664
  1226.2000      7.8550      2.5813      0.0188      4.1655     97.2966     12.9132
  1226.3000      7.8604      2.5829     -0.0137      4.0670     96.9379     13.6222
  1226.4000      7.8604      2.5907      0.0333      3.5929     99.5297     14.7036
  1226.5000      7.8680      2.6011      0.0389      2.9627    102.0224     16.0640
  1226.6000      7.8680      2.5988      0.0414      3.1057    100.3979     17.0888
  1226.7000      7.8680      2.5869     -0.0009      3.8256     93.9066     17.6070
  1226.8000      7.8458      2.5872     -0.0034      3.8038     88.4930     17.8792
  1226.9000      7.8458      2.6035      0.0290      2.8166     87.1923     17.8701
  1227.0000      7.8564      2.6203      0.0255      1.7974     85.9154     17.5767
  1227.1000      7.8564      2.6273      0.0327      1.3785     85.2538     17.6016
  1227.2000      7.8564      2.6274      0.0124      1.3673     88.5770     18.3607
  1227.3000      7.8747      2.6280      0.0332      1.3351     92.2680     19.2310
  1227.4000      7.8747      2.6232      0.0539      1.6252     92.8377     19.6284
  1227.5000      7.8614      2.6070      0.0627      2.6070     90.7688     19.7991
  1227.6000      7.8614      2.5931     -0.0065      3.4510     89.7287     20.1127
  1227.7000      7.8614      2.5914      0.0506      3.5518     95.4929     20.7300
  1227.8000      7.8640      2.5843      0.0146      3.9835    104.3448     21.4701
  1227.9000      7.8640      2.5655     -0.0178      5.1221    112.3004     22.0878
  1228.0000      7.8953      2.5438      0.0054      6.4347    123.1338     22.7303
  1228.1000      7.8953      2.5130      0.0497      8.3058    132.1036     23.5471
  1228.2000      7.8953      2.4779     -0.0168     10.4288    131.7070     24.3410
  1228.3000      7.9152      2.4599     -0.0103     11.5204    128.1789     25.1402
  1228.4000      7.9152      2.4556      0.0034     11.7832    127.1576     25.9879
  1228.5000      7.9217      2.4434      0.0171     12.5191    123.9031     26.1747
  1228.6000      7.9217      2.4095      0.0150     14.5746    118.6937     25.8622
  1228.7000      7.9217      2.3422      0.0171     18.6542    115.6294     25.9177
  1228.8000      7.9377      2.2345      0.0030     25.1804    114.8077     26.5008
  1228.9000      7.9377      2.1117     -0.0518     32.6232    117.1749     27.4807
  1229.0000      7.9514      2.0170     -0.0647     38.3641    121.5919     28.7574
  1229.1000      7.9514      1.9486      0.0125     42.5120    121.6641     29.9568
  1229.2000      7.9514      1.8671      0.0140     47.4477    114.9600     30.7000
  1229.3000      7.9379      1.7658     -0.0278     53.5852    107.8235     31.4888
  1229.4000      7.9379      1.6733     -0.0159     59.1944    103.1374     32.8752
  1229.5000      7.9665      1.6128      0.0140     62.8585     96.0123     34.0108
  1229.6000      7.9665      1.5984      0.0547     63.7327     87.7533     34.1233
  1229.7000      7.9665      1.6325      0.0764     61.6662     83.0282     33.7903
  1229.8000      8.0974      1.7031      0.0810     57.3861     81.2117     33.4846
  1229.9000      8.0974      1.8081      0.0570     51.0217     84.4033     33.1045
  1230.0000      8.6038      1.9495      0.1164     42.4520     95.2837     32.8735
  1230.1000      8.6038      2.0988      0.2011     33.4059    109.2180     32.6732
  1230.2000      8.6038      2.2189      0.2598     26.1247    121.9920     31.9125
  1230.3000      8.8990      2.3165      0.1990     20.2105    134.1617     31.3964
  1230.4000      8.8990      2.4156      0.2312     14.2042    143.8096     31.7420
  1230.5000      8.8801      2.4952      0.2591      9.3805    144.7512     31.6543
  1230.6000      8.8801      2.5233      0.1103      7.6792    142.0798     30.5883
  1230.7000      8.8801      2.5174      0.0249      8.0385    146.4610     29.3858
  1230.8000      8.1000      2.5095      0.0512      8.5168    153.7283     28.6383
  1230.9000      8.1000      2.5062      0.0397      8.7135    157.9867     28.3525
  1231.0000      7.9893      2.5072      0.0533      8.6520    158.9369     28.5398
  1231.1000      7.9893      2.5200      0.0354      7.8786    155.3237     28.9534
  1231.2000      7.9893      2.5442      0.0794      6.4132    149.9372     28.8782
  1231.3000      7.9490      2.5598      0.1240      5.4668    150.4166     28.2940
  1231.4000      7.9490      2.5505      0.0778      6.0312    155.7003     27.6526
  1231.5000      7.9288      2.5238      0.0301      7.6472    153.5288     26.9426
  1231.6000      7.9288      2.5028     -0.0136      8.9203    139.3647     26.2714
  1231.7000      7.9288      2.5047      0.0161      8.8034    123.6491     25.9679
  1231.8000      7.9479      2.5257      0.0008      7.5333    115.5864     25.8936
  1231.9000      7.9479      2.5497      0.0299      6.0810    113.9243     25.2783
  1232.0000      8.0296      2.5662      0.0424      5.0787    115.2983     24.1068
  1232.1000      8.0296      2.5812      0.0500      4.1696    118.9198     23.2896
  1232.2000      8.0296      2.6047      0.0487      2.7446    120.7421     23.3882
  1232.3000      7.9374      2.6275      0.1346      1.3635    118.4064     24.1036
  1232.4000      7.9374      2.6292      0.1125      1.2633    117.3047     24.7960
  1232.5000      7.9417      2.6136      0.0574      2.2040    119.4637     25.0602
  1232.6000      7.9417      2.6047      0.0287      2.7453    119.1162     24.7420
  1232.7000      7.9417      2.6145      0.0195      2.1502    111.5676     24.4433
  1232.8000      7.8969      2.6339      0.0493      0.9776    104.3750     24.9135
  1232.9000      7.8969      2.6434      0.0672      0.4030    107.1284     25.8197
  1233.0000      7.8868      2.6360      0.0197      0.8471    114.6177     26.0537
  1233.1000      7.8868      2.6204     -0.0039      1.7961    118.3171     25.0936
  1233.2000      7.8868      2.6015      0.0105      2.9387    118.5196     23.5232
  1233.3000      7.8750      2.5761      0.0073      4.4778    117.3364     22.2035
