~Version Information
VERS.                      2.0: CWLS Log ASCII Standard - VERSION 2.0
WRAP.                       NO: One line per depth step
~Well Information Block
STRT.FT               300.0000: 
STOP.FT               871.2000: 
STEP.FT                 0.1000: 
NULL.                -999.2500: 
COMP.          Pioneer Natural Resources: COMPANY
WELL.            Hustler 12-17: WELL
FLD.           Purgatoire River: FIELD
LOC.           2150' FNL & 450' FWL: LOCATION
PROV.                 Colorado: PROVINCE
CNTY.               Las Animas: COUNTRY
SRVC.                Patterson: SERVICE COMPANY
DATE.          Mon Dec 20 11:14:19 2004: LOG DATE
UWI.           05 071 08236 00: UNIQUE WELL ID
~Curve Information Block
DEPT.FT            0 000 00 00: Depth
DCAL.in                       : CDL Caliper
RHOB.g/cc                     : CDL Bulk Density
RHOC.g/cc                     : CDL Density Correction
DPOR.pu                       : CDL Density Porosity
NPOR.pu                       : Neutron Porosity
GR.GAPI                       : Gamma Ray
~Parameter Information Block
~A  Depth       DCAL        RHOB        RHOC        DPOR        NPOR         GR     
# ...
   444.0000      8.0111      2.4434      0.0268     12.5219     27.2752    136.3151
   444.1000      8.0111      2.4508      0.0237     12.0754     26.3774    136.7670
   444.2000      8.0111      2.4573      0.0814     11.6775     25.5690    134.8581
   444.3000      8.0114      2.4567      0.0651     11.7177     24.5510    132.7606
   444.4000      8.0114      2.4596      0.0818     11.5416     23.5447    133.9051
   444.5000      8.0096      2.4756      0.1350     10.5684     22.8568    137.0713
   444.6000      8.0096      2.4983      0.1470      9.1921     22.3411    139.3796
   444.7000      8.0096      2.5116      0.1394      8.3862     21.8813    140.7850
   444.8000      8.0053      2.5069      0.1156      8.6738     21.7475    138.6372
   444.9000      8.0053      2.4953      0.0712      9.3785     21.9818    130.7031
   445.0000      8.0019      2.4957      0.0643      9.3544     22.1269    121.9102
   445.1000      8.0019      2.5086      0.1009      8.5704     21.8667    117.8405
   445.2000      8.0019      2.5133      0.1137      8.2840     21.5446    118.3649
   445.3000      7.9995      2.5009      0.0563      9.0343     21.8199    119.7942
   445.4000      7.9995      2.4907      0.0420      9.6518     22.6054    116.3462
   445.5000      7.9916      2.4958      0.0595      9.3445     23.0002    108.0293
   445.6000      7.9916      2.5014      0.0712      9.0063     22.8693    104.1859
   445.7000      7.9916      2.4888      0.0686      9.7694     22.9857    110.6068
   445.8000      7.9769      2.4607      0.0011     11.4754     23.5281    118.6702
   445.9000      7.9769      2.4382     -0.0068     12.8339     24.0134    116.8921
   446.0000      7.9618      2.4386      0.0184     12.8128     24.1535    111.3395
   446.1000      7.9618      2.4687     -0.0029     10.9866     24.0686    112.3120
   446.2000      7.9618      2.5208      0.0831      7.8300     23.7412    116.7315
   446.3000      7.9558      2.5714      0.1197      4.7655     23.2180    117.4220
   446.4000      7.9558      2.6060      0.1059      2.6677     23.0545    114.2048
   446.5000      7.9562      2.6250      0.1371      1.5174     23.4765    108.9501
   446.6000      7.9562      2.6326      0.1318      1.0529     24.3502    100.7078
   446.7000      7.9562      2.6311      0.1495      1.1436     25.6024     92.0778
   446.8000      7.9569      2.6204      0.0888      1.7928     26.8113     88.4744
   446.9000      7.9569      2.6044      0.1096      2.7666     27.3490     89.6812
   447.0000      7.9581      2.5799      0.0769      4.2510     27.3087     92.7887
   447.1000      7.9581      2.5432     -0.0089      6.4747     27.2128     98.3688
   447.2000      7.9581      2.5093     -0.0512      8.5280     27.3409    104.9502
   447.3000      7.9633      2.4944     -0.0264      9.4321     27.7684    107.8500
   447.4000      7.9633      2.4934      0.0152      9.4914     28.2466    107.4250
   447.5000      7.9730      2.4946      0.0498      9.4177     28.3215    107.2702
   447.6000      7.9730      2.4942      0.0505      9.4405     27.8102    108.8810
   447.7000      7.9730      2.4919      0.0857      9.5837     26.9943    110.8503
   447.8000      7.9856      2.4821      0.1089     10.1727     26.2043    110.3391
   447.9000      7.9856      2.4557      0.1093     11.7753     25.6037    107.8193
   448.0000      8.0011      2.4195      0.0532     13.9686     25.2042    108.1069
   448.1000      8.0011      2.3942      0.0882     15.5005     24.8622    114.1854
   448.2000      8.0011      2.3871      0.0567     15.9358     24.7325    124.1859
   448.3000      8.0185      2.3903      0.0784     15.7364     24.9606    132.2032
   448.4000      8.0185      2.3953      0.0499     15.4364     25.0299    132.4723
   448.5000      8.0321      2.3993      0.0915     15.1966     24.6488    127.0416
   448.6000      8.0321      2.4099      0.0804     14.5526     24.3001    124.3266
   448.7000      8.0321      2.4399      0.0978     12.7336     24.1782    127.2621
   448.8000      8.0373      2.4799      0.1651     10.3114     24.1647    128.5837
   448.9000      8.0373      2.5093      0.1601      8.5275     24.3549    123.7651
   449.0000      8.0390      2.5301      0.1456      7.2656     24.7223    119.4738
   449.1000      8.0390      2.5466      0.1610      6.2641     25.0679    119.2581
   449.2000      8.0390      2.5460      0.1752      6.3031     25.2539    121.5271
   449.3000      8.0396      2.5214      0.1161      7.7929     25.3656    125.7316
   449.4000      8.0396      2.4901      0.0470      9.6938     25.5382    128.9009
   449.5000      8.0390      2.4757      0.0283     10.5626     25.8216    128.6118
   449.6000      8.0390      2.4795      0.0529     10.3324     26.1621    126.3231
   449.7000      8.0390      2.4819      0.0682     10.1867     26.2476    123.4818
   449.8000      8.0389      2.4768      0.0271     10.4971     25.9154    122.1884
   449.9000      8.0389      2.4779      0.0248     10.4304     25.4012    124.5123
   450.0000      8.0392      2.4907      0.0589      9.6559     25.0860    127.3298
   450.1000      8.0392      2.5072      0.0700      8.6540     25.0015    126.5377
   450.2000      8.0392      2.5215      0.0932      7.7849     24.9318    122.9634
   450.3000      8.0381      2.5307      0.0905      7.2314     24.8052    120.3184
   450.4000      8.0381      2.5360      0.0632      6.9086     24.5918    120.6221
   450.5000      8.0308      2.5400      0.0938      6.6693     24.5054    123.0876
   450.6000      8.0308      2.5340      0.0886      7.0308     24.5531    124.0585
   450.7000      8.0308      2.5138      0.0569      8.2575     24.4667    120.8072
   450.8000      8.0187      2.4936      0.0168      9.4813     24.3781    117.8152
   450.9000      8.0187      2.4858      0.0160      9.9529     24.5720    118.1923
   451.0000      8.0142      2.4862     -0.0008      9.9252     25.2413    116.7248
   451.1000      8.0142      2.4887      0.0056      9.7750     26.4294    113.0586
   451.2000      8.0142      2.4932      0.0621      9.5044     27.5740    116.0617
   451.3000      8.0222      2.4951      0.0784      9.3862     27.8122    126.0738
   451.4000      8.0222      2.4878      0.0540      9.8279     27.2276    131.6626
   451.5000      8.0398      2.4769     -0.0028     10.4899     26.7614    129.5554
   451.6000      8.0398      2.4773      0.0101     10.4644     26.7250    125.7038
   451.7000      8.0398      2.4837      0.0682     10.0813     26.5435    122.6175
   451.8000      8.0586      2.4697      0.0875     10.9275     25.7859    122.0844
   451.9000      8.0586      2.4340      0.0297     13.0896     24.7458    126.3526
   452.0000      8.0751      2.4067      0.0330     14.7462     23.8567    130.9799
   452.1000      8.0751      2.4068      0.0222     14.7383     23.1866    130.6219
   452.2000      8.0751      2.4204      0.0959     13.9165     22.5361    127.8892
   452.3000      8.0928      2.4234      0.0704     13.7351     21.8198    126.9420
   452.4000      8.0928      2.4153      0.0510     14.2236     21.2868    127.3025
   452.5000      8.1203      2.4090      0.0594     14.6087     21.0373    126.5142
   452.6000      8.1203      2.4068      0.0402     14.7394     20.7381    122.8624
   452.7000      8.1203      2.4024      0.0791     15.0035     20.1896    119.4727
   452.8000      8.1730      2.3922      0.0546     15.6263     19.5860    120.4326
   452.9000      8.1730      2.3817      0.0638     16.2579     19.1453    121.8562
   453.0000      8.2319      2.3771      0.0112     16.5400     18.9524    120.1735
   453.1000      8.2319      2.3799      0.0508     16.3708     18.8262    116.8003
   453.2000      8.2319      2.3879      0.0755     15.8824     18.7684    113.4067
   453.3000      8.2519      2.3913      0.0794     15.6809     18.8319    113.1958
   453.4000      8.2519      2.3762      0.0794     16.5960     18.8803    118.4940
   453.5000      8.2378      2.3416      0.0427     18.6888     18.9243    125.4275
