~Version Information
VERS.                      2.0: CWLS Log ASCII Standard - VERSION 2.0
WRAP.                       NO: One line per depth step
~Well Information Block
STRT.FT               472.0000: 
STOP.FT              2430.5000: 
STEP.FT                 0.2500: 
NULL.                -999.2500: 
COMP.          Pioneer Natural Resources: COMPANY
WELL.          Flying Horse 12-11: WELL
FLD.           Purgatoire River: FIELD
LOC.           2428' FNL & 308' FWL: LOCATION
PROV.                 Colorado: PROVINCE
CNTY.               Las Animas: COUNTRY
SRVC.                Patterson: SERVICE COMPANY
DATE.          Sun May 29 11:58:35 2005: LOG DATE
UWI.           05 071 08378 00: UNIQUE WELL ID
~Curve Information Block
DEPT.FT            0 000 00 00: Depth
SN.Ohm-m                      : IEL Short Normal
SP.mV                         : IEL Spontaneous Potential
DIR.Ohm-m                     : IEL Induction Resistivity
GR.GAPI                       : Gamma Ray
~Parameter Information Block
~A  Depth        SN          SP         DIR          GR     
# ...
   606.0000   2000.0000   2000.0000     43.6863     41.4325
   606.2500   2000.0000   2000.0000     42.8810     43.4957
   606.5000   2000.0000   2000.0000     41.6293     46.8264
   606.7500   2000.0000   2000.0000     39.9372     48.5939
   607.0000   2000.0000   2000.0000     37.9551     49.9143
   607.2500   2000.0000   2000.0000     35.9459     50.2007
   607.5000   2000.0000   2000.0000     34.1368     51.3418
   607.7500   2000.0000   2000.0000     32.5998     53.6692
   608.0000   2000.0000   2000.0000     31.2592     60.7318
   608.2500   2000.0000   2000.0000     29.9949     67.9371
   608.5000   2000.0000   2000.0000     28.7467     81.7712
   608.7500   2000.0000   2000.0000     27.5363     92.2577
   609.0000   2000.0000   2000.0000     26.4134    108.3257
   609.2500   2000.0000   2000.0000     25.3961    118.3083
   609.5000   2000.0000   2000.0000     24.4596    130.8555
   609.7500   2000.0000   2000.0000     23.5651    137.3443
   610.0000   2000.0000   2000.0000     22.6944    144.8847
   610.2500   2000.0000   2000.0000     21.8614    148.9722
   610.5000   2000.0000   2000.0000     21.0989    153.6275
   610.7500   2000.0000   2000.0000     20.4371    155.0981
   611.0000   2000.0000   2000.0000     19.8896    154.2021
   611.2500   2000.0000   2000.0000     19.4544    152.1296
   611.5000   2000.0000   2000.0000     19.1248    148.7581
   611.7500   2000.0000   2000.0000     18.9029    147.0221
   612.0000   2000.0000   2000.0000     18.8009    145.0460
   612.2500   2000.0000   2000.0000     18.8285    143.8420
   612.5000   2000.0000   2000.0000     18.9732    141.9361
   612.7500   2000.0000   2000.0000     19.1892    140.3189
   613.0000   2000.0000   2000.0000     19.4102    136.5104
   613.2500   2000.0000   2000.0000     19.5790    132.8764
   613.5000   2000.0000   2000.0000     19.6743    126.9016
   613.7500   2000.0000   2000.0000     19.7119    123.5616
   614.0000   2000.0000   2000.0000     19.7274    120.1526
   614.2500   2000.0000   2000.0000     19.7583    118.5742
   614.5000   2000.0000   2000.0000     19.8353    116.6237
   614.7500   2000.0000   2000.0000     19.9783    115.7148
   615.0000   2000.0000   2000.0000     20.1914    115.3918
   615.2500   2000.0000   2000.0000     20.4595    115.8627
   615.5000   2000.0000   2000.0000     20.7521    117.2111
   615.7500   2000.0000   2000.0000     21.0342    118.3540
   616.0000   2000.0000   2000.0000     21.2789    120.2348
   616.2500   2000.0000   2000.0000     21.4747    121.4113
   616.5000   2000.0000   2000.0000     21.6250    122.5491
   616.7500   2000.0000   2000.0000     21.7439    122.6440
   617.0000   2000.0000   2000.0000     21.8523    121.8804
   617.2500   2000.0000   2000.0000     21.9734    121.2259
   617.5000   2000.0000   2000.0000     22.1306    121.0794
   617.7500   2000.0000   2000.0000     22.3435    121.8604
   618.0000   2000.0000   2000.0000     22.6232    123.9843
   618.2500   2000.0000   2000.0000     22.9688    125.5233
   618.5000   2000.0000   2000.0000     23.3677    127.3201
   618.7500   2000.0000   2000.0000     23.8020    127.9533
   619.0000   2000.0000   2000.0000     24.2573    127.7446
   619.2500   2000.0000   2000.0000     24.7294    126.7735
   619.5000   2000.0000   2000.0000     25.2257    124.5922
   619.7500   2000.0000   2000.0000     25.7591    123.1671
   620.0000   2000.0000   2000.0000     26.3377    121.4149
   620.2500   2000.0000   2000.0000     26.9564    120.2498
   620.5000   2000.0000   2000.0000     27.6002    117.9653
   620.7500   2000.0000   2000.0000     28.2582    115.9811
   621.0000   2000.0000   2000.0000     28.9368    112.2407
   621.2500   2000.0000   2000.0000     29.6567    109.1115
   621.5000   2000.0000   2000.0000     30.4302    103.4063
   621.7500   2000.0000   2000.0000     31.2373     99.1661
   622.0000   2000.0000   2000.0000     32.0193     92.8588
   622.2500   2000.0000   2000.0000     32.6984     89.0760
   622.5000   2000.0000   2000.0000     33.2113     84.4814
   622.7500   2000.0000   2000.0000     33.5259     82.2428
   623.0000   2000.0000   2000.0000     33.6287     79.9820
   623.2500   2000.0000   2000.0000     33.4985     78.9837
   623.5000   2000.0000   2000.0000     33.0995     77.8081
   623.7500   2000.0000   2000.0000     32.4023     77.0993
   624.0000   2000.0000   2000.0000     31.4100     76.5603
   624.2500   2000.0000   2000.0000     30.1687     77.3617
   624.5000   2000.0000   2000.0000     28.7572     82.2432
   624.7500   2000.0000   2000.0000     27.2705     88.7243
   625.0000   2000.0000   2000.0000     25.8067    102.7739
   625.2500   2000.0000   2000.0000     24.4532    113.5844
   625.5000   2000.0000   2000.0000     23.2688    128.8175
   625.7500   2000.0000   2000.0000     22.2712    136.9988
   626.0000   2000.0000   2000.0000     21.4389    145.5953
   626.2500   2000.0000   2000.0000     20.7296    149.0546
   626.5000   2000.0000   2000.0000     20.1033    151.5372
   626.7500   2000.0000   2000.0000     19.5345    151.9514
   627.0000   2000.0000   2000.0000     19.0074    151.7309
   627.2500   2000.0000   2000.0000     18.5068    151.3736
   627.5000   2000.0000   2000.0000     18.0182    150.4851
   627.7500   2000.0000   2000.0000     17.5407    149.4940
   628.0000   2000.0000   2000.0000     17.0967    147.5554
   628.2500   2000.0000   2000.0000     16.7253    146.3720
   628.5000   2000.0000   2000.0000     16.4604    145.3751
   628.7500   2000.0000   2000.0000     16.3100    145.1781
   629.0000   2000.0000   2000.0000     16.2455    144.9881
   629.2500   2000.0000   2000.0000     16.2094    144.6671
   629.5000   2000.0000   2000.0000     16.1403    143.8592
   629.7500   2000.0000   2000.0000     16.0081    143.1708
   630.0000   2000.0000   2000.0000     15.8352    141.9201
   630.2500   2000.0000   2000.0000     15.6841    140.9263
   630.5000   2000.0000   2000.0000     15.6188    139.3100
   630.7500   2000.0000   2000.0000     15.6708    138.2460
   631.0000   2000.0000   2000.0000     15.8321    136.5348
   631.2500   2000.0000   2000.0000     16.0706    135.0256
   631.5000   2000.0000   2000.0000     16.3515    131.8486
   631.7500   2000.0000   2000.0000     16.6472    129.3007
   632.0000   2000.0000   2000.0000     16.9354    125.7838
   632.2500   2000.0000   2000.0000     17.1996    124.2571
   632.5000   2000.0000   2000.0000     17.4339    123.7441
   632.7500   2000.0000   2000.0000     17.6434    124.4375
   633.0000   2000.0000   2000.0000     17.8356    126.0299
   633.2500   2000.0000   2000.0000     18.0107    126.7169
   633.5000   2000.0000   2000.0000     18.1627    126.4012
   633.7500   2000.0000   2000.0000     18.2913    125.3214
   634.0000   2000.0000   2000.0000     18.4097    122.9996
   634.2500   2000.0000   2000.0000     18.5413    121.3945
   634.5000   2000.0000   2000.0000     18.7058    119.5179
   634.7500   2000.0000   2000.0000     18.9082    118.9206
   635.0000   2000.0000   2000.0000     19.1377    119.2210
   635.2500   2000.0000   2000.0000     19.3773    120.0096
   635.5000   2000.0000   2000.0000     19.6163    121.3100
   635.7500   2000.0000   2000.0000     19.8593    121.9643
   636.0000   2000.0000   2000.0000     20.1259    122.8057
   636.2500   2000.0000   2000.0000     20.4429    123.4672
   636.5000   2000.0000   2000.0000     20.8320    124.2799
   636.7500   2000.0000   2000.0000     21.3000    124.1780
   637.0000   2000.0000   2000.0000     21.8302    122.5055
   637.2500   2000.0000   2000.0000     22.3787    120.5531
   637.5000   2000.0000   2000.0000     22.8805    117.1123
   637.7500   2000.0000   2000.0000     23.2765    114.7546
   638.0000   2000.0000   2000.0000     23.5538    111.1745
   638.2500   2000.0000   2000.0000     23.7663    108.7791
   638.5000   2000.0000   2000.0000     24.0126    105.3521
   638.7500   2000.0000   2000.0000     24.3839    103.1573
   639.0000   2000.0000   2000.0000     24.9200     99.6418
   639.2500   2000.0000   2000.0000     25.5947     97.0445
