~Version Information
VERS.                      2.0: CWLS Log ASCII Standard - VERSION 2.0
WRAP.                       NO: One line per depth step
~Well Information Block
STRT.FT                -6.5000: 
STOP.FT              2698.5000: 
STEP.FT                 0.2500: 
NULL.                -999.2500: 
COMP.          Pioneer Natural Resources: COMPANY
WELL.              Cluck 21-25: WELL
FLD.           Purgatorie River: FIELD
LOC.           91' FNL & 1834' FWL--: LOCATION
PROV.                       CO: PROVINCE
CNTY.               Las Animas: COUNTRY
SRVC.          Patterson Wireline: SERVICE COMPANY
DATE.          Mon Jun 13 14:54:35 2005: LOG DATE
UWI.           05 071 08397 00: UNIQUE WELL ID
~Curve Information Block
DEPT.FT            0 000 00 00: Depth
CCL.                          : Casing Collar Locator
TT3.usec                      : CBL 3' Travel Time
AMP3.mV                       : CBL 3' Amplitude
GR.GAPI                       : Gamma Ray
~Parameter Information Block
~A  Depth       CCL         TT3         AMP3         GR     
# ...
   362.0000      0.0000    788.6364      9.9155     90.8501
   362.2500      0.0000    788.7643      9.8999     85.4176
   362.5000      0.0000    788.3858      9.8911     81.4925
   362.7500      0.0000    786.0795      9.8626     80.8249
   363.0000      0.0000    778.4832      9.8311     83.7148
   363.2500      0.0000    760.0736      9.8200     88.9611
   363.5000      0.0000    725.9467      9.8248     94.9217
   363.7500      0.0000    677.7727      9.8169    100.4281
   364.0000      0.0000    627.6919      9.7756    104.7041
   364.2500      0.0000    593.7614      9.7088    107.1694
   364.5000      0.0000    588.0230      9.6417    107.8161
   364.7500      0.0000    607.1913      9.5931    107.3571
   365.0000      0.0000    635.1277      9.5640    106.6115
   365.2500      0.0000    655.7311      9.5440    105.9069
   365.5000      0.0000    664.1766      9.5237    105.1187
   365.7500      0.0000    665.7137      9.5020    104.1411
   366.0000      0.0000    666.1075      9.4787    103.3560
   366.2500      0.0000    667.0186      9.4402    103.4995
   366.5000      0.0000    670.5515      9.3572    104.7186
   366.7500      0.0000    682.9081      9.2029    105.9346
   367.0000      0.0000    708.9774      8.9791    105.5755
   367.2500      0.0000    745.3740      8.7332    102.8521
   367.5000      0.0000    782.3121      8.5423     98.1620
   367.7500      0.0000    811.1686      8.4567     92.7461
   368.0000      0.0000    829.1006      8.4484     88.3385
   368.2500      0.0000    838.9870      8.4271     86.6445
   368.5000      2.0000    845.7751      8.3144     88.2646
   368.7500      0.0000    851.2908      8.1007     92.0622
   369.0000      0.0000    852.5538      7.8599     96.0756
   369.2500      0.0000    846.0582      7.7389     99.1505
   369.5000      0.0000    832.8413      7.9111    101.3929
   369.7500      0.0000    818.2422      8.4684    103.2678
   370.0000      0.0000    807.2057      9.3213    104.8821
   370.2500      0.0000    800.8081     10.2326    106.2568
   370.5000      0.0000    797.2546     10.9724    107.6946
   370.7500      0.0000    794.7838     11.4363    109.3715
   371.0000      0.0000    792.8792     11.6382    110.8303
   371.2500      0.0000    791.6093     11.6448    111.4085
   371.5000      0.0000    790.9149     11.5302    111.1392
   371.7500      0.0000    790.6037     11.3624    110.6411
   372.0000      0.0000    790.4936     11.1938    109.9907
   372.2500      0.0000    790.4515     11.0520    108.4135
   372.5000      0.0000    790.3622     10.9368    105.3655
   372.7500      0.0000    790.1563     10.8290    101.3870
   373.0000      0.0000    789.8120     10.7068     97.6094
   373.2500      0.0000    789.2992     10.5605     94.7802
   373.5000      0.0000    788.2127     10.3983     92.8837
   373.7500      0.0000    785.1349     10.2459     91.4006
   374.0000      0.0000    777.0963     10.1374     89.8777
   374.2500      0.0000    760.7514     10.1025     88.5497
   374.5000      0.0000    736.6083     10.1564     88.4061
   374.7500      0.0000    713.1191     10.2982     90.3990
   375.0000      0.0000    703.2965     10.5131     94.4303
   375.2500      0.0000    713.5884     10.7761     98.9582
   375.5000      0.0000    737.3348     11.0568    101.6286
   375.7500      0.0000    761.4289     11.3244    100.7655
   376.0000      0.0000    777.4742     11.5512     96.6232
   376.2500      0.0000    785.0879     11.7162     91.0808
   376.5000      0.0000    787.6997     11.8137     86.0936
   376.7500      0.0000    788.3056     11.8591     82.6061
   377.0000      0.0000    788.3544     11.8821     80.6197
   377.2500      0.0000    788.3214     11.9099     79.6058
   377.5000      0.0000    788.3118     11.9531     78.7338
   377.7500      0.0000    788.3685     12.0056     77.2732
   378.0000      0.0000    788.5018     12.0547     75.2875
   378.2500      0.0000    788.6927     12.0908     73.8461
   378.5000      0.0000    788.8973     12.1118     74.0951
   378.7500      0.0000    789.1878     12.1234     75.9567
   379.0000      0.0000    790.0112     12.1343     77.9999
   379.2500      0.0000    792.3503     12.1477     78.6349
   379.5000      0.0000    797.2229     12.1595     77.2660
   379.7500      0.0000    803.9272     12.1645     74.5074
   380.0000      0.0000    807.8388     12.1637     71.5849
   380.2500      0.0000    800.3604     12.1625     69.3128
   380.5000      0.0000    773.0378     12.1660     67.4321
   380.7500      0.0000    725.0240     12.1776     65.1372
   381.0000      0.0000    669.4194     12.1970     62.2416
   381.2500      0.0000    630.5689     12.2181     59.6464
   381.5000      0.0000    628.5226     12.2338     58.7908
   381.7500      0.0000    662.7678     12.2438     60.5961
   382.0000      0.0000    714.0152     12.2526     64.5062
   382.2500      0.0000    762.4713     12.2572     68.5646
   382.5000      0.0000    800.9269     12.2428     70.9186
   382.7500      0.0000    831.3005     12.1948     71.1636
   383.0000      0.0000    854.9422     12.1105     69.8903
   383.2500      0.0000    869.5803     11.9997     67.5252
   383.5000      0.0000    873.3900     11.8777     64.3004
   383.7500      0.0000    869.3021     11.7595     60.8858
   384.0000      0.0000    864.7270     11.6521     58.3270
   384.2500      0.0000    866.5521     11.5433     57.3824
   384.5000      0.0000    875.7202     11.4024     58.1940
   384.7500      0.0000    886.5820     11.2035     60.3910
   385.0000      0.0000    891.1789     10.9555     63.1133
   385.2500      0.0000    884.2339     10.7106     64.9608
   385.5000      0.0000    865.9384     10.5381     64.5630
   385.7500      0.0000    841.7965     10.4825     61.7969
   386.0000      0.0000    819.3353     10.5363     58.2515
   386.2500      0.0000    803.5909     10.6495     55.8675
   386.5000      0.0000    795.1178     10.7678     55.0924
   386.7500      0.0000    791.6075     10.8683     54.8646
   387.0000      0.0000    790.4933     10.9644     54.3452
   387.2500      0.0000    790.1746     11.0793     53.9580
   387.5000      0.0000    789.9442     11.2182     54.5283
   387.7500      0.0000    789.6046     11.3592     56.0675
   388.0000      0.0000    789.2169     11.4689     57.8722
   388.2500      0.0000    788.9168     11.5250     59.4578
   388.5000      0.0000    788.7858     11.5330     60.8418
   388.7500      0.0000    788.8015     11.5236     61.8736
   389.0000      0.0000    788.8691     11.5253     61.8279
   389.2500      0.0000    788.8574     11.5297     60.0209
   389.5000      0.0000    788.5941     11.4844     56.7050
   389.7500      0.0000    787.8225     11.3329     53.0813
   390.0000      0.0000    786.2711     11.0740     50.4713
   390.2500      0.0000    784.0048     10.7853     49.6126
   390.5000      0.0000    781.7958     10.5780     50.5984
   390.7500      0.0000    780.8295     10.5166     53.2031
   391.0000      0.0000    781.7036     10.5775     57.2209
   391.2500      0.0000    783.8383     10.6773     62.4690
   391.5000      0.0000    786.0794     10.7343     68.4162
   391.7500      0.0000    787.6941     10.7082     74.1715
   392.0000      0.0000    788.6506     10.6062     79.1230
   392.2500      0.0000    789.3027     10.4754     83.2050
   392.5000      0.0000    790.1760     10.3889     86.2481
   392.7500      0.0000    792.0321     10.4124     87.5910
   393.0000      0.0000    795.6769     10.5597     86.7527
   393.2500      0.0000    801.0249     10.7783     84.0072
   393.5000      0.0000    806.0807     10.9851     79.8509
   393.7500      0.0000    807.5198     11.1184     74.3265
   394.0000      0.0000    803.1623     11.1597     67.4047
   394.2500      0.0000    793.8976     11.1219     59.8034
   394.5000      0.0000    782.9420     11.0295     53.0150
   394.7500      0.0000    773.4295     10.9083     48.4529
   395.0000      0.0000    766.6254     10.7833     46.5614
   395.2500      0.0000    761.8732     10.6809     46.5751
