~Version Information
VERS.                      2.0: CWLS Log ASCII Standard - VERSION 2.0
WRAP.                       NO: One line per depth step
~Well Information Block
STRT.FT               -14.0000: 
STOP.FT              2565.5000: 
STEP.FT                 0.5000: 
NULL.                -999.2500: 
COMP.          Pioneer Natural Resources: COMPANY
WELL.             Carbon 34-21: WELL
FLD.           Purgatorie River: FIELD
LOC.           56' FSL & 2304' FEL: LOCATION
PROV.                 Colorado: PROVINCE
CNTY.               Las Animas: COUNTRY
SRVC.          Patterson Wireline: SERVICE COMPANY
DATE.          Mon Nov 08 08:55:10 2004: LOG DATE
UWI.           05-071-08117-00: UNIQUE WELL ID
~Curve Information Block
DEPT.FT            0 000 00 00: Depth
TT3.usec                      : CBL 3' Travel Time
AMP3.mV                       : CBL 3' Amplitude
GR.GAPI                       : Gamma Ray
CCL.                          : Casing Collar Locator
~Parameter Information Block
~A  Depth       TT3         AMP3         GR         CCL     
# ...
  1996.0000    691.8250      2.9661    161.3639      0.0000
  1996.5000    664.9146      2.8342    146.8601      0.0000
  1997.0000    584.0978      2.8226    131.9240      0.0000
  1997.5000    475.7165      2.9603    119.8670      0.0000
  1998.0000    408.9545      3.0180    105.9139      0.0000
  1998.5000    390.6885      3.0411     97.7313      0.0000
  1999.0000    397.0910      3.0879    104.7009      0.0000
  1999.5000    417.9451      3.0559    118.7693      0.0000
  2000.0000    445.1527      2.9056    130.8361      0.0000
  2000.5000    495.6487      2.7230    140.2649      0.0000
  2001.0000    577.1286      2.5548    150.0582      0.0000
  2001.5000    625.1108      2.4069    157.1461      0.0000
  2002.0000    626.4487      2.3778    162.7283      0.0000
  2002.5000    639.1215      2.4492    168.2362      0.0000
  2003.0000    660.5513      2.5288    166.4401      0.0000
  2003.5000    669.9603      2.5316    168.1685      0.0000
  2004.0000    672.2317      2.4424    176.3184      0.0000
  2004.5000    672.4858      2.3727    179.3405      0.0000
  2005.0000    666.7603      2.3784    175.7727      0.0000
  2005.5000    635.7111      2.3740    171.9908      0.0000
  2006.0000    568.5682      2.3416    173.6231      0.0000
  2006.5000    504.2477      2.3567    174.0511      0.0000
  2007.0000    465.7609      2.4335    160.9373      0.0000
  2007.5000    437.8128      2.6109    141.3459      0.0000
  2008.0000    413.9160      2.7991    130.5153      0.0000
  2008.5000    404.5660      2.8431    132.7449      0.0000
  2009.0000    412.8503      2.6855    139.4581      0.0000
  2009.5000    421.0082      2.4894    136.4861      0.0000
  2010.0000    422.0074      2.4916    118.6724      0.0000
  2010.5000    419.5869      2.5990     95.8090      0.0000
  2011.0000    417.2046      2.5857     87.7697      0.0000
  2011.5000    420.0001      2.4957     97.8989      0.0000
  2012.0000    424.1812      2.5113    114.0912      0.0000
  2012.5000    428.3617      2.6113    127.5149      0.0000
  2013.0000    435.1628      2.6172    134.3651      0.0000
  2013.5000    452.9377      2.5837    133.7125      0.0000
  2014.0000    483.2188      2.5419    129.5081      0.0000
  2014.5000    486.1382      2.5275    125.8090      0.0000
  2015.0000    472.0912      2.6432    122.8658      0.0000
  2015.5000    489.9336      2.6507    122.0287      4.0009
  2016.0000    545.4498      2.5100    128.3800      0.0000
  2016.5000    616.3660      2.5922    132.0156      0.0000
  2017.0000    659.9148      2.8464    137.3103      0.0000
  2017.5000    681.8500      2.8979    154.5090      0.0000
  2018.0000    695.7472      2.8043    164.5631      0.0000
  2018.5000    698.3800      2.6945    165.1978      0.0000
  2019.0000    693.7870      2.6278    167.0610      0.0000
  2019.5000    691.4719      2.6050    168.9947      0.0000
  2020.0000    694.6531      2.5485    166.2151      0.0000
  2020.5000    700.2689      2.5039    158.9642      0.0000
  2021.0000    701.2253      2.5203    153.1737      0.0000
  2021.5000    699.5306      2.5722    153.6987      0.0000
  2022.0000    701.9078      2.6347    154.6628      0.0000
  2022.5000    704.4647      2.6486    152.8206      0.0000
  2023.0000    703.4061      2.6784    151.3046      0.0000
  2023.5000    700.3693      2.8206    154.1532      0.0000
  2024.0000    702.3031      3.0476    163.7767      0.0000
  2024.5000    708.8550      3.3759    170.2630      0.0000
  2025.0000    713.1934      3.6932    167.8278      0.0000
  2025.5000    715.0498      3.8765    163.1949      0.0000
  2026.0000    715.6387      3.8936    162.2862      0.0000
  2026.5000    715.0509      3.6791    163.2511      0.0000
  2027.0000    712.7432      3.2373    162.0005      0.0000
  2027.5000    708.9121      2.8237    157.5598      0.0000
  2028.0000    703.9294      2.6798    150.0837      0.0000
  2028.5000    687.8916      2.6751    142.5258      0.0000
  2029.0000    633.6925      2.6125    135.5759      0.0000
  2029.5000    541.2264      2.5053    128.2349      0.0000
  2030.0000    472.0700      2.4827    121.2399      0.0000
  2030.5000    449.4943      2.5964    121.8437      0.0000
  2031.0000    445.1489      2.7299    126.7982      0.0000
  2031.5000    445.0020      2.7753    127.4688      0.0000
  2032.0000    454.3408      2.7408    131.7966      0.0000
  2032.5000    498.5134      2.6473    140.5797      0.0000
  2033.0000    585.7950      2.5133    145.4818      0.0000
  2033.5000    659.6652      2.4627    146.1048      0.0000
  2034.0000    686.3943      2.5206    144.7508      0.0000
  2034.5000    685.5812      2.5422    145.7728      0.0000
  2035.0000    684.7941      2.4409    150.0470      0.0000
  2035.5000    692.4696      2.2468    158.3592      0.0000
  2036.0000    701.4654      2.0594    174.1996      0.0000
  2036.5000    706.1693      1.9759    181.9464      0.0000
  2037.0000    707.1396      1.9699    176.4784      0.0000
  2037.5000    706.4655      1.9850    172.2405      0.0000
  2038.0000    705.2891      2.0065    174.4294      0.0000
  2038.5000    702.9996      2.0116    176.0333      0.0000
  2039.0000    699.4542      2.0789    172.0535      0.0000
  2039.5000    700.7594      2.2101    170.3631      0.0000
  2040.0000    706.2976      2.2645    171.5999      0.0000
  2040.5000    709.2438      2.2204    170.8855      0.0000
  2041.0000    709.3992      2.2475    168.4525      0.0000
  2041.5000    708.7711      2.3237    161.8580      0.0000
  2042.0000    707.7160      2.4076    150.1006      0.0000
  2042.5000    697.4272      2.4898    135.9876      0.0000
  2043.0000    652.5782      2.4907    127.1677      0.0000
  2043.5000    568.3059      2.4654    123.5482      0.0000
  2044.0000    493.3481      2.4810    119.3810      0.0000
  2044.5000    453.5736      2.5148    109.1656      0.0000
  2045.0000    437.5691      2.5446     99.5321      0.0000
  2045.5000    432.0199      2.5225     99.9221      0.0000
  2046.0000    429.4221      2.4286    104.2584      0.0000
  2046.5000    427.1110      2.3286    104.8839      0.0000
  2047.0000    424.8864      2.2646     98.6813      0.0000
  2047.5000    423.4657      2.2581     91.5377      0.0000
  2048.0000    423.1899      2.2721     89.3441      0.0000
  2048.5000    423.8360      2.2872     92.4825      0.0000
  2049.0000    424.9514      2.3061     92.1686      0.0000
  2049.5000    426.0532      2.2738     89.7028      0.0000
  2050.0000    434.9111      2.2147     95.2331      0.0000
  2050.5000    484.0402      2.2231     98.2153      0.0000
  2051.0000    583.4633      2.3582     88.8642      0.0000
  2051.5000    661.3152      2.4869     85.5384      0.0000
  2052.0000    681.4703      2.5057     98.2850      0.0000
  2052.5000    676.6020      2.5139    110.0574      0.0000
  2053.0000    671.3724      2.5490    113.3501      0.0000
  2053.5000    672.9604      2.6306    114.2387      0.0000
  2054.0000    678.3732      2.7066    117.2178      0.0000
  2054.5000    680.0350      2.6426    123.1193      0.0000
  2055.0000    680.9672      2.4521    125.1767      0.0000
  2055.5000    687.5068      2.3295    122.9948      0.0000
  2056.0000    687.3977      2.3529    130.0661      0.0000
  2056.5000    679.5118      2.4235    141.8358      0.0000
  2057.0000    682.9595      2.4918    137.1655      0.0000
  2057.5000    691.5627      2.6049    115.8806      0.0000
  2058.0000    680.0569      2.6673    101.4861      4.3781
  2058.5000    623.8777      2.6687    104.1534      0.0000
  2059.0000    563.2249      2.6923    110.6540      0.0000
  2059.5000    517.9437      2.6869    107.7067      0.0000
  2060.0000    454.1012      2.7341    101.0295      0.0000
  2060.5000    415.7104      2.8841     91.6184      0.0000
  2061.0000    402.6244      3.0373     79.9832      0.0000
  2061.5000    403.3249      3.2026     75.1126      0.0000
  2062.0000    457.6208      3.1716     86.4926      0.0000
  2062.5000    570.5671      2.8478    110.3342      0.0000
