~Version Information
VERS.                      2.0: CWLS Log ASCII Standard - VERSION 2.0
WRAP.                       NO: One line per depth step
~Well Information Block
STRT.FT               840.0000: 
STOP.FT              2448.5000: 
STEP.FT                 0.2500: 
NULL.                -999.2500: 
COMP.          Petrogulf Corporation: COMPANY
WELL.             Leier 17-42V: WELL
FLD.           Purgatorie River: FIELD
LOC.           2309' FNL & 1062' FEL SENE 17 33S 67W: LOCATION
PROV.                 Colorado: PROVINCE
CNTY.               Las Animas: COUNTRY
SRVC.                Patterson: SERVICE COMPANY
DATE.          Thu Sep 22 09:40:29 2005: LOG DATE
UWI.                 071 08409: UNIQUE WELL ID
~Curve Information Block
DEPT.FT            0 000 00 00: Depth
SP.mV                         : DIL Spontaneous Potential
RILD.Ohm-m                    : DIL Deep Resistivity
RILM.Ohm-m                    : DIL Medium Resistivity
RLL3.Ohm-m                    : DIL Shallow Resistivity
GR.GAPI                       : Gamma Ray
~Parameter Information Block
~A  Depth        SP         RILD        RILM        RLL3         GR     
# ...
  2212.0000    192.1739     24.6901     29.3636     35.8671     44.1526
  2212.2500    192.5833     24.6158     29.6288     31.3454     45.5679
  2212.5000    193.0139     24.5745     28.9259     28.2397     37.3535
  2212.7500    193.3794     24.7632     28.4609     27.1533     38.2659
  2213.0000    193.6011     24.8555     27.8147     27.2331     34.3855
  2213.2500    193.6914     24.5082     27.6701     27.3749     38.3046
  2213.5000    193.7155     24.6680     27.9977     26.5946     39.8965
  2213.7500    193.7160     24.0648     28.4433     26.5254     38.2965
  2214.0000    193.6659     24.1549     28.1015     27.2105     35.9518
  2214.2500    193.7951     23.8088     28.1118     28.1854     44.6189
  2214.5000    194.1499     23.2729     28.4431     28.7154     56.6737
  2214.7500    194.7717     22.8066     28.5544     29.0501     48.1069
  2215.0000    195.5694     21.9354     28.9913     29.5019     42.1277
  2215.2500    196.3883     21.2755     28.6565     29.8334     35.9968
  2215.5000    197.5538     20.2686     27.9156     30.0404     42.0949
  2215.7500    199.0189     19.2751     27.9121     30.7681     35.8045
  2216.0000    200.9010     18.3979     26.4005     31.0021     42.0949
  2216.2500    203.1673     17.0459     24.5547     30.7900     44.6969
  2216.5000    205.6904     16.1797     21.7878     31.9273     40.6152
  2216.7500    208.7133     15.5702     19.1841     32.6970     38.9537
  2217.0000    211.9129     15.0851     16.6233     30.2502     38.8937
  2217.2500    214.8824     14.3115     14.3656     22.0487     30.2272
  2217.5000    217.1169     13.7400     12.9177     13.5171     42.4912
  2217.7500    218.4673     13.2140     11.8740     10.6994     58.9468
  2218.0000    219.2398     12.7643     11.3561     10.6793     76.3344
  2218.2500    219.6678     12.3691     11.0701     11.3745     84.3139
  2218.5000    220.0258     11.9257     11.0397     12.2603     72.5544
  2218.7500    220.3408     11.3434     11.0236     12.9511     84.1983
  2219.0000    220.5281     10.7397     10.8927     13.2071     80.9789
  2219.2500    220.7368     10.3376     10.7163     13.7824     80.1256
  2219.5000    220.9787     10.1695     10.4410     14.5274     69.7010
  2219.7500    221.2809     10.1530     10.1651     14.1298     69.7619
  2220.0000    221.6548     10.2826      9.9282     12.9015     63.2004
  2220.2500    222.1281     10.3725      9.8775     12.0899     61.5251
  2220.5000    222.5037     10.3370      9.9937     10.7325     73.3951
  2220.7500    222.8892     10.5326     10.2786      9.8103     70.9250
  2221.0000    223.2849     11.0229     10.8467      9.4807     91.9331
  2221.2500    223.5192     11.3592     11.5233      9.4181    105.9053
  2221.5000    223.6465     11.8867     12.5226      9.1928     80.6426
  2221.7500    223.4872     11.9151     13.6156      9.2209     74.0928
  2222.0000    223.1219     11.8138     14.6060      9.4214     83.7165
  2222.2500    222.5717     11.6827     15.3294      9.8067     74.1563
  2222.5000    221.8271     11.4513     15.9022     10.3176     80.2813
  2222.7500    220.8698     11.2938     15.7979     10.7363     88.4238
  2223.0000    219.7342     10.8508     15.3093     10.9511     80.4440
  2223.2500    218.4921     10.6268     14.1930     11.6330     72.2969
  2223.5000    217.2030     10.3670     13.0905     14.3476     65.2703
  2223.7500    216.0471     10.3257     12.0560     19.4457     90.4071
  2224.0000    214.7985     10.2100     11.1450     23.2430     75.1437
  2224.2500    213.6643     10.2704     10.4520     20.5609     71.8357
  2224.5000    212.6759     10.2846      9.9180     14.1146     64.2789
  2224.7500    211.7764     10.2964      9.4645     10.4948     73.1337
  2225.0000    211.0034     10.1441      9.3135      8.9996     97.2250
  2225.2500    210.3164     10.2963      9.3505      8.7017     86.7036
  2225.5000    209.5787     10.7666      9.6728      8.5129     91.1062
  2225.7500    208.7740     11.0658     10.1731      9.0712     80.0752
  2226.0000    207.7179     11.2475     10.8940     10.6759     73.9245
  2226.2500    206.4633     11.2999     11.6586     13.7741     82.6210
  2226.5000    205.2990     11.2167     12.1651     19.0616     91.4715
  2226.7500    204.3659     11.2237     12.8912     24.7538     63.4340
  2227.0000    203.5706     11.3564     13.4193     28.5284     61.3071
  2227.2500    203.0171     13.0106     13.7043     26.5822     64.4281
  2227.5000    202.5416     13.1412     13.5783     20.8986     40.7541
  2227.7500    201.9972     12.9169     13.5963     16.6397     37.2357
  2228.0000    201.4021     13.3983     13.7030     14.6412     50.9388
  2228.2500    200.7661     13.8946     14.0552     14.1307     50.8264
  2228.5000    200.1253     14.7037     14.6863     14.3180     53.1416
  2228.7500    199.5157     15.2499     15.8524     16.2884     71.0224
  2229.0000    199.1434     15.6147     15.9957     18.5596     60.8174
  2229.2500    198.8596     15.7794     16.0464     18.5223     61.5459
  2229.5000    198.6319     15.7643     16.6490     17.9387     56.2016
  2229.7500    198.3864     15.8905     17.0146     19.0127     54.9231
  2230.0000    197.9849     15.9635     17.4172     22.8181     68.2750
  2230.2500    197.3698     16.5924     17.8954     26.8132     65.6083
  2230.5000    196.6401     16.4316     18.7291     24.5761     70.6330
  2230.7500    195.7294     16.4517     19.1637     19.0178     63.3702
  2231.0000    194.8577     16.7966     17.4151     19.6637     52.0752
  2231.2500    194.0488     16.7012     18.6306     28.0176     52.5861
  2231.5000    193.3596     16.7975     20.4549     36.7499     62.9161
  2231.7500    192.9178     16.6208     20.5119     37.5742     64.2401
  2232.0000    192.7632     16.7590     19.9649     33.7926     56.7527
  2232.2500    192.7092     16.6342     19.1569     29.4499     66.3984
  2232.5000    192.7259     16.2082     18.1103     25.8692     59.5968
  2232.7500    192.7369     16.2959     17.0944     23.8762     65.6777
  2233.0000    192.7442     16.3278     16.5488     21.6867     51.6557
  2233.2500    192.7380     16.3624     15.9311     18.0896     45.7345
  2233.5000    192.7497     16.5419     15.5475     15.8621     66.5669
  2233.7500    192.8599     16.6792     15.4588     15.1830     73.1791
  2234.0000    193.0096     17.1206     15.6368     15.8058     81.3519
  2234.2500    193.1420     17.2962     16.1155     15.7873     73.0752
  2234.5000    193.2074     17.5108     16.9640     14.8729     67.2444
  2234.7500    193.1463     17.8205     18.2454     16.8203     72.7555
  2235.0000    192.9939     17.8620     19.7438     22.5362     81.4419
  2235.2500    192.9116     18.1232     21.1957     27.4854     75.8389
  2235.5000    192.9335     18.2831     22.9634     31.4917     55.7092
  2235.7500    193.1376     18.7895     24.4219     40.2485     49.5238
  2236.0000    193.4213     18.9787     25.2202     58.9747     46.1277
  2236.2500    193.7654     19.5550     25.5520     81.7058     50.5881
  2236.5000    194.1671     19.9023     26.0625     90.0285     40.6010
  2236.7500    194.7927     20.6926     25.5187     72.7617     40.5768
  2237.0000    195.4884     21.5513     24.5989     47.6645     22.5478
  2237.2500    196.2173     22.3749     24.2201     31.1743     17.9216
  2237.5000    196.8974     22.7802     23.9462     23.4124     34.5323
  2237.7500    197.6053     24.0461     23.8985     22.9790     57.8040
  2238.0000    198.3674     24.3670     24.1277     25.6437     58.1039
  2238.2500    199.1286     25.1762     24.4149     26.6085     46.0100
  2238.5000    199.8185     23.6313     24.9729     26.4551     46.5453
  2238.7500    200.3920     22.9911     25.8017     26.7048     57.4520
  2239.0000    200.8717     23.1803     26.2547     27.5054     50.4792
  2239.2500    201.1712     23.0531     26.2708     28.3282     48.4727
  2239.5000    201.4086     22.6833     26.6811     29.3555     48.9466
  2239.7500    201.7183     22.3901     26.7861     30.2775     40.9098
