~Version Information
VERS.                      2.0: CWLS Log ASCII Standard - VERSION 2.0
WRAP.                       NO: One line per depth step
~Well Information Block
STRT.FT                -7.0000: 
STOP.FT              2736.0000: 
STEP.FT                 0.2500: 
NULL.                -999.2500: 
COMP.          Pioneer Natural Resources: COMPANY
WELL.              Getem 21-23: WELL
FLD.           Purgatorie River: FIELD
LOC.           2623' FWL & 790' FNL----: LOCATION
PROV.                       CO: PROVINCE
CNTY.               Las Animas: COUNTRY
SRVC.          Patterson Wireline: SERVICE COMPANY
DATE.          Mon Jun 27 09:57:55 2005: LOG DATE
UWI.           05 071 08411 00: UNIQUE WELL ID
~Curve Information Block
DEPT.FT            0 000 00 00: Depth
CCL.                          : Casing Collar Locator
TT3.usec                      : CBL 3' Travel Time
AMP3.mV                       : CBL 3' Amplitude
GR.GAPI                       : Gamma Ray
~Parameter Information Block
~A  Depth       CCL         TT3         AMP3         GR     
# ...
  2539.0000      0.0000    406.1433      3.7041     64.6978
  2539.2500      0.0000    409.7956      3.7406     64.2001
  2539.5000      0.0000    423.5739      3.7429     65.4422
  2539.7500      0.0000    450.4904      3.7132     68.5622
  2540.0000      0.0000    490.0818      3.6583     71.8092
  2540.2500      0.0000    535.3313      3.5879     72.4741
  2540.5000      0.0000    575.3143      3.5219     69.2683
  2540.7500      0.0000    602.2960      3.4726     63.4549
  2541.0000      0.0000    617.2597      3.4351     57.5348
  2541.2500      0.0000    628.6072      3.4188     53.4084
  2541.5000      0.0000    644.5263      3.4692     51.7861
  2541.7500      0.0000    666.1781      3.6185     52.3295
  2542.0000      0.0000    688.0597      3.8222     53.9587
  2542.2500      0.0000    703.7507      3.9882     55.7325
  2542.5000      2.0000    710.7857      4.0651     57.7585
  2542.7500      2.0000    711.3912      4.0610     60.9169
  2543.0000      0.0000    709.9951      3.9921     65.7170
  2543.2500      0.0000    710.4922      3.8762     71.7975
  2543.5000      0.0000    714.9279      3.7616     78.4509
  2543.7500      0.0000    722.9019      3.6909     85.2805
  2544.0000      0.0000    731.2224      3.6447     92.3611
  2544.2500      0.0000    735.4800      3.5898     99.8700
  2544.5000      0.0000    733.7936      3.5650    107.2630
  2544.7500      0.0000    729.0008      3.6367    112.7457
  2545.0000      0.0000    726.2120      3.7826    114.2530
  2545.2500      0.0000    728.0347      3.8989    111.4403
  2545.5000      0.0000    732.2156      3.9332    106.3253
  2545.7500      0.0000    733.9142      3.9495    101.5432
  2546.0000      0.0000    730.4521      4.0313     98.2293
  2546.2500      0.0000    723.7241      4.1628     95.8273
  2546.5000      0.0000    718.0405      4.2545     93.4303
  2546.7500      0.0000    716.3407      4.2656     90.7296
  2547.0000      0.0000    718.3024      4.2474     87.9301
  2547.2500      0.0000    720.5492      4.2702     85.4009
  2547.5000      0.0000    717.7840      4.3450     83.5591
  2547.7500      0.0000    704.2686      4.4166     82.7368
  2548.0000      0.0000    675.2122      4.4077     82.9327
  2548.2500      0.0000    628.6122      4.2744     83.7376
  2548.5000      0.0000    568.1141      4.0455     84.5816
  2548.7500      0.0000    504.1697      3.8172     85.1552
  2549.0000      0.0000    449.8597      3.6952     85.6622
  2549.2500      0.0000    413.7461      3.7269     86.5476
  2549.5000      0.0000    396.2681      3.8807     87.9149
  2549.7500      0.0000    391.9586      4.0813     89.3131
  2550.0000      0.0000    394.1120      4.2512     90.2071
  2550.2500      0.0000    398.3831      4.3297     90.4380
  2550.5000      0.0000    404.1107      4.2986     89.9523
  2550.7500      0.0000    413.7399      4.2149     88.2685
  2551.0000      0.0000    431.3977      4.1917     84.7594
  2551.2500      0.0000    460.8794      4.3088     79.6005
  2551.5000      0.0000    502.4909      4.5416     74.1131
  2551.7500      0.0000    550.3194      4.7797     70.0485
  2552.0000      0.0000    593.5873      4.9055     68.7283
  2552.2500      0.0000    622.4318      4.8655     70.7275
  2552.5000      0.0000    633.4764      4.7052     75.7839
  2552.7500      0.0000    630.6890      4.5493     82.5364
  2553.0000      0.0000    621.6671      4.5167     88.6040
  2553.2500      0.0000    612.9881      4.6315     91.7371
  2553.5000      0.0000    607.8713      4.8096     91.4875
  2553.7500      0.0000    606.3706      4.9190     89.5855
  2554.0000      0.0000    606.4763      4.8551     88.2139
  2554.2500      0.0000    604.7756      4.6002     87.8420
  2554.5000      0.0000    596.8382      4.2485     87.1096
  2554.7500      0.0000    578.7448      3.9660     84.8253
  2555.0000      0.0000    550.8564      3.8896     81.4999
  2555.2500      0.0000    520.8001      4.0421     78.5590
  2555.5000      0.0000    499.8111      4.3284     76.5200
  2555.7500      0.0000    494.2623      4.5989     74.5887
  2556.0000      0.0000    503.1577      4.7273     72.0020
  2556.2500      0.0000    524.2783      4.6642     69.1553
  2556.5000      0.0000    557.1696      4.4483     67.0837
  2556.7500      0.0000    597.4216      4.1807     66.0820
  2557.0000      0.0000    633.2522      3.9782     65.1732
  2557.2500      0.0000    652.5370      3.9261     62.9833
  2557.5000      0.0000    652.7939      4.0555     59.0421
  2557.7500      0.0000    643.5626      4.3421     54.2996
  2558.0000      0.0000    639.1069      4.7123     50.5962
  2558.2500      0.0000    647.3171      5.0628     49.5471
  2558.5000      0.0000    664.8331      5.3016     51.4475
  2558.7500      0.0000    682.6271      5.3783     54.9069
  2559.0000      0.0000    694.6637      5.2722     57.7127
  2559.2500      0.0000    700.5748      4.9783     58.4363
  2559.5000      0.0000    702.7491      4.5326     57.3076
  2559.7500      0.0000    703.3128      4.0395     55.4596
  2560.0000      0.0000    703.3218      3.6360     53.5355
  2560.2500      0.0000    703.1547      3.4175     51.3653
  2560.5000      0.0000    702.9200      3.4056     48.8327
  2560.7500      0.0000    702.6718      3.5726     46.5088
  2561.0000      0.0000    702.4486      3.8651     45.2719
  2561.2500      0.0000    702.2653      4.2078     45.6401
  2561.5000      0.0000    702.0383      4.5216     47.6170
  2561.7500      0.0000    701.3942      4.7571     50.8985
  2562.0000      0.0000    699.3864      4.9048     54.9056
  2562.2500      0.0000    694.3932      4.9794     58.5302
  2562.5000      0.0000    685.0417      5.0039     60.2053
  2562.7500      0.0000    672.5511      5.0009     58.9203
  2563.0000      0.0000    662.3655      4.9835     55.4813
  2563.2500      0.0000    661.7184      4.9517     52.2910
  2563.5000      0.0000    673.7809      4.8986     51.4588
  2563.7500      0.0000    694.2283      4.8270     53.2718
  2564.0000      0.0000    714.0137      4.7651     56.6093
  2564.2500      0.0000    725.5086      4.7546     60.3889
  2564.5000      0.0000    726.8343      4.8048     64.1816
  2564.7500      0.0000    721.6494      4.8672     67.6271
  2565.0000      0.0000    715.2831      4.8686     69.9573
  2565.2500      0.0000    710.9518      4.7643     70.5589
  2565.5000      0.0000    708.9921      4.5676     69.8087
  2565.7500      0.0000    708.3716      4.3460     68.9250
  2566.0000      0.0000    708.1434      4.1828     68.8489
  2566.2500      0.0000    707.8607      4.1130     69.4447
  2566.5000      0.0000    707.4345      4.0933     70.0223
  2566.7500      0.0000    706.9307      4.0423     70.5048
  2567.0000      0.0000    706.4481      3.9087     71.7785
  2567.2500      0.0000    706.0910      3.7016     74.8352
  2567.5000      0.0000    705.9300      3.4649     79.5531
  2567.7500      0.0000    705.8986      3.2376     84.4267
  2568.0000      0.0000    705.5963      3.0492     87.8705
  2568.2500      0.0000    704.0808      2.9460     89.7962
  2568.5000      0.0000    699.7931      2.9869     91.3039
  2568.7500      0.0000    690.9962      3.1895     92.7302
  2569.0000      0.0000    677.0424      3.4934     92.8701
  2569.2500      0.0000    659.6768      3.8051     90.5498
  2569.5000      0.0000    642.4771      4.0701     86.3536
  2569.7500      0.0000    628.1678      4.2764     82.3264
  2570.0000      0.0000    616.5781      4.3982     80.2800
  2570.2500      0.0000    605.5878      4.3820     80.6204
  2570.5000      0.0000    593.3278      4.2139     82.3797
  2570.7500      0.0000    578.8884      3.9835     83.9416
  2571.0000      0.0000    561.9578      3.8454     84.0649
  2571.2500      0.0000    543.2543      3.8913     82.7288
  2571.5000      0.0000    525.4743      4.0661     80.9956
  2571.7500      0.0000    513.3309      4.2245     79.9132
  2572.0000      0.0000    512.1573      4.2723     79.5873
  2572.2500      0.0000    524.8589      4.2378     79.3114
