~Version Information
VERS.                      2.0: CWLS Log ASCII Standard - VERSION 2.0
WRAP.                       NO: One line per depth step
~Well Information Block
STRT.FT               483.0000: 
STOP.FT              1702.5000: 
STEP.FT                 0.2500: 
NULL.                -999.2500: 
COMP.          Pioneer Natural Resources: COMPANY
WELL.            Mad Dog 42-31: WELL
FLD.           Purgatorie River: FIELD
LOC.           2064' FNL & 479' FEL: LOCATION
PROV.                 Colorado: PROVINCE
CNTY.               Las Animas: COUNTRY
SRVC.                         : SERVICE COMPANY
DATE.          Sun Oct 10 04:26:24 2004: LOG DATE
UWI.           05 071 08195 00: UNIQUE WELL ID
~Curve Information Block
DEPT.FT            0 000 00 00: Depth
LTEN.lb                       : Surface Line Tension
SN.Ohm-m                      : IEL Short Normal
SP.mV                         : IEL Spontaneous Potential
DIR.Ohm-m                     : IEL Induction Resistivity
GR.GAPI                       : Gamma Ray
~Parameter Information Block
~A  Depth       LTEN         SN          SP         DIR          GR     
# ...
   791.0000    595.7993      5.0915   -222.7148      5.6246    140.0243
   791.2500    598.4320      5.0256   -222.0053      5.6482    141.1319
   791.5000    602.2156      4.9545   -221.3290      5.6756    142.1473
   791.7500    604.9965      4.8965   -220.6170      5.6997    142.0645
   792.0000    605.1114      4.8900   -219.7838      5.7175    140.9651
   792.2500    602.4426      4.9632   -218.7632      5.7319    139.8843
   792.5000    598.8248      5.1142   -217.5380      5.7490    138.2478
   792.7500    597.0955      5.3137   -216.1477      5.7735    137.6004
   793.0000    599.0895      5.5217   -214.6833      5.8074    138.4375
   793.2500    604.2565      5.7032   -213.2655      5.8505    140.5642
   793.5000    610.2133      5.8400   -212.0108      5.9038    145.1464
   793.7500    614.7341      5.9387   -211.0110      5.9704    147.8510
   794.0000    617.2032      6.0336   -210.3264      6.0539    149.5118
   794.2500    618.2502      6.1757   -209.9852      6.1537    148.7032
   794.5000    618.5513      6.4046   -209.9939      6.2648    145.4052
   794.7500    618.4219      6.7171   -210.3459      6.3805    142.7522
   795.0000    617.9690      7.0564   -211.0190      6.4939    139.7550
   795.2500    617.0416      7.3340   -211.9684      6.5964    138.8766
   795.5000    615.4991      7.4728   -213.1158      6.6739    138.5475
   795.7500    613.8822      7.4414   -214.3435      6.7112    138.1405
   796.0000    613.2003      7.2616   -215.5075      6.7025    136.7290
   796.2500    613.5798      6.9921   -216.4556      6.6606    135.7892
   796.5000    613.6049      6.7053   -217.0606      6.6115    135.3646
   796.7500    611.5156      6.4684   -217.2549      6.5797    135.5159
   797.0000    606.9111      6.3261   -217.0478      6.5748    134.7302
   797.2500    601.0352      6.2865   -216.5268      6.5893    132.5695
   797.5000    595.7927      6.3156   -215.8423      6.6045    126.9093
   797.7500    592.7418      6.3519   -215.1658      6.6012    122.9918
   798.0000    592.5214      6.3333   -214.6534      6.5680    120.7868
   798.2500    594.6920      6.2199   -214.4091      6.5043    123.2806
   798.5000    598.0635      6.0031   -214.4661      6.4190    131.9853
   798.7500    601.3439      5.7058   -214.7879      6.3264    138.6310
   799.0000    603.7172      5.3821   -215.2864      6.2420    145.1913
   799.2500    605.0944      5.1104   -215.8542      6.1786    146.0386
   799.5000    605.8431      4.9689   -216.3922      6.1431    143.3854
   799.7500    606.1453      5.0004   -216.8310      6.1356    140.7378
   800.0000    605.6318      5.1918   -217.1342      6.1506    137.2767
   800.2500    603.7594      5.4844   -217.2969      6.1817    135.4247
   800.5000    600.5800      5.8036   -217.3305      6.2254    133.3071
   800.7500    597.1025      6.0892   -217.2558      6.2830    132.6429
   801.0000    594.7416      6.3103   -217.0956      6.3566    133.3044
   801.2500    594.2874      6.4643   -216.8725      6.4447    134.8224
   801.5000    595.5391      6.5633   -216.6095      6.5401    137.8506
   801.7500    597.8514      6.6171   -216.3276      6.6340    139.3367
   802.0000    600.5873      6.6255   -216.0363      6.7187    138.6118
   802.2500    603.0843      6.5850   -215.7365      6.7863    135.4190
   802.5000    604.9367      6.5038   -215.4233      6.8260    127.2219
   802.7500    606.4960      6.4115   -215.0909      6.8263    120.7900
   803.0000    608.3805      6.3510   -214.7468      6.7829    112.1984
   803.2500    610.3040      6.3578   -214.4166      6.7026    108.1460
   803.5000    611.2664      6.4405   -214.1387      6.6004    104.9387
   803.7500    611.3047      6.5708   -213.9583      6.4902    104.3558
   804.0000    611.9831      6.6919   -213.9102      6.3800    105.0703
   804.2500    614.2881      6.7396   -214.0178      6.2723    106.4621
   804.5000    616.9414      6.6686   -214.2950      6.1701    110.2463
   804.7500    617.7592      6.4700   -214.7505      6.0799    114.1723
   805.0000    615.9687      6.1702   -215.3965      6.0116    122.0424
   805.2500    612.4608      5.8142   -216.2437      5.9729    127.9337
   805.5000    608.5672      5.4494   -217.2968      5.9664    135.8678
   805.7500    605.4170      5.1204   -218.5307      5.9889    139.6737
   806.0000    603.8489      4.8723   -219.8912      6.0359    143.0028
   806.2500    603.9935      4.7509   -221.2909      6.1062    144.2429
   806.5000    605.0548      4.7935   -222.6241      6.2038    145.6946
   806.7500    605.9802      5.0152   -223.7953      6.3352    146.4935
   807.0000    606.2202      5.4017   -224.7383      6.5038    146.7887
   807.2500    605.7766      5.9120   -225.4310      6.7061    145.9206
   807.5000    605.0737      6.4941   -225.8942      6.9302    142.6133
   807.7500    604.9552      7.1091   -226.1731      7.1569    138.9566
   808.0000    606.3199      7.7511   -226.3127      7.3624    130.8369
   808.2500    609.5762      8.4501   -226.3368      7.5242    123.3589
   808.5000    614.4318      9.2460   -226.2388      7.6317    109.6534
   808.7500    619.7833     10.1449   -225.9892      7.6933    100.3058
   809.0000    623.7115     11.0841   -225.5577      7.7330     89.2146
   809.2500    624.2807     11.9323   -224.9280      7.7759     84.9648
   809.5000    620.8663     12.5294   -224.1071      7.8340     83.2877
   809.7500    614.8342     12.7449   -223.1144      7.9013     84.5134
   810.0000    609.0626     12.5253   -221.9693      7.9576     88.3214
   810.2500    606.4419     11.9114   -220.6792      7.9784     91.5216
   810.5000    607.8231     11.0288   -219.2442      7.9459     96.8538
   810.7500    611.1085     10.0560   -217.6786      7.8538    100.7248
   811.0000    612.8959      9.1749   -216.0340      7.7050    106.7713
   811.2500    611.3984      8.5185   -214.4134      7.5070    110.6694
   811.5000    607.7756      8.1355   -212.9630      7.2728    116.0068
   811.7500    604.8568      7.9948   -211.8390      7.0247    119.3233
   812.0000    605.0388      8.0259   -211.1620      6.7944    124.2030
   812.2500    609.2441      8.1697   -210.9755      6.6170    127.3000
   812.5000    616.7700      8.4049   -211.2248      6.5227    131.0833
   812.7500    625.4091      8.7366   -211.7693      6.5308    132.6955
   813.0000    632.4005      9.1686   -212.4209      6.6466    133.8053
   813.2500    636.1741      9.6892   -212.9889      6.8611    134.0608
   813.5000    636.9418     10.2840   -213.3315      7.1559    134.3802
   813.7500    635.2384     10.9607   -213.3825      7.5119    134.6221
   814.0000    630.7265     11.7641   -213.1572      7.9207    134.6372
   814.2500    623.2332     12.7774   -212.7309      8.3861    134.3091
   814.5000    614.3376     14.1093   -212.2136      8.9107    134.3269
   814.7500    606.9964     15.8612   -211.7105      9.4764    135.9426
   815.0000    603.4761     18.0581   -211.2926     10.0365    142.1705
   815.2500    603.7930     20.5615   -210.9850     10.5333    147.9764
   815.5000    605.8891     23.0248   -210.7675     10.9321    154.4621
   815.7500    607.2840     24.9572   -210.5922     11.2355    153.9452
   816.0000    606.8475     25.8965   -210.4140     11.4638    142.6060
   816.2500    605.1426     25.6058   -210.2178     11.6232    129.1036
   816.5000    603.2396     24.1735   -210.0296     11.6970    107.1419
   816.7500    601.6436     21.9612   -209.9074     11.6646     96.4952
   817.0000    600.4756     19.4395   -209.9099     11.5246     91.3162
   817.2500    600.0599     17.0194   -210.0530     11.2990     94.3414
   817.5000    600.7706     14.9581   -210.2878     11.0167    104.0627
   817.7500    602.5176     13.3567   -210.4996     10.6987    111.5985
   818.0000    604.8159     12.2050   -210.5440     10.3558    122.3673
   818.2500    607.2896     11.4323   -210.3033      9.9971    128.7189
   818.5000    609.7605     10.9481   -209.7318      9.6400    136.5663
   818.7500    611.8662     10.6714   -208.8826      9.3141    140.4754
