~Version Information
VERS.                      2.0: CWLS Log ASCII Standard - VERSION 2.0
WRAP.                       NO: One line per depth step
~Well Information Block
STRT.FT               650.0000: 
STOP.FT              2085.0000: 
STEP.FT                 0.1000: 
NULL.                -999.2500: 
COMP.          Pioneer Natural Resources: COMPANY
WELL.           Galloway 32-13: WELL
FLD.           Purgatoire River: FIELD
LOC.           1809' FNL & 2004' FEL: LOCATION
PROV.                 Colorado: PROVINCE
CNTY.               Las Animas: COUNTRY
SRVC.                Patterson: SERVICE COMPANY
DATE.          Sat Jul 09 02:17:51 2005: LOG DATE
UWI.           05 071 08423 00: UNIQUE WELL ID
~Curve Information Block
DEPT.FT            0 000 00 00: Depth
DCAL.in                       : CDL Caliper
RHOB.g/cc                     : CDL Bulk Density
RHOC.g/cc                     : CDL Density Correction
DPOR.pu                       : CDL Density Porosity
GR.GAPI                       : Gamma Ray
NPOR.pu                       : Neutron Porosity
~Parameter Information Block
~A  Depth       DCAL        RHOB        RHOC        DPOR         GR         NPOR    
# ...
   938.0000      8.0266      2.6076      0.0729      2.5690    125.6591     24.5858
   938.1000      8.0266      2.6126      0.0433      2.2685    125.1212     24.7110
   938.2000      8.0266      2.6163      0.0762      2.0423    121.6130     23.7978
   938.3000      8.0318      2.6065      0.0683      2.6357    115.3164     22.0598
   938.4000      8.0318      2.5942      0.0059      3.3821    112.3952     20.9689
   938.5000      8.0345      2.5925      0.0434      3.4821    116.5092     21.1103
   938.6000      8.0345      2.5879      0.0408      3.7608    123.2827     21.6522
   938.7000      8.0345      2.5673      0.0109      5.0130    126.8631     21.9162
   938.8000      8.0355      2.5401     -0.0102      6.6623    125.0291     21.8759
   938.9000      8.0355      2.5211     -0.0027      7.8145    119.2312     21.9005
   939.0000      8.0326      2.5147      0.0121      8.2030    113.8764     22.1058
   939.1000      8.0326      2.5141      0.0554      8.2375    113.6786     22.2643
   939.2000      8.0326      2.5051      0.0721      8.7796    118.3715     22.6033
   939.3000      8.0277      2.4848      0.0328     10.0144    123.7391     23.1512
   939.4000      8.0277      2.4685     -0.0160     11.0008    124.2278     23.1443
   939.5000      8.0272      2.4655      0.0218     11.1804    119.3905     22.6921
   939.6000      8.0272      2.4688      0.0257     10.9795    115.7135     22.8012
   939.7000      8.0272      2.4748      0.0475     10.6155    115.0564     23.9202
   939.8000      8.0289      2.4851      0.0414      9.9965    113.8956     25.1122
   939.9000      8.0289      2.4945      0.0802      9.4263    112.0079     25.4292
   940.0000      8.0313      2.5012      0.0587      9.0202    111.8933     25.2004
   940.1000      8.0313      2.5122      0.0580      8.3521    115.2790     24.9401
   940.2000      8.0313      2.5188      0.0932      7.9509    119.8707     24.9020
   940.3000      8.0354      2.5053      0.0133      8.7668    120.6415     24.9248
   940.4000      8.0354      2.4853      0.0321      9.9802    116.8389     24.4278
   940.5000      8.0357      2.4846     -0.0156     10.0253    111.0951     22.9969
   940.6000      8.0357      2.5100      0.0478      8.4857    106.3310     21.3906
   940.7000      8.0357      2.5498      0.0557      6.0717    105.0299     21.1336
   940.8000      8.0262      2.5879      0.0610      3.7629    105.9474     22.2984
   940.9000      8.0262      2.6070      0.1250      2.6086    106.1815     23.2716
   941.0000      8.0135      2.5964      0.1195      3.2500    103.3574     22.8261
   941.1000      8.0135      2.5746      0.0901      4.5678     99.0403     21.2428
   941.2000      8.0135      2.5774      0.0766      4.3997     97.6567     19.8963
   941.3000      8.0112      2.6078      0.1076      2.5602     98.5273     19.9422
   941.4000      8.0112      2.6300      0.1017      1.2142     98.0234     20.9039
   941.5000      8.0202      2.6256      0.0583      1.4802     94.4367     21.5895
   941.6000      8.0202      2.6084      0.0217      2.5212     89.3840     21.7832
   941.7000      8.0202      2.5948      0.0340      3.3451     88.2840     21.7173
   941.8000      8.0253      2.5883      0.0776      3.7393     91.6754     21.4704
   941.9000      8.0253      2.5805      0.0474      4.2107     94.0656     21.6354
   942.0000      8.0179      2.5726      0.0766      4.6937     94.3470     22.6573
   942.1000      8.0179      2.5755      0.0935      4.5126     96.6934     23.1692
   942.2000      8.0179      2.5833      0.0780      4.0419    101.0190     21.9303
   942.3000      8.0112      2.5778      0.0559      4.3767    102.0093     20.2652
   942.4000      8.0112      2.5549      0.0453      5.7633    100.8186     19.6042
   942.5000      8.0179      2.5285      0.0113      7.3637    104.1896     19.8415
   942.6000      8.0179      2.5163      0.0407      8.1025    112.8891     20.6150
   942.7000      8.0179      2.5176      0.0658      8.0245    119.5267     22.0519
   942.8000      8.0297      2.5236      0.0478      7.6626    120.2862     23.7852
   942.9000      8.0297      2.5338      0.0535      7.0417    120.0198     24.5802
   943.0000      8.0403      2.5427      0.0666      6.5039    125.9927     24.1339
   943.1000      8.0403      2.5398      0.0749      6.6769    136.6624     23.5381
   943.2000      8.0403      2.5250      0.0814      7.5745    141.9995     23.6231
   943.3000      8.0441      2.5078      0.0607      8.6201    141.6627     24.3910
   943.4000      8.0441      2.4974      0.0626      9.2488    139.8164     25.3340
   943.5000      8.0371      2.4974      0.0289      9.2474    135.1476     26.0768
   943.6000      8.0371      2.5035      0.0353      8.8807    128.5270     26.5705
   943.7000      8.0371      2.5030      0.0837      8.9097    125.1684     26.6914
   943.8000      8.0297      2.4894      0.0775      9.7342    127.9996     26.7433
   943.9000      8.0297      2.4785      0.0162     10.3933    135.3688     27.3135
   944.0000      8.0327      2.4907      0.0503      9.6558    142.2369     28.0162
   944.1000      8.0327      2.5170      0.0916      8.0595    141.8519     28.3669
   944.2000      8.0327      2.5313      0.0749      7.1921    131.1465     28.0700
   944.3000      8.0498      2.5268      0.0447      7.4659    119.0649     27.2105
   944.4000      8.0498      2.5223      0.0502      7.7386    112.9184     26.6148
   944.5000      8.0739      2.5277      0.0272      7.4142    107.6874     26.6886
   944.6000      8.0739      2.5316      0.0675      7.1729    102.0505     26.8613
   944.7000      8.0739      2.5307      0.0344      7.2277     98.7107     26.2170
   944.8000      8.0953      2.5323      0.0647      7.1304     97.0480     25.0655
   944.9000      8.0953      2.5425      0.0559      6.5182     99.1695     24.7461
   945.0000      8.1081      2.5710      0.0098      4.7908    106.0694     25.5534
   945.1000      8.1081      2.6073      0.0922      2.5855    109.9757     26.3168
   945.2000      8.1081      2.6183      0.1078      1.9203    104.7871     25.9760
   945.3000      8.1090      2.5998      0.0414      3.0443     93.9945     25.0865
   945.4000      8.1090      2.5803      0.0375      4.2259     85.0573     24.8117
   945.5000      8.0872      2.5796      0.0421      4.2663     86.9227     24.9755
   945.6000      8.0872      2.5897      0.0649      3.6575    100.5741     24.5480
   945.7000      8.0872      2.5918      0.0747      3.5259    114.5359     23.5377
   945.8000      8.0454      2.5870      0.0329      3.8158    121.0939     22.9229
   945.9000      8.0454      2.5763      0.0565      4.4663    120.8871     22.8858
   946.0000      8.0154      2.5469      0.0768      6.2513    116.3334     22.7472
   946.1000      8.0154      2.5167      0.0163      8.0780    111.6515     22.8238
   946.2000      8.0154      2.5160      0.0382      8.1234    112.7792     23.7394
   946.3000      8.0093      2.5326      0.0603      7.1171    122.1171     24.7133
   946.4000      8.0093      2.5403      0.0476      6.6471    131.0689     25.0442
   946.5000      8.0145      2.5350      0.0506      6.9727    132.3802     25.4358
   946.6000      8.0145      2.5243      0.0685      7.6205    128.9662     26.3582
   946.7000      8.0145      2.5163      0.0035      8.1019    124.8519     26.8867
   946.8000      8.0184      2.5070      0.0969      8.6656    122.8205     26.0430
   946.9000      8.0184      2.4814      0.0374     10.2178    124.9490     24.8876
   947.0000      8.0198      2.4425     -0.0259     12.5760    130.2202     25.0830
   947.1000      8.0198      2.3982      0.0273     15.2634    134.8629     26.2656
   947.2000      8.0198      2.3436      0.0319     18.5722    132.5742     26.9763
   947.3000      8.0203      2.2898     -0.0572     21.8276    121.1522     26.7807
   947.4000      8.0203      2.2613     -0.0339     23.5580    106.1605     26.2783
   947.5000      8.0180      2.2621     -0.0333     23.5072     94.3610     26.2957
