~Version Information
VERS.                      2.0: CWLS Log ASCII Standard - VERSION 2.0
WRAP.                       NO: One line per depth step
~Well Information Block
STRT.FT               440.0000: 
STOP.FT              2735.2000: 
STEP.FT                 0.1000: 
NULL.                -999.2500: 
COMP.          Pioneer Natural Resources: COMPANY
WELL.              Cluck 21-25: WELL
FLD.           Purgatoire River: FIELD
LOC.           91' FNL & 1834' FWL--: LOCATION
PROV.                 Colorado: PROVINCE
CNTY.               Las Animas: COUNTRY
SRVC.                Patterson: SERVICE COMPANY
DATE.          Tue Jun 07 07:26:19 2005: LOG DATE
UWI.           05 071 08397 00: UNIQUE WELL ID
~Curve Information Block
DEPT.FT            0 000 00 00: Depth
DCAL.in                       : CDL Caliper
RHOB.g/cc                     : CDL Bulk Density
RHOC.g/cc                     : CDL Density Correction
DPOR.pu                       : CDL Density Porosity
NPOR.pu                       : Neutron Porosity
GR.GAPI                       : Gamma Ray
~Parameter Information Block
SNDERRM.mmho-m          0.0000: Medium Sonde Error Correction
~A  Depth       DCAL        RHOB        RHOC        DPOR        NPOR         GR     
# ...
  1649.6000      7.8681      2.6005      0.0360      3.0011     21.3512     59.7931
  1649.7000      7.8681      2.5916      0.0303      3.5401     21.3222     63.3882
  1649.8000      7.8656      2.5921      0.0627      3.5064     21.3368     68.2131
  1649.9000      7.8656      2.5905      0.0585      3.6031     21.7309     71.3782
  1650.0000      7.8685      2.5913      0.0276      3.5561     22.7774     72.2128
  1650.1000      7.8685      2.5963      0.0725      3.2566     23.8063     73.4183
  1650.2000      7.8685      2.5926      0.0783      3.4811     23.7111     77.2335
  1650.3000      7.8754      2.5778      0.0558      4.3753     22.5026     82.4265
  1650.4000      7.8754      2.5651      0.0270      5.1450     21.0151     82.1510
  1650.5000      7.8810      2.5602      0.0374      5.4449     19.7798     74.8705
  1650.6000      7.8810      2.5594      0.0144      5.4916     18.9204     67.0244
  1650.7000      7.8810      2.5658      0.0357      5.1006     18.5497     62.8992
  1650.8000      7.8822      2.5826      0.0249      4.0849     18.6604     60.4339
  1650.9000      7.8822      2.6051      0.0559      2.7220     18.9737     57.0843
  1651.0000      7.8801      2.6267      0.0464      1.4125     19.4914     57.3162
  1651.1000      7.8801      2.6433      0.1128      0.4061     20.3120     63.5744
  1651.2000      7.8801      2.6483      0.0950      0.1029     21.2888     68.7936
  1651.3000      7.8776      2.6383      0.0792      0.7098     21.8957     68.4239
  1651.4000      7.8776      2.6250      0.0298      1.5179     21.3724     66.8952
  1651.5000      7.8754      2.6216      0.0583      1.7230     19.9184     65.6662
  1651.6000      7.8754      2.6171      0.0850      1.9952     19.0474     63.3305
  1651.7000      7.8754      2.6005      0.0383      2.9978     19.5790     64.6999
  1651.8000      7.8794      2.5851      0.0539      3.9318     20.4755     72.1908
  1651.9000      7.8794      2.5806      0.0490      4.2091     20.6795     78.7688
  1652.0000      7.8908      2.5786      0.0582      4.3291     20.3871     77.5673
  1652.1000      7.8908      2.5717      0.0269      4.7432     20.2377     72.5029
  1652.2000      7.8908      2.5659      0.0473      5.0994     20.4536     73.3424
  1652.3000      7.8985      2.5680      0.0606      4.9698     20.6287     77.9717
  1652.4000      7.8985      2.5765      0.0358      4.4548     20.4351     74.5103
  1652.5000      7.8980      2.5839      0.0861      4.0036     20.0612     62.9569
  1652.6000      7.8980      2.5849      0.0542      3.9433     19.7400     55.1315
  1652.7000      7.8980      2.5843      0.0670      3.9816     19.5830     54.9034
  1652.8000      7.8916      2.5875      0.0696      3.7897     19.3755     57.1942
  1652.9000      7.8916      2.5952      0.0743      3.3198     18.7691     60.0036
  1653.0000      7.8806      2.6090      0.0791      2.4848     17.8972     62.7219
  1653.1000      7.8806      2.6293      0.0823      1.2534     17.3085     61.1987
  1653.2000      7.8806      2.6523      0.1346     -0.1401     17.2633     55.5906
  1653.3000      7.8676      2.6634      0.1254     -0.8151     17.2932     52.5729
  1653.4000      7.8676      2.6522      0.0946     -0.1305     16.9557     51.7700
  1653.5000      7.8570      2.6334      0.0481      1.0032     16.6392     47.3656
  1653.6000      7.8570      2.6265      0.0670      1.4267     16.6903     42.2121
  1653.7000      7.8570      2.6281      0.0620      1.3247     16.6204     42.9599
  1653.8000      7.8573      2.6254      0.0687      1.4888     16.1654     46.7916
  1653.9000      7.8573      2.6134      0.0273      2.2203     15.8665     48.7945
  1654.0000      7.8645      2.5962      0.0567      3.2608     16.0452     50.9032
  1654.1000      7.8645      2.5815      0.0362      4.1522     16.6393     54.7564
  1654.2000      7.8645      2.5742      0.0428      4.5930     17.7624     60.1708
  1654.3000      7.8651      2.5738      0.0414      4.6202     19.1263     65.1167
  1654.4000      7.8651      2.5761      0.0495      4.4759     19.8519     65.5905
  1654.5000      7.8617      2.5717      0.0767      4.7449     19.8276     63.5963
  1654.6000      7.8617      2.5580      0.0388      5.5755     19.6885     62.2297
  1654.7000      7.8617      2.5496      0.0554      6.0861     19.5983     58.8587
  1654.8000      7.8592      2.5543      0.0851      5.8022     19.4892     54.4720
  1654.9000      7.8592      2.5649      0.0814      5.1546     19.6316     52.9695
  1655.0000      7.8542      2.5750      0.0712      4.5465     20.2126     50.6336
  1655.1000      7.8542      2.5792      0.0915      4.2918     21.1007     45.5114
  1655.2000      7.8542      2.5759      0.0583      4.4892     22.0882     45.0611
  1655.3000      7.8503      2.5748      0.0598      4.5575     22.8990     52.5262
  1655.4000      7.8503      2.5832      0.0551      4.0475     23.1708     59.7752
  1655.5000      7.8552      2.5968      0.0780      3.2240     22.6721     59.4412
  1655.6000      7.8552      2.6136      0.0321      2.2033     21.8433     53.7287
  1655.7000      7.8552      2.6355      0.0852      0.8758     21.6106     49.3396
  1655.8000      7.8716      2.6478      0.1160      0.1313     21.9981     49.6986
  1655.9000      7.8716      2.6315      0.0908      1.1223     22.2923     54.2207
  1656.0000      7.8893      2.5938      0.0320      3.4068     22.3254     60.8980
  1656.1000      7.8893      2.5655      0.0141      5.1218     22.1362     66.0724
  1656.2000      7.8893      2.5638      0.0401      5.2215     21.6146     67.4560
  1656.3000      7.8972      2.5711      0.0621      4.7812     20.9984     66.2344
  1656.4000      7.8972      2.5676      0.0318      4.9920     20.8586     63.7249
  1656.5000      7.9015      2.5653      0.0260      5.1336     21.4093     60.7591
  1656.6000      7.9015      2.5827      0.0378      4.0770     21.9077     56.9849
  1656.7000      7.9015      2.6076      0.1217      2.5725     21.6916     50.4463
  1656.8000      7.9087      2.6163      0.0697      2.0438     20.8370     43.6668
  1656.9000      7.9087      2.6116      0.0726      2.3250     19.7563     42.1272
  1657.0000      7.9163      2.6107      0.0512      2.3818     19.1238     44.8875
  1657.1000      7.9163      2.6198      0.0993      1.8319     19.3476     47.8144
  1657.2000      7.9163      2.6238      0.1279      1.5862     20.0569     47.8562
  1657.3000      7.9222      2.6158      0.0582      2.0720     20.2636     45.1287
  1657.4000      7.9222      2.6151      0.0682      2.1124     19.7513     45.5626
  1657.5000      7.9259      2.6310      0.0585      1.1542     19.2015     50.2935
  1657.6000      7.9259      2.6504      0.0975     -0.0230     18.7720     52.6321
  1657.7000      7.9259      2.6577      0.1141     -0.4680     18.1554     50.6805
  1657.8000      7.9292      2.6486      0.0876      0.0866     17.5324     48.6012
  1657.9000      7.9292      2.6337      0.0428      0.9852     17.4239     49.4425
  1658.0000      7.9306      2.6213      0.0456      1.7420     18.1177     54.0725
  1658.1000      7.9306      2.6054      0.0581      2.7020     19.3054     60.0236
  1658.2000      7.9306      2.5854      0.0309      3.9174     20.0768     62.6785
  1658.3000      7.9266      2.5728      0.0325      4.6809     20.1857     61.8414
  1658.4000      7.9266      2.5695      0.0560      4.8787     20.2292     61.6261
  1658.5000      7.9233      2.5677      0.0241      4.9873     20.3782     63.4592
  1658.6000      7.9233      2.5644      0.0618      5.1883     20.6073     62.6989
  1658.7000      7.9233      2.5586      0.0526      5.5397     21.0341     58.9677
  1658.8000      7.9262      2.5550      0.0362      5.7559     21.5630     57.5220
  1658.9000      7.9262      2.5576      0.0580      5.6004     21.9504     58.7940
  1659.0000      7.9307      2.5608      0.0493      5.4072     22.0236     58.2933
  1659.1000      7.9307      2.5623      0.0369      5.3175     21.6819     55.5017
