~Version Information
VERS.                      2.0: CWLS Log ASCII Standard - VERSION 2.0
WRAP.                       NO: One line per depth step
~Well Information Block
STRT.FT               575.0000: 
STOP.FT              2016.2000: 
STEP.FT                 0.1000: 
NULL.                -999.2500: 
COMP.          Pioneer Natural Resources: COMPANY
WELL.          Bucksnort 41-35: WELL
FLD.           Purgatoire River: FIELD
LOC.           117' FNL & 463' FEL--: LOCATION
PROV.                 Colorado: PROVINCE
CNTY.               Las Animas: COUNTRY
SRVC.                Patterson: SERVICE COMPANY
DATE.          Thu Jul 21 15:01:23 2005: LOG DATE
UWI.           05 071 08401 00: UNIQUE WELL ID
~Curve Information Block
DEPT.FT            0 000 00 00: Depth
DCAL.in                       : CDL Caliper
RHOB.g/cc                     : CDL Bulk Density
RHOC.g/cc                     : CDL Density Correction
DPOR.pu                       : CDL Density Porosity
NPOR.pu                       : Neutron Porosity
GR.GAPI                       : Gamma Ray
~Parameter Information Block
~A  Depth       DCAL        RHOB        RHOC        DPOR        NPOR         GR     
# ...
  1419.8000      7.9637      2.5190      0.0521      7.9373     30.3455    162.7460
  1419.9000      7.9637      2.4886      0.0106      9.7806     29.9263    159.7039
  1420.0000      7.9790      2.4709      0.0208     10.8573     29.6479    163.8761
  1420.1000      7.9790      2.4647      0.0341     11.2323     29.9574    173.2810
  1420.2000      7.9790      2.4710     -0.0038     10.8479     30.4388    179.7327
  1420.3000      7.9891      2.4974      0.0320      9.2511     30.6849    183.0056
  1420.4000      7.9891      2.5285      0.0633      7.3630     30.9185    183.8970
  1420.5000      7.9864      2.5388      0.0874      6.7382     31.1145    178.8363
  1420.6000      7.9864      2.5267      0.0795      7.4731     31.0055    170.1740
  1420.7000      7.9864      2.5215      0.0480      7.7878     30.5549    163.4861
  1420.8000      7.9731      2.5459      0.1234      6.3088     29.9948    159.0862
  1420.9000      7.9731      2.5845      0.1577      3.9724     29.9847    156.4891
  1421.0000      7.9599      2.6108      0.1367      2.3777     30.5684    158.9447
  1421.1000      7.9599      2.6140      0.1184      2.1837     31.0401    167.8471
  1421.2000      7.9599      2.5975      0.0874      3.1830     31.2359    175.1612
  1421.3000      7.9528      2.5745      0.0597      4.5731     31.4065    172.4867
  1421.4000      7.9528      2.5624      0.0280      5.3117     31.5765    165.0666
  1421.5000      7.9553      2.5677      0.0359      4.9849     31.6954    160.5211
  1421.6000      7.9553      2.5748      0.0677      4.5572     31.5019    159.9421
  1421.7000      7.9553      2.5679      0.0501      4.9782     30.7973    161.0032
  1421.8000      7.9653      2.5669      0.0436      5.0363     29.9977    160.8387
  1421.9000      7.9653      2.5961      0.0504      3.2689     29.6711    158.3338
  1422.0000      7.9646      2.6383      0.0928      0.7088     29.9696    157.4180
  1422.1000      7.9646      2.6523      0.1567     -0.1411     30.6565    160.5458
  1422.2000      7.9646      2.6256      0.0338      1.4803     31.3953    160.8051
  1422.3000      7.9479      2.5838      0.0542      4.0093     31.8039    154.0156
  1422.4000      7.9479      2.5525     -0.0113      5.9094     32.0751    149.4727
  1422.5000      7.9306      2.5415      0.0219      6.5739     32.4318    152.7106
  1422.6000      7.9306      2.5412      0.0502      6.5944     32.4012    158.3406
  1422.7000      7.9306      2.5351      0.0340      6.9642     31.9134    163.5611
  1422.8000      7.9252      2.5214      0.0088      7.7924     31.3544    167.9579
  1422.9000      7.9252      2.5081     -0.0070      8.5995     30.8589    169.5927
  1423.0000      7.9287      2.4987      0.0134      9.1688     30.5329    166.9493
  1423.1000      7.9287      2.4920     -0.0173      9.5776     30.6776    164.5871
  1423.2000      7.9287      2.4915      0.0130      9.6036     31.1531    168.4920
  1423.3000      7.9355      2.4976      0.0604      9.2349     31.3606    177.2760
  1423.4000      7.9355      2.5119      0.0026      8.3672     31.0976    181.8513
  1423.5000      7.9426      2.5385      0.0601      6.7581     30.7800    175.3931
  1423.6000      7.9426      2.5631      0.0835      5.2688     30.6887    164.3684
  1423.7000      7.9426      2.5706      0.0383      4.8133     30.6999    158.3456
  1423.8000      7.9468      2.5645      0.0561      5.1802     30.6934    153.7872
  1423.9000      7.9468      2.5537      0.0641      5.8352     30.5220    143.4542
  1424.0000      7.9483      2.5487      0.0526      6.1415     29.9988    133.6989
  1424.1000      7.9483      2.5603      0.0221      5.4360     29.4087    135.4763
  1424.2000      7.9483      2.5785      0.1080      4.3361     29.1511    146.5187
  1424.3000      7.9489      2.5801      0.0743      4.2382     29.2273    155.7413
  1424.4000      7.9489      2.5701      0.0392      4.8435     29.4036    159.7847
  1424.5000      7.9506      2.5673      0.0426      5.0136     29.3813    161.6122
  1424.6000      7.9506      2.5699      0.0560      4.8547     29.3775    161.3618
  1424.7000      7.9506      2.5698      0.0540      4.8613     29.8478    161.2476
  1424.8000      7.9537      2.5663      0.0544      5.0747     30.2534    167.5799
  1424.9000      7.9537      2.5572      0.0528      5.6213     29.9102    177.4894
  1425.0000      7.9568      2.5392      0.0441      6.7151     29.3859    180.5130
  1425.1000      7.9568      2.5169      0.0247      8.0675     29.6294    175.9934
  1425.2000      7.9568      2.4989      0.0564      9.1557     30.2466    170.1105
  1425.3000      7.9590      2.4796      0.0198     10.3245     30.4739    164.5939
  1425.4000      7.9590      2.4477      0.0226     12.2598     30.4945    158.7399
  1425.5000      7.9595      2.4127     -0.0107     14.3806     30.6582    156.6649
  1425.6000      7.9595      2.3972     -0.0168     15.3187     30.9360    160.8065
  1425.7000      7.9595      2.4025      0.0370     15.0015     30.9918    165.8031
  1425.8000      7.9588      2.4129      0.0095     14.3703     30.7232    165.0624
  1425.9000      7.9588      2.4207      0.0344     13.8988     30.6456    158.8167
  1426.0000      7.9569      2.4242      0.0406     13.6844     30.8743    149.9275
  1426.1000      7.9569      2.4306      0.0276     13.2953     30.9772    140.0717
  1426.2000      7.9569      2.4446      0.0774     12.4491     31.1187    132.7868
  1426.3000      7.9557      2.4521      0.1109     11.9940     31.6972    129.5383
  1426.4000      7.9557      2.4398      0.1115     12.7419     32.3644    128.1095
  1426.5000      7.9554      2.4063      0.0727     14.7725     32.8467    123.9756
  1426.6000      7.9554      2.3510      0.0581     18.1197     33.4551    114.6937
  1426.7000      7.9554      2.2784     -0.0011     22.5240     34.0058    107.2698
  1426.8000      7.9555      2.2067     -0.0242     26.8665     34.1757    107.9801
  1426.9000      7.9555      2.1608     -0.0839     29.6466     34.1765    113.6762
  1427.0000      7.9559      2.1534     -0.0347     30.0995     34.0577    119.6860
  1427.1000      7.9559      2.1677     -0.0093     29.2315     33.9614    122.2038
  1427.2000      7.9559      2.1776      0.0555     28.6287     34.0798    121.0689
  1427.3000      7.9576      2.1791      0.0309     28.5392     33.9089    122.5159
  1427.4000      7.9576      2.1902      0.0809     27.8676     33.2617    130.1815
  1427.5000      7.9608      2.2269      0.1108     25.6418     32.7009    139.2477
  1427.6000      7.9608      2.2891      0.1582     21.8756     32.4781    146.5481
  1427.7000      7.9608      2.3592      0.2289     17.6255     32.3240    155.5083
  1427.8000      7.9652      2.4152      0.1917     14.2329     32.3800    165.0590
  1427.9000      7.9652      2.4478      0.1421     12.2555     32.9767    168.7189
  1428.0000      7.9685      2.4575      0.1245     11.6660     33.6234    167.7943
  1428.1000      7.9685      2.4484      0.0995     12.2201     33.5924    171.8401
  1428.2000      7.9685      2.4366      0.0434     12.9343     33.0060    178.9684
  1428.3000      7.9700      2.4408      0.0448     12.6770     32.4621    177.9509
  1428.4000      7.9700      2.4485      0.1099     12.2110     32.2262    171.6405
  1428.5000      7.9709      2.4367      0.0491     12.9298     32.0684    169.8784
  1428.6000      7.9709      2.4170     -0.0071     14.1194     31.7739    169.7006
  1428.7000      7.9709      2.4075      0.0402     14.6943     31.2267    164.8944
  1428.8000      7.9724      2.4027      0.0196     14.9874     30.5917    155.2662
  1428.9000      7.9724      2.3976      0.0442     15.2993     30.6674    141.4678
  1429.0000      7.9780      2.3994      0.0350     15.1888     31.6029    128.2295
  1429.1000      7.9780      2.4166      0.0681     14.1441     32.2894    121.6728
  1429.2000      7.9780      2.4486      0.1017     12.2078     32.1458    123.6851
  1429.3000      7.9876      2.4867      0.1243      9.8961     31.6613    129.6579
