~Version Information
VERS.                      2.0: CWLS Log ASCII Standard - VERSION 2.0
WRAP.                       NO: One line per depth step
~Well Information Block
STRT.FT               530.0000: 
STOP.FT              1825.0000: 
STEP.FT                 0.1000: 
NULL.                -999.2500: 
COMP.          Pioneer Natural Resources: COMPANY
WELL.          Vision 31-11 Tr: WELL
FLD.           Purgatoire River: FIELD
LOC.           742' FNL & 1593' FEL: LOCATION
STAT.                 Colorado: State
CNTY.               Las Animas: COUNTY
CTRY. USA : Country
SECT. 11 : Section
TOWN. 32S : Township
RANG. 66W : Range
SRVC.                Patterson: SERVICE COMPANY
DATE.          Mon Oct 10 07:17:32 2005: LOG DATE
API.           05 071 08305 00: UNIQUE WELL ID
~Curve Information Block
DEPT.FT            0 000 00 00: Depth
DCAL.in                       : CDL Caliper
RHOB.g/cc                     : CDL Bulk Density
RHOC.g/cc                     : CDL Density Correction
DPOR.pu                       : CDL Density Porosity
GR.GAPI                       : Gamma Ray
NPOR.pu                       : Neutron Porosity
~Parameter Information Block
~A  Depth       DCAL        RHOB        RHOC        DPOR         GR         NPOR    
   530.0000      4.7140     -0.0657     -0.8249    164.5868     99.9761     26.2732
   530.1000      4.7140      0.0106     -0.7693    159.9624     96.6437     25.8336
   530.2000      4.7140      0.1541     -0.7436    151.2654     94.9670     25.7303
   530.3000      4.7231      0.3456     -0.5842    139.6629     99.2627     25.3827
   530.4000      4.7231      0.5651     -0.5277    126.3578    110.3803     24.5488
   530.5000      4.7292      0.8083     -0.4030    111.6169    120.3077     23.4838
   530.6000      4.7292      1.0841     -0.2751     94.9053    122.0742     22.6346
   530.7000      4.7292      1.4161     -0.0540     74.7811    119.6249     22.4829
   530.8000      4.7328      1.8514      0.1363     48.3978    119.3580     23.2522
   530.9000      4.7328      2.4013      0.3838     15.0748    122.1581     24.6577
   531.0000      4.7370      2.9545      0.6808    -18.4550    127.8419     25.6407
   531.1000      4.7370      3.3528      0.8498    -42.5940    134.0140     25.4912
   531.2000      4.7370      3.5413      0.9714    -54.0196    137.5186     24.8715
   531.3000      5.1215      3.5393      1.0086    -53.8955    140.4975     24.3502
   531.4000      5.1215      3.3438      0.9125    -42.0507    146.4095     23.4257
   531.5000      7.8576      2.9663      0.4295    -19.1675    151.4636     22.1513
   531.6000      7.8576      2.5297     -0.3716      7.2882    152.1073     21.3269
   531.7000      7.8576      2.2171     -0.6129     26.2371    147.3531     21.2446
   531.8000      8.2147      2.0945     -0.6076     33.6671    135.5728     21.5883
   531.9000      8.2147      2.0899     -0.5213     33.9473    127.1974     21.8494
   532.0000      8.2273      2.1136     -0.5367     32.5117    130.3775     21.9441
   532.1000      8.2273      2.1311     -0.5193     31.4460    133.8962     22.0755
   532.2000      8.2273      2.1438     -0.5051     30.6778    130.7281     22.5607
   532.3000      8.2296      2.1482     -0.4973     30.4123    128.5002     23.4290
   532.4000      8.2296      2.1388     -0.5536     30.9817    130.7850     23.8001
   532.5000      8.2269      2.1257     -0.5505     31.7756    133.1659     23.7640
   532.6000      8.2269      2.1224     -0.5442     31.9747    129.4547     24.2060
   532.7000      8.2269      2.1327     -0.5410     31.3520    118.7993     24.6632
   532.8000      8.2305      2.1497     -0.5286     30.3237    108.0140     24.3635
   532.9000      8.2305      2.1599     -0.5308     29.7048    102.6033     23.6654
   533.0000      8.2323      2.1542     -0.4708     30.0490    104.0423     23.2600
   533.1000      8.2323      2.1373     -0.5748     31.0744    111.2531     22.9425
   533.2000      8.2323      2.1334     -0.5906     31.3094    120.2013     22.5576
   533.3000      8.2313      2.1576     -0.5734     29.8402    128.4235     22.8701
   533.4000      8.2313      2.1862     -0.4621     28.1092    134.2929     23.5904
   533.5000      8.2294      2.1936     -0.5486     27.6622    132.6025     23.4448
   533.6000      8.2294      2.1875     -0.4703     28.0311    123.3142     22.6316
   533.7000      8.2294      2.1821     -0.5397     28.3585    115.7953     22.0181
   533.8000      8.2299      2.1831     -0.4902     28.2967    112.6766     21.7687
   533.9000      8.2299      2.1777     -0.4875     28.6214    107.8678     21.9995
   534.0000      8.2292      2.1517     -0.5029     30.1973    101.9647     22.7360
   534.1000      8.2292      2.1144     -0.5765     32.4604    102.6763     23.4661
   534.2000      8.2292      2.0869     -0.5647     34.1246    109.9396     23.6212
   534.3000      8.2296      2.0823     -0.5958     34.4040    118.0918     23.3671
   534.4000      8.2296      2.0975     -0.5532     33.4824    122.5648     23.4689
   534.5000      8.2300      2.1193     -0.5656     32.1651    122.5333     23.6650
   534.6000      8.2300      2.1374     -0.5557     31.0659    123.0871     23.1207
   534.7000      8.2300      2.1473     -0.5385     30.4641    125.3529     22.4443
   534.8000      8.2299      2.1478     -0.5503     30.4376    124.9635     22.3957
   534.9000      8.2299      2.1310     -0.4383     31.4532    122.2278     22.7651
   535.0000      8.2389      2.0987     -0.6112     33.4100    120.6429     23.4619
   535.1000      8.2389      2.0794     -0.5943     34.5813    121.8559     24.2477
   535.2000      8.2389      2.0863     -0.6023     34.1656    124.7202     24.3125
   535.3000      8.2595      2.1001     -0.4405     33.3274    124.2286     23.6870
   535.4000      8.2595      2.1002     -0.5425     33.3203    119.0224     23.3838
   535.5000      8.2312      2.0937     -0.5902     33.7158    115.0513     23.3759
   535.6000      8.2312      2.0936     -0.5537     33.7229    116.4846     22.8387
   535.7000      8.2312      2.0957     -0.5658     33.5935    119.5117     22.1317
   535.8000      8.2290      2.0909     -0.4993     33.8834    117.0157     22.1077
   535.9000      8.2290      2.0804     -0.5768     34.5209    111.3641     22.6128
   536.0000      8.2280      2.0748     -0.5379     34.8622    108.8642     22.9504
   536.1000      8.2280      2.0796     -0.5814     34.5705    112.0983     23.0552
   536.2000      8.2280      2.0992     -0.5892     33.3848    120.4790     23.2894
   536.3000      8.2318      2.1250     -0.5340     31.8188    127.2969     23.7135
   536.4000      8.2318      2.1343     -0.4700     31.2516    129.1971     24.0300
   536.5000      8.2305      2.1277     -0.5272     31.6549    127.0803     24.1410
   536.6000      8.2305      2.1291     -0.5203     31.5674    121.3512     24.1249
   536.7000      8.2305      2.1398     -0.4474     30.9234    116.4263     23.9348
   536.8000      8.2305      2.1447     -0.5270     30.6224    114.2921     23.4077
   536.9000      8.2305      2.1435     -0.5265     30.6970    112.1664     22.7177
   537.0000      8.2326      2.1360     -0.5237     31.1523    108.9393     22.8109
   537.1000      8.2326      2.1249     -0.5229     31.8236    107.3070     23.9403
   537.2000      8.2326      2.1137     -0.5044     32.5006    110.6207     24.8834
   537.3000      8.2312      2.0980     -0.5131     33.4568    117.2995     24.6613
   537.4000      8.2312      2.0771     -0.4994     34.7221    121.1460     24.0295
   537.5000      8.2383      2.0564     -0.4980     35.9761    120.5778     23.9138
   537.6000      8.2383      2.0445     -0.5571     36.6965    121.0191     23.9210
   537.7000      8.2383      2.0507     -0.6121     36.3235    124.4366     23.8041
   537.8000      8.2276      2.0710     -0.5252     35.0902    127.3506     23.8794
   537.9000      8.2276      2.0865     -0.4956     34.1525    127.3932     23.9563
   538.0000      8.2307      2.0911     -0.5304     33.8718    122.3993     23.7569
   538.1000      8.2307      2.1018     -0.5248     33.2216    114.0324     23.2209
   538.2000      8.2307      2.1188     -0.4611     32.1920    110.5202     22.4297
   538.3000      8.2305      2.1194     -0.4881     32.1590    115.5246     21.6765
   538.4000      8.2305      2.1002     -0.4941     33.3237    121.0018     21.4719
   538.5000      8.2309      2.0735     -0.5063     34.9367    117.5227     22.3740
   538.6000      8.2309      2.0445     -0.5379     36.6951    108.4221     24.1023
   538.7000      8.2309      2.0163     -0.5545     38.4068    106.5566     25.2205
   538.8000      8.2289      1.9994     -0.6113     39.4315    113.8797     25.1167
   538.9000      8.2289      2.0009     -0.5812     39.3401    119.4582     24.5465
   539.0000      8.2333      2.0140     -0.5669     38.5475    119.1054     23.9989
   539.1000      8.2333      2.0302     -0.5534     37.5662    117.6919     23.3503
   539.2000      8.2333      2.0473     -0.5211     36.5282    117.8995     22.2827
   539.3000      8.2300      2.0663     -0.5434     35.3751    119.4229     21.3601
   539.4000      8.2300      2.0857     -0.5065     34.2019    118.8785     21.0786
   539.5000      8.2291      2.0932     -0.4483     33.7437    113.8760     21.3273
