~Version Information
VERS.                      2.0: CWLS Log ASCII Standard - VERSION 2.0
WRAP.                       NO: One line per depth step
~Well Information Block
STRT.FT               946.8000: 
STOP.FT              2134.5000: 
STEP.FT                 0.1000: 
NULL.                -999.2500: 
COMP.          Petrogulf Corporation: COMPANY
WELL.             Valejo 8-12R: WELL
FLD.           Purgatorie River: FIELD
LOC.           1351'' FNL & 1562' FWL: LOCATION
CNTY.               Las Animas: COUNTY
SRVC.                         : SERVICE COMPANY
DATE.          Wed Apr 28 13:22:45 2004: LOG DATE
UWI.           05 071 08038 00: UNIQUE WELL ID
STAT.                 Colorado: STATE
~Curve Information Block
DEPT.FT            0 000 00 00: Depth
DCAL.in                       : CDL Caliper
RHOB.g/cc                     : CDL Bulk Density
RHOC.g/cc                     : CDL Density Correction
DPOR.pu                       : CDL Density Porosity
NPOR.pu                       : Neutron Porosity
GR.GAPI                       : Gamma Ray
~Parameter Information Block
~A  Depth       DCAL        RHOB        RHOC        DPOR        NPOR         GR     
# ...
  1561.2000      7.9095      2.5618      0.0832      5.3481     25.1607    119.5973
  1561.3000      7.9017      2.5602      0.1389      5.4401     25.6009    130.4233
  1561.4000      7.9017      2.5353      0.0894      6.9494     25.7083    144.9734
  1561.5000      7.9071      2.5007      0.0774      9.0490     25.8064    152.5868
  1561.6000      7.9071      2.4867      0.0706      9.8989     25.8342    149.4696
  1561.7000      7.9071      2.4981      0.0807      9.2058     25.9889    144.8061
  1561.8000      7.9131      2.5137      0.1190      8.2626     26.5910    145.8490
  1561.9000      7.9131      2.5237      0.0641      7.6570     27.2487    149.7792
  1562.0000      7.9137      2.5437      0.1036      6.4410     27.0805    151.5553
  1562.1000      7.9137      2.5771      0.1477      4.4170     25.9932    150.3942
  1562.2000      7.9137      2.5998      0.1790      3.0394     24.8276    149.6429
  1562.3000      7.9432      2.5965      0.1579      3.2399     24.5323    150.8471
  1562.4000      7.9432      2.5786      0.1263      4.3300     25.3959    152.4459
  1562.5000      7.9708      2.5571      0.1190      5.6278     26.5359    152.3166
  1562.6000      7.9708      2.5343      0.0726      7.0116     26.9935    146.9038
  1562.7000      7.9708      2.5227      0.0196      7.7181     26.6138    135.4592
  1562.8000      7.9857      2.5251      0.0760      7.5688     25.5336    125.7882
  1562.9000      7.9857      2.5290      0.0096      7.3316     24.4003    128.4824
  1563.0000      8.0317      2.5339      0.0451      7.0349     24.0761    139.3743
  1563.1000      8.0317      2.5382      0.0323      6.7760     24.4599    142.0865
  1563.2000      8.0317      2.5398      0.0268      6.6783     24.8057    133.6312
  1563.3000      8.0678      2.5365      0.0762      6.8808     24.9196    128.2837
  1563.4000      8.0678      2.5223      0.0142      7.7375     25.0101    131.7821
  1563.5000      8.0069      2.5073      0.0172      8.6465     25.1191    138.0482
  1563.6000      8.0069      2.5017      0.0300      8.9900     25.3296    140.7210
  1563.7000      8.0069      2.4962      0.0590      9.3236     25.9573    136.3680
  1563.8000      7.9999      2.4877      0.0359      9.8383     26.9779    127.0124
  1563.9000      7.9999      2.4916      0.0603      9.6005     27.6441    119.1717
  1564.0000      7.9998      2.5134      0.1033      8.2772     27.4491    115.9199
  1564.1000      7.9998      2.5411      0.1082      6.6016     26.7965    113.4993
  1564.2000      7.9998      2.5640      0.1306      5.2098     26.1338    109.4860
  1564.3000      8.0122      2.5811      0.1517      4.1772     25.6499    105.6338
  1564.4000      8.0122      2.5943      0.1730      3.3752     25.6113    101.7481
  1564.5000      7.9186      2.6027      0.2064      2.8672     25.8800     97.5073
  1564.6000      7.9186      2.6049      0.2365      2.7352     25.7989     95.5934
  1564.7000      7.9186      2.6025      0.2264      2.8790     25.1922     96.0107
  1564.8000      7.8847      2.6031      0.1461      2.8398     24.5760     95.6733
  1564.9000      7.8847      2.6155      0.1325      2.0895     24.3004     95.3661
  1565.0000      7.8830      2.6309      0.1763      1.1602     24.1540     96.3052
  1565.1000      7.8830      2.6290      0.1545      1.2710     23.7206     96.5792
  1565.2000      7.8830      2.6079      0.1268      2.5525     23.1264     96.2609
  1565.3000      7.8928      2.5875      0.1015      3.7866     22.7405     97.9703
  1565.4000      7.8928      2.5855      0.1382      3.9103     22.5309    105.2373
  1565.5000      7.8993      2.6035      0.1161      2.8191     22.2966    118.4633
  1565.6000      7.8993      2.6298      0.1530      1.2230     22.0039    129.4290
  1565.7000      7.8993      2.6468      0.1959      0.1919     21.7778    131.0405
  1565.8000      7.8926      2.6495      0.2031      0.0298     21.7718    125.3904
  1565.9000      7.8926      2.6400      0.2080      0.6077     21.7989    118.5042
  1566.0000      7.9018      2.6230      0.1109      1.6362     21.5801    113.7493
  1566.1000      7.9018      2.6133      0.0298      2.2254     21.2282    108.8799
  1566.2000      7.9018      2.6147      0.0604      2.1422     20.7603    103.7376
  1566.3000      7.8998      2.6202      0.0206      1.8086     20.1719    102.2936
  1566.4000      7.8998      2.6284      0.0641      1.3075     19.7125    103.3773
  1566.5000      7.9016      2.6362      0.0529      0.8355     19.3625    100.3074
  1566.6000      7.9016      2.6393      0.0708      0.6494     19.1062     91.8646
  1566.7000      7.9016      2.6313      0.0841      1.1345     19.1841     86.5473
  1566.8000      7.9011      2.6099      0.0399      2.4302     19.6105     90.2378
  1566.9000      7.9011      2.5889      0.0373      3.7032     20.0313     97.6985
  1567.0000      7.9039      2.5874      0.0043      3.7924     20.1476    100.0934
  1567.1000      7.9039      2.6113      0.0484      2.3436     19.9852     95.5884
  1567.2000      7.9039      2.6411      0.0612      0.5388     20.0088     90.3032
  1567.3000      7.9026      2.6496      0.0830      0.0241     20.6106     88.5455
  1567.4000      7.9026      2.6398      0.0420      0.6197     21.4868     86.8933
  1567.5000      7.9031      2.6364      0.0512      0.8233     21.9336     82.6540
  1567.6000      7.9031      2.6412      0.0853      0.5324     21.8917     79.4947
  1567.7000      7.9031      2.6356      0.0700      0.8703     22.0546     81.5298
  1567.8000      7.8999      2.6134      0.0695      2.2167     22.8211     88.9231
  1567.9000      7.8999      2.5813      0.0425      4.1641     23.9696     95.0803
  1568.0000      7.9022      2.5455      0.0637      6.3317     25.0018     96.6546
  1568.1000      7.9022      2.5166     -0.0008      8.0861     25.5321    100.9642
  1568.2000      7.9022      2.5079      0.0382      8.6139     25.5306    109.1956
  1568.3000      7.8999      2.5145      0.0819      8.2146     25.4532    116.2435
  1568.4000      7.8999      2.5229      0.0595      7.7046     25.6548    121.2219
  1568.5000      7.8992      2.5355      0.0808      6.9386     25.9438    126.5610
  1568.6000      7.8992      2.5592      0.1313      5.5051     26.0713    133.3500
  1568.7000      7.8992      2.5858      0.1348      3.8922     26.0467    138.4887
  1568.8000      7.9084      2.5970      0.1662      3.2137     25.9259    136.8617
  1568.9000      7.9084      2.5941      0.1030      3.3866     25.6798    129.9323
  1569.0000      7.9276      2.6034      0.1057      2.8250     25.6154    124.7647
  1569.1000      7.9276      2.6270      0.1339      1.3927     25.8825    124.9041
  1569.2000      7.9276      2.6298      0.1293      1.2257     26.1222    128.0306
  1569.3000      7.9393      2.5959      0.0789      3.2771     26.1898    132.9413
  1569.4000      7.9393      2.5555      0.0298      5.7273     26.3323    142.9981
  1569.5000      7.9622      2.5404      0.0272      6.6443     26.7342    156.7090
  1569.6000      7.9622      2.5460      0.0561      6.3007     27.0697    165.4805
  1569.7000      7.9622      2.5497      0.0684      6.0792     27.2028    165.4313
  1569.8000      7.9668      2.5463      0.0330      6.2865     27.5445    163.6662
  1569.9000      7.9668      2.5419      0.0708      6.5515     28.0313    167.4463
  1570.0000      7.9657      2.5285      0.0779      7.3632     28.1764    172.2868
  1570.1000      7.9657      2.5057      0.0312      8.7434     28.0562    169.5745
  1570.2000      7.9657      2.4987      0.0159      9.1673     28.0466    157.6373
  1570.3000      7.9702      2.5209      0.0641      7.8248     28.2755    144.5749
  1570.4000      7.9702      2.5493      0.1195      6.1049     28.6503    139.8159
  1570.5000      7.9779      2.5556      0.1116      5.7225     28.9480    143.7068
  1570.6000      7.9779      2.5418      0.0945      6.5548     28.9345    152.6294
  1570.7000      7.9779      2.5358      0.0652      6.9197     28.5709    165.1002
