~Version Information
VERS.                      2.0: CWLS Log ASCII Standard - VERSION 2.0
WRAP.                       NO: One line per depth step
~Well Information Block
STRT.FT                -7.2500: 
STOP.FT               862.2500: 
STEP.FT                 0.2500: 
NULL.                -999.2500: 
COMP.          Pioneer Natural Resources: COMPANY
WELL.          Santisteven 13-22: WELL
FLD.           Purgatorie River: FIELD
LOC.           1861' FSL & 992' FWL--: LOCATION
PROV.                       CO: PROVINCE
CNTY.               Las Animas: COUNTRY
SRVC.          Patterson Wireline: SERVICE COMPANY
DATE.          Thu Apr 07 09:08:11 2005: LOG DATE
UWI.           05 071 08337 00: UNIQUE WELL ID
~Curve Information Block
DEPT.FT            0 000 00 00: Depth
CCL.                          : Casing Collar Locator
TT3.usec                      : CBL 3' Travel Time
AMP3.mV                       : CBL 3' Amplitude
GR.GAPI                       : Gamma Ray
~Parameter Information Block
~A  Depth       CCL         TT3         AMP3         GR     
# ...
   662.7500     -2.0000    790.1522      3.3959     60.6858
   663.0000      0.0000    778.1314      3.4283     60.4168
   663.2500      0.0000    768.5421      3.5580     61.4108
   663.5000      0.0000    763.3919      3.7473     63.9791
   663.7500      0.0000    763.4626      3.9463     68.6069
   664.0000      0.0000    767.5920      4.1189     74.9444
   664.2500      0.0000    772.6780      4.2344     81.7659
   664.5000      0.0000    775.0552      4.2559     87.8927
   664.7500      0.0000    772.4124      4.1602     92.8450
   665.0000      0.0000    765.0710      3.9852     96.6267
   665.2500      0.0000    755.7108      3.8367     99.1388
   665.5000      0.0000    747.6779      3.8090    100.0000
   665.7500      0.0000    743.2429      3.8877     99.0110
   666.0000      0.0000    743.0519      3.9596     96.6226
   666.2500      0.0000    746.4166      3.9375     93.7038
   666.5000      0.0000    751.5275      3.8558     90.9470
   666.7500      0.0000    755.8979      3.8251     88.7727
   667.0000      0.0000    757.7290      3.9016     87.6524
   667.2500      0.0000    757.1519      4.0167     87.9826
   667.5000      0.0000    755.7944      4.0342     89.6679
   667.7500      0.0000    755.2741      3.8654     92.3797
   668.0000      0.0000    756.3990      3.5386     96.0932
   668.2500      0.0000    759.0034      3.1837    100.4455
   668.5000      0.0000    761.6541      2.9580    103.6311
   668.7500      0.0000    762.1120      2.9648    103.2118
   669.0000      0.0000    759.1760      3.2030     98.5656
   669.2500      0.0000    754.1249      3.5674     91.7591
   669.5000      0.0000    749.8168      3.8986     85.6058
   669.7500      0.0000    748.2621      4.0640     81.4060
   670.0000      0.0000    749.2495      4.0289     78.8216
   670.2500      0.0000    751.3771      3.8768     77.3583
   670.5000      0.0000    754.2227      3.7498     77.1715
   670.7500      0.0000    758.9867      3.7408     78.1767
   671.0000      0.0000    766.6069      3.8263     79.0825
   671.2500      0.0000    775.6614      3.9058     78.2208
   671.5000      0.0000    782.9443      3.9138     75.2325
   671.7500      0.0000    786.2120      3.8854     71.2900
   672.0000      0.0000    785.8269      3.9048     67.8326
   672.2500      0.0000    783.6554      3.9950     65.6626
   672.5000      0.0000    780.9735      4.0768     65.1561
   672.7500      0.0000    777.6935      4.0464     66.6280
   673.0000      0.0000    773.2165      3.8882     70.0502
   673.2500      0.0000    767.6808      3.7072     74.5544
   673.5000      0.0000    762.0776      3.6456     78.5337
   673.7500      0.0000    756.9763      3.7605     80.4351
   674.0000      0.0000    751.7000      3.9753     79.7023
   674.2500      0.0000    745.6519      4.1502     77.2211
   674.5000      0.0000    740.0329      4.2061     74.8440
   674.7500      0.0000    737.0765      4.1793     74.2071
   675.0000      0.0000    737.6513      4.1543     75.7871
   675.2500      0.0000    740.4081      4.1590     78.9458
   675.5000      0.0000    742.9526      4.1480     82.6825
   675.7500      0.0000    743.3298      4.0886     86.2711
   676.0000      0.0000    740.9928      4.0216     89.3750
   676.2500      0.0000    737.1528      4.0091     91.7775
   676.5000      0.0000    734.0627      4.0451     93.1312
   676.7500      0.0000    733.3987      4.0602     93.0591
   677.0000      0.0000    735.2072      4.0204     91.4700
   677.2500      0.0000    738.5709      3.9826     88.7375
   677.5000      0.0000    743.0129      4.0297     85.7094
   677.7500      0.0000    748.8037      4.1656     83.4747
   678.0000      0.0000    755.8827      4.2931     82.6466
   678.2500      0.0000    762.8631      4.2991     82.7496
   678.5000      0.0000    767.4450      4.1641     82.7087
   678.7500      0.0000    768.0835      3.9947     82.0631
   679.0000      0.0000    765.3331      3.9396     81.3755
   679.2500      0.0000    761.5281      4.0597     81.4492
   679.5000      0.0000    758.8803      4.2724     82.4950
   679.7500      0.0000    757.8124      4.4184     84.0512
   680.0000      0.0000    757.0171      4.3768     85.3560
   680.2500      0.0000    754.8411      4.1339     85.6958
   680.5000      0.0000    750.6040      3.7821     84.6138
   680.7500      0.0000    745.0349      3.4694     82.0833
   681.0000      0.0000    739.6274      3.3272     78.7610
   681.2500      0.0000    735.2527      3.4088     75.9507
   681.5000      0.0000    731.2700      3.6749     74.8669
   681.7500      0.0000    726.1091      4.0274     75.7654
   682.0000      0.0000    719.0938      4.3589     77.9993
   682.2500      0.0000    711.9529      4.5850     80.8596
   682.5000      0.0000    707.9864      4.6545     83.9234
   682.7500      0.0000    709.0845      4.5485     86.6423
   683.0000      0.0000    714.0631      4.2824     88.2874
   683.2500      0.0000    720.3233      3.9091     88.5910
   683.5000      0.0000    726.1490      3.5178     88.0065
   683.7500      0.0000    730.9877      3.2143     87.1590
   684.0000      0.0000    734.6519      3.0858     86.4114
   684.2500      0.0000    737.1013      3.1666     85.9692
   684.5000      0.0000    738.5518      3.4259     85.8517
   684.7500      0.0000    739.2765      3.7861     85.6826
   685.0000      0.0000    739.2758      4.1603     84.9804
   685.2500      0.0000    738.0439      4.4871     83.7548
   685.5000      0.0000    734.6661      4.7428     82.6122
   685.7500      0.0000    728.4679      4.9276     82.3238
   686.0000      0.0000    720.0784      5.0473     83.3884
   686.2500      0.0000    711.7045      5.1038     85.8230
   686.5000      0.0000    705.8795      5.0971     89.1844
   686.7500      0.0000    703.7275      5.0268     92.7122
   687.0000      0.0000    704.6334      4.8905     95.4691
   687.2500      0.0000    707.4070      4.6841     96.5776
   687.5000      0.0000    711.3582      4.4081     95.5866
   687.7500      0.0000    716.4585      4.0772     92.6715
   688.0000      0.0000    723.2093      3.7237     88.6717
   688.2500      0.0000    732.4012      3.3893     85.0094
   688.5000      0.0000    744.0389      3.1076     83.1531
   688.7500      0.0000    756.0863      2.8901     83.6703
   689.0000      0.0000    764.8677      2.7263     85.7231
   689.2500      0.0000    767.1968      2.6008     87.6008
   689.5000      0.0000    762.2531      2.5094     87.9239
   689.7500      0.0000    751.8946      2.4598     86.6330
   690.0000      0.0000    739.4988      2.4600     84.9877
   690.2500      0.0000    728.2065      2.5124     84.5023
   690.5000      0.0000    720.0132      2.6173     85.6465
   690.7500      0.0000    716.0048      2.7739     87.3755
   691.0000      0.0000    716.4487      2.9740     87.8045
   691.2500      0.0000    720.1599      3.1959     85.3659
   691.5000      0.0000    724.4779      3.4085     79.5917
   691.7500      0.0000    726.7469      3.5802     71.2636
   692.0000      0.0000    726.1629      3.6846     62.0850
   692.2500      0.0000    724.2535      3.7007     54.0205
   692.5000      0.0000    723.4761      3.6188     48.5237
   692.7500      0.0000    725.0564      3.4539     45.9587
   693.0000      0.0000    727.9662      3.2567     45.5630
   693.2500      0.0000    729.8496      3.1031     46.1504
   693.5000      0.0000    728.6551      3.0591     47.0081
   693.7500      0.0000    723.8766      3.1426     48.0370
   694.0000      0.0000    717.2812      3.3171     49.1380
   694.2500      0.0000    712.5091      3.5247     49.8743
   694.5000      0.0000    712.7225      3.7274     49.8501
   694.7500      0.0000    717.9557      3.9212     49.1896
   695.0000      0.0000    725.2025      4.1167     48.5075
   695.2500      0.0000    731.1931      4.3070     48.3985
   695.5000      0.0000    734.6227      4.4524     48.8811
   695.7500      0.0000    736.0090      4.5091     49.2851
   696.0000      0.0000    736.3740      4.4726     48.7141
