~Version Information
VERS.                      2.0: CWLS Log ASCII Standard - VERSION 2.0
WRAP.                       NO: One line per depth step
~Well Information Block
STRT.FT                39.7500: 
STOP.FT              1484.0000: 
STEP.FT                 0.2500: 
NULL.                -999.2500: 
COMP.          Evergreen Operating Corporation: COMPANY
WELL.              Chase 21-10: WELL
FLD.           Purgatoire River: FIELD
LOC.           1122' FNL & 1544' FWL: LOCATION
PROV.                       CO: PROVINCE
CNTY.               Las Animas: COUNTRY
SRVC.                         : SERVICE COMPANY
DATE.          Fri May 28 15:54:16 2004: LOG DATE
UWI.           05 071 08006 00: UNIQUE WELL ID
~Curve Information Block
DEPT.FT            0 000 00 00: Depth
TT3.usec                      : CBL 3' Travel Time
AMP3.mV                       : CBL 3' Amplitude
GR.GAPI                       : Gamma Ray
CCL.                          : Casing Collar Locator
~Parameter Information Block
~A  Depth       TT3         AMP3         GR         CCL     
# ...
   977.7500    768.0000      7.4039    133.9366      0.0000
   978.0000    768.0000      7.4348    136.0784      0.0000
   978.2500    767.9986      7.4670    140.6981      0.0000
   978.5000    767.9908      7.5008    146.4439      0.0000
   978.7500    767.9536      7.5473    150.5946      0.0000
   979.0000    767.8165      7.6224    150.4531      0.0000
   979.2500    767.4347      7.7354    145.1445      0.0000
   979.5000    766.6439      7.8760    136.3320      0.0000
   979.7500    765.4664      8.0096    127.0356      0.0000
   980.0000    764.3136      8.0912    119.8283      0.0000
   980.2500    763.8228      8.0942    115.9968      0.0000
   980.5000    764.3136      8.0328    115.5535      0.0000
   980.7500    765.4664      7.9653    117.1922      0.0000
   981.0000    766.6439      7.9748    118.4214      0.0000
   981.2500    767.4347      8.1328    116.7945      0.0000
   981.5000    767.8165      8.4573    111.6664      0.0000
   981.7500    767.9536      8.8949    104.5570      0.0000
   982.0000    767.9908      9.3431     97.5504      0.0000
   982.2500    767.9986      9.7011     91.6645      0.0000
   982.5000    768.0000      9.9163     86.9259      0.0000
   982.7500    768.0000      9.9979     83.3203      0.0000
   983.0000    768.0000      9.9940     80.9205      0.0000
   983.2500    768.0000      9.9484     79.3106      0.0000
   983.5000    768.0000      9.8684     77.7066      0.0000
   983.7500    768.0000      9.7260     76.0496      0.0000
   984.0000    768.0000      9.4902     75.6955      0.0000
   984.2500    768.0000      9.1643     78.5106      0.0000
   984.5000    768.0000      8.8046     85.1520      0.0000
   984.7500    768.0000      8.5052     94.3214      0.0000
   985.0000    768.0000      8.3516    103.4921      0.0000
   985.2500    767.9977      8.3711    110.1710      0.0000
   985.5000    767.9830      8.5150    112.8343      0.0000
   985.7500    767.9084      8.6897    111.2499      0.0000
   986.0000    767.6131      8.8132    106.2796      0.0000
   986.2500    766.7026      8.8543     99.5701      0.0000
   986.5000    764.5186      8.8343     93.1558      0.0000
   986.7500    760.4283      8.8003     88.5781      0.0000
   987.0000    754.4437      8.7964     85.8315      0.0000
   987.2500    747.5387      8.8475     83.4518      0.0000
   987.5000    741.0605      8.9535     80.1339      0.0000
   987.7500    735.6061      9.0857     76.1877      0.0000
   988.0000    730.5921      9.1898     73.1877      0.0000
   988.2500    725.3234      9.2096     72.3482      0.0000
   988.5000    720.7729      9.1279     73.3251      0.0000
   988.7500    719.7413      9.0029     74.3856      0.0000
   989.0000    723.8867      8.9696     73.6663      0.0000
   989.2500    730.4313      9.1935     70.4333      0.0000
   989.5000    732.9324      9.7990     65.3109      0.0000
   989.7500    725.6311     10.8137     59.5660      0.0000
   990.0000    706.0940     12.1518     54.4149      3.0000
   990.2500    673.6461     13.6316     50.8059      0.0000
   990.5000    627.3196     15.0289     49.2837      0.0000
   990.7500    567.7059     16.2082     49.7362      0.0000
   991.0000    500.8191     17.2737     51.4186      0.0000
   991.2500    437.5074     18.5373     53.5149      0.0000
   991.5000    387.4154     20.2074     55.6689      0.0000
   991.7500    354.2130     22.0890     57.7685      0.0000
   992.0000    336.3816     23.6755     59.3861      0.0000
   992.2500    330.4249     24.5351     59.8603      0.0000
   992.5000    332.7404     24.5710     58.9311      0.0000
   992.7500    339.9399     23.9960     56.9337      0.0000
   993.0000    348.9241     23.1554     54.3549      0.0000
   993.2500    357.8402     22.3360     51.4815      0.0000
   993.5000    368.2273     21.6450     48.6370      0.0000
   993.7500    385.7314     21.0228     46.5760      0.0000
   994.0000    416.5706     20.3575     46.2791      0.0000
   994.2500    462.2529     19.5820     48.1956      0.0000
   994.5000    518.4514     18.6839     51.9542      0.0000
   994.7500    578.4917     17.6818     57.0138      0.0000
   995.0000    635.9099     16.6217     63.3250      0.0000
   995.2500    684.5833     15.5840     71.0147      0.0000
   995.5000    720.1819     14.6648     79.6183      0.0000
   995.7500    742.4662     13.9394     88.0560      0.0000
   996.0000    754.5576     13.4307     95.3201      0.0000
   996.2500    759.9681     13.0900    100.8550      0.0000
   996.5000    761.0197     12.8053    104.3913      0.0000
   996.7500    759.2374     12.4532    105.8838      0.0000
   997.0000    755.9439     11.9676    105.6814      0.0000
   997.2500    752.2422     11.3671    104.4257      0.0000
   997.5000    748.9807     10.7255    102.6678      0.0000
   997.7500    746.6633     10.1205    100.6431      0.0000
   998.0000    745.1880      9.5998     98.2936      0.0000
   998.2500    743.7985      9.1717     95.4212      0.0000
   998.5000    741.7434      8.8188     92.0096      0.0000
   998.7500    738.9345      8.5221     88.5752      0.0000
   999.0000    735.8296      8.2758     86.1308      0.0000
   999.2500    733.1031      8.0825     85.6012      0.0000
   999.5000    731.7055      7.9382     87.0744      0.0000
   999.7500    732.6115      7.8269     89.5822      0.0000
  1000.0000    735.8450      7.7278     91.6655      0.0000
  1000.2500    740.0637      7.6266     92.3196      0.0000
  1000.5000    743.5801      7.5218     91.6954      0.0000
  1000.7500    745.5495      7.4202     91.0768      0.0000
  1001.0000    746.1135      7.3246     92.0269      0.0000
  1001.2500    746.0446      7.2301     95.3317      0.0000
  1001.5000    746.3969      7.1355    100.5749      0.0000
  1001.7500    747.8840      7.0528    106.5053      0.0000
  1002.0000    750.2925      6.9980    111.7321      0.0000
  1002.2500    752.6333      6.9755    115.2702      0.0000
  1002.5000    753.9179      6.9729    116.7986      0.0000
  1002.7500    753.9518      6.9719    116.7461      0.0000
  1003.0000    753.5583      6.9615    116.0401      0.0000
  1003.2500    753.8210      6.9414    115.3620      0.0000
  1003.5000    755.0051      6.9166    114.5347      0.0000
  1003.7500    756.4749      6.8882    112.9448      0.0000
  1004.0000    757.5415      6.8504    110.5199      0.0000
  1004.2500    757.9526      6.7977    107.8139      0.0000
  1004.5000    757.7969      6.7338    105.1607      0.0000
  1004.7500    757.4775      6.6734    102.3981      0.0000
  1005.0000    757.6934      6.6350     99.5746      0.0000
  1005.2500    759.0057      6.6285     97.3633      0.0000
  1005.5000    761.3163      6.6474     96.4480      0.0000
  1005.7500    763.8935      6.6715     96.7921      0.0000
  1006.0000    765.9548      6.6825     97.6994      0.0000
  1006.2500    767.1856      6.6790     98.4289      0.0000
  1006.5000    767.7430      6.6790     98.7611      0.0000
  1006.7500    767.9362      6.7075     99.1731      0.0000
  1007.0000    767.9878      6.7808    100.4330      0.0000
  1007.2500    767.9981      6.8951    102.8299      0.0000
  1007.5000    768.0000      7.0270    105.7643      0.0000
  1007.7500    768.0000      7.1501    108.1787      0.0000
  1008.0000    768.0000      7.2543    109.3840      0.0000
  1008.2500    768.0000      7.3467    109.4476      0.0000
  1008.5000    768.0000      7.4334    108.8402      0.0000
  1008.7500    768.0000      7.5065    107.7411      0.0000
  1009.0000    768.0000      7.5524    105.6830      0.0000
  1009.2500    768.0000      7.5645    102.0044      0.0000
  1009.5000    768.0000      7.5458     96.8149      0.0000
  1009.7500    768.0000      7.5042     91.4442      0.0000
  1010.0000    768.0000      7.4487     87.7157      0.0000
  1010.2500    768.0000      7.3811     86.8027      0.0000
  1010.5000    768.0000      7.2913     88.8445      0.0000
  1010.7500    768.0000      7.1636     93.2735      0.0000
  1011.0000    768.0000      6.9946     98.9333      0.0000
