~Version Information
VERS.                      2.0: CWLS Log ASCII Standard - VERSION 2.0
WRAP.                       NO: One line per depth step
~Well Information Block
STRT.FT               270.0000: 
STOP.FT              1771.7000: 
STEP.FT                 0.1000: 
NULL.                -999.2500: 
COMP.          Pioneer Natural Resources: COMPANY
WELL.           Labrador 34-30: WELL
FLD.           Purgatoire River: FIELD
LOC.           926' FSL & 2080' FEL: LOCATION
PROV.                 Colorado: PROVINCE
CNTY.               Las Animas: COUNTRY
SRVC.                Patterson: SERVICE COMPANY
DATE.          Mon Dec 06 08:24:34 2004: LOG DATE
UWI.           05 071 08202 00: UNIQUE WELL ID
~Curve Information Block
DEPT.FT            0 000 00 00: Depth
DCAL.in                       : CDL Caliper
RHOB.g/cc                     : CDL Bulk Density
RHOC.g/cc                     : CDL Density Correction
DPOR.pu                       : CDL Density Porosity
NPOR.pu                       : Neutron Porosity
GR.GAPI                       : Gamma Ray
~Parameter Information Block
~A  Depth       DCAL        RHOB        RHOC        DPOR        NPOR         GR     
# ...
   951.6000      8.0744      2.5534      0.0232      5.8528     22.4603    123.0444
   951.7000      8.0744      2.5476      0.0049      6.2057     22.4045    119.5570
   951.8000      8.0827      2.5489      0.0540      6.1248     22.6704    115.1067
   951.9000      8.0827      2.5462      0.0478      6.2898     23.1163    113.0049
   952.0000      8.0684      2.5395      0.0268      6.6989     23.3595    114.6053
   952.1000      8.0684      2.5394      0.0416      6.7018     23.3209    118.6026
   952.2000      8.0684      2.5411      0.0611      6.5997     23.2717    121.8416
   952.3000      8.0392      2.5265      0.0773      7.4838     23.1036    122.1652
   952.4000      8.0392      2.4896      0.0749      9.7233     22.5938    121.2364
   952.5000      8.0244      2.4521     -0.0279     11.9949     22.0162    119.9889
   952.6000      8.0244      2.4396      0.0466     12.7505     21.7656    119.0251
   952.7000      8.0244      2.4496      0.0481     12.1433     21.9637    121.6908
   952.8000      8.0173      2.4733      0.0598     10.7115     22.3442    125.3987
   952.9000      8.0173      2.5084      0.0993      8.5847     22.5425    126.3713
   953.0000      8.0124      2.5473      0.1128      6.2261     22.5154    127.1023
   953.1000      8.0124      2.5745      0.1348      4.5730     22.5913    127.8607
   953.2000      8.0124      2.5749      0.1400      4.5504     23.0708    125.3500
   953.3000      8.0092      2.5584      0.1172      5.5505     23.6641    121.4265
   953.4000      8.0092      2.5548      0.0918      5.7711     24.0440    120.1979
   953.5000      8.0068      2.5717      0.1030      4.7441     24.3021    119.4625
   953.6000      8.0068      2.5873      0.1020      3.8021     24.4166    119.3996
   953.7000      8.0068      2.5810      0.1083      4.1812     24.4775    120.6855
   953.8000      8.0140      2.5604      0.0280      5.4320     24.7918    116.7297
   953.9000      8.0140      2.5477      0.0487      6.1984     25.1996    107.7370
   954.0000      8.0284      2.5435      0.0771      6.4531     25.3166    103.2146
   954.1000      8.0284      2.5363      0.0484      6.8932     24.9675    104.4426
   954.2000      8.0284      2.5327      0.0060      7.1118     24.5238    105.7985
   954.3000      8.0386      2.5395      0.0717      6.6989     24.5013    107.2464
   954.4000      8.0386      2.5438      0.0626      6.4369     24.8493    112.6182
   954.5000      8.0462      2.5301      0.0807      7.2680     25.2414    123.0776
   954.6000      8.0462      2.4947      0.0327      9.4135     25.3073    130.3024
   954.7000      8.0462      2.4456      0.0175     12.3859     24.6591    127.0135
   954.8000      8.0511      2.3930      0.0055     15.5781     23.5406    122.0227
   954.9000      8.0511      2.3515     -0.0267     18.0917     22.8112    125.3613
   955.0000      8.0480      2.3437     -0.0259     18.5617     22.8501    133.3788
   955.1000      8.0480      2.3813     -0.0274     16.2860     23.3515    140.1525
   955.2000      8.0480      2.4450      0.0632     12.4232     23.8758    144.4742
   955.3000      8.0504      2.4928      0.1332      9.5252     24.0400    144.7148
   955.4000      8.0504      2.5009      0.1210      9.0340     23.9125    140.5195
   955.5000      8.0635      2.4815      0.1200     10.2114     23.9859    135.9572
   955.6000      8.0635      2.4607      0.0602     11.4754     24.4592    137.6974
   955.7000      8.0635      2.4559      0.1002     11.7612     24.8156    146.2066
   955.8000      8.0782      2.4668      0.1120     11.1009     24.5922    153.4041
   955.9000      8.0782      2.4810      0.1376     10.2420     24.0471    156.1985
   956.0000      8.0906      2.4812      0.1356     10.2295     23.7339    158.4829
   956.1000      8.0906      2.4615      0.0432     11.4271     23.9759    160.3947
   956.2000      8.0906      2.4352      0.0421     13.0198     24.4892    157.5773
   956.3000      8.1041      2.4222      0.0331     13.8056     24.6350    151.5933
   956.4000      8.1041      2.4381      0.0572     12.8443     24.0997    149.8352
   956.5000      8.1146      2.4722      0.1126     10.7750     23.1212    152.7985
   956.6000      8.1146      2.4914      0.1033      9.6116     22.3028    156.4405
   956.7000      8.1146      2.4830      0.1259     10.1190     22.0576    160.8057
   956.8000      8.1121      2.4689      0.0531     10.9739     22.2601    163.8129
   956.9000      8.1121      2.4642      0.1058     11.2616     22.2820    158.3306
   957.0000      8.1015      2.4545      0.0907     11.8515     21.6996    144.3869
   957.1000      8.1015      2.4382      0.0529     12.8334     20.9643    133.1549
   957.2000      8.1015      2.4341      0.1042     13.0830     20.6407    131.4615
   957.3000      8.0934      2.4474      0.0721     12.2802     20.7173    135.0756
   957.4000      8.0934      2.4704      0.0996     10.8865     20.9495    136.6825
   957.5000      8.0839      2.4923      0.0934      9.5563     21.1431    133.8106
   957.6000      8.0839      2.4994      0.1211      9.1303     21.1281    129.2149
   957.7000      8.0839      2.4883      0.0556      9.7978     20.9140    125.3509
   957.8000      8.0658      2.4798      0.0742     10.3147     20.7442    123.7461
   957.9000      8.0658      2.4922      0.0730      9.5663     20.6022    123.2567
   958.0000      8.0409      2.5185      0.0735      7.9687     20.2229    120.6613
   958.1000      8.0409      2.5432      0.1110      6.4729     19.7564    115.4999
   958.2000      8.0409      2.5659      0.1161      5.0962     19.6915    108.7304
   958.3000      8.0186      2.5922      0.1468      3.5051     20.0276    100.9854
   958.4000      8.0186      2.6149      0.1721      2.1246     20.5135     94.2508
   958.5000      8.0064      2.6312      0.1355      1.1407     21.0395     90.7380
   958.6000      8.0064      2.6504      0.1056     -0.0245     21.4345     89.6327
   958.7000      8.0064      2.6693      0.1239     -1.1682     21.5093     88.7930
   958.8000      8.0069      2.6757      0.1106     -1.5605     21.2065     88.0510
   958.9000      8.0069      2.6710      0.0867     -1.2730     20.8055     87.1432
   959.0000      8.0215      2.6586      0.0731     -0.5208     20.7312     85.7709
   959.1000      8.0215      2.6374      0.0311      0.7632     21.0369     85.7663
   959.2000      8.0215      2.6111      0.0247      2.3596     21.5052     86.7472
   959.3000      8.0339      2.5869      0.0220      3.8246     22.0285     86.4476
   959.4000      8.0339      2.5714     -0.0032      4.7640     22.5591     83.8800
   959.5000      8.0323      2.5713     -0.0207      4.7716     22.9818     78.5063
   959.6000      8.0323      2.5861      0.0335      3.8722     23.1926     73.2600
   959.7000      8.0323      2.6046      0.0162      2.7524     23.1791     71.6156
   959.8000      8.0267      2.6243      0.0259      1.5562     23.1108     71.3162
   959.9000      8.0267      2.6448      0.0615      0.3148     23.1455     71.4255
   960.0000      8.0324      2.6491      0.0800      0.0544     23.2635     73.2343
   960.1000      8.0324      2.6259      0.0526      1.4621     23.3401     74.8766
   960.2000      8.0324      2.5904     -0.0353      3.6118     23.2340     74.6538
   960.3000      8.0407      2.5705     -0.0010      4.8184     23.0541     73.4084
   960.4000      8.0407      2.5784     -0.0170      4.3379     23.2590     73.8737
   960.5000      8.0407      2.5983      0.0265      3.1363     23.9063     80.0085
   960.6000      8.0407      2.6027      0.0711      2.8687     24.3747     90.0339
   960.7000      8.0407      2.5910      0.0213      3.5788     24.2769     96.5030
   960.8000      8.0389      2.5849      0.0013      3.9462     24.0345     97.7342
   960.9000      8.0389      2.5794      0.0491      4.2784     24.1098    100.3083
   961.0000      8.0451      2.5511     -0.0048      5.9910     24.3477    107.1085
   961.1000      8.0451      2.5099     -0.0393      8.4903     24.5903    114.0502
