~Version Information
VERS.                      2.0: CWLS Log ASCII Standard - VERSION 2.0
WRAP.                       NO: One line per depth step
~Well Information Block
STRT.FT               554.1000: 
STOP.FT              2173.5000: 
STEP.FT                 0.1000: 
NULL.                -999.2500: 
COMP.          Petrogulf Corporation: COMPANY
WELL.            Montoya 6-14R: WELL
FLD.           Purgatorie River: FIELD
LOC.           867' FSL & 751' FWL: LOCATION
CNTY.               Las Animas: COUNTY
SRVC.                         : SERVICE COMPANY
DATE.          Mon Nov 15 06:14:10 2004: LOG DATE
UWI.           05 071 08242 00: UNIQUE WELL ID
STAT.                 Colorado: STATE
~Curve Information Block
DEPT.FT            0 000 00 00: Depth
DCAL.in                       : CDL Caliper
RHOB.g/cc                     : CDL Bulk Density
RHOC.g/cc                     : CDL Density Correction
DPOR.pu                       : CDL Density Porosity
GR.GAPI                       : Gamma Ray
NPOR.pu                       : Neutron Porosity
~Parameter Information Block
~A  Depth       DCAL        RHOB        RHOC        DPOR         GR         NPOR    
# ...
   784.5000      8.2766      2.4858      0.0735      9.9488    140.4466     26.6794
   784.6000      8.2766      2.4903      0.0148      9.6781    141.1235     26.9737
   784.7000      8.2766      2.5026      0.0783      8.9310    136.9939     27.0497
   784.8000      8.2765      2.5156      0.0810      8.1479    129.0867     26.9409
   784.9000      8.2765      2.5261      0.0746      7.5076    123.4602     26.8590
   785.0000      8.2757      2.5351      0.0680      6.9663    122.8027     26.9993
   785.1000      8.2757      2.5367      0.1115      6.8668    124.4931     27.0718
   785.2000      8.2757      2.5272      0.0708      7.4432    127.5723     26.7309
   785.3000      8.2756      2.5121      0.0073      8.3567    130.8369     26.0667
   785.4000      8.2756      2.4993     -0.0004      9.1334    131.3951     25.2559
   785.5000      8.2769      2.4904      0.0042      9.6726    129.0402     24.5693
   785.6000      8.2769      2.4776      0.0323     10.4468    125.9069     24.3930
   785.7000      8.2769      2.4609     -0.0117     11.4577    126.1454     24.7232
   785.8000      8.2788      2.4546      0.0174     11.8410    132.0451     25.2696
   785.9000      8.2788      2.4564      0.0301     11.7322    138.3484     25.8522
   786.0000      8.2817      2.4512      0.0361     12.0484    142.2247     26.3046
   786.1000      8.2817      2.4384      0.0261     12.8215    145.9574     26.4272
   786.2000      8.2817      2.4184      0.0186     14.0364    147.1906     26.2751
   786.3000      8.2850      2.3729      0.0375     16.7935    144.8703     25.9998
   786.4000      8.2850      2.2886     -0.0188     21.9018    143.2671     25.5416
   786.5000      8.2881      2.1751     -0.0077     28.7847    145.8988     24.8651
   786.6000      8.2881      2.0521     -0.0961     36.2338    153.7467     24.0445
   786.7000      8.2881      1.9437     -0.0903     42.8071    163.0203     22.9946
   786.8000      8.2937      1.8694     -0.1258     47.3090    167.3135     21.7100
   786.9000      8.2937      1.8417     -0.1347     48.9862    165.1989     20.7171
   787.0000      8.3171      1.8639     -0.0254     47.6412    161.4776     20.6459
   787.1000      8.3171      1.9485     -0.0066     42.5174    160.2082     21.3319
   787.2000      8.3171      2.1229      0.1794     31.9436    161.0958     21.9378
   787.3000      8.4199      2.3548      0.6101     17.8900    162.8060     22.2974
   787.4000      8.4199      2.5368      0.7393      6.8631    165.1562     23.1502
   787.5000      8.6529      2.6064      0.6316      2.6440    168.0040     24.5117
   787.6000      8.6529      2.6047      0.4791      2.7457    167.7599     25.6723
   787.7000      8.6529      2.5940      0.3805      3.3925    164.7212     26.4792
   787.8000      8.7758      2.5855      0.2808      3.9100    163.2200     27.1785
   787.9000      8.7758      2.5631      0.2068      5.2692    163.0875     27.7395
   788.0000      8.5731      2.5341      0.0430      7.0248    164.4203     28.2542
   788.1000      8.5731      2.5296     -0.0011      7.2992    169.7719     29.0017
   788.2000      8.5731      2.5577      0.0634      5.5929    178.3380     29.6240
   788.3000      8.3766      2.5890      0.0681      3.6959    184.1500     29.5553
   788.4000      8.3766      2.5976      0.0645      3.1741    181.9229     29.0359
   788.5000      8.3307      2.5868      0.0428      3.8276    173.1284     28.7183
   788.6000      8.3307      2.5738      0.0180      4.6169    164.0462     28.9248
   788.7000      8.3307      2.5736      0.0203      4.6325    160.7058     29.2392
   788.8000      8.3290      2.5933      0.0412      3.4373    162.8970     28.9842
   788.9000      8.3290      2.6254      0.0661      1.4903    161.7061     28.3426
   789.0000      8.3314      2.6533      0.0680     -0.2009    153.8090     28.0980
   789.1000      8.3314      2.6695      0.0283     -1.1792    145.0772     28.3140
   789.2000      8.3314      2.6755      0.0451     -1.5469    145.8675     28.4370
   789.3000      8.3348      2.6769      0.0216     -1.6307    158.3210     28.3433
   789.4000      8.3348      2.6777      0.0559     -1.6818    168.5901     28.1570
   789.5000      8.3396      2.6741      0.0397     -1.4634    167.6084     28.0258
   789.6000      8.3396      2.6667      0.0097     -1.0123    160.6135     28.2124
   789.7000      8.3396      2.6684      0.0026     -1.1165    154.1535     28.6008
   789.8000      8.3479      2.6872      0.0357     -2.2555    150.6187     28.6556
   789.9000      8.3479      2.7063      0.0898     -3.4104    153.5340     28.1231
   790.0000      8.3565      2.7056      0.0562     -3.3683    159.7808     27.1695
   790.1000      8.3565      2.6953      0.0398     -2.7445    159.7735     26.3049
   790.2000      8.3565      2.6922      0.0702     -2.5605    155.7901     25.8599
   790.3000      8.3616      2.7014      0.0386     -3.1128    157.3557     25.6553
   790.4000      8.3616      2.7161      0.1266     -4.0073    164.7441     25.7789
   790.5000      8.3648      2.7097      0.0919     -3.6167    170.6317     26.2533
   790.6000      8.3648      2.6736      0.0438     -1.4290    170.7882     26.4489
   790.7000      8.3648      2.6367      0.0157      0.8068    166.2927     26.2692
   790.8000      8.3684      2.6185      0.0529      1.9093    162.9395     26.2344
   790.9000      8.3684      2.6045      0.0599      2.7565    167.4763     26.3322
   791.0000      8.3727      2.5869      0.0138      3.8246    176.5700     26.3822
   791.1000      8.3727      2.5788      0.0561      4.3135    181.8997     26.4238
   791.2000      8.3727      2.5808      0.0365      4.1958    182.9176     26.4818
   791.3000      8.3795      2.5854      0.0115      3.9128    183.6136     26.6071
   791.4000      8.3795      2.5959      0.0253      3.2801    185.2389     26.8793
   791.5000      8.3892      2.6118      0.0555      2.3180    186.5329     27.2453
   791.6000      8.3892      2.6256      0.0301      1.4767    187.4183     27.3788
   791.7000      8.3892      2.6316      0.0222      1.1158    187.8995     27.0920
   791.8000      8.3982      2.6271      0.0510      1.3904    185.9681     26.8032
   791.9000      8.3982      2.6187      0.0152      1.8997    181.1937     26.8144
   792.0000      8.4062      2.6124      0.0499      2.2795    174.4345     27.1122
   792.1000      8.4062      2.6007      0.0130      2.9909    165.9076     27.6933
   792.2000      8.4062      2.5833      0.0154      4.0429    160.1774     28.4311
   792.3000      8.4106      2.5727      0.0040      4.6836    159.5554     28.9695
   792.4000      8.4106      2.5785      0.0026      4.3337    160.0092     29.1141
   792.5000      8.4110      2.5964      0.0314      3.2493    161.8000     29.0254
   792.6000      8.4110      2.6074      0.0603      2.5823    165.7946     28.7588
   792.7000      8.4110      2.6043      0.0062      2.7675    166.4900     28.2757
   792.8000      8.4125      2.6043      0.0173      2.7719    161.5832     27.6506
   792.9000      8.4125      2.6169      0.0540      2.0086    156.6935     27.1761
   793.0000      8.4157      2.6325      0.0709      1.0607    156.0811     27.2696
   793.1000      8.4157      2.6451      0.0538      0.2990    156.7271     27.6228
   793.2000      8.4157      2.6575      0.0663     -0.4517    155.3459     27.7079
   793.3000      8.4178      2.6701      0.0557     -1.2185    152.5452     27.6085
   793.4000      8.4178      2.6810      0.0380     -1.8785    153.1377     27.4007
   793.5000      8.4185      2.6804      0.1057     -1.8433    160.8153     27.0471
   793.6000      8.4185      2.6612      0.0676     -0.6776    169.1928     26.6359
   793.7000      8.4185      2.6372      0.0643      0.7757    172.7975     26.2511
   793.8000      8.4188      2.6238      0.0497      1.5897    173.9218     25.8570
   793.9000      8.4188      2.6155      0.0688      2.0910    171.8554     25.3520
   794.0000      8.4191      2.5956      0.0238      3.2981    164.9951     24.8881
