~Version Information
VERS.                      2.0: CWLS Log ASCII Standard - VERSION 2.0
WRAP.                       NO: One line per depth step
~Well Information Block
STRT.FT               360.0000: 
STOP.FT              2515.2000: 
STEP.FT                 0.1000: 
NULL.                -999.2500: 
COMP.          Pioneer Natural Resources: COMPANY
WELL.            Rancher 12-35: WELL
FLD.           Purgatoire River: FIELD
LOC.           2131' FNL & 297' FWL: LOCATION
PROV.                 Colorado: PROVINCE
CNTY.               Las Animas: COUNTRY
SRVC.                Patterson: SERVICE COMPANY
DATE.          Tue Oct 12 09:11:02 2004: LOG DATE
UWI.           05 071 08179 00: UNIQUE WELL ID
~Curve Information Block
DEPT.FT            0 000 00 00: Depth
DCAL.in                       : CDL Caliper
RHOB.g/cc                     : CDL Bulk Density
RHOC.g/cc                     : CDL Density Correction
DPOR.pu                       : CDL Density Porosity
NPOR.pu                       : Neutron Porosity
GR.GAPI                       : Gamma Ray
~Parameter Information Block
~A  Depth       DCAL        RHOB        RHOC        DPOR        NPOR         GR     
# ...
  1204.8000      8.0875      2.6103      0.0500      2.4068     22.3091     81.3700
  1204.9000      8.0875      2.6433      0.0736      0.4060     22.5799     81.1522
  1205.0000      8.0727      2.6472      0.0674      0.1720     22.4683     82.1298
  1205.1000      8.0727      2.6217      0.0143      1.7138     21.9852     82.1486
  1205.2000      8.0727      2.5883      0.0228      3.7382     21.2990     78.7647
  1205.3000      8.0682      2.5625     -0.0150      5.3017     20.3463     74.0395
  1205.4000      8.0682      2.5440      0.0267      6.4223     19.1089     70.3084
  1205.5000      8.0665      2.5265      0.0306      7.4853     18.1116     66.8869
  1205.6000      8.0665      2.5078      0.0296      8.6193     17.5248     64.8059
  1205.7000      8.0665      2.4818      0.0072     10.1916     17.0370     65.4368
  1205.8000      8.0636      2.4457     -0.0202     12.3838     16.7585     67.5223
  1205.9000      8.0636      2.4113     -0.0290     14.4655     16.6298     69.6568
  1206.0000      8.0597      2.3872     -0.0013     15.9279     16.0876     68.7577
  1206.1000      8.0597      2.3754     -0.0253     16.6426     15.1758     62.0929
  1206.2000      8.0597      2.3814      0.0166     16.2790     14.5999     54.8650
  1206.3000      8.0576      2.4094      0.0256     14.5810     14.6211     53.0651
  1206.4000      8.0576      2.4656      0.0333     11.1785     14.9348     54.0618
  1206.5000      8.0602      2.5423      0.1075      6.5264     15.1340     53.2058
  1206.6000      8.0602      2.6025      0.1662      2.8783     14.8730     51.7840
  1206.7000      8.0602      2.6195      0.1436      1.8470     14.3047     51.2428
  1206.8000      8.0699      2.6070      0.1501      2.6040     13.7508     50.7058
  1206.9000      8.0699      2.5910      0.1041      3.5770     13.3317     52.4085
  1207.0000      8.0970      2.5813      0.1145      4.1630     13.2956     56.9605
  1207.1000      8.0970      2.5689      0.0887      4.9154     13.7083     58.4341
  1207.2000      8.0970      2.5520      0.0180      5.9411     13.9688     54.0502
  1207.3000      8.1455      2.5432      0.0504      6.4757     13.7353     49.4552
  1207.4000      8.1455      2.5415      0.0225      6.5776     13.5314     47.6983
  1207.5000      8.1850      2.5345      0.0336      6.9995     13.4206     47.1121
  1207.6000      8.1850      2.5275     -0.0071      7.4270     13.1366     48.3779
  1207.7000      8.1850      2.5384      0.0236      6.7633     13.0501     51.7918
  1207.8000      8.1871      2.5602      0.0787      5.4451     13.2951     53.3242
  1207.9000      8.1871      2.5648      0.0692      5.1666     13.5985     50.4588
  1208.0000      8.1683      2.5445      0.0266      6.3920     13.8426     47.2924
  1208.1000      8.1683      2.5227      0.0001      7.7129     14.1154     48.2119
  1208.2000      8.1683      2.5202     -0.0143      7.8670     14.4383     51.5189
  1208.3000      8.1537      2.5257      0.0520      7.5309     14.6146     52.0056
  1208.4000      8.1537      2.5229     -0.0060      7.7030     14.7475     49.9638
  1208.5000      8.1440      2.5244      0.0276      7.6132     15.1737     50.6811
  1208.6000      8.1440      2.5466      0.0080      6.2653     15.7962     52.5578
  1208.7000      8.1440      2.5822      0.0459      4.1096     16.0573     51.6911
  1208.8000      8.1383      2.6038      0.0582      2.7996     15.8472     50.2063
  1208.9000      8.1383      2.5993      0.0410      3.0713     15.8006     50.7617
  1209.0000      8.1378      2.5865      0.0360      3.8468     16.2574     52.2214
  1209.1000      8.1378      2.5799      0.0264      4.2462     16.8930     53.4010
  1209.2000      8.1378      2.5857     -0.0030      3.8968     17.5377     55.7860
  1209.3000      8.1402      2.6068      0.0288      2.6203     18.3248     59.0504
  1209.4000      8.1402      2.6262      0.0347      1.4428     19.1436     60.2996
  1209.5000      8.1430      2.6240      0.0376      1.5759     19.5266     58.4094
  1209.6000      8.1430      2.6083     -0.0253      2.5269     19.1209     53.6219
  1209.7000      8.1430      2.6051     -0.0406      2.7230     18.4245     48.7421
  1209.8000      8.1415      2.6166      0.0446      2.0229     18.4758     47.8927
  1209.9000      8.1415      2.6254      0.0099      1.4907     19.5445     52.0920
  1210.0000      8.1370      2.6323      0.0074      1.0709     20.5789     57.6627
  1210.1000      8.1370      2.6490      0.0243      0.0608     20.7983     59.4650
  1210.2000      8.1370      2.6753      0.0425     -1.5342     20.8262     57.3679
  1210.3000      8.1359      2.7077      0.0144     -3.4942     21.2879     54.4844
  1210.4000      8.1359      2.7459      0.0547     -5.8091     21.8777     51.3917
  1210.5000      8.1394      2.7741      0.0887     -7.5239     22.2788     47.4525
  1210.6000      8.1394      2.7687      0.1237     -7.1909     22.8443     44.2132
  1210.7000      8.1394      2.7370      0.0408     -5.2728     23.6855     43.1989
  1210.8000      8.1432      2.7105      0.0262     -3.6667     24.6514     45.1076
  1210.9000      8.1432      2.7000      0.0345     -3.0295     25.7234     49.7519
  1211.0000      8.1443      2.6928      0.0268     -2.5944     26.8537     54.9904
  1211.1000      8.1443      2.6829      0.0083     -1.9945     28.0862     59.2822
  1211.2000      8.1443      2.6765     -0.0025     -1.6050     29.0636     61.9375
  1211.3000      8.1472      2.6626      0.0474     -0.7611     28.9187     61.1575
  1211.4000      8.1472      2.6217     -0.0109      1.7139     27.8008     58.6666
  1211.5000      8.1554      2.5622     -0.0183      5.3230     26.8792     60.8905
  1211.6000      8.1554      2.4989     -0.0154      9.1560     26.4134     70.6104
  1211.7000      8.1554      2.4343     -0.0091     13.0717     25.9554     83.1082
  1211.8000      8.1666      2.3773     -0.0792     16.5244     25.4861     90.9469
  1211.9000      8.1666      2.3417     -0.0515     18.6857     24.8700     91.6281
  1212.0000      8.1777      2.3268     -0.0342     19.5861     24.0069     91.2344
  1212.1000      8.1777      2.3230     -0.0549     19.8171     23.2962     95.0249
  1212.2000      8.1777      2.3214      0.0023     19.9169     22.9961     99.6837
  1212.3000      8.1805      2.3124      0.0736     20.4597     22.7950    100.0775
  1212.4000      8.1805      2.2934      0.0454     21.6105     22.1834     97.9607
  1212.5000      8.1780      2.2785      0.0762     22.5141     21.0996     99.6880
  1212.6000      8.1780      2.2849      0.0456     22.1268     20.0749    105.0570
  1212.7000      8.1780      2.3111      0.1090     20.5388     19.4800    110.1882
  1212.8000      8.1746      2.3340      0.1180     19.1538     19.2752    113.6374
  1212.9000      8.1746      2.3401      0.0887     18.7792     19.2066    114.5871
  1213.0000      8.1677      2.3384      0.0708     18.8854     19.0973    116.1834
  1213.1000      8.1677      2.3392      0.0662     18.8386     19.1287    119.2953
  1213.2000      8.1677      2.3378      0.1021     18.9235     19.3982    119.3455
  1213.3000      8.1624      2.3231      0.0810     19.8092     19.7473    120.0578
  1213.4000      8.1624      2.3016      0.0491     21.1146     20.1649    128.2264
  1213.5000      8.1619      2.2886      0.0629     21.9007     20.6740    137.6624
  1213.6000      8.1619      2.2863      0.0598     22.0442     21.2024    139.9852
  1213.7000      8.1619      2.2869      0.0548     22.0074     21.5704    139.1312
  1213.8000      8.1620      2.2898      0.0111     21.8296     21.6617    143.2489
  1213.9000      8.1620      2.2949      0.0684     21.5204     21.6907    149.8949
  1214.0000      8.1620      2.2955      0.0850     21.4834     21.7638    151.3661
  1214.1000      8.1620      2.2987      0.0674     21.2916     21.6717    146.3781
  1214.2000      8.1620      2.3145      0.1242     20.3354     21.4062    139.7947
  1214.3000      8.1636      2.3434      0.0904     18.5848     21.3587    136.5340
