~Version Information
VERS.                      2.0: CWLS Log ASCII Standard - VERSION 2.0
WRAP.                       NO: One line per depth step
~Well Information Block
STRT.FT               640.0000: 
STOP.FT               927.0000: 
STEP.FT                 0.2500: 
NULL.                -999.2500: 
COMP.          Pioneer Natural Resources: COMPANY
WELL.          Claim Jumper 41-22: WELL
FLD.           Purgatoire River: FIELD
LOC.           1120' FNL & 977' FEL: LOCATION
PROV.                 Colorado: PROVINCE
CNTY.               Las Animas: COUNTRY
SRVC.                Patterson: SERVICE COMPANY
DATE.          Wed Jun 22 15:44:21 2005: LOG DATE
UWI.           05-071-08405-00: UNIQUE WELL ID
~Curve Information Block
DEPT.FT            0 000 00 00: Depth
DIR.Ohm-m                     : IEL Induction Resistivity
GR.GAPI                       : Gamma Ray
~Parameter Information Block
~A  Depth       DIR          GR     
# ...
   863.0000     25.0093    103.2663
   863.2500     24.8625    103.8826
   863.5000     24.7414    105.0507
   863.7500     24.6966    105.9185
   864.0000     24.7673    106.5791
   864.2500     24.9543    106.1853
   864.5000     25.1997    104.8306
   864.7500     25.3949    104.3179
   865.0000     25.4302    105.5290
   865.2500     25.2606    107.8838
   865.5000     24.9308    113.0849
   865.7500     24.5399    116.8517
   866.0000     24.1831    121.2829
   866.2500     23.9239    122.7328
   866.5000     23.7974    122.5958
   866.7500     23.8220    121.4232
   867.0000     23.9936    118.9772
   867.2500     24.2656    117.3944
   867.5000     24.5354    115.9237
   867.7500     24.6690    115.8290
   868.0000     24.5668    116.8172
   868.2500     24.2274    117.8689
   868.5000     23.7479    119.6205
   868.7500     23.2642    120.9208
   869.0000     22.8891    123.1435
   869.2500     22.6825    124.6716
   869.5000     22.6485    126.5742
   869.7500     22.7389    127.2872
   870.0000     22.8687    126.9056
   870.2500     22.9484    125.3177
   870.5000     22.9235    120.8240
   870.7500     22.7898    116.9314
   871.0000     22.5712    111.4747
   871.2500     22.2919    109.1423
   871.5000     21.9747    108.4984
   871.7500     21.6564    109.7861
   872.0000     21.3843    113.0955
   872.2500     21.1858    115.3377
   872.5000     21.0463    117.6781
   872.7500     20.9211    118.5652
   873.0000     20.7722    120.0335
   873.2500     20.5877    121.9334
   873.5000     20.3664    126.6131
   873.7500     20.0962    130.3176
   874.0000     19.7583    134.8912
   874.2500     19.3525    136.6074
   874.5000     18.9141    137.4493
   874.7500     18.5024    137.3460
   875.0000     18.1743    136.3588
   875.2500     17.9613    134.9343
   875.5000     17.8606    131.8403
   875.7500     17.8392    129.6539
   876.0000     17.8506    126.6574
   876.2500     17.8552    124.5417
   876.5000     17.8322    120.4649
   876.7500     17.7771    117.2358
   877.0000     17.6889    112.9640
   877.2500     17.5638    111.4718
   877.5000     17.3989    111.9401
   877.7500     17.2002    113.7093
   878.0000     16.9882    117.7177
   878.2500     16.7934    121.0735
   878.5000     16.6461    126.6185
   878.7500     16.5636    129.8910
   879.0000     16.5435    132.5894
   879.2500     16.5615    132.4100
   879.5000     16.5783    129.5713
   879.7500     16.5551    126.8677
   880.0000     16.4719    123.6927
   880.2500     16.3388    123.1875
   880.5000     16.1905    125.3158
   880.7500     16.0690    127.9851
   881.0000     16.0069    131.9989
   881.2500     16.0196    134.1294
   881.5000     16.1063    137.0589
   881.7500     16.2518    139.0951
   882.0000     16.4264    140.8899
   882.2500     16.5856    139.9131
   882.5000     16.6762    134.5282
   882.7500     16.6520    129.3151
   883.0000     16.4949    121.5993
   883.2500     16.2279    117.7419
   883.5000     15.9085    115.2885
   883.7500     15.6020    116.2193
   884.0000     15.3538    120.5864
   884.2500     15.1765    124.1551
   884.5000     15.0590    128.2389
   884.7500     14.9870    129.6201
   885.0000     14.9556    130.4057
   885.2500     14.9663    130.8478
   885.5000     15.0161    132.0342
   885.7500     15.0948    132.8384
   886.0000     15.1920    132.7501
   886.2500     15.3059    131.1783
   886.5000     15.4441    126.3263
   886.7500     15.6199    121.8571
   887.0000     15.8482    114.6378
   887.2500     16.1448    110.2508
   887.5000     16.5242    105.0945
   887.7500     16.9916    102.6763
   888.0000     17.5345    100.1839
   888.2500     18.1199     98.9437
   888.5000     18.7063     97.5405
   888.7500     19.2645     97.1876
   889.0000     19.7900     98.0778
   889.2500     20.2902     99.5440
   889.5000     20.7597    102.3245
   889.7500     21.1642    104.2071
   890.0000     21.4505    106.9931
   890.2500     21.5744    108.9580
   890.5000     21.5294    112.2128
   890.7500     21.3551    114.5819
   891.0000     21.1146    118.4316
   891.2500     20.8589    121.1606
   891.5000     20.6061    125.0214
   891.7500     20.3473    126.9594
   892.0000     20.0692    128.5261
   892.2500     19.7683    128.9537
   892.5000     19.4522    129.2818
   892.7500     19.1375    129.0973
   893.0000     18.8503    126.7884
   893.2500     18.6235    123.1193
   893.5000     18.4854    114.9592
   893.7500     18.4466    109.4373
   894.0000     18.4953    104.8138
   894.2500     18.6051    105.6011
   894.5000     18.7455    112.1202
   894.7500     18.8899    118.1349
   895.0000     19.0167    125.5136
   895.2500     19.1121    127.6922
   895.5000     19.1733    126.5120
   895.7500     19.2105    123.8085
   896.0000     19.2432    119.6215
   896.2500     19.2906    118.0333
   896.5000     19.3617    117.8401
   896.7500     19.4522    118.4475
   897.0000     19.5495    118.8804
   897.2500     19.6436    118.2178
   897.5000     19.7345    115.6820
   897.7500     19.8314    113.6148
   898.0000     19.9460    111.6017
   898.2500     20.0838    111.4248
   898.5000     20.2401    112.2138
   898.7500     20.3989    112.7901
   899.0000     20.5348    113.3862
   899.2500     20.6223    113.8024
   899.5000     20.6479    114.5478
   899.7500     20.6152    114.8230
   900.0000     20.5372    114.5057
   900.2500     20.4222    114.1344
   900.5000     20.2714    114.7484
   900.7500     20.0855    116.6683
   901.0000     19.8744    121.8963
   901.2500     19.6603    126.2780
   901.5000     19.4714    132.6793
   901.7500     19.3309    136.2719
   902.0000     19.2451    140.3426
   902.2500     19.2000    142.0444
   902.5000     19.1680    142.7744
   902.7500     19.1227    142.1768
   903.0000     19.0496    140.6540
   903.2500     18.9487    139.8649
   903.5000     18.8306    139.4516
   903.7500     18.7118    139.4686
   904.0000     18.6144    138.9996
   904.2500     18.5637    137.8116
   904.5000     18.5820    134.8626
   904.7500     18.6775    133.2539
   905.0000     18.8334    134.0752
   905.2500     19.0081    137.4805
   905.5000     19.1473    145.3597
   905.7500     19.2067    150.6408
   906.0000     19.1719    155.7610
   906.2500     19.0637    156.2239
   906.5000     18.9235    151.3567
   906.7500     18.7886    143.8738
   907.0000     18.6738    125.4036
   907.2500     18.5752    108.1318
   907.5000     18.4928     76.8022
   907.7500     18.4472     55.2029
   908.0000     18.4715     27.8479
   908.2500     18.5852     15.2882
   908.5000     18.7739      4.8979
   908.7500     18.9939      1.9351
   909.0000     19.1952      0.3665
   909.2500     19.3460      0.0991
   909.5000     19.4437      0.0089
   909.7500     19.5121      0.0000
   910.0000     19.5874   -999.2500
   910.2500     19.7010   -999.2500
   910.5000     19.8676   -999.2500
   910.7500     20.0816   -999.2500
   911.0000     20.3230   -999.2500
   911.2500     20.5677   -999.2500
   911.5000     20.7939   -999.2500
   911.7500     20.9826   -999.2500
   912.0000     21.1152   -999.2500
   912.2500     21.1803   -999.2500
   912.5000     21.1845   -999.2500
   912.7500     21.1564   -999.2500
   913.0000     21.1338   -999.2500
   913.2500     21.1409   -999.2500
   913.5000     21.1723   -999.2500
   913.7500     21.1957   -999.2500
   914.0000     20.9546   -999.2500
   914.2500     20.8485   -999.2500
   914.5000     20.6507   -999.2500
   914.7500     20.3672   -999.2500
   915.0000     20.0178   -999.2500
   915.2500     19.6325   -999.2500
   915.5000     19.2477   -999.2500
   915.7500     18.8978   -999.2500
   916.0000     18.6137   -999.2500
   916.2500     18.4307   -999.2500
   916.5000     18.4088   -999.2500
   916.7500     18.6574   -999.2500
   917.0000     19.3618   -999.2500
   917.2500     20.8106   -999.2500
   917.5000     23.7535   -999.2500
   917.7500     28.2921   -999.2500
   918.0000     35.5367   -999.2500
   918.2500     46.3054   -999.2500
   918.5000     60.4992   -999.2500
