~Version Information
VERS.                      2.0: CWLS Log ASCII Standard - VERSION 2.0
WRAP.                       NO: One line per depth step
~Well Information Block
STRT.FT               245.0000: 
STOP.FT              2464.2000: 
STEP.FT                 0.1000: 
NULL.                -999.2500: 
COMP.          Pioneer Natural Resources: COMPANY
WELL.          Oink Oink 14-36: WELL
FLD.           Purgatoire River: FIELD
LOC.           216' FSL & 263' FWL--: LOCATION
PROV.                 Colorado: PROVINCE
CNTY.               Las Animas: COUNTRY
SRVC.                Patterson: SERVICE COMPANY
DATE.          Wed Jun 08 16:53:09 2005: LOG DATE
UWI.           05 071 08394 00: UNIQUE WELL ID
~Curve Information Block
DEPT.FT            0 000 00 00: Depth
DCAL.in                       : CDL Caliper
RHOB.g/cc                     : CDL Bulk Density
RHOC.g/cc                     : CDL Density Correction
DPOR.pu                       : CDL Density Porosity
NPOR.pu                       : Neutron Porosity
GR.GAPI                       : Gamma Ray
~Parameter Information Block
~A  Depth       DCAL        RHOB        RHOC        DPOR        NPOR         GR     
# ...
  1416.2000      8.1503      2.5235      0.0898      7.6683     21.0103    145.7676
  1416.3000      8.1490      2.5156      0.0817      8.1460     20.5087    145.0812
  1416.4000      8.1490      2.5176      0.0457      8.0251     19.9255    141.9323
  1416.5000      8.1494      2.5315      0.0699      7.1797     19.8332    139.2357
  1416.6000      8.1494      2.5440      0.0837      6.4232     20.1023    138.2340
  1416.7000      8.1494      2.5418      0.1069      6.5546     20.2628    139.9404
  1416.8000      8.1491      2.5337      0.0669      7.0503     20.2434    143.9948
  1416.9000      8.1491      2.5366      0.0569      6.8740     19.9664    148.0505
  1417.0000      8.1487      2.5456      0.0570      6.3279     19.5262    149.1692
  1417.1000      8.1487      2.5442      0.0562      6.4143     19.4388    145.8287
  1417.2000      8.1487      2.5301      0.0840      7.2652     19.6169    141.4334
  1417.3000      8.1482      2.5134      0.0397      8.2801     19.4414    140.3250
  1417.4000      8.1482      2.4992      0.0385      9.1386     18.7825    141.7600
  1417.5000      8.1468      2.4872      0.0303      9.8694     18.1580    143.2014
  1417.6000      8.1468      2.4834      0.0400     10.0990     18.2855    143.3410
  1417.7000      8.1468      2.4908      0.0386      9.6458     19.0125    139.6314
  1417.8000      8.1454      2.4964      0.0726      9.3070     19.4242    134.2536
  1417.9000      8.1454      2.4885      0.0216      9.7852     19.2095    131.2470
  1418.0000      8.1472      2.4790     -0.0323     10.3625     18.8955    126.3132
  1418.1000      8.1472      2.4807      0.0522     10.2620     18.8384    117.9836
  1418.2000      8.1472      2.4863      0.0220      9.9225     18.9029    114.9531
  1418.3000      8.1501      2.4907      0.0479      9.6565     18.9341    122.2646
  1418.4000      8.1501      2.4972      0.0553      9.2626     18.9974    133.4281
  1418.5000      8.1509      2.5063      0.0480      8.7113     19.0254    140.5796
  1418.6000      8.1509      2.5134      0.0866      8.2773     18.9407    144.7585
  1418.7000      8.1509      2.5140      0.0872      8.2402     19.0885    148.6182
  1418.8000      8.1514      2.5102      0.0760      8.4725     19.5123    148.3462
  1418.9000      8.1514      2.5061      0.0496      8.7202     19.7263    142.4643
  1419.0000      8.1524      2.5026      0.0667      8.9314     19.6206    137.2691
  1419.1000      8.1524      2.4984      0.0623      9.1882     19.5137    135.4941
  1419.2000      8.1524      2.4951      0.0607      9.3904     19.6036    133.0974
  1419.3000      8.1528      2.4946      0.0762      9.4202     19.7358    130.6537
  1419.4000      8.1528      2.4973      0.0501      9.2555     19.7699    131.1880
  1419.5000      8.1512      2.5075      0.0292      8.6369     19.9092    134.0742
  1419.6000      8.1512      2.5217      0.0994      7.7749     20.3318    136.5142
  1419.7000      8.1512      2.5252      0.0709      7.5664     20.8844    134.5179
  1419.8000      8.1490      2.5151      0.1078      8.1749     21.1953    127.1765
  1419.9000      8.1490      2.5037      0.0746      8.8696     21.0455    121.8749
  1420.0000      8.1495      2.5034      0.0731      8.8835     20.6002    122.2808
  1420.1000      8.1495      2.5134      0.0840      8.2796     20.2409    123.6306
  1420.2000      8.1495      2.5255      0.0722      7.5462     20.3806    123.7845
  1420.3000      8.1512      2.5375      0.0559      6.8183     20.7776    124.5317
  1420.4000      8.1512      2.5413      0.1360      6.5852     20.8985    126.1778
  1420.5000      8.1513      2.5258      0.1038      7.5289     20.9121    127.6638
  1420.6000      8.1513      2.4939      0.0980      9.4604     21.0817    129.0310
  1420.7000      8.1513      2.4598      0.0716     11.5248     21.3516    130.8227
  1420.8000      8.1497      2.4403      0.0566     12.7068     21.6213    131.0135
  1420.9000      8.1497      2.4433      0.0807     12.5261     21.7828    127.1097
  1421.0000      8.1458      2.4622      0.0950     11.3811     21.8591    124.4546
  1421.1000      8.1458      2.4835      0.0899     10.0916     21.8255    129.0478
  1421.2000      8.1458      2.4977      0.1021      9.2291     21.7944    135.1823
  1421.3000      8.1438      2.5038      0.1375      8.8581     21.9124    135.0446
  1421.4000      8.1438      2.5087      0.1076      8.5647     21.9659    130.0211
  1421.5000      8.1455      2.5204      0.1448      7.8559     21.6166    125.3962
  1421.6000      8.1455      2.5379      0.1242      6.7956     21.1273    123.2875
  1421.7000      8.1455      2.5515      0.1430      5.9690     21.0304    123.8682
  1421.8000      8.1457      2.5532      0.1171      5.8644     21.2252    129.4338
  1421.9000      8.1457      2.5464      0.1021      6.2775     21.3862    137.5475
  1422.0000      8.1462      2.5394      0.0816      6.7027     21.5009    139.2016
  1422.1000      8.1462      2.5359      0.0751      6.9141     21.5867    132.6090
  1422.2000      8.1462      2.5380      0.0453      6.7880     21.7004    126.4287
  1422.3000      8.1483      2.5429      0.0742      6.4885     22.1012    126.8228
  1422.4000      8.1483      2.5428      0.0729      6.4985     22.5612    129.6041
  1422.5000      8.1493      2.5382      0.0785      6.7742     22.5684    130.1593
  1422.6000      8.1493      2.5344      0.0499      7.0077     22.2720    129.2796
  1422.7000      8.1493      2.5329      0.0716      7.0988     21.8737    127.7717
  1422.8000      8.1466      2.5351      0.0503      6.9663     21.3654    126.5833
  1422.9000      8.1466      2.5376      0.0800      6.8104     20.7000    126.3096
  1423.0000      8.1441      2.5332      0.0227      7.0818     19.8465    125.8354
  1423.1000      8.1441      2.5160      0.0518      8.1197     19.2773    126.0876
  1423.2000      8.1441      2.4800      0.0206     10.3007     19.4334    128.6594
  1423.3000      8.1460      2.4341      0.0203     13.0825     19.8231    129.3736
  1423.4000      8.1460      2.4052     -0.0121     14.8369     19.8801    125.1900
  1423.5000      8.1473      2.4137     -0.0240     14.3219     19.7638    122.8460
  1423.6000      8.1473      2.4526      0.0610     11.9642     19.7189    126.4287
  1423.7000      8.1473      2.5003      0.0768      9.0723     19.8530    130.1399
  1423.8000      8.1437      2.5398      0.1451      6.6775     20.2405    130.2426
  1423.9000      8.1437      2.5564      0.1088      5.6713     20.3692    129.2386
  1424.0000      8.1357      2.5498      0.0959      6.0748     19.9434    129.0599
  1424.1000      8.1357      2.5373      0.0925      6.8310     19.7703    129.4279
  1424.2000      8.1357      2.5376      0.1114      6.8111     20.4015    129.8015
  1424.3000      8.1286      2.5516      0.1353      5.9637     21.3279    129.6785
  1424.4000      8.1286      2.5607      0.1567      5.4101     21.7093    129.6805
  1424.5000      8.1258      2.5513      0.1164      5.9828     21.2221    129.0224
  1424.6000      8.1258      2.5362      0.0588      6.8993     20.3412    126.6486
  1424.7000      8.1258      2.5327      0.0804      7.1084     19.5454    125.4073
  1424.8000      8.1262      2.5345      0.0895      7.0015     19.0461    128.1533
  1424.9000      8.1262      2.5298      0.0718      7.2840     19.2024    132.8969
  1425.0000      8.1266      2.5208      0.0464      7.8308     19.8852    134.2850
  1425.1000      8.1266      2.5101      0.0560      8.4783     20.0877    133.1177
  1425.2000      8.1266      2.4956      0.0721      9.3593     19.5770    133.4884
  1425.3000      8.1259      2.4874      0.0089      9.8526     19.2030    131.5464
  1425.4000      8.1259      2.4990      0.0485      9.1498     19.2784    125.2711
  1425.5000      8.1260      2.5184      0.0988      7.9767     19.3941    121.8098
  1425.6000      8.1260      2.5277      0.0629      7.4136     19.1613    124.9115
  1425.7000      8.1260      2.5305      0.0654      7.2447     18.7645    129.9697
