~Version Information
VERS.                      2.0: CWLS Log ASCII Standard - VERSION 2.0
WRAP.                       NO: One line per depth step
~Well Information Block
STRT.FT               -11.2500: 
STOP.FT              1597.0000: 
STEP.FT                 0.2500: 
NULL.                -999.2500: 
COMP.          Petrogulf Corporation: COMPANY
WELL.          Great Plains 22-21R: WELL
FLD.           Purgatorie River: FIELD
LOC.           73' FNL & 1992' FWL--: LOCATION
PROV.                       CO: PROVINCE
CNTY.               Las Animas: COUNTRY
SRVC.          Patterson Wireline: SERVICE COMPANY
DATE.          Fri Sep 09 09:02:35 2005: LOG DATE
UWI.           05 071 08343 00: UNIQUE WELL ID
~Curve Information Block
DEPT.FT            0 000 00 00: Depth
CCL.                          : Casing Collar Locator
TT3.usec                      : CBL 3' Travel Time
AMP3.mV                       : CBL 3' Amplitude
GR.GAPI                       : Gamma Ray
~Parameter Information Block
~A  Depth       CCL         TT3         AMP3         GR     
# ...
  1261.7500      0.0000    724.8466      8.8871     64.8132
  1262.0000      0.0000    729.8881      8.8468     66.0727
  1262.2500      0.0000    736.3756      8.8119     65.7208
  1262.5000      0.0000    742.2509      8.7826     64.3102
  1262.7500      0.0000    745.7205      8.7603     62.8447
  1263.0000      0.0000    745.8923      8.7471     61.7283
  1263.2500      0.0000    742.6323      8.7429     60.7351
  1263.5000      0.0000    736.3704      8.7405     59.5620
  1263.7500      0.0000    727.9620      8.7214     58.0750
  1264.0000      0.0000    718.1603      8.6588     56.2809
  1264.2500      0.0000    707.2681      8.5357     54.5021
  1264.5000      0.0000    695.9778      8.3712     53.5212
  1264.7500      0.0000    686.2976      8.2239     54.0802
  1265.0000      0.0000    680.1193      8.1576     56.0865
  1265.2500      0.0000    675.5191      8.2091     58.5556
  1265.5000      0.0000    664.7183      8.3877     60.3496
  1265.7500      0.0000    637.5925      8.6733     60.7459
  1266.0000      0.0000    590.4056      8.9993     59.5513
  1266.2500     -2.0000    532.9265      9.2718     57.2536
  1266.5000      2.0000    485.4802      9.4344     54.9458
  1266.7500      0.0000    466.2213      9.5037     53.6687
  1267.0000      0.0000    479.6785      9.5536     53.8333
  1267.2500      0.0000    516.0525      9.6800     55.3101
  1267.5000      0.0000    559.9926      9.9465     57.7264
  1267.7500      0.0000    599.4470     10.3100     60.5466
  1268.0000      0.0000    626.4664     10.6133     63.0167
  1268.2500      0.0000    633.1800     10.7013     64.2443
  1268.5000      0.0000    612.7740     10.5450     63.6781
  1268.7500      0.0000    566.4979     10.2335     61.6773
  1269.0000      0.0000    507.0756      9.8823     59.3147
  1269.2500      0.0000    452.1562      9.5746     57.5195
  1269.5000      0.0000    413.5124      9.3530     56.5936
  1269.7500      0.0000    392.3103      9.2213     56.3270
  1270.0000      0.0000    382.9921      9.1548     56.2173
  1270.2500      0.0000    379.4552      9.1222     55.7839
  1270.5000      0.0000    378.0497      9.1054     54.9941
  1270.7500      0.0000    377.2845      9.1032     54.2668
  1271.0000      0.0000    376.7231      9.1180     54.0562
  1271.2500      0.0000    376.2794      9.1435     54.6426
  1271.5000      0.0000    375.9400      9.1641     56.1343
  1271.7500      0.0000    375.7282      9.1656     58.3950
  1272.0000      0.0000    375.7327      9.1398     61.2517
  1272.2500      0.0000    376.3642      9.0792     64.7825
  1272.5000      0.0000    379.0142      8.9716     68.8009
  1272.7500      0.0000    387.0963      8.8027     72.0742
  1273.0000      0.0000    406.3714      8.5633     72.9098
  1273.2500      0.0000    442.5097      8.2545     70.8148
  1273.5000      0.0000    495.9591      7.8870     67.0642
  1273.7500      0.0000    558.9037      7.4759     63.4739
  1274.0000      0.0000    619.0272      7.0367     60.9626
  1274.2500      0.0000    667.0010      6.5849     59.2631
  1274.5000      0.0000    700.0747      6.1384     57.7149
  1274.7500      0.0000    720.0844      5.7160     56.1837
  1275.0000      0.0000    730.3636      5.3341     55.1612
  1275.2500      0.0000    734.3011      5.0043     55.0760
  1275.5000      0.0000    734.7731      4.7347     55.8067
  1275.7500      0.0000    733.6736      4.5296     56.8618
  1276.0000      0.0000    731.6702      4.3896     57.8215
  1276.2500      0.0000    728.2648      4.3109     58.4708
  1276.5000      0.0000    722.2505      4.2868     58.5469
  1276.7500      0.0000    712.9040      4.3090     57.5681
  1277.0000      0.0000    701.4390      4.3698     55.2311
  1277.2500      0.0000    691.2428      4.4595     52.0565
  1277.5000      0.0000    686.0641      4.5652     49.4190
  1277.7500      0.0000    687.5402      4.6742     48.5930
  1278.0000      0.0000    694.4105      4.7813     49.6063
  1278.2500      0.0000    703.8800      4.8896     51.2411
  1278.5000      0.0000    713.3055      5.0051     52.5077
  1278.7500      0.0000    720.6968      5.1315     54.0174
  1279.0000      0.0000    724.5379      5.2733     57.5317
  1279.2500      0.0000    724.1688      5.4405     64.0946
  1279.5000      0.0000    720.7319      5.6475     72.9632
  1279.7500      0.0000    717.3439      5.9034     82.4114
  1280.0000      0.0000    717.4486      6.2049     91.0562
  1280.2500      0.0000    722.3001      6.5400     98.2890
  1280.5000      0.0000    730.0133      6.8984    104.1167
  1280.7500      0.0000    737.1190      7.2754    109.0418
  1281.0000      0.0000    740.9974      7.6634    113.7650
  1281.2500      0.0000    741.2292      8.0441    118.7007
  1281.5000      0.0000    739.2615      8.3883    123.7759
  1281.7500      0.0000    736.9988      8.6630    128.4658
  1282.0000      0.0000    735.5513      8.8405    131.8251
  1282.2500      0.0000    734.9968      8.9066    133.0333
  1282.5000      0.0000    734.9035      8.8641    132.3840
  1282.7500      0.0000    734.9404      8.7277    131.2316
  1283.0000      0.0000    735.1878      8.5184    130.4204
  1283.2500      0.0000    736.1738      8.2623    129.1886
  1283.5000      0.0000    738.4902      7.9902    126.1273
  1283.7500      0.0000    741.8488      7.7309    120.8032
  1284.0000      0.0000    744.2525      7.5014    113.9001
  1284.2500      0.0000    742.7405      7.3038    106.1383
  1284.5000      0.0000    735.9854      7.1339     97.8786
  1284.7500      0.0000    726.3799      6.9900     89.8783
  1285.0000      0.0000    718.8777      6.8700     83.6867
  1285.2500      0.0000    717.0011      6.7645     80.7787
  1285.5000      0.0000    719.6676      6.6569     81.4643
  1285.7500      0.0000    721.9893      6.5367     84.9163
  1286.0000      0.0000    719.1308      6.4161     90.0856
  1286.2500      0.0000    709.7433      6.3336     96.4402
  1286.5000      0.0000    696.8185      6.3310    104.0152
  1286.7500      0.0000    685.9697      6.4201    112.9532
  1287.0000      0.0000    682.2225      6.5757    122.7159
  1287.2500      0.0000    687.0898      6.7593    131.3913
  1287.5000      0.0000    697.6292      6.9425    135.9833
  1287.7500      0.0000    708.5794      7.1099    133.9608
  1288.0000      0.0000    716.4421      7.2557    124.9591
  1288.2500      0.0000    721.5016      7.3836    111.1775
  1288.5000      0.0000    725.2435      7.5062     96.3231
  1288.7500      0.0000    726.7663      7.6434     84.1040
  1289.0000      0.0000    723.2021      7.8193     77.2270
  1289.2500      0.0000    713.4583      8.0486     76.9414
  1289.5000      0.0000    700.3254      8.3118     82.6744
  1289.7500      0.0000    688.6633      8.5478     91.9476
  1290.0000      0.0000    682.1694      8.6838    101.4232
  1290.2500      0.0000    682.2300      8.6806    108.8013
  1290.5000      0.0000    688.5129      8.5509    113.9196
  1290.7500      0.0000    698.9019      8.3395    118.0975
  1291.0000      0.0000    709.5230      8.0872    122.4711
  1291.2500      0.0000    717.0345      7.8112    126.7906
  1291.5000      0.0000    721.4434      7.5147    129.9501
  1291.7500      0.0000    725.9072      7.2097    131.7328
  1292.0000      0.0000    733.3607      6.9236    133.2583
  1292.2500      0.0000    742.8881      6.6857    135.2542
  1292.5000      0.0000    749.5849      6.5154    136.9996
  1292.7500      0.0000    749.7731      6.4261    137.7290
  1293.0000      0.0000    746.4803      6.4336    138.0369
  1293.2500      0.0000    747.0764      6.5548    138.9939
  1293.5000      0.0000    754.6811      6.7923    140.5245
  1293.7500      0.0000    764.4171      7.1228    141.3556
  1294.0000      0.0000    768.8643      7.5063    140.3596
  1294.2500      0.0000    765.1808      7.9088    137.8899
  1294.5000      0.0000    756.2858      8.3154    136.0091
  1294.7500      0.0000    747.0189      8.7224    136.8062
  1295.0000      0.0000    740.4226      9.1194    139.8004
