~Version Information
VERS.                      2.0: CWLS Log ASCII Standard - VERSION 2.0
WRAP.                       NO: One line per depth step
~Well Information Block
STRT.FT               -13.5000: 
STOP.FT              2092.5000: 
STEP.FT                 0.2500: 
NULL.                -999.2500: 
COMP.          Petrogulf Corporation: COMPANY
WELL.          Robinson 15-11V: WELL
FLD.           Purgatorie River: FIELD
LOC.           226' FNL & 592' FWL--: LOCATION
CNTY.               Las Animas: COUNTY
SRVC.                         : SERVICE COMPANY
DATE.          Tue Aug 17 13:05:46 2004: LOG DATE
UWI.                          : UNIQUE WELL ID
STAT.                       CO: STATE
~Curve Information Block
DEPT.FT            0 000 00 00: Depth
CCL.                          : Casing Collar Locator
TT3.usec                      : CBL 3' Travel Time
AMP3.mV                       : CBL 3' Amplitude
GR.GAPI                       : Gamma Ray
~Parameter Information Block
~A  Depth       CCL         TT3         AMP3         GR     
# ...
   824.0000      0.0000    554.7370     10.5652    127.2385
   824.2500      0.0000    508.3259     11.2386    134.1840
   824.5000      0.0000    489.7780     11.6117    138.0373
   824.7500      0.0000    500.6494     11.6541    136.9780
   825.0000      0.0000    537.3276     11.4888    132.2327
   825.2500      0.0000    588.7330     11.2598    127.4158
   825.5000      0.0000    636.1129     11.0340    125.9538
   825.7500      0.0000    663.5137     10.8035    128.7592
   826.0000      0.0000    668.9473     10.5668    133.7473
   826.2500      0.0000    663.8021     10.3906    137.4790
   826.5000      0.0000    661.9331     10.3579    137.9152
   826.7500      0.0000    669.3367     10.4571    136.0237
   827.0000      0.0000    682.8432     10.5602    134.5970
   827.2500      0.0000    695.9930     10.5382    135.7261
   827.5000      0.0000    703.3522     10.3774    139.5025
   827.7500      0.0000    700.5612     10.1588    144.3086
   828.0000      0.0000    685.3004      9.9416    147.5472
   828.2500      0.0000    660.1103      9.7128    146.7168
   828.5000      0.0000    631.2627      9.4608    141.1004
   828.7500      0.0000    603.8294      9.2424    132.4391
   829.0000      0.0000    580.9793      9.1279    123.1003
   829.2500      0.0000    568.2207      9.1031    113.6896
   829.5000      0.0000    572.3725      9.0846    103.1803
   829.7500      0.0000    593.3664      9.0303     91.0311
   830.0000      0.0000    620.0161      8.9812     78.2567
   830.2500      0.0000    635.4518      8.9803     66.4306
   830.5000      0.0000    627.5037      8.9944     56.3971
   830.7500      0.0000    597.6151      8.9507     48.2278
   831.0000      0.0000    561.3628      8.8266     41.9167
   831.2500      0.0000    537.0313      8.6582     37.5952
   831.5000      0.0000    531.6455      8.4671     35.1335
   831.7500      0.0000    538.4274      8.2314     33.9531
   832.0000      0.0000    546.1978      7.9539     33.3356
   832.2500      0.0000    550.4575      7.7112     32.8374
   832.5000      0.0000    556.6748      7.5843     32.5047
   832.7500      0.0000    571.4788      7.5611     32.7665
   833.0000      0.0000    590.1189      7.5649     33.8745
   833.2500      0.0000    598.4391      7.5664     35.2894
   833.5000      0.0000    590.8376      7.6033     35.8958
   833.7500      0.0000    580.9808      7.6957     35.0177
   834.0000      0.0000    588.9672      7.8163     33.1086
   834.2500      0.0000    620.2200      7.9647     31.3665
   834.5000      0.0000    661.7634      8.1967     30.7496
   834.7500      0.0000    696.9488      8.5425     31.3921
   835.0000      0.0000    718.5760      8.9519     32.8757
   835.2500      0.0000    728.8961      9.3626     34.9914
   835.5000      0.0000    732.9387      9.7693     38.2311
   835.7500      0.0000    734.2372     10.1737     43.4720
   836.0000      0.0000    734.4387     10.5146     51.1251
   836.2500      0.0000    734.1957     10.7091     60.5000
   836.5000      0.0000    733.7451     10.7516     70.0184
   836.7500      0.0000    732.9718     10.7360     78.2646
   837.0000      0.0000    731.3951     10.7779     84.9856
   837.2500      0.0000    728.6253     10.9167     90.9413
   837.5000      0.0000    725.1732     11.0802     96.7466
   837.7500      0.0000    722.6550     11.1558    102.1196
   838.0000      0.0000    722.6533     11.1077    106.2906
   838.2500      0.0000    725.2184     11.0051    108.8500
   838.5000      0.0000    728.8016     10.9201    110.1884
   838.7500      0.0000    731.6796     10.8398    111.4340
   839.0000      0.0000    733.1635     10.7164    113.9324
   839.2500      0.0000    733.5483     10.5610    118.2522
   839.5000      0.0000    733.4018     10.4266    123.4620
   839.7500      0.0000    733.1082     10.3187    127.7678
   840.0000      0.0000    732.8309     10.1920    130.0488
   840.2500      0.0000    732.5617     10.0334    130.5616
   840.5000      0.0000    732.0348      9.8804    130.4021
   840.7500      0.0000    730.6831      9.7536    130.6299
   841.0000      0.0000    728.0090      9.6379    131.5724
   841.2500      0.0000    724.2853      9.5410    132.5289
   841.5000      0.0000    720.4689      9.4986    132.4021
   841.7500      0.0000    716.4761      9.4964    130.7666
   842.0000      0.0000    709.0941      9.4559    128.0463
   842.2500      0.0000    692.5487      9.3397    124.8170
   842.5000      0.0000    663.5533      9.2247    121.5391
   842.7500      0.0000    627.9196      9.2240    118.9427
   843.0000      0.0000    600.9495      9.3565    118.0713
   843.2500      0.0000    597.0219      9.5265    119.6748
   843.5000      0.0000    616.9992      9.6224    123.6334
   843.7500      0.0000    647.7923      9.6104    128.9780
   844.0000      0.0000    674.1838      9.5489    134.5591
   844.2500      0.0000    688.3087      9.5430    139.9771
   844.5000      0.0000    688.3893      9.6748    145.7725
   844.7500      0.0000    672.8520      9.9377    152.2687
   845.0000      0.0000    638.6264     10.2293    158.2767
   845.2500      0.0000    584.8727     10.4352    161.4699
   845.5000      0.0000    517.2656     10.5362    160.4516
   845.7500      0.0000    447.9056     10.6101    156.4512
   846.0000      0.0000    389.8582     10.7267    152.6227
   846.2500      0.0000    350.4147     10.8768    151.2122
   846.5000      0.0000    328.7789     11.0164    151.5379
   846.7500      0.0000    319.3919     11.1312    151.2316
   847.0000      0.0000    317.0915     11.2213    149.2800
   847.2500      0.0000    320.4872     11.2546    147.0421
   847.5000      0.0000    333.2331     11.1688    146.1756
   847.7500      0.0000    363.1407     10.9006    146.4282
   848.0000      0.0000    417.4545     10.4068    145.9278
   848.2500      0.0000    495.0322      9.6943    143.1353
   848.5000      0.0000    582.4570      8.8523    137.9981
   848.7500      0.0000    660.4871      8.0297    131.3681
   849.0000      0.0000    716.1680      7.3599    123.8548
   849.2500      0.0000    748.7841      6.8970    115.6636
   849.5000      0.0000    765.4108      6.5941    107.4907
   849.7500      0.0000    772.9283      6.3327    101.0593
   850.0000      0.0000    774.1437      6.0047     98.2999
   850.2500      0.0000    768.9348      5.5856     99.7780
   850.5000      0.0000    757.0007      5.1150    104.0593
   850.7500      0.0000    739.9294      4.6278    108.7113
   851.0000      0.0000    722.2060      4.1481    111.5951
   851.2500      0.0000    710.2024      3.7276    111.2198
   851.5000      0.0000    708.6163      3.4215    106.9436
   851.7500      0.0000    716.6905      3.2286     99.6491
   852.0000      0.0000    728.2076      3.0961     91.7925
   852.2500      0.0000    735.9399      2.9758     86.1335
   852.5000      0.0000    736.4410      2.8469     84.2760
   852.7500      0.0000    731.1442      2.7107     86.2584
   853.0000      0.0000    724.1042      2.5917     90.9883
   853.2500      0.0000    719.3112      2.5321     96.5489
   853.5000      0.0000    718.9973      2.5717    100.5708
   853.7500      0.0000    722.5537      2.7307    101.5324
   854.0000      0.0000    726.3906      2.9881    100.3178
   854.2500      0.0000    726.1243      3.2730    100.0081
   854.5000      0.0000    720.3434      3.5116    103.6540
   854.7500      0.0000    712.1893      3.6986    112.0315
   855.0000      0.0000    706.8454      3.9115    123.1663
   855.2500      0.0000    707.4851      4.2505    133.6133
   855.5000      0.0000    713.3888      4.7666    140.3959
   855.7500      0.0000    721.3194      5.4203    142.3409
   856.0000      2.0000    728.2826      6.0887    140.0848
   856.2500      2.0000    732.7383      6.6231    135.1690
   856.5000      0.0000    733.0567      6.9213    129.2852
   856.7500      0.0000    726.3745      6.9783    123.9617
   857.0000      0.0000    711.5492      6.9088    120.2723
   857.2500      0.0000    693.7455      6.9142    118.4173
