~Version Information
VERS.                      2.0: CWLS Log ASCII Standard - VERSION 2.0
WRAP.                       NO: One line per depth step
~Well Information Block
STRT.FT               488.0000: 
STOP.FT              1824.7000: 
STEP.FT                 0.1000: 
NULL.                -999.2500: 
COMP.          Pioneer Natural Resources: COMPANY
WELL.            Buckeye 11-13: WELL
FLD.           Purgatoire River: FIELD
LOC.           211' FNL & 1054' FWL: LOCATION
STAT.                 Colorado: State
CNTY.               Las Animas: COUNTY
CTRY. USA : Country
SECT. 13 : Section
TOWN. 33S : Township
RANG. 67W : Range
SRVC.                Patterson: SERVICE COMPANY
DATE.          Mon Mar 07 02:06:39 2005: LOG DATE
API.           05 071 08317 00: UNIQUE WELL ID
~Curve Information Block
DEPT.FT            0 000 00 00: Depth
DCAL.in                       : CDL Caliper
RHOB.g/cc                     : CDL Bulk Density
RHOC.g/cc                     : CDL Density Correction
DPOR.pu                       : CDL Density Porosity
GR.GAPI                       : Gamma Ray
NPOR.pu                       : Neutron Porosity
~Parameter Information Block
~A  Depth       DCAL        RHOB        RHOC        DPOR         GR         NPOR    
# ...
   660.8000      7.8900      2.5270      0.1162      7.4560    136.1831     32.0602
   660.9000      7.8900      2.5287      0.0400      7.3529    134.0238     32.2936
   661.0000      7.8904      2.5359      0.0002      6.9150    129.9814     32.0343
   661.1000      7.8904      2.5473      0.0240      6.2216    131.7835     31.5668
   661.2000      7.8904      2.5526      0.0251      5.9045    140.6643     31.3322
   661.3000      7.8890      2.5545      0.0194      5.7887    149.3411     31.7763
   661.4000      7.8890      2.5554      0.0710      5.7307    154.1804     32.4687
   661.5000      7.8878      2.5556      0.0390      5.7187    157.1130     32.5381
   661.6000      7.8878      2.5635      0.0556      5.2399    157.4832     31.7703
   661.7000      7.8878      2.5726      0.1168      4.6895    159.6183     30.8154
   661.8000      7.8877      2.5663      0.0695      5.0717    166.3683     29.9555
   661.9000      7.8877      2.5495      0.0289      6.0880    169.2043     29.0264
   662.0000      7.8879      2.5322      0.0744      7.1388    163.0500     28.6270
   662.1000      7.8879      2.5169      0.0186      8.0643    154.5222     29.1664
   662.2000      7.8879      2.5090      0.0498      8.5436    150.7381     30.2923
   662.3000      7.8890      2.5040      0.0269      8.8488    150.8870     31.6182
   662.4000      7.8890      2.4958     -0.0279      9.3474    151.6181     33.0008
   662.5000      7.9013      2.4920     -0.0084      9.5733    151.2431     33.8390
   662.6000      7.9013      2.4939      0.0341      9.4615    147.8869     33.4383
   662.7000      7.9013      2.4961     -0.0088      9.3258    141.6028     32.2162
   662.8000      7.8882      2.5008      0.0272      9.0413    133.9266     30.8744
   662.9000      7.8882      2.5027     -0.0025      8.9259    125.4961     29.6961
   663.0000      7.8822      2.4930     -0.0032      9.5156    119.6612     28.9595
   663.1000      7.8822      2.4759      0.0074     10.5522    122.6588     28.3497
   663.2000      7.8822      2.4662     -0.0040     11.1387    134.2335     27.6940
   663.3000      7.8801      2.4739      0.0161     10.6727    144.0864     27.4202
   663.4000      7.8801      2.4884      0.0597      9.7929    143.9729     27.3579
   663.5000      7.8649      2.4899      0.0965      9.7010    136.4988     26.9611
   663.6000      7.8649      2.4787      0.0972     10.3797    131.0330     26.7865
   663.7000      7.8649      2.4772      0.0575     10.4740    132.1660     27.7562
   663.8000      7.8846      2.4968      0.1127      9.2872    134.3084     28.9534
   663.9000      7.8846      2.5232      0.1215      7.6831    133.8454     28.9152
   664.0000      7.8864      2.5446      0.1488      6.3850    132.5925     28.3031
   664.1000      7.8864      2.5604      0.1702      5.4320    130.8744     28.7504
   664.2000      7.8864      2.5691      0.1485      4.9046    127.1214     30.2091
   664.3000      7.8830      2.5711      0.1558      4.7824    118.6743     30.9946
   664.4000      7.8830      2.5687      0.1125      4.9285    107.4377     30.4042
   664.5000      7.8865      2.5658      0.0618      5.1013     98.4056     29.1913
   664.6000      7.8865      2.5702      0.0046      4.8342     91.7404     28.1033
   664.7000      7.8865      2.5812      0.0383      4.1670     87.1072     27.5184
   664.8000      7.8802      2.5898     -0.0168      3.6494     85.8293     27.2707
   664.9000      7.8802      2.5933     -0.0141      3.4372     87.4823     26.8745
   665.0000      7.8626      2.5881      0.0259      3.7527     89.3463     26.0748
   665.1000      7.8626      2.5712     -0.0061      4.7782     87.9481     25.4565
   665.2000      7.8626      2.5507     -0.0357      6.0181     83.6109     25.4567
   665.3000      7.8778      2.5359     -0.0254      6.9156     83.3161     25.2982
   665.4000      7.8778      2.5345     -0.0572      6.9986     89.7165     24.5687
   665.5000      7.8852      2.5498     -0.0150      6.0744     95.5403     24.0109
   665.6000      7.8852      2.5670     -0.0135      5.0286     98.0865     23.8055
   665.7000      7.8852      2.5695     -0.0227      4.8803    102.3414     23.8505
   665.8000      7.8849      2.5548     -0.0136      5.7697    108.6640     24.4874
   665.9000      7.8849      2.5361     -0.0878      6.9026    112.4093     25.4449
   666.0000      7.8823      2.5271     -0.0413      7.4463    111.8036     26.2376
   666.1000      7.8823      2.5278     -0.0490      7.4061    110.1204     26.8236
   666.2000      7.8823      2.5356     -0.0476      6.9331    111.6396     27.5244
   666.3000      7.8803      2.5436      0.0041      6.4472    117.2166     28.6038
   666.4000      7.8803      2.5437      0.0196      6.4419    124.1763     29.3965
   666.5000      7.8674      2.5438     -0.0410      6.4359    128.5140     29.1839
   666.6000      7.8674      2.5609      0.0090      5.4029    131.9400     28.3078
   666.7000      7.8674      2.5949      0.0499      3.3370    137.5319     27.4622
   666.8000      7.8714      2.6318      0.0261      1.1029    140.8098     27.3829
   666.9000      7.8714      2.6551      0.1142     -0.3119    139.4915     28.2915
   667.0000      7.8537      2.6468      0.0930      0.1935    139.3332     29.4413
   667.1000      7.8537      2.6047      0.0560      2.7453    141.4283     30.0030
   667.2000      7.8537      2.5543     -0.0631      5.7972    140.2893     29.5176
   667.3000      7.8615      2.5244     -0.0349      7.6103    136.9080     28.4864
   667.4000      7.8615      2.5204     -0.0654      7.8536    136.7653     27.9693
   667.5000      7.8917      2.5249      0.0073      7.5799    142.3556     28.1356
   667.6000      7.8917      2.5183     -0.0052      7.9810    153.6760     28.5271
   667.7000      7.8917      2.5062     -0.0095      8.7164    163.4397     28.9751
   667.8000      7.8834      2.5048      0.0099      8.7991    163.0745     29.3715
   667.9000      7.8834      2.5056      0.0926      8.7487    154.9849     29.1908
   668.0000      7.8826      2.4893      0.0558      9.7395    147.5229     28.8063
   668.1000      7.8826      2.4625      0.0432     11.3663    146.2083     29.3308
   668.2000      7.8826      2.4514      0.0255     12.0393    149.6207     30.4623
   668.3000      7.8774      2.4635      0.0804     11.3019    153.2787     31.0021
   668.4000      7.8774      2.4770      0.0799     10.4870    154.6248     30.9411
   668.5000      7.8781      2.4741      0.0510     10.6635    150.8224     30.9560
   668.6000      7.8781      2.4586      0.0442     11.6019    141.6064     31.2737
   668.7000      7.8781      2.4458     -0.0173     12.3747    131.7707     31.6700
   668.8000      7.8760      2.4493     -0.0085     12.1666    125.4916     31.3718
   668.9000      7.8760      2.4631      0.0320     11.3301    122.3864     30.0859
   669.0000      7.8700      2.4813     -0.0210     10.2219    121.4001     28.8244
   669.1000      7.8700      2.5104     -0.0011      8.4598    122.1579     28.3279
   669.2000      7.8700      2.5366      0.0694      6.8703    124.5573     28.2846
   669.3000      7.8611      2.5371      0.0601      6.8424    128.0412     28.2104
   669.4000      7.8611      2.5179      0.0190      8.0079    131.4335     28.0332
   669.5000      7.8466      2.4986      0.0339      9.1767    131.0018     28.0036
   669.6000      7.8466      2.4845      0.0311     10.0315    128.6467     28.0621
   669.7000      7.8466      2.4734      0.0154     10.7040    134.0657     27.7894
   669.8000      7.8568      2.4639      0.0310     11.2775    144.8427     27.1299
   669.9000      7.8568      2.4551      0.0568     11.8104    151.0657     26.4906
   670.0000      7.8760      2.4484      0.0224     12.2168    154.2292     26.4439
   670.1000      7.8760      2.4457      0.0525     12.3817    159.7931     27.1476
   670.2000      7.8760      2.4482      0.0353     12.2315    164.3907     28.0815
   670.3000      7.9127      2.4551      0.0564     11.8146    164.3026     28.3369
