~Version Information
VERS.                      2.0: CWLS Log ASCII Standard - VERSION 2.0
WRAP.                       NO: One line per depth step
~Well Information Block
STRT.FT               595.0000: 
STOP.FT              1508.7500: 
STEP.FT                 0.2500: 
NULL.                -999.2500: 
COMP.          Pioneer Natural Resources: COMPANY
WELL.          Sumatra 34-22 Tr: WELL
FLD.           Purgatoire River: FIELD
LOC.           443' FSL & 2424' FEL--: LOCATION
PROV.                 Colorado: PROVINCE
CNTY.               Las Animas: COUNTRY
SRVC.                Patterson: SERVICE COMPANY
DATE.          Wed Jun 08 23:53:01 2005: LOG DATE
UWI.           05 071 08383 00: UNIQUE WELL ID
~Curve Information Block
DEPT.FT            0 000 00 00: Depth
SN.Ohm-m                      : IEL Short Normal
SP.mV                         : IEL Spontaneous Potential
DIR.Ohm-m                     : IEL Induction Resistivity
GR.GAPI                       : Gamma Ray
~Parameter Information Block
~A  Depth        SN          SP         DIR          GR     
# ...
  1399.0000    682.8896   -528.9265     13.6833     98.2909
  1399.2500    682.8896   -528.9294     12.7918    101.8561
  1399.5000    682.8896   -528.9323     11.9690    108.3277
  1399.7500    682.8896   -528.9346     11.2199    112.6983
  1400.0000    682.8896   -528.9363     10.5448    118.4913
  1400.2500    682.8896   -528.9374      9.9429    121.6492
  1400.5000    682.8896   -528.9376      9.4147    125.4079
  1400.7500    682.8896   -528.9371      8.9632    127.3700
  1401.0000    682.8896   -528.9358      8.5931    129.3955
  1401.2500    682.8896   -528.9336      8.3082    129.8807
  1401.5000    682.8896   -528.9307      8.1073    129.1520
  1401.7500    682.8896   -528.9273      7.9825    128.0533
  1402.0000    682.8896   -528.9236      7.9190    126.3079
  1402.2500    682.8896   -528.9201      7.8975    125.1002
  1402.5000    682.8896   -528.9171      7.8982    122.6462
  1402.7500    682.8896   -528.9147      7.9037    120.6352
  1403.0000    682.8896   -528.9131      7.9010    118.3935
  1403.2500    682.8896   -528.9122      7.8818    118.3310
  1403.5000    682.8896   -528.9119      7.8419    120.7881
  1403.7500    682.8896   -528.9119      7.7797    123.5306
  1404.0000    682.8896   -528.9117      7.6965    127.6954
  1404.2500    682.8896   -528.9113      7.5972    129.8242
  1404.5000    682.8896   -528.9105      7.4908    131.8137
  1404.7500    682.8896   -528.9089      7.3890    132.5800
  1405.0000    682.8896   -528.9067      7.3044    133.2783
  1405.2500    682.8896   -528.9037      7.2476    133.4565
  1405.5000    682.8896   -528.9000      7.2248    132.9969
  1405.7500    682.8896   -528.8952      7.2371    131.8931
  1406.0000    682.8896   -528.8894      7.2804    128.4702
  1406.2500    682.8896   -528.8823      7.3479    124.9634
  1406.5000    682.8896   -528.8737      7.4324    118.7144
  1406.7500    682.8896   -528.8633      7.5288    114.7560
  1407.0000    682.8896   -528.8505      7.6337    110.4407
  1407.2500    682.8896   -528.8350      7.7441    108.9927
  1407.5000    682.8896   -528.8163      7.8544    108.6179
  1407.7500    682.8896   -528.7939      7.9555    108.9094
  1408.0000    682.8896   -528.7673      8.0362    108.9672
  1408.2500    682.8896   -528.7365      8.0847    108.4684
  1408.5000    682.8896   -528.7011      8.0909    107.3824
  1408.7500    682.8896   -528.6614      8.0476    107.0261
  1409.0000    682.8896   -528.6179      7.9533    107.9264
  1409.2500    682.8872   -528.5706      7.8136    109.6832
  1409.5000    682.8428   -528.5192      7.6403    113.7447
  1409.7500    682.6071   -528.4623      7.4485    116.8997
  1410.0000    681.5439   -528.3970      7.2519    121.1808
  1410.2500    677.8402   -528.3184      7.0615    123.2125
  1410.5000    667.9915   -528.2203      6.8850    124.8172
  1410.7500    648.3748   -528.0956      6.7279    125.2075
  1411.0000    620.1884   -527.9380      6.5943    125.5831
  1411.2500    593.6777   -527.7438      6.4868    126.0756
  1411.5000    583.5392   -527.5135      6.4066    127.2732
  1411.7500    596.2038   -527.2542      6.3533    128.1298
  1412.0000    622.7383   -526.9792      6.3252    128.9909
  1412.2500    645.9706   -526.7075      6.3204    129.1325
  1412.5000    651.5255   -526.4619      6.3369    128.7098
  1412.7500    631.3906   -526.2656      6.3729    128.1208
  1413.0000    583.5557   -526.1386      6.4270    127.0307
  1413.2500    514.0594   -526.0938      6.4985    126.1595
  1413.5000    437.7034   -526.1348      6.5874    124.2001
  1413.7500    372.1929   -526.2544      6.6942    122.2223
  1414.0000    329.7127   -526.4349      6.8200    118.4854
  1414.2500    313.5750   -526.6509      6.9672    115.9422
  1414.5000    322.5792   -526.8722      7.1401    112.7223
  1414.7500    357.7073   -527.0682      7.3440    111.0462
  1415.0000    419.9290   -527.2123      7.5850    108.9265
  1415.2500    499.9007   -527.2841      7.8691    107.5556
  1415.5000    576.9706   -527.2717      8.2027    105.3678
  1415.7500    633.0421   -527.1711      8.5940    103.8052
  1416.0000    664.0182   -526.9864      9.0526    101.4223
  1416.2500    676.9121   -526.7280      9.5869     99.9582
  1416.5000    680.2407   -526.4130     10.1969     98.1019
  1416.7500    678.5051   -526.0656     10.8648     96.9624
  1417.0000    672.0978   -525.7166     11.5445     95.0098
  1417.2500    659.4266   -525.4030     12.1584     93.4909
  1417.5000    639.5795   -525.1651     12.6119     91.2538
  1417.7500    614.6486   -525.0403     12.8283     90.2054
  1418.0000    589.5286   -525.0566     12.7888     90.2968
  1418.2500    567.1246   -525.2248     12.5444     92.0936
  1418.5000    543.0013   -525.5349     12.1894     97.8068
  1418.7500    509.7775   -525.9568     11.8187    103.0933
  1419.0000    471.3427   -526.4457     11.4977    111.2272
  1419.2500    448.4538   -526.9514     11.2571    115.5901
  1419.5000    462.4518   -527.4282     11.1009    119.3272
  1419.7500    513.1450   -527.8426     11.0205    119.6853
  1420.0000    577.6793   -528.1767     11.0070    116.9319
  1420.2500    630.8800   -528.4276     11.0581    113.0609
  1420.5000    662.5056   -528.6037     11.1780    105.1935
  1420.7500    676.5793   -528.7194     11.3694     99.6462
  1421.0000    681.3519   -528.7906     11.6237     92.9445
  1421.2500    682.5971   -528.8319     11.9138     90.3051
  1421.5000    682.8487   -528.8542     12.1963     89.0622
  1421.7500    682.8896   -528.8655     12.4228     89.6585
  1422.0000    682.8896   -528.8708     12.5541     92.5712
  1422.2500    682.8896   -528.8730     12.5700     96.1730
  1422.5000    682.8896   -528.8738     12.4721    104.0684
  1422.7500    682.8896   -528.8743     12.2816    110.1424
  1423.0000    682.8896   -528.8750     12.0362    118.2134
  1423.2500    682.8896   -528.8764     11.7839    121.9923
  1423.5000    682.8896   -528.8785     11.5745    125.0490
  1423.7500    682.8896   -528.8813     11.4516    125.6230
  1424.0000    682.8896   -528.8845     11.4481    124.4806
  1424.2500    682.8896   -528.8879     11.5865    122.1680
  1424.5000    682.8896   -528.8912     11.8803    115.9195
  1424.7500    682.8896   -528.8940     12.3351    110.0244
  1425.0000    682.8896   -528.8964     12.9504     99.7316
  1425.2500    682.8896   -528.8982     13.7218     92.7478
  1425.5000    682.8896   -528.8992     14.6392     83.0428
  1425.7500    682.8896   -528.8995     15.6813     77.3681
  1426.0000    682.8896   -528.8990     16.8016     70.4582
  1426.2500    682.8896   -528.8978     17.9146     67.0842
  1426.5000    682.8896   -528.8959     18.8898     63.7880
  1426.7500    682.8896   -528.8936     19.5699     62.5908
  1427.0000    682.8896   -528.8911     19.8196     62.0420
  1427.2500    682.8896   -528.8885     19.5841     62.3689
  1427.5000    682.8896   -528.8862     18.9164     63.7012
  1427.7500    682.8896   -528.8842     17.9482     65.2781
  1428.0000    682.8896   -528.8828     16.8298     69.6217
  1428.2500    682.8896   -528.8816     15.6823     74.6213
  1428.5000    682.8896   -528.8807     14.5836     85.9967
  1428.7500    682.8896   -528.8796     13.5770     95.6529
  1429.0000    682.8896   -528.8783     12.6850    110.6588
  1429.2500    682.8896   -528.8763     11.9179    119.2110
  1429.5000    682.8896   -528.8736     11.2773    127.9655
  1429.7500    682.8896   -528.8700     10.7593    130.9303
  1430.0000    682.8896   -528.8655     10.3568    131.5947
  1430.2500    682.8896   -528.8601     10.0621    129.9120
  1430.5000    682.8896   -528.8538      9.8675    125.2246
  1430.7500    682.8896   -528.8464      9.7641    121.5695
  1431.0000    682.8896   -528.8380      9.7403    116.8029
  1431.2500    682.8896   -528.8281      9.7806    114.5216
  1431.5000    682.8896   -528.8166      9.8673    112.3321
  1431.7500    682.8896   -528.8029      9.9817    111.4406
  1432.0000    682.8896   -528.7864     10.1073    110.5880
  1432.2500    682.8896   -528.7661     10.2323    110.1795
