~Version Information
VERS.                      2.0: CWLS Log ASCII Standard - VERSION 2.0
WRAP.                       NO: One line per depth step
~Well Information Block
STRT.FT               557.0000: 
STOP.FT              2136.0000: 
STEP.FT                 0.2500: 
NULL.                -999.2500: 
COMP.          Petrogulf Corporation: COMPANY
WELL.           Montoya 12-41R: WELL
FLD.           Purgatorie River: FIELD
LOC.           1086' FNL & 610' FEL: LOCATION
CNTY.               Las Animas: COUNTY
SRVC.                         : SERVICE COMPANY
DATE.          Thu Nov 18 06:03:03 2004: LOG DATE
UWI.           05 071 08241 00: UNIQUE WELL ID
STAT.                 Colorado: STATE
~Curve Information Block
DEPT.FT            0 000 00 00: Depth
SP.mV                         : DIL Spontaneous Potential
RILD.Ohm-m                    : DIL Deep Resistivity
RILM.Ohm-m                    : DIL Medium Resistivity
RLL3.Ohm-m                    : DIL Shallow Resistivity
GR.GAPI                       : Gamma Ray
~Parameter Information Block
~A  Depth        SP         RILD        RILM        RLL3         GR     
# ...
  1397.0000   -126.6171     15.7422     15.2107     19.8048    170.9892
  1397.2500   -125.4664     15.8937     15.2125     21.6989    173.5083
  1397.5000   -124.6127     16.1115     15.3727     25.9547    174.5714
  1397.7500   -124.0912     16.3775     15.7073     33.8310    173.0892
  1398.0000   -123.8678     16.6721     16.2310     46.8132    167.9347
  1398.2500   -123.8563     16.9756     16.9549     66.3558    162.6360
  1398.5000   -123.9542     17.2691     17.8824     93.4388    151.0875
  1398.7500   -124.0732     17.5367     19.0018    128.0062    140.3427
  1399.0000   -124.1643     17.7658     20.2770    168.4536    119.6628
  1399.2500   -124.2235     17.9480     21.6360    211.3949    103.8677
  1399.5000   -124.2852     18.0788     22.9649    251.9160     80.1477
  1399.7500   -124.4026     18.1563     24.1130    284.3891     66.0464
  1400.0000   -124.6364     18.1798     24.9184    303.7033     49.3067
  1400.2500   -125.0389     18.1481     25.2530    306.5593     41.4079
  1400.5000   -125.6489     18.0583     25.0647    292.3828     34.3301
  1400.7500   -126.4948     17.9058     24.3943    263.5109     32.7606
  1401.0000   -127.5896     17.6853     23.3557    224.5676     35.3598
  1401.2500   -128.9304     17.3924     22.0935    181.2561     40.3988
  1401.5000   -130.4931     17.0257     20.7443    138.9988     52.0322
  1401.7500   -132.2240     16.5896     19.4128    101.8720     61.4699
  1402.0000   -134.0338     16.0956     18.1679     72.1027     76.2250
  1402.2500   -135.8015     15.5613     17.0473     50.1498     85.6559
  1402.5000   -137.3881     15.0090     16.0661     35.1870     98.4187
  1402.7500   -138.6632     14.4622     15.2257     25.7269    105.6622
  1403.0000   -139.5336     13.9432     14.5190     20.1642    114.0915
  1403.2500   -139.9650     13.4697     13.9350     17.1229    118.0351
  1403.5000   -139.9986     13.0536     13.4611     15.5950    122.0939
  1403.7500   -139.7437     12.7011     13.0844     14.9259    124.1824
  1404.0000   -139.3634     12.4128     12.7925     14.7286    127.1674
  1404.2500   -139.0482     12.1846     12.5740     14.7869    129.1242
  1404.5000   -138.9921     12.0086     12.4186     14.9701    131.6768
  1404.7500   -139.3592     11.8745     12.3172     15.1933    133.0453
  1405.0000   -140.2563     11.7693     12.2612     15.4026    135.0025
  1405.2500   -141.7065     11.6795     12.2424     15.5711    136.4516
  1405.5000   -143.6364     11.5913     12.2518     15.7025    138.3151
  1405.7500   -145.8712     11.4925     12.2787     15.8255    138.6837
  1406.0000   -148.1629     11.3741     12.3101     15.9775    137.3883
  1406.2500   -150.2259     11.2314     12.3311     16.1796    135.5948
  1406.5000   -151.7927     11.0647     12.3258     16.4131    132.1688
  1406.7500   -152.6566     10.8792     12.2796     16.6117    129.3410
  1407.0000   -152.7123     10.6831     12.1828     16.6774    123.8333
  1407.2500   -151.9692     10.4861     12.0325     16.5164    119.4738
  1407.5000   -150.5476     10.2969     11.8338     16.0811    113.2700
  1407.7500   -148.6622     10.1220     11.5989     15.3956    110.3184
  1408.0000   -146.5892      9.9646     11.3445     14.5538    108.5182
  1408.2500   -144.6142      9.8248     11.0879     13.6890    108.9794
  1408.5000   -142.9860      9.6998     10.8445     12.9388    111.5387
  1408.7500   -141.8615      9.5850     10.6259     12.4208    114.1319
  1409.0000   -141.2745      9.4752     10.4390     12.2285    118.8718
  1409.2500   -141.1422      9.3657     10.2863     12.4508    122.3322
  1409.5000   -141.2984      9.2530     10.1663     13.1958    127.2766
  1409.7500   -141.5579      9.1355     10.0739     14.5957    129.7393
  1410.0000   -141.7713      9.0137     10.0013     16.7714    130.7161
  1410.2500   -141.8710      8.8898      9.9389     19.7574    128.7882
  1410.5000   -141.8679      8.7671      9.8756     23.4100    121.3845
  1410.7500   -141.8158      8.6493      9.8011     27.3457    113.6171
  1411.0000   -141.7655      8.5400      9.7068     30.9644     99.1242
  1411.2500   -141.7247      8.4417      9.5880     33.5755     89.0802
  1411.5000   -141.6411      8.3557      9.4444     34.5999     76.9348
  1411.7500   -141.4264      8.2821      9.2798     33.7671     72.7837
  1412.0000   -140.9992      8.2193      9.1017     31.2171     74.3025
  1412.2500   -140.3234      8.1648      8.9187     27.4553     80.1428
  1412.5000   -139.4324      8.1156      8.7394     23.1835     93.7077
  1412.7500   -138.4208      8.0687      8.5710     19.0820    104.1783
  1413.0000   -137.4169      8.0216      8.4181     15.6375    119.4048
  1413.2500   -136.5356      7.9731      8.2836     13.0709    128.1765
  1413.5000   -135.8446      7.9233      8.1688     11.3658    138.3290
  1413.7500   -135.3509      7.8743      8.0741     10.3565    142.9079
  1414.0000   -135.0130      7.8293      7.9998      9.8258    146.2561
  1414.2500   -134.7658      7.7930      7.9465      9.5770    146.0165
  1414.5000   -134.5590      7.7704      7.9153      9.4688    142.4631
  1414.7500   -134.3835      7.7671      7.9076      9.4222    138.8600
  1415.0000   -134.2867      7.7884      7.9256      9.4074    133.0508
  1415.2500   -134.3498      7.8390      7.9715      9.4271    129.0008
  1415.5000   -134.6621      7.9227      8.0477      9.5013    122.1183
  1415.7500   -135.2743      8.0425      8.1567      9.6517    117.3043
  1416.0000   -136.1647      8.1998      8.3012      9.8976    111.8496
  1416.2500   -137.2251      8.3949      8.4840     10.2590    110.6143
  1416.5000   -138.2788      8.6268      8.7083     10.7615    112.7403
  1416.7500   -139.1233      8.8934      8.9779     11.4444    116.0502
  1417.0000   -139.5900      9.1924      9.2971     12.3670    121.8888
  1417.2500   -139.5908      9.5214      9.6711     13.6097    125.2402
  1417.5000   -139.1392      9.8786     10.1059     15.2628    128.0228
  1417.7500   -138.3397     10.2636     10.6084     17.4003    128.0713
  1418.0000   -137.3486     10.6769     11.1864     20.0390    125.6224
  1418.2500   -136.3267     11.1196     11.8480     23.0963    122.3519
  1418.5000   -135.3947     11.5927     12.6012     26.3656    114.5646
  1418.7500   -134.6157     12.0959     13.4521     29.5308    107.3939
  1419.0000   -133.9965     12.6262     14.4028     32.2285     94.8927
  1419.2500   -133.4988     13.1766     15.4480     34.1428     86.8246
  1419.5000   -133.0606     13.7355     16.5709     35.0940     77.9100
  1419.7500   -132.6151     14.2858     17.7393     35.0860     75.3772
  1420.0000   -132.0965     14.8063     18.9023     34.2876     77.3754
  1420.2500   -131.4493     15.2731     19.9927     32.9618     81.8171
  1420.5000   -130.6334     15.6618     20.9326     31.3753     90.4762
  1420.7500   -129.6303     15.9519     21.6478     29.7292     96.0537
  1421.0000   -128.4447     16.1296     22.0818     28.1323    102.9793
  1421.2500   -127.1106     16.1897     22.2086     26.6158    106.9514
  1421.5000   -125.6879     16.1365     22.0367     25.1697    113.0153
  1421.7500   -124.2589     15.9820     21.6035     23.7780    117.3089
  1422.0000   -122.9189     15.7434     20.9659     22.4398    123.5036
  1422.2500   -121.7688     15.4404     20.1880     21.1727    127.0951
  1422.5000   -120.9074     15.0927     19.3315     20.0034    131.6199
  1422.7500   -120.4226     14.7186     18.4503     18.9548    134.1416
  1423.0000   -120.3797     14.3341     17.5875     18.0357    136.9901
  1423.2500   -120.8113     13.9529     16.7747     17.2375    138.0545
  1423.5000   -121.7101     13.5866     16.0336     16.5370    138.3936
  1423.7500   -123.0111     13.2448     15.3762     15.9068    138.0915
  1424.0000   -124.5960     12.9346     14.8077     15.3261    137.6635
  1424.2500   -126.3015     12.6612     14.3281     14.7869    137.8022
  1424.5000   -127.9468     12.4271     13.9333     14.2960    138.9834
  1424.7500   -129.3736     12.2327     13.6172     13.8708    140.4320
