~Version Information
VERS.                      2.0: CWLS Log ASCII Standard - VERSION 2.0
WRAP.                       NO: One line per depth step
~Well Information Block
STRT.FT               870.0000: 
STOP.FT              2519.5000: 
STEP.FT                 0.2500: 
NULL.                -999.2500: 
COMP.          Pioneer Natural Resources: COMPANY
WELL.              Tiaga 23-14: WELL
FLD.           Purgatoire River: FIELD
LOC.           2168' FSL & 2030' FWL: LOCATION
PROV.                 Colorado: PROVINCE
CNTY.               Las Animas: COUNTRY
SRVC.                         : SERVICE COMPANY
DATE.          Sat May 07 08:44:43 2005: LOG DATE
UWI.           05 071 08329 00: UNIQUE WELL ID
~Curve Information Block
DEPT.FT            0 000 00 00: Depth
LTEN.lb                       : Surface Line Tension
SN.Ohm-m                      : IEL Short Normal
SP.mV                         : IEL Spontaneous Potential
DIR.Ohm-m                     : IEL Induction Resistivity
GR.GAPI                       : Gamma Ray
~Parameter Information Block
~A  Depth       LTEN         SN          SP         DIR          GR     
# ...
  2074.0000    842.2847     23.2794    -23.5482     21.3469     51.3079
  2074.2500    840.5842     23.2362    -23.5975     21.4349     47.5131
  2074.5000    839.0833     23.2091    -23.6325     21.5552     43.3452
  2074.7500    837.5732     23.2000    -23.6524     21.6880     41.3658
  2075.0000    835.9116     23.1937    -23.6561     21.8297     39.5086
  2075.2500    834.3270     23.1770    -23.6414     21.9846     39.1820
  2075.5000    833.1995     23.1805    -23.6069     22.1593     40.3828
  2075.7500    832.6504     23.2387    -23.5533     22.3572     42.3231
  2076.0000    832.6691     23.3556    -23.4834     22.5750     46.4741
  2076.2500    833.5433     23.5420    -23.4015     22.8006     49.4807
  2076.5000    835.6942     23.8252    -23.3154     23.0168     53.0352
  2076.7500    839.0237     24.2018    -23.2375     23.2077     54.1260
  2077.0000    842.7853     24.6021    -23.1800     23.3630     53.4905
  2077.2500    846.1705     24.9236    -23.1474     23.4794     51.8653
  2077.5000    848.8231     25.1050    -23.1330     23.5618     48.8152
  2077.7500    850.7987     25.1570    -23.1211     23.6246     47.1695
  2078.0000    852.1597     25.1212    -23.0943     23.6893     46.1075
  2078.2500    852.6535     25.0262    -23.0403     23.7761     46.2915
  2078.5000    851.9421     24.8903    -22.9561     23.8922     47.3678
  2078.7500    850.1917     24.7359    -22.8468     24.0225     48.5222
  2079.0000    848.1666     24.5807    -22.7221     24.1290     51.4084
  2079.2500    846.6072     24.4268    -22.5930     24.1604     54.4391
  2079.5000    845.6721     24.2612    -22.4694     24.0713     60.4448
  2079.7500    844.8867     24.0794    -22.3588     23.8446     64.7645
  2080.0000    843.4340     23.9114    -22.2643     23.5007     70.3294
  2080.2500    840.7710     23.7845    -22.1837     23.0882     72.9101
  2080.5000    837.2811     23.6706    -22.1107     22.6625     74.9314
  2080.7500    834.1365     23.5250    -22.0401     22.2650     75.1862
  2081.0000    832.3677     23.3491    -21.9712     21.9124     74.1918
  2081.2500    832.2056     23.1874    -21.9060     21.6015     72.7897
  2081.5000    833.2166     23.0800    -21.8413     21.3220     70.2553
  2081.7500    834.7848     23.0059    -21.7669     21.0682     69.0054
  2082.0000    836.5512     22.8737    -21.6732     20.8410     69.4989
  2082.2500    838.6172     22.5951    -21.5619     20.6405     72.4051
  2082.5000    841.2724     22.1624    -21.4505     20.4620     81.4072
  2082.7500    844.4673     21.6422    -21.3633     20.2988     89.8614
  2083.0000    847.6384     21.1175    -21.3166     20.1470    103.1763
  2083.2500    849.9603     20.6479    -21.3105     20.0046    110.3565
  2083.5000    850.7046     20.2720    -21.3353     19.8657    116.2658
  2083.7500    849.6194     20.0240    -21.3857     19.7159    116.6702
  2084.0000    847.1137     19.9292    -21.4613     19.5373    112.3194
  2084.2500    843.8974     19.9804    -21.5550     19.3202    106.3694
  2084.5000    840.4655     20.1313    -21.6498     19.0705     93.7267
  2084.7500    837.0670     20.3135    -21.7297     18.8055     83.8706
  2085.0000    833.9202     20.4599    -21.7933     18.5422     69.3068
  2085.2500    831.2498     20.5086    -21.8545     18.2891     60.8622
  2085.5000    829.3694     20.4099    -21.9304     18.0475     50.9300
  2085.7500    828.8180     20.1654    -22.0274     17.8213     46.1533
  2086.0000    830.0997     19.8363    -22.1386     17.6241     41.5512
  2086.2500    833.1483     19.4800    -22.2533     17.4773     40.0013
  2086.5000    837.1663     19.1124    -22.3689     17.3958     39.3632
  2086.7500    841.0530     18.7310    -22.4967     17.3727     39.6781
  2087.0000    844.0750     18.3454    -22.6574     17.3766     41.0284
  2087.2500    846.2356     17.9971    -22.8684     17.3703     42.6572
  2087.5000    847.9360     17.7564    -23.1282     17.3383     46.3088
  2087.7500    849.2677     17.6862    -23.4124     17.3008     56.2221
  2088.0000    849.8499     17.7851    -23.6856     17.3002     60.3912
  2088.2500    849.3922     17.9734    -23.9197     17.3744     61.6366
  2088.5000    848.1204     18.1874    -24.1031     17.5396     60.2352
  2088.7500    846.5825     18.4421    -24.2374     17.7896     57.3300
  2089.0000    845.2594     18.7776    -24.3326     18.1042     51.4338
  2089.2500    844.3495     19.2060    -24.4015     18.4576     47.4140
  2089.5000    843.6826     19.7141    -24.4559     18.8238     42.2744
  2089.7500    842.7934     20.2671    -24.5030     19.1834     39.6761
  2090.0000    841.2621     20.8023    -24.5452     19.5304     37.1660
  2090.2500    839.1451     21.2547    -24.5799     19.8724     36.4696
  2090.5000    837.0520     21.6016    -24.5977     20.2207     36.8651
  2090.7500    835.6603     21.8851    -24.5833     20.5776     37.9331
  2091.0000    835.1608     22.1812    -24.5241     20.9298     40.2117
  2091.2500    835.3086     22.5123    -24.4209     21.2535     41.8346
  2091.5000    835.9391     22.8146    -24.2898     21.5268     44.0716
  2091.7500    837.1912     23.0177    -24.1513     21.7382     45.4454
  2092.0000    839.2446     23.1056    -24.0189     21.8861     47.6416
  2092.2500    842.0283     23.1005    -23.8974     21.9726     49.3957
  2092.5000    845.1478     23.0409    -23.7904     21.9980     52.4140
  2092.7500    847.9977     22.9811    -23.7038     21.9637     54.3048
  2093.0000    849.9761     22.9865    -23.6405     21.8777     56.0831
  2093.2500    850.6276     23.1069    -23.5938     21.7598     56.3119
  2093.5000    849.6969     23.3421    -23.5483     21.6437     55.5714
  2093.7500    847.2717     23.6524    -23.4872     21.5766     54.8942
  2094.0000    843.9047     24.0013    -23.3975     21.6138     54.7137
  2094.2500    840.4552     24.3639    -23.2695     21.8069     55.7020
  2094.5000    837.7183     24.7149    -23.0929     22.1890     59.0455
  2094.7500    836.1110     25.0533    -22.8549     22.7630     61.8788
  2095.0000    835.5866     25.4337    -22.5441     23.5008     64.8392
  2095.2500    835.7967     25.9434    -22.1581     24.3538     64.6843
  2095.5000    836.3365     26.6571    -21.7104     25.2700     60.4483
  2095.7500    836.9380     27.6293    -21.2302     26.2068     55.4773
  2096.0000    837.6213     28.8834    -20.7535     27.1327     46.7122
  2096.2500    838.6565     30.3483    -20.3148     28.0222     41.1468
  2096.5000    840.1843     31.8577    -19.9434     28.8520     34.5636
  2096.7500    841.9205     33.3217    -19.6635     29.6050     31.7285
  2097.0000    843.4725     34.8508    -19.4852     30.2842     30.0259
  2097.2500    844.9041     36.6172    -19.3893     30.9286     30.5226
  2097.5000    846.7477     38.6885    -19.3266     31.6117     33.0868
  2097.7500    849.5353     40.9910    -19.2404     32.4051     35.3296
  2098.0000    853.3664     43.2547    -19.0980     33.3097     38.1831
  2098.2500    857.5441     45.0216    -18.9027     34.1932     39.2125
  2098.5000    860.4281     45.9238    -18.6816     34.7904     39.4474
  2098.7500    860.2216     45.9697    -18.4638     34.8130     39.3479
  2099.0000    856.4825     45.4599    -18.2672     34.1340     40.4243
  2099.2500    850.7616     44.6823    -18.0989     32.8993     42.6795
  2099.5000    845.5182     43.7631    -17.9614     31.4487     48.5285
  2099.7500    842.3705     42.7330    -17.8532     30.1250     53.6265
  2100.0000    841.1999     41.6238    -17.7649     29.1302     62.2167
  2100.2500    840.7531     40.4811    -17.6785     28.4911     68.3920
  2100.5000    840.1528     39.3331    -17.5700     28.1038     78.3681
  2100.7500    839.7715     38.1648    -17.4124     27.8099     85.2441
  2101.0000    840.5894     36.9002    -17.1792     27.4720     94.5654
  2101.2500    842.9737     35.4700    -16.8494     27.0105     99.2430
  2101.5000    846.2587     33.9768    -16.4121     26.4020    103.5069
  2101.7500    849.3127     32.7241    -15.8685     25.6640    104.9052
