~Version Information
 VERS.                                  2.0 : CWLS LAS VERSION
 WRAP.                                   NO : WRAPING MODE
 SWARE .                 MController 2.5.0N : SOFTWARE VERSION
~Well Information
 WELL.                           Zink 44-10 : WELL
 COMP.    Pioneer Natural Resources USA Inc : COMPANY
 FLD.                      Purgatoire River : FIELD
 LOC.                SE/SE Sec 10 T32S R66W : LOCATION
 DATE.                              5/29/05 : DATE(S) LOGGED
 SRVC.       Blanco Geological Services LLC : SERVICE COMPANY
 STAT.                                   CO : STATE
 CNTY.                           Las Animas : COUNTY
 CTRY.                                  USA : COUNTRY
 API.                       05-071-08380-00 : API NUMBER
 STRT.FT                             620.00 : START DEPTH
 STOP.FT                            2635.00 : STOP DEPTH
 STEP.FT                               1.00 : DEPTH INCREMENT
 NULL.                                -9999 : NULL VALUE
~Curve information
 DEPTH.FT                                   :
 ROP.MIN/FT                                 :
 GAS.UNITS                                  :
~ASCII Log data
       620.0     -9999.00          9.8 
       621.0         0.37         10.4 
       622.0        13.50         11.3 
       623.0         0.67         11.2 
       624.0         0.10         11.3 
       625.0         1.00         11.0 
       626.0         0.30         11.2 
       627.0         1.22         11.8 
       628.0         0.10         10.2 
       629.0         0.40         10.9 
       630.0         0.07         11.1 
       631.0         0.80         11.3 
       632.0         0.35         11.5 
       633.0         1.00         10.8 
       634.0         0.23         10.6 
       635.0         0.27         10.6 
       636.0         0.77         11.2 
       637.0         0.37         11.6 
       638.0         0.07         11.1 
       639.0         0.82         11.7 
       640.0         0.20         10.9 
       641.0         0.27         11.3 
       642.0         0.10         10.9 
       643.0         1.43         11.9 
       644.0         0.30          5.5 
       645.0         1.02          4.7 
       646.0         0.30          2.5 
       647.0         1.03        116.1 
       648.0         0.50         64.2 
       649.0         0.93         17.7 
       650.0         0.28         -1.0 
       651.0         0.93         -1.7 
       652.0         0.17         -1.9 
       653.0         0.37         -1.7 
       654.0         1.03         -1.5 
       655.0         0.07         -2.4 
       656.0         0.33         -1.6 
       657.0         0.07         -2.1 
       658.0         0.88         -1.8 
       659.0         0.30         -2.0 
       660.0         0.93         -1.6 
       661.0         0.23         -2.1 
       662.0         0.10         -2.3 
       663.0         0.83         -1.7 
       664.0         0.92         -1.7 
       665.0         0.47         -2.0 
       666.0         0.10         -1.9 
       667.0         1.20         -1.7 
       668.0         0.23          2.6 
       669.0         0.10          5.0 
       670.0         1.08          6.0 
       671.0         0.27          4.1 
       672.0         1.43          4.0 
       673.0         0.30          3.4 
       674.0         0.57          2.9 
       675.0         0.13          2.9 
       676.0         0.38          3.2 
       677.0         0.07          2.7 
       678.0         0.80          2.7 
       679.0         5.22          5.4 
       680.0         0.13          3.2 
       681.0         0.10          3.1 
       682.0         0.62          3.5 
       683.0         1.83          3.2 
       684.0         0.13          2.3 
       685.0         0.10          2.4 
       686.0         0.73          3.2 
       687.0         0.12          2.8 
       688.0         0.10          3.1 
       689.0         0.10          3.3 
       690.0         0.10          2.6 
       691.0         0.10          2.5 
       692.0         0.07          2.5 
       693.0         0.10          2.5 
       694.0         0.07          2.1 
       695.0         0.10          2.0 
       696.0         1.43          3.2 
       697.0         0.57          3.1 
       698.0         0.27          2.9 
       699.0         0.13          2.7 
       700.0         0.10          2.7 
       701.0         0.15          2.6 
       702.0         0.10          2.9 
       703.0         0.13          2.7 
       704.0         0.10          2.5 
       705.0         0.07          2.7 
       706.0         0.10          2.3 
       707.0         0.07          2.3 
       708.0         0.13          2.3 
       709.0         0.07          2.3 
       710.0         0.10          2.0 
       711.0         0.10          1.9 
       712.0         0.40          2.0 
       713.0         0.40          2.5 
       714.0         0.07          1.9 
       715.0         0.23          2.0 
       716.0         0.17          1.7 
       717.0         0.50          1.9 
       718.0         0.40          1.8 
       719.0         0.25          2.5 
       720.0         0.10          1.4 
       721.0         0.13          2.1 
       722.0         0.20          1.9 
       723.0         0.40          1.7 
       724.0         0.40          1.8 
       725.0         0.33          2.1 
       726.0         0.33          2.2 
       727.0         0.27          1.8 
       728.0         0.27          2.2 
       729.0         0.30          2.2 
       730.0         0.33          1.7 
       731.0         0.10          1.7 
       732.0         0.18          1.6 
       733.0         0.13          2.0 
       734.0         0.07          1.2 
       735.0         0.50          2.0 
       736.0         0.40          2.8 
       737.0         0.43          2.4 
       738.0         0.47          2.3 
       739.0         0.20          1.9 
       740.0         0.13          1.7 
       741.0         0.10          1.7 
       742.0         0.23          1.9 
       743.0         0.17          2.4 
       744.0         0.42          2.1 
       745.0         0.40          2.5 
       746.0         0.73          2.7 
       747.0         0.40          2.8 
       748.0         0.43          2.6 
       749.0         0.70          2.5 
       750.0         0.20          2.6 
       751.0         0.13          1.8 
       752.0         0.23          1.9 
       753.0         0.95          2.8 
       754.0         0.60          3.2 
       755.0         0.57          3.1 
       756.0         0.23          3.2 
       757.0         0.23          2.9 
       758.0         0.07          2.6 
       759.0         0.70          2.7 
       760.0         0.68          3.1 
       761.0         0.60          2.5 
       762.0         0.60          2.3 
       763.0         0.90          2.2 
       764.0         0.57          2.2 
       765.0         0.48          2.1 
       766.0         1.33          2.8 
       767.0         0.13          1.7 
       768.0         0.13          1.9 
       769.0         0.23          2.0 
       770.0         0.10          2.1 
       771.0         0.20          2.3 
       772.0         0.10          2.0 
       773.0         0.20          2.2 
       774.0         0.17          2.2 
       775.0         0.27          2.6 
       776.0         0.15          2.3 
       777.0         0.13          3.3 
       778.0         0.13          2.1 
       779.0         0.10          2.6 
       780.0         0.13          2.0 
       781.0         0.07          1.8 
       782.0         0.43          2.5 
       783.0         0.67          2.5 
       784.0         0.07          2.4 
       785.0         0.10          2.6 
       786.0         0.13          2.5 
       787.0         1.03          2.7 
       788.0         0.13          2.6 
       789.0         0.25          3.3 
       790.0         0.20          3.4 
       791.0         0.07          3.5 
       792.0         0.10          3.6 
       793.0         0.13          3.4 
       794.0         0.37          3.0 
       795.0         0.30          2.5 
       796.0         0.37          2.1 
       797.0         0.20          2.3 
       798.0         0.30          2.8 
       799.0         0.17          3.2 
       800.0         0.20          3.5 
       801.0         0.20          3.9 
       802.0         0.20          3.5 
       803.0         0.33          3.8 
       804.0         0.48          3.4 
       805.0         0.43          3.8 
       806.0         1.60          4.0 
       807.0         0.33          4.0 
       808.0         0.23          4.0 
       809.0         0.23          3.8 
       810.0         0.18          3.6 
       811.0         0.20          3.7 
       812.0         0.20          3.4 
       813.0         0.20          3.5 
       814.0         0.17          3.4 
       815.0         0.20          3.9 
       816.0         0.17          3.6 
       817.0         0.20          3.7 
       818.0         0.17          3.8 
       819.0         0.17          4.5 
