~Version Information
 VERS.                                  2.0 : CWLS LAS VERSION
 WRAP.                                   NO : WRAPING MODE
 SWARE .                 MController 2.5.0J : SOFTWARE VERSION
~Well Information
 WELL.                  Great Plains 22-21R : WELL
 COMP.                Petrogulf Corporation : COMPANY
 FLD.                      Purgatoire River : FIELD
 LOC.                NE/NW Sec 22 T33S R67W : LOCATION
 DATE.                               9/7/05 : DATE(S) LOGGED
 SRVC.       BLANCO Geological Services LLC : SERVICE COMPANY
 STAT.                                   CO : STATE
 CNTY.                           Las Animas : COUNTY
 CTRY.                                  USA : COUNTRY
 API.                       05-071-08343-00 : API NUMBER
 STRT.FT                             554.00 : START DEPTH
 STOP.FT                            1620.00 : STOP DEPTH
 STEP.FT                               1.00 : DEPTH INCREMENT
 NULL.                                -9999 : NULL VALUE
~Curve information
 DEPTH.FT                                   :
 ROP.MIN/FT                                 :
 GAS.UNITS                                  :
~ASCII Log data
       554.0     -9999.00          1.4 
       555.0         1.30          1.5 
       556.0         0.37          1.4 
       557.0         0.17          1.4 
       558.0         0.47          1.6 
       559.0         0.30          1.6 
       560.0         0.58          1.7 
       561.0         0.27          1.6 
       562.0         0.23          1.4 
       563.0         0.10          1.2 
       564.0         0.50          1.6 
       565.0         0.30          1.5 
       566.0         0.23          1.5 
       567.0         0.07          1.3 
       568.0         0.33          1.3 
       569.0         0.50          1.5 
       570.0         0.23          1.1 
       571.0         0.07          1.1 
       572.0         0.28          1.4 
       573.0         0.50          1.3 
       574.0         0.30          1.1 
       575.0         0.67          1.4 
       576.0         0.10          1.1 
       577.0         0.27          1.2 
       578.0         1.10          1.5 
       579.0         0.20          1.2 
       580.0         0.38          1.2 
       581.0         0.43          1.0 
       582.0         0.10          0.8 
       583.0         1.10          1.2 
       584.0         1.00          1.1 
       585.0         0.13          1.0 
       586.0         0.23          1.3 
       587.0         0.25          1.0 
       588.0         0.30          0.9 
       589.0         0.57          1.3 
       590.0         0.57          1.0 
       591.0         0.40          1.2 
       592.0         0.13          0.9 
       593.0         0.33          1.3 
       594.0         0.77          1.2 
       595.0         0.10          1.2 
       596.0         0.58          1.2 
       597.0         0.10          1.2 
       598.0         0.40          1.4 
       599.0         0.30          1.1 
       600.0         1.00          1.2 
       601.0         1.45          1.3 
       602.0         0.13          1.1 
       603.0         0.23          1.3 
       604.0         0.33          1.1 
       605.0         0.53          1.2 
       606.0         1.00          1.3 
       607.0         0.33          1.1 
       608.0         2.82          1.3 
       609.0         0.57          1.5 
       610.0         2.62          1.3 
       611.0         0.33          1.1 
       612.0         0.30          0.9 
       613.0         0.23          1.1 
       614.0         0.10          0.9 
       615.0         0.12          1.1 
       616.0         0.10          0.9 
       617.0         0.90          1.1 
       618.0         0.40          1.3 
       619.0         0.07          0.8 
       620.0         0.10          1.2 
       621.0         0.27          1.0 
       622.0         0.07          1.0 
       623.0         0.20          1.0 
       624.0         0.07          0.7 
       625.0         0.10          0.9 
       626.0         0.07          1.3 
       627.0         0.10          0.8 
       628.0         0.10          1.0 
       629.0         0.17          1.1 
       630.0         0.07          0.9 
       631.0         0.17          1.1 
       632.0         0.10          1.0 
       633.0         0.10          1.0 
       634.0         0.13          1.1 
       635.0         0.15          1.2 
       636.0         0.20          1.5 
       637.0         0.10          1.0 
       638.0         0.10          1.2 
       639.0         0.30          1.3 
       640.0         0.13          1.4 
       641.0         0.17          1.3 
       642.0         0.20          1.4 
       643.0         0.17          1.2 
       644.0         0.23          1.1 
       645.0         2.88          1.6 
       646.0         0.07          1.3 
       647.0         1.07          1.6 
       648.0         0.13          1.4 
       649.0         0.13          1.3 
       650.0         0.17          1.3 
       651.0         0.13          1.3 
       652.0         0.10          1.2 
       653.0         0.13          1.4 
       654.0         1.52          1.5 
       655.0         0.13          1.8 
       656.0         0.20          3.4 
       657.0         0.20          4.1 
       658.0         0.17          4.3 
       659.0         0.30          4.4 
       660.0         0.13          4.4 
       661.0         0.17          3.8 
       662.0         0.17          3.5 
       663.0         0.23          3.2 
       664.0         0.13          2.8 
       665.0         0.17          2.8 
       666.0         0.15          2.4 
       667.0         0.13          2.5 
       668.0         0.17          2.2 
       669.0         0.13          3.6 
       670.0         0.13         31.9 
       671.0         0.10         69.2 
       672.0         0.13        109.3 
       673.0         0.10        116.5 
       674.0         0.13        115.6 
       675.0         0.10        102.7 
       676.0         0.13         88.0 
       677.0         0.10         67.5 
       678.0         0.13         58.5 
       679.0         0.13         44.0 
       680.0         0.10         31.7 
       681.0         0.13         25.2 
       682.0         0.07         19.1 
       683.0         0.13         16.7 
       684.0         0.10         11.8 
       685.0         1.92          9.0 
       686.0         0.20          2.1 
       687.0         0.17          2.1 
       688.0         0.17          2.1 
       689.0         0.13          2.0 
       690.0         0.23          1.9 
       691.0         0.10          2.7 
       692.0         0.10          4.4 
       693.0         0.07          5.8 
       694.0         0.17         11.5 
       695.0         0.10         14.1 
       696.0         0.20         19.8 
       697.0         0.20         22.7 
       698.0         0.20         24.0 
       699.0         0.17         25.6 
       700.0         0.17         26.0 
       701.0         0.15         26.0 
       702.0         0.17         25.7 
       703.0         0.17         25.6 
       704.0         0.20         24.1 
       705.0         0.20         23.8 
       706.0         0.17         22.9 
       707.0         0.20         22.1 
       708.0         0.17         19.8 
       709.0         0.20         19.2 
       710.0         0.17         18.7 
       711.0         0.20         18.9 
       712.0         0.17         18.6 
       713.0         0.10         17.5 
       714.0         0.20         17.0 
       715.0         0.17         17.0 
       716.0         2.22         67.6 
       717.0         0.37         25.0 
       718.0         0.27         18.8 
       719.0         0.23         19.1 
       720.0         0.27         33.0 
       721.0         0.23         51.7 
       722.0         0.23         67.7 
       723.0         0.20         76.2 
       724.0         0.18         82.4 
       725.0         0.20         88.2 
       726.0         0.20         92.3 
       727.0         0.20         96.9 
       728.0         0.17        100.4 
       729.0         0.20        105.0 
       730.0         0.17        109.2 
       731.0         0.20        112.4 
       732.0         0.17        114.9 
       733.0         0.17        116.0 
       734.0         0.17        117.0 
       735.0         0.13        116.8 
       736.0         0.13        116.0 
       737.0         0.17        112.7 
       738.0         0.13        108.4 
       739.0         0.13        105.3 
       740.0         0.17        100.2 
       741.0         0.17         90.6 
       742.0         0.17         91.0 
       743.0         0.13        110.4 
       744.0         0.12        144.8 
       745.0         0.10        179.7 
       746.0         1.27       1100.2 
       747.0         0.10        744.1 
       748.0         0.17        663.8 
       749.0         0.23        556.5 
       750.0         0.20        442.9 
       751.0         0.23        440.0 
       752.0         0.23        132.6 
       753.0         0.20        109.2 
