~Version Information
VERS.                      2.0: CWLS Log ASCII Standard - VERSION 2.0
WRAP.                       NO: One line per depth step
~Well Information Block
STRT.FT               -13.5000: 
STOP.FT              2474.2500: 
STEP.FT                 0.2500: 
NULL.                -999.2500: 
COMP.          Pioneer Natural Resources: COMPANY
WELL.              Tiaga 23-14: WELL
FLD.           Purgatorie River: FIELD
LOC.           2168' FSL & 2030' FWL--: LOCATION
PROV.                       CO: PROVINCE
CNTY.               Las Animas: COUNTRY
SRVC.                         : SERVICE COMPANY
DATE.          Thu May 12 17:01:37 2005: LOG DATE
UWI.                          : UNIQUE WELL ID
~Curve Information Block
DEPT.FT            0 000 00 00: Depth
TT3.usec                      : CBL 3' Travel Time
AMP3.mV                       : CBL 3' Amplitude
GR.GAPI                       : Gamma Ray
CCL.                          : Casing Collar Locator
~Parameter Information Block
~A  Depth       TT3         AMP3         GR         CCL     
# ...
   623.0000    794.8892     16.0153     65.9686      0.0000
   623.2500    796.9713     16.0051     66.1193      0.0000
   623.5000    798.9547     15.9968     66.5047      0.0000
   623.7500    796.9707     15.9931     66.3563      0.0000
   624.0000    791.9868     16.0101     65.8069      0.0000
   624.2500    789.1310     16.0483     65.5891      0.0000
   624.5000    787.2994     16.0788     66.2719      0.0000
   624.7500    777.4728     16.0843     67.6958      0.0000
   625.0000    752.5552     16.0934     68.9961      0.0000
   625.2500    718.1508     16.1449     69.4030      0.0000
   625.5000    691.3428     16.2245     69.0597      0.0000
   625.7500    684.9203     16.2793     68.7622      0.0000
   626.0000    700.0870     16.3048     68.9699      0.0000
   626.2500    732.2126     16.3477     69.5112      0.0000
   626.5000    770.0488     16.4235     70.2704      0.0000
   626.7500    796.5786     16.5122     71.6083      0.0000
   627.0000    801.9276     16.6073     73.8652      0.0000
   627.2500    792.5421     16.7018     76.7079      0.0000
   627.5000    786.1808     16.7754     79.1571      0.0000
   627.7500    793.7477     16.8319     80.2776      0.0000
   628.0000    808.2055     16.8967     79.8790      0.0000
   628.2500    818.2875     16.9668     78.5235      0.0000
   628.5000    822.0046     17.0071     76.7523      0.0000
   628.7500    821.7383     16.9717     74.4038      0.0000
   629.0000    815.5129     16.7453     70.9219      0.0000
   629.2500    795.2119     16.0676     66.4006      0.0000
   629.5000    754.9998     14.7304     61.9494      0.0000
   629.7500    704.7529     13.0676     58.6973      0.0000
   630.0000    666.7159     11.8376     56.6744      0.0000
   630.2500    655.0355     11.2199     55.0438      0.0000
   630.5000    666.4200     10.7393     53.2074      0.0000
   630.7500    685.0663     10.2386     51.2338      0.0000
   631.0000    693.8782      9.8850     49.3622      0.0000
   631.2500    693.2862      9.6835     47.5941      0.0000
   631.5000    701.8308      9.5677     45.8800      2.0000
   631.7500    727.6947      9.5224     44.4715      0.0000
   632.0000    752.8906      9.5490     43.8912     -2.0000
   632.2500    752.0320      9.7685     44.4532      0.0000
   632.5000    725.5125     10.5384     45.8620      0.0000
   632.7500    705.6776     12.0295     47.3593      0.0000
   633.0000    717.1859     13.5903     48.1828      0.0000
   633.2500    748.1470     14.3708     47.9975      0.0000
   633.5000    772.6656     14.4204     47.1796      0.0000
   633.7500    781.9505     14.2605     46.6652      0.0000
   634.0000    782.8582     14.0970     47.3169      0.0000
   634.2500    782.3146     13.9274     49.5210      0.0000
   634.5000    782.4953     13.7643     53.2871      0.0000
   634.7500    783.2067     13.6231     58.1638      0.0000
   635.0000    784.1972     13.5145     62.9037      0.0000
   635.2500    786.3826     13.4447     65.8797      0.0000
   635.5000    791.4617     13.3842     66.2239      0.0000
   635.7500    799.3587     13.2755     64.2320      0.0000
   636.0000    805.6133     13.1043     60.6402      0.0000
   636.2500    804.5941     12.9452     56.0313      0.0000
   636.5000    796.6260     12.8698     51.0225      0.0000
   636.7500    787.4733     12.8584     46.5972      0.0000
   637.0000    780.8809     12.8540     43.9957      0.0000
   637.2500    775.7904     12.8061     44.2761      0.0000
   637.5000    769.1677     12.6739     47.7700      0.0000
   637.7500    759.8539     12.4824     53.6431      0.0000
   638.0000    751.5475     12.3156     60.0123      0.0000
   638.2500    750.3704     12.2164     64.8380      0.0000
   638.5000    759.1456     12.1532     67.0426      0.0000
   638.7500    776.5538     12.0861     67.1049      0.0000
   639.0000    796.8660     12.0256     66.8164      0.0000
   639.2500    809.9966     12.0043     68.1721      0.0000
   639.5000    809.8753     12.0226     71.8384      0.0000
   639.7500    800.3699     12.0601     76.3134      0.0000
   640.0000    788.3328     12.0760     78.7100      0.0000
   640.2500    774.2648     11.9738     76.7923      0.0000
   640.5000    753.6852     11.6863     70.7431      0.0000
   640.7500    728.2640     11.3112     63.2650      0.0000
   641.0000    711.8950     11.0357     57.8851      0.0000
   641.2500    717.9307     10.9339     56.7972      0.0000
   641.5000    739.5082     10.9415     59.8477      0.0000
   641.7500    754.2277     10.9658     65.1222      0.0000
   642.0000    751.2724     10.9529     70.3631      0.0000
   642.2500    739.7242     10.9033     74.1150      0.0000
   642.5000    729.8828     10.8662     75.8511      0.0000
   642.7500    722.5759     10.9093     75.4863      0.0000
   643.0000    718.2301     11.0586     73.4285      0.0000
   643.2500    724.3212     11.2512     71.0527      0.0000
   643.5000    744.4855     11.3996     70.2613      0.0000
   643.7500    765.9278     11.5064     72.0195      0.0000
   644.0000    774.9214     11.6339     75.5649      0.0000
   644.2500    778.5922     11.7828     79.2010      0.0000
   644.5000    788.7550     11.8880     81.6111      0.0000
   644.7500    796.7776     11.9016     82.3825      0.0000
   645.0000    787.7595     11.8063     81.7048      0.0000
   645.2500    764.4550     11.5962     80.0168      0.0000
   645.5000    740.7806     11.2907     77.9285      0.0000
   645.7500    722.4045     10.9277     76.1004      0.0000
   646.0000    706.0518     10.5549     74.8828      0.0000
   646.2500    692.1853     10.2299     74.2135      0.0000
   646.5000    685.1301      9.9926     74.0121      0.0000
   646.7500    683.3028      9.8293     74.3208      0.0000
   647.0000    682.3384      9.6869     74.7813      0.0000
   647.2500    682.3238      9.5359     74.3873      0.0000
   647.5000    683.2318      9.3746     72.2149      0.0000
   647.7500    684.9659      9.2010     68.2911      0.0000
   648.0000    691.8775      9.0359     63.5896      0.0000
   648.2500    704.9941      8.9188     59.2669      0.0000
   648.5000    717.6011      8.8562     55.8611      0.0000
   648.7500    724.5669      8.8149     53.0087      0.0000
   649.0000    727.4340      8.7594     49.9786      0.0000
   649.2500    730.6431      8.6772     46.6123      0.0000
   649.5000    737.7653      8.5797     43.6477      0.0000
   649.7500    747.5970      8.4972     42.0761      0.0000
   650.0000    752.4835      8.4693     42.2673      0.0000
   650.2500    747.3132      8.5213     43.6069      0.0000
   650.5000    737.4648      8.6345     44.8111      0.0000
   650.7500    730.9129      8.7535     44.7828      0.0000
   651.0000    730.1000      8.8402     43.5083      0.0000
   651.2500    734.6961      8.9036     42.0875      0.0000
   651.5000    743.4516      8.9675     41.6453      0.0000
   651.7500    751.1755      9.0361     42.2315      0.0000
   652.0000    751.1349      9.1054     42.9378      0.0000
   652.2500    743.3544      9.1814     42.9527      0.0000
   652.5000    734.6055      9.2568     42.3034      0.0000
   652.7500    729.6346      9.3045     41.6510      0.0000
   653.0000    727.8781      9.3364     41.6163      0.0000
   653.2500    727.2093      9.4180     42.4025      0.0000
   653.5000    726.6755      9.5886     43.8692      0.0000
   653.7500    726.2867      9.8129     45.6022      0.0000
   654.0000    726.2524     10.0325     46.8361      0.0000
   654.2500    727.1588     10.2362     46.7333      0.0000
   654.5000    731.0835     10.4591     45.1511      0.0000
   654.7500    741.8095     10.7197     42.8807      0.0000
   655.0000    760.1950     10.9937     40.7989      0.0000
   655.2500    777.7104     11.2529     39.0174      0.0000
   655.5000    783.0336     11.4891     37.1093      0.0000
   655.7500    778.0757     11.7022     34.9363      0.0000
   656.0000    775.5971     11.8884     32.9462      0.0000
   656.2500    779.5152     12.0330     31.6998      0.0000
