~Version Information
VERS.                      2.0: CWLS Log ASCII Standard - VERSION 2.0
WRAP.                       NO: One line per depth step
~Well Information Block
STRT.FT                 5.0000: 
STOP.FT              1874.2500: 
STEP.FT                 0.2500: 
NULL.                -999.2500: 
COMP.          Pioneer Natural Resources: COMPANY
WELL.           Stampede 42-18: WELL
FLD.           Purgatoire River: FIELD
LOC.           2479' FNL & 160' FEL--: LOCATION
CNTY.               Las Animas: COUNTY
SRVC.          Superior Well Services: SERVICE COMPANY
DATE.          Mon Jun 25 12:19:16 2007: LOG DATE
UWI.                          : UNIQUE WELL ID
STAT.                 Colorado: STATE
~Curve Information Block
DEPT.FT            0 000 00 00: Depth
GR.GAPI                       : Gamma Ray
CCL.                          : Casing Collar Locator
TT3.usec                      : CBL 3' Travel Time
AMP3.mV                       : CBL 3' Amplitude
AMP5.mV                       : CBL 5' Amplitude
~Parameter Information Block
~A  Depth        GR         CCL         TT3         AMP3        AMP5    
# ...
  1237.0000    123.6444      0.0000    423.4658      4.6265      2.4732
  1237.2500    120.3782      0.0000    428.0110      4.6471      2.4592
  1237.5000    115.7248      0.0000    438.9192      4.6756      2.4572
  1237.7500    110.4758      0.0000    457.6365      4.7020      2.4711
  1238.0000    107.0059      0.0000    481.2355      4.7204      2.4994
  1238.2500    107.6406      0.0000    501.8505      4.7269      2.5334
  1238.5000    112.9540      0.0000    510.7263      4.7164      2.5611
  1238.7500    121.5538      0.0000    504.0707      4.6885      2.5744
  1239.0000    131.2719      0.0000    485.7107      4.6527      2.5753
  1239.2500    140.4010      0.0000    464.3176      4.6217      2.5726
  1239.5000    148.0214      0.0000    447.4903      4.5990      2.5735
  1239.7500    153.7548      0.0000    437.7864      4.5783      2.5779
  1240.0000    157.5340      0.0000    433.5159      4.5559      2.5816
  1240.2500    159.2772      0.0000    431.9692      4.5385      2.5817
  1240.5000    158.6703      0.0000    431.5208      4.5360      2.5784
  1240.7500    155.7197      0.0000    431.8863      4.5489      2.5722
  1241.0000    151.5224      0.0000    433.6695      4.5660      2.5627
  1241.2500    147.9829      0.0000    437.7622      4.5756      2.5496
  1241.5000    146.7643      0.0000    444.2205      4.5771      2.5320
  1241.7500    148.7339      0.0000    451.2882      4.5766      2.5099
  1242.0000    153.9412      0.0000    456.1447      4.5730      2.4860
  1242.2500    161.5476      0.0000    457.5240      4.5541      2.4654
  1242.5000    169.8953      0.0000    457.2843      4.5090      2.4525
  1242.7500    176.8950      0.0000    459.0334      4.4439      2.4486
  1243.0000    180.5786      0.0000    465.7383      4.3825      2.4519
  1243.2500    179.8562      0.0000    478.5690      4.3491      2.4594
  1243.5000    175.0861      0.0000    496.6315      4.3498      2.4691
  1243.7500    167.5747      0.0000    517.5479      4.3699      2.4810
  1244.0000    158.4772      0.0000    539.1888      4.3920      2.4941
  1244.2500    148.6019      0.0000    560.3803      4.4154      2.5039
  1244.5000    139.0948      0.0000    579.7339      4.4506      2.5039
  1244.7500    131.5079      0.0000    596.1268      4.4979      2.4908
  1245.0000    127.0608      0.0000    611.3358      4.5383      2.4690
  1245.2500    126.1944      0.0000    629.0300      4.5483      2.4483
  1245.5000    128.6015      0.0000    649.4579      4.5152      2.4369
  1245.7500    133.3573      0.0000    667.7229      4.4405      2.4347
  1246.0000    139.2759      0.0000    678.6931      4.3379      2.4350
  1246.2500    145.3614      0.0000    681.6198      4.2304      2.4313
  1246.5000    150.8081      0.0000    679.4731      4.1401      2.4219
  1246.7500    154.6357      0.0000    675.9049      4.0745      2.4092
  1247.0000    155.6346      0.0000    673.4489      4.0256      2.3962
  1247.2500    152.9069      0.0000    673.1288      3.9851      2.3862
  1247.5000    146.6646      0.0000    674.8094      3.9550      2.3824
  1247.7500    138.5440      0.0000    678.1242      3.9430      2.3857
  1248.0000    130.9828      0.0000    683.0513      3.9520      2.3933
  1248.2500    126.0865      0.0000    689.4884      3.9782      2.4014
  1248.5000    124.7330      0.0000    696.6037      4.0154      2.4081
  1248.7500    126.2294      0.0000    702.6818      4.0575      2.4127
  1249.0000    128.7257      0.0000    705.3121      4.0996      2.4143
  1249.2500    130.2954      0.0000    701.6039      4.1410      2.4131
  1249.5000    129.8775      0.0000    688.6375      4.1865      2.4113
  1249.7500    127.4428      0.0000    664.6746      4.2405      2.4111
  1250.0000    123.7488      0.0000    631.1868      4.3001      2.4115
  1250.2500    120.0032      0.0000    593.6957      4.3558      2.4092
  1250.5000    117.1587      0.0000    559.0380      4.4001      2.4019
  1250.7500    115.1088      0.0000    530.8699      4.4331      2.3914
  1251.0000    112.8248      0.0000    508.4041      4.4596      2.3824
  1251.2500    109.5463      0.0000    489.5289      4.4849      2.3790
  1251.5000    105.5456      0.0000    474.2855      4.5141      2.3818
  1251.7500    101.5103      0.0000    465.3690      4.5509      2.3885
  1252.0000     97.7376      0.0000    466.4172      4.5954      2.3964
  1252.2500     94.5369      0.0000    480.2942      4.6445      2.4027
  1252.5000     93.0620      0.0000    507.6845      4.6955      2.4055
  1252.7500     94.9229      0.0000    545.1754      4.7483      2.4055
  1253.0000    100.6575      0.0000    584.1970      4.8015      2.4078
  1253.2500    108.9180      0.0000    614.0452      4.8482      2.4192
  1253.5000    117.5398      0.0000    628.4805      4.8798      2.4427
  1253.7500    125.2967      0.0000    629.9719      4.8968      2.4735
  1254.0000    132.3779      0.0000    626.7036      4.9107      2.5022
  1254.2500    139.5216      0.0000    624.3220      4.9347      2.5218
  1254.5000    147.2034      0.0000    620.3282      4.9740      2.5306
  1254.7500    155.4068      0.0000    607.4738      5.0263      2.5303
  1255.0000    163.4996      0.0000    583.7133      5.0888      2.5239
  1255.2500    170.4038      0.0000    558.3426      5.1637      2.5150
  1255.5000    175.4598      0.0000    546.9017      5.2575      2.5076
  1255.7500    179.1203      0.0000    559.2219      5.3734      2.5049
  1256.0000    182.3174      0.0000    592.2559      5.5050      2.5086
  1256.2500    185.1861      0.0000    633.3420      5.6360      2.5194
  1256.5000    186.9009      0.0000    668.8342      5.7493      2.5357
  1256.7500    186.8116      0.0000    690.1895      5.8363      2.5534
  1257.0000    185.2637      0.0000    695.0917      5.8997      2.5696
  1257.2500    183.2465      0.0000    686.3473      5.9478      2.5898
  1257.5000    181.5055      0.0000    670.4502      5.9877      2.6240
  1257.7500    179.9228      0.0000    654.9573      6.0246      2.6735
  1258.0000    177.5918      0.0000    644.9255      6.0644      2.7244
  1258.2500    173.6964      0.0000    640.5743      6.1075      2.7607
  1258.5000    168.4732      0.0000    637.5147      6.1280      2.7769
  1258.7500    163.1264      0.0000    629.3199      6.0625      2.7770
  1259.0000    158.5658      0.0000    611.7306      5.8470      2.7675
  1259.2500    154.4149      0.0000    586.3312      5.4867      2.7544
  1259.5000    149.4404      0.0000    560.9038      5.0748      2.7425
  1259.7500    142.8834      0.0000    545.7373      4.7258      2.7327
  1260.0000    135.2854      0.0000    547.7408      4.4956      2.7208
  1260.2500    128.1560     -0.6042    566.0121      4.3666      2.7009
  1260.5000    122.9124     -0.6454    592.7247      4.2874      2.6718
  1260.7500    120.1540      0.0000    618.6921      4.2167      2.6388
  1261.0000    119.8814      0.0000    638.4969      4.1456      2.6101
  1261.2500    122.0203      0.0000    651.7906      4.0893      2.5910
  1261.5000    126.2700      0.0000    661.1530      4.0607      2.5813
  1261.7500    131.8643      0.0000    668.5187      4.0551      2.5747
  1262.0000    138.1249      0.0000    673.0847      4.0657      2.5618
  1262.2500    145.0024      0.0000    672.6659      4.1010      2.5347
  1262.5000    152.6421      0.0000    667.0958      4.1741      2.4928
  1262.7500    160.8367      0.0000    659.6844      4.2807      2.4441
  1263.0000    169.0830      0.0000    654.8535      4.3952      2.4011
  1263.2500    176.3722      0.0000    654.6571      4.4835      2.3731
  1263.5000    180.5669      0.0000    657.9904      4.5168      2.3613
  1263.7500    179.0347      0.0000    662.5883      4.4828      2.3590
  1264.0000    171.0054      0.0000    666.8588      4.3909      2.3585
  1264.2500    159.1575      0.0000    670.1931      4.2683      2.3564
  1264.5000    147.8400      0.0000    672.8375      4.1471      2.3544
  1264.7500    139.5869      0.0000    675.9953      4.0537      2.3558
