~Version Information
 VERS.                                  2.0 : CWLS LAS VERSION
 WRAP.                                   NO : WRAPING MODE
 SWARE .                 MController 2.5.0E : SOFTWARE VERSION
~Well Information
 WELL.                                  N/A : WELL
 COMP.                                  N/A : COMPANY
 FLD.                                   N/A : FIELD
 LOC.                                   N/A : LOCATION
 DATE.                                  N/A : DATE(S) LOGGED
 SRVC.                                  N/A : SERVICE COMPANY
 STAT.                                  N/A : STATE
 CNTY.                                  N/A : COUNTY
 CTRY.                                  N/A : COUNTRY
 API.                                   N/A : API NUMBER
 STRT.FT                             951.00 : START DEPTH
 STOP.FT                            2600.00 : STOP DEPTH
 STEP.FT                               1.00 : DEPTH INCREMENT
 NULL.                                -9999 : NULL VALUE
~Curve information
 DEPTH.FT                                   :
 ROP.MIN/FT                                 :
 GAS.UNITS                                  :
~ASCII Log data
# ...
     1751.00        0.433         30.6 
     1752.00        0.483         32.2 
     1753.00        0.433         31.8 
     1754.00        0.467         33.1 
     1755.00        0.467         46.1 
     1756.00        0.433         47.5 
     1757.00        0.433         26.7 
     1758.00        0.400         14.0 
     1759.00        0.483         24.4 
     1760.00        0.433         42.3 
     1761.00        0.433         71.7 
     1762.00        0.467        113.4 
     1763.00        0.533        201.9 
     1764.00        0.500       1213.4 
     1765.00        0.600       1211.4 
     1766.00        0.483        614.0 
     1767.00        5.817        177.8 
     1768.00        0.850         57.9 
     1769.00        0.767         72.0 
     1770.00        0.767         77.6 
     1771.00        0.833         67.7 
     1772.00        0.600         43.3 
     1773.00        0.550         42.2 
     1774.00        0.467         42.8 
     1775.00        0.267         39.8 
     1776.00        0.300         38.3 
     1777.00        0.400         37.3 
     1778.00        0.500         40.5 
     1779.00        0.500         41.1 
     1780.00        0.333         16.3 
     1781.00        0.350          8.1 
     1782.00        0.300         14.3 
     1783.00        0.300         23.3 
     1784.00        0.300         34.6 
     1785.00        0.300         45.5 
     1786.00        0.300         62.5 
     1787.00        0.300         82.7 
     1788.00        0.267        104.6 
     1789.00        0.300        138.4 
     1790.00        0.267        169.5 
     1791.00        0.267        217.5 
     1792.00        0.267        369.0 
     1793.00        0.183       1334.3 
     1794.00        0.200       1681.0 
     1795.00        0.133       1680.4 
     1796.00        6.300       1563.8 
     1797.00        0.833         63.5 
     1798.00        0.767         52.7 
     1799.00        1.567         61.6 
     1800.00        0.517         43.1 
     1801.00        0.467         32.8 
     1802.00        0.367         30.1 
     1803.00        0.367         34.7 
     1804.00        0.267         38.6 
     1805.00        0.233         41.0 
     1806.00        0.200         43.3 
     1807.00        0.200         46.4 
     1808.00        0.233         48.5 
     1809.00        0.267         45.6 
     1810.00        0.350         22.2 
     1811.00        0.367         -1.3 
     1812.00        0.300          0.5 
     1813.00        0.167          6.0 
     1814.00        0.267         17.6 
     1815.00        0.300         32.8 
     1816.00        0.367         60.6 
     1817.00        0.267         89.3 
     1818.00        0.300        130.3 
     1819.00        0.333        189.0 
     1820.00        0.200        230.0 
     1821.00        0.267        292.0 
     1822.00        0.317        429.9 
     1823.00        0.333       1837.0 
     1824.00        0.333       2089.7 
     1825.00        0.333       1904.4 
     1826.00        6.033       1226.2 
     1827.00        1.733         77.4 
     1828.00        0.400         56.9 
     1829.00        0.367         53.1 
     1830.00        0.383         48.7 
     1831.00        0.333         47.3 
     1832.00        0.333         45.4 
     1833.00        0.233         44.2 
     1834.00        0.333         43.9 
     1835.00        0.233         48.4 
     1836.00        0.167         48.5 
     1837.00        0.233         37.5 
     1838.00        0.333         16.0 
     1839.00        0.233         -1.9 
     1840.00        0.200         -3.1 
     1841.00        0.167          0.9 
     1842.00        0.133          4.8 
     1843.00        0.267         13.0 
     1844.00        0.317         22.3 
     1845.00        0.300         36.1 
     1846.00        0.367         63.1 
     1847.00        0.300         91.3 
     1848.00        0.167        112.4 
     1849.00        0.233        145.0 
     1850.00        0.267        189.5 
     1851.00        0.267        260.4 
     1852.00        0.267        436.4 
     1853.00        0.267       1590.7 
     1854.00        0.333       1776.4 
     1855.00        0.300       1654.1 
     1856.00        5.500       1167.6 
     1857.00        1.133         76.6 
     1858.00        0.617         72.7 
     1859.00        0.533         65.1 
     1860.00        0.467         55.8 
     1861.00        0.467         48.6 
     1862.00        0.433         45.8 
     1863.00        0.367         42.8 
     1864.00        0.333         41.7 
     1865.00        0.283         45.7 
     1866.00        0.233         51.8 
     1867.00        0.267         52.4 
     1868.00        0.233         37.7 
     1869.00        0.267         15.4 
     1870.00        0.300          0.5 
     1871.00        0.233         -6.7 
     1872.00        0.233         -3.0 
     1873.00        0.200          0.8 
     1874.00        0.267          8.1 
     1875.00        0.267         21.7 
     1876.00        0.333         50.2 
     1877.00        0.433         80.8 
     1878.00        0.350         42.6 
     1879.00        0.233        -11.2 
     1880.00        0.267         24.9 
     1881.00        0.267         20.9 
     1882.00        0.267          6.8 
     1883.00        0.233        369.4 
     1884.00        0.267        977.2 
     1885.00        0.200        891.6 
     1886.00        5.400        659.2 
     1887.00        0.967         10.0 
     1888.00        0.733         29.5 
     1889.00        0.633         67.2 
     1890.00        0.983         86.4 
     1891.00        0.467         85.7 
     1892.00        0.600         75.5 
     1893.00        0.433         65.4 
     1894.00        0.500         55.0 
     1895.00        0.367         49.5 
     1896.00        0.383         51.8 
     1897.00        0.333         55.0 
     1898.00        0.333         63.6 
     1899.00        0.267         60.4 
     1900.00        0.300         37.2 
     1901.00        0.267         19.2 
     1902.00        0.267         11.2 
     1903.00        0.267         15.5 
     1904.00        0.233         21.6 
     1905.00        0.267         31.0 
     1906.00        0.267         41.7 
     1907.00        0.333         64.7 
     1908.00        0.350        102.5 
     1909.00        0.267        137.0 
     1910.00        0.300        182.7 
     1911.00        0.367        269.2 
     1912.00        0.333        486.9 
     1913.00        0.400       1408.1 
     1914.00        0.267       1385.2 
     1915.00        0.233       1112.7 
     1916.00        5.633        805.4 
     1917.00        1.200         12.7 
     1918.00        0.750         31.5 
     1919.00        0.800         49.0 
     1920.00        0.700         57.0 
     1921.00        0.700         64.4 
     1922.00        0.667         65.1 
     1923.00        0.617         59.8 
     1924.00        0.567         46.9 
     1925.00        0.467         31.4 
     1926.00        0.400         22.3 
     1927.00        0.367         22.8 
     1928.00        0.433         26.1 
     1929.00        0.400         26.4 
     1930.00        0.433         28.3 
     1931.00        0.450         28.5 
     1932.00        0.400         26.8 
     1933.00        0.400         24.2 
     1934.00        0.433         24.4 
     1935.00        0.367         22.2 
     1936.00        0.367          9.0 
     1937.00        0.400          5.7 
     1938.00        0.467         20.5 
     1939.00        0.383         44.7 
     1940.00        0.400         83.3 
     1941.00        0.367        128.3 
     1942.00        0.400        183.4 
     1943.00        0.433        253.3 
     1944.00        0.500        966.4 
     1945.00        0.567       1034.5 
     1946.00        7.517        679.4 
     1947.00        0.567         44.7 
     1948.00        0.567         60.5 
     1949.00        0.500         68.9 
     1950.00        0.500         69.3 
