~Version Information
 VERS.                                  2.0 : CWLS LAS VERSION
 WRAP.                                   NO : WRAPING MODE
 SWARE .                 MController 2.5.0E : SOFTWARE VERSION
~Well Information
 WELL.                          Lynch 43-30 : WELL
 COMP.        Pioneer Natural Resources Inc : COMPANY
 FLD.                      Purgatoire River : FIELD
 LOC.                NE/SE Sec 30 T32S R67W : LOCATION
 DATE.                             10/25/04 : DATE(S) LOGGED
 SRVC.       Blanco Geological services LLc : SERVICE COMPANY
 STAT.                                   CO : STATE
 CNTY.                           Las Animas : COUNTY
 CTRY.                                  USA : COUNTRY
 API.                       05-071-08170-00 : API NUMBER
 STRT.FT                             410.00 : START DEPTH
 STOP.FT                            2845.00 : STOP DEPTH
 STEP.FT                               1.00 : DEPTH INCREMENT
 NULL.                                -9999 : NULL VALUE
~Curve information
 DEPTH.FT                                   :
 ROP.MIN/FT                                 :
 GAS.UNITS                                  :
~ASCII Log data
# ...
     1010.00        0.300          2.9 
     1011.00        0.267          2.8 
     1012.00        0.300          3.0 
     1013.00        0.300          3.1 
     1014.00        0.317          2.9 
     1015.00        0.233          2.4 
     1016.00        3.350          7.2 
     1017.00        0.200          6.8 
     1018.00        0.167          6.5 
     1019.00        0.233          6.1 
     1020.00        0.133          6.0 
     1021.00        0.200          5.7 
     1022.00        0.233          5.1 
     1023.00        0.233          5.3 
     1024.00        0.233          5.1 
     1025.00        0.200          4.8 
     1026.00        0.133          4.5 
     1027.00        0.267          4.4 
     1028.00        0.167          3.9 
     1029.00        0.200          3.7 
     1030.00        0.200          3.7 
     1031.00        0.250          3.3 
     1032.00        0.200          3.7 
     1033.00        0.200          3.7 
     1034.00        0.200          3.0 
     1035.00        0.200          3.6 
     1036.00        0.233          2.9 
     1037.00        0.200          3.4 
     1038.00        0.200          2.5 
     1039.00        0.167          3.1 
     1040.00        0.233          2.3 
     1041.00        0.233          2.8 
     1042.00        0.233          3.1 
     1043.00        0.233          2.6 
     1044.00        0.233          2.7 
     1045.00        0.167          2.9 
     1046.00        3.967          7.2 
     1047.00        0.233          6.1 
     1048.00        0.333          6.0 
     1049.00        0.233          5.4 
     1050.00        0.133          5.5 
     1051.00        0.133          4.5 
     1052.00        0.200          5.3 
     1053.00        0.200          4.1 
     1054.00        0.200          4.0 
     1055.00        0.233          4.3 
     1056.00        0.267          4.6 
     1057.00        0.233          3.9 
     1058.00        0.200          3.2 
     1059.00        0.300          3.3 
     1060.00        0.383          3.2 
     1061.00        0.267          3.1 
     1062.00        0.300          2.6 
     1063.00        0.233          2.7 
     1064.00        0.233          2.7 
     1065.00        0.200          2.3 
     1066.00        0.233          2.7 
     1067.00        0.233          3.0 
     1068.00        0.267          2.7 
     1069.00        0.233          2.7 
     1070.00        0.233          2.5 
     1071.00        0.267          2.4 
     1072.00        0.267          2.4 
     1073.00        0.317          2.8 
     1074.00        0.233          2.2 
     1075.00        0.267          2.4 
     1076.00        4.483          7.5 
     1077.00        0.133          4.6 
     1078.00        0.267          4.3 
     1079.00        0.200          3.9 
     1080.00        0.133          3.2 
     1081.00        0.333          3.8 
     1082.00        0.300          3.6 
     1083.00        0.133          3.4 
     1084.00        0.217          3.2 
     1085.00        0.200          2.7 
     1086.00        0.300          3.2 
     1087.00        0.167          3.2 
     1088.00        0.200          3.1 
     1089.00        0.367          3.2 
     1090.00        0.200          3.3 
     1091.00        0.200          3.1 
     1092.00        0.167          2.5 
     1093.00        0.233          3.2 
     1094.00        0.167          3.1 
     1095.00        0.167          3.3 
     1096.00        0.233          3.7 
     1097.00        0.300          3.4 
     1098.00        0.233          3.3 
     1099.00        0.150          3.2 
     1100.00        0.200          3.1 
     1101.00        0.267          3.1 
     1102.00        0.133          2.8 
     1103.00        0.300          3.2 
     1104.00        0.167          3.1 
     1105.00        0.300          3.1 
     1106.00        3.650          6.7 
     1107.00        0.233          5.6 
     1108.00        0.200          4.9 
     1109.00        0.167          5.7 
     1110.00        0.333          5.4 
     1111.00        0.200          5.4 
     1112.00        0.317          5.3 
     1113.00        0.300          5.5 
     1114.00        0.133          4.8 
     1115.00        0.100          4.4 
     1116.00        0.133          4.9 
     1117.00        0.167          4.3 
     1118.00        0.233          4.7 
     1119.00        0.233          4.1 
     1120.00        0.200          3.7 
     1121.00        0.200          3.8 
     1122.00        0.233          3.3 
     1123.00        0.233          3.4 
     1124.00        0.200          2.8 
     1125.00        0.200          3.6 
     1126.00        0.167          3.0 
     1127.00        0.167          2.7 
     1128.00        0.167          2.4 
     1129.00        0.167          2.5 
     1130.00        0.250          2.5 
     1131.00        0.267          2.7 
     1132.00        0.267          2.8 
     1133.00        0.267          2.3 
     1134.00        0.200          2.7 
     1135.00        0.233          2.1 
     1136.00        2.983          4.4 
     1137.00        0.400          4.1 
     1138.00        0.300          4.3 
     1139.00        0.267          4.0 
     1140.00        0.300          3.6 
     1141.00        0.267          3.7 
     1142.00        0.267          3.4 
     1143.00        0.233          3.7 
     1144.00        0.283          3.5 
     1145.00        0.267          3.1 
     1146.00        0.233          3.6 
     1147.00        0.233          3.5 
     1148.00        0.200          3.1 
     1149.00        0.267          3.4 
     1150.00        0.200          3.2 
     1151.00        0.233          2.9 
     1152.00        0.200          2.6 
     1153.00        0.200          3.0 
     1154.00        0.233          3.3 
     1155.00        0.200          3.4 
     1156.00        0.200          3.3 
     1157.00        0.200          3.3 
     1158.00        0.233          3.3 
     1159.00        0.217          3.2 
     1160.00        0.233          3.4 
     1161.00        0.233          3.4 
     1162.00        0.233          3.4 
     1163.00        0.200          3.1 
     1164.00        0.233          3.3 
     1165.00        0.200          3.4 
     1166.00        3.317          4.6 
     1167.00        0.333          4.9 
     1168.00        0.367          5.3 
     1169.00        0.267          5.3 
     1170.00        0.200          4.6 
     1171.00        0.133          5.0 
     1172.00        0.233          4.6 
     1173.00        0.200          4.7 
     1174.00        0.217          4.7 
     1175.00        0.200          4.7 
     1176.00        0.167          4.4 
     1177.00        0.300          4.3 
     1178.00        0.267          4.1 
     1179.00        0.200          3.7 
     1180.00        0.133          4.1 
     1181.00        0.167          3.8 
     1182.00        0.133          3.5 
     1183.00        0.133          3.1 
     1184.00        0.200          3.2 
     1185.00        0.200          3.9 
     1186.00        0.233          3.8 
     1187.00        0.167          3.4 
     1188.00        0.100          3.7 
     1189.00        0.200          3.4 
     1190.00        0.167          3.8 
     1191.00        0.133          3.9 
     1192.00        0.200          4.0 
     1193.00        0.150          3.8 
     1194.00        0.167          3.2 
     1195.00        0.167          4.1 
     1196.00        3.883          5.5 
     1197.00        0.300          4.5 
     1198.00        0.267          3.9 
     1199.00        0.267          3.9 
     1200.00        0.300          3.5 
     1201.00        0.233          3.8 
     1202.00        0.500          4.2 
     1203.00        0.583          4.2 
     1204.00        0.500          4.5 
     1205.00        0.200          4.1 
     1206.00        0.267          4.3 
     1207.00        0.300          4.4 
     1208.00        0.333          4.8 
     1209.00        0.333          4.0 
