~Version Information
VERS.                      2.0: CWLS Log ASCII Standard - VERSION 2.0
WRAP.                       NO: One line per depth step
~Well Information Block
STRT.FT               850.0000: 
STOP.FT              1609.7000: 
STEP.FT                 0.1000: 
NULL.                -999.2500: 
COMP.          Petrogulf Corporation: COMPANY
WELL.          Great Plains 22-21R: WELL
FLD.           Purgatorie River: FIELD
LOC.           73' FNL & 1992' FWL: LOCATION
PROV.                 Colorado: PROVINCE
CNTY.               Las Animas: COUNTRY
SRVC.                Patterson: SERVICE COMPANY
DATE.          Wed Sep 14 12:10:29 2005: LOG DATE
UWI.                          : UNIQUE WELL ID
~Curve Information Block
DEPT.FT            0 000 00 00: Depth
NPOR.pu                       : Neutron Porosity
GR.GAPI                       : Gamma Ray
CCL.                          : Casing Collar Locator
~Parameter Information Block
~A  Depth       NPOR         GR         CCL     
# ...
   900.1000     28.7681    154.7980      0.0000
   900.2000     28.7681    154.7980      0.0000
   900.3000     28.9090    154.3882      0.0000
   900.4000     28.9090    154.3882      0.0000
   900.5000     29.0455    153.3946      0.0000
   900.6000     29.0455    153.3946      0.0000
   900.7000     29.0455    153.3946      0.0000
   900.8000     29.2412    152.6492      0.0000
   900.9000     29.2412    152.6492      0.0000
   901.0000     29.5001    152.2586      0.0000
   901.1000     29.5001    152.2586      0.0000
   901.2000     29.5001    152.2586      0.0000
   901.3000     29.7449    151.4275      0.0000
   901.4000     29.7449    151.4275      0.0000
   901.5000     29.8718    149.6870      0.0000
   901.6000     29.8718    149.6870      0.0000
   901.7000     29.8718    149.6870      0.0000
   901.8000     29.8429    147.9402      0.0000
   901.9000     29.8429    147.9402      0.0000
   902.0000     29.7280    147.4791      0.0000
   902.1000     29.7280    147.4791      0.0000
   902.2000     29.7280    147.4791      0.0000
   902.3000     29.6512    148.1318      0.0000
   902.4000     29.6512    148.1318      0.0000
   902.5000     29.6940    148.1646      0.0000
   902.6000     29.6940    148.1646      0.0000
   902.7000     29.6940    148.1646      0.0000
   902.8000     29.8468    146.2719      0.0000
   902.9000     29.8468    146.2719      0.0000
   903.0000     30.0342    143.2198      0.0000
   903.1000     30.0342    143.2198      0.0000
   903.2000     30.0342    143.2198      0.0000
   903.3000     30.1719    141.2212      0.0000
   903.4000     30.1719    141.2212      0.0000
   903.5000     30.2029    141.8451      0.0000
   903.6000     30.2029    141.8451      0.0000
   903.7000     30.2029    141.8451      0.0000
   903.8000     30.1036    144.6673      0.0000
   903.9000     30.1036    144.6673      0.0000
   904.0000     29.8820    147.7694      0.0000
   904.1000     29.8820    147.7694      0.0000
   904.2000     29.8820    147.7694      0.0000
   904.3000     29.5729    149.3340      0.0000
   904.4000     29.5729    149.3340      0.0000
   904.5000     29.2234    148.7977      0.0000
   904.6000     29.2234    148.7977      0.0000
   904.7000     29.2234    148.7977      0.0000
   904.8000     28.8854    146.6986      0.0000
   904.9000     28.8854    146.6986      0.0000
   905.0000     28.6195    143.7917      0.0000
   905.1000     28.6195    143.7917      0.0000
   905.2000     28.6195    143.7917      0.0000
   905.3000     28.4764    140.6103      0.0000
   905.4000     28.4764    140.6103      0.0000
   905.5000     28.4540    137.6733      0.0000
   905.6000     28.4540    137.6733      0.0000
   905.7000     28.4540    137.6733      0.0000
   905.8000     28.4968    135.5501      0.0000
   905.9000     28.4968    135.5501      0.0000
   906.0000     28.5612    134.4950      0.0000
   906.1000     28.5612    134.4950      0.0000
   906.2000     28.5612    134.4950      0.0000
   906.3000     28.6696    134.2069      0.0000
   906.4000     28.6696    134.2069      0.0000
   906.5000     28.8864    133.9558      0.0000
   906.6000     28.8864    133.9558      0.0000
   906.7000     28.8864    133.9558      0.0000
   906.8000     29.2492    132.8925      0.0000
   906.9000     29.2492    132.8925      0.0000
   907.0000     29.7258    130.5912      0.0000
   907.1000     29.7258    130.5912      0.0000
   907.2000     29.7258    130.5912      0.0000
   907.3000     30.2279    127.5760      0.0000
   907.4000     30.2279    127.5760      0.0000
   907.5000     30.6524    125.0169      0.0000
   907.6000     30.6524    125.0169      0.0000
   907.7000     30.6524    125.0169      0.0000
   907.8000     30.9069    123.7357      0.0000
   907.9000     30.9069    123.7357      0.0000
   908.0000     30.9275    123.7862      0.0000
   908.1000     30.9275    123.7862      0.0000
   908.2000     30.9275    123.7862      0.0000
   908.3000     30.7218    125.1130      0.0000
   908.4000     30.7218    125.1130      0.0000
   908.5000     30.3942    128.1927      0.0000
   908.6000     30.3942    128.1927      0.0000
   908.7000     30.3942    128.1927      0.0000
   908.8000     30.0775    133.4630      0.0000
   908.9000     30.0775    133.4630      0.0000
   909.0000     29.8242    140.1637      0.0000
   909.1000     29.8242    140.1637      0.0000
   909.2000     29.8242    140.1637      0.0000
   909.3000     29.5977    146.3797      0.0000
   909.4000     29.5977    146.3797      0.0000
   909.5000     29.3836    150.5958      0.0000
   909.6000     29.3836    150.5958      0.0000
   909.7000     29.3836    150.5958      0.0000
   909.8000     29.2663    152.8323      0.0000
   909.9000     29.2663    152.8323      0.0000
   910.0000     29.3665    153.9016      0.0000
   910.1000     29.3665    153.9016      0.0000
   910.2000     29.3665    153.9016      0.0000
   910.3000     29.7197    153.8161      0.0000
   910.4000     29.7197    153.8161      0.0000
   910.5000     30.2403    151.4081      0.0000
   910.6000     30.2403    151.4081      0.0000
   910.7000     30.2403    151.4081      0.0000
   910.8000     30.7916    145.7408      0.0000
   910.9000     30.7916    145.7408      0.0000
   911.0000     31.2590    137.5285      0.0000
   911.1000     31.2590    137.5285      0.0000
   911.2000     31.2590    137.5285      0.0000
   911.3000     31.5706    128.6861      0.0000
   911.4000     31.5706    128.6861      0.0000
   911.5000     31.6946    120.7088      0.0000
   911.6000     31.6946    120.7088      0.0000
   911.7000     31.6946    120.7088      0.0000
   911.8000     31.6442    114.0363      0.0000
   911.9000     31.6442    114.0363      0.0000
   912.0000     31.4772    108.8788      0.0000
   912.1000     31.4772    108.8788      0.0000
   912.2000     31.4772    108.8788      0.0000
   912.3000     31.2821    106.0589      0.0000
   912.4000     31.2821    106.0589      0.0000
   912.5000     31.1436    106.6716      0.0000
   912.6000     31.1436    106.6716      0.0000
   912.7000     31.1436    106.6716      0.0000
   912.8000     31.0941    110.8033      0.0000
   912.9000     31.0941    110.8033      0.0000
   913.0000     31.0906    116.6310      0.0000
   913.1000     31.0906    116.6310      0.0000
   913.2000     31.0906    116.6310      0.0000
   913.3000     31.0591    121.1934      0.0000
   913.4000     31.0591    121.1934      0.0000
   913.5000     30.9718    122.5737      0.0000
   913.6000     30.9718    122.5737      0.0000
   913.7000     30.9718    122.5737      0.0000
   913.8000     30.8689    121.4526      0.0000
   913.9000     30.8689    121.4526      0.0000
   914.0000     30.7935    120.3327      0.0000
   914.1000     30.7935    120.3327      0.0000
   914.2000     30.7935    120.3327      0.0000
   914.3000     30.7174    121.1917      0.0000
   914.4000     30.7174    121.1917      0.0000
   914.5000     30.5551    123.9107      0.0000
   914.6000     30.5551    123.9107      0.0000
   914.7000     30.5551    123.9107      0.0000
   914.8000     30.2556    126.7917      0.0000
   914.9000     30.2556    126.7917      0.0000
   915.0000     29.8664    128.2614      0.0000
   915.1000     29.8664    128.2614      0.0000
   915.2000     29.8664    128.2614      0.0000
   915.3000     29.4913    128.0960      0.0000
   915.4000     29.4913    128.0960      0.0000
   915.5000     29.1872    127.2873      0.0000
   915.6000     29.1872    127.2873      0.0000
   915.7000     29.1872    127.2873      0.0000
   915.8000     28.9280    126.8788      0.0000
   915.9000     28.9280    126.8788      0.0000
   916.0000     28.6776    126.8682      0.0000
   916.1000     28.6776    126.8682      0.0000
   916.2000     28.6776    126.8682      0.0000
   916.3000     28.4649    126.2714      0.0000
   916.4000     28.4649    126.2714      0.0000
   916.5000     28.3561    124.3620      0.0000
   916.6000     28.3561    124.3620      0.0000
   916.7000     28.3561    124.3620      0.0000
