~Version Information
VERS.                      2.0: CWLS Log ASCII Standard - VERSION 2.0
WRAP.                       NO: One line per depth step
~Well Information Block
STRT.FT               360.0000: 
STOP.FT              1622.7000: 
STEP.FT                 0.1000: 
NULL.                -999.2500: 
COMP.          Pioneer Natural Resources: COMPANY
WELL.                Eric 42-9: WELL
FLD.           Purgatoire River: FIELD
LOC.           2050' FNL & 850' FEL: LOCATION
PROV.                 Colorado: PROVINCE
CNTY.               Las Animas: COUNTRY
SRVC.                Patterson: SERVICE COMPANY
DATE.          Mon Nov 01 08:19:51 2004: LOG DATE
UWI.           05 071 07999 00: UNIQUE WELL ID
~Curve Information Block
DEPT.FT            0 000 00 00: Depth
DCAL.in                       : CDL Caliper
RHOB.g/cc                     : CDL Bulk Density
RHOC.g/cc                     : CDL Density Correction
DPOR.pu                       : CDL Density Porosity
NPOR.pu                       : Neutron Porosity
GR.GAPI                       : Gamma Ray
~Parameter Information Block
~A  Depth       DCAL        RHOB        RHOC        DPOR        NPOR         GR     
# ...
  1425.6000      8.0160      2.5147      0.0290      8.2016     11.4851     75.0573
  1425.7000      8.0160      2.5217      0.0732      7.7778     11.2070     72.4849
  1425.8000      8.0132      2.5135      0.0619      8.2720     11.0846     75.3790
  1425.9000      8.0132      2.4949      0.0086      9.4025     11.4882     80.9273
  1426.0000      8.0061      2.4803      0.0166     10.2838     12.3135     82.9358
  1426.1000      8.0061      2.4738      0.0175     10.6759     12.9470     80.5413
  1426.2000      8.0061      2.4725      0.0033     10.7600     12.9177     79.0211
  1426.3000      8.0010      2.4777      0.0175     10.4424     12.2298     77.8109
  1426.4000      8.0010      2.4910      0.0308      9.6375     11.3455     74.5766
  1426.5000      8.0049      2.5066      0.0570      8.6902     10.7839     73.7418
  1426.6000      8.0049      2.5176      0.0243      8.0231     10.7675     78.4454
  1426.7000      8.0049      2.5250      0.0250      7.5746     11.3140     85.7429
  1426.8000      8.0102      2.5297      0.0596      7.2934     12.0207     89.6666
  1426.9000      8.0102      2.5242      0.0587      7.6213     12.3061     86.3068
  1427.0000      8.0110      2.5016      0.0531      8.9937     12.2158     77.3155
  1427.1000      8.0110      2.4700      0.0215     10.9088     12.0291     71.2204
  1427.2000      8.0110      2.4522      0.0102     11.9864     11.7181     74.1516
  1427.3000      8.0094      2.4636      0.0120     11.2959     11.3190     78.8855
  1427.4000      8.0094      2.4911      0.0367      9.6292     11.0928     76.9703
  1427.5000      8.0086      2.5017      0.0509      8.9879     11.1054     72.6864
  1427.6000      8.0086      2.4827      0.0266     10.1424     11.1777     74.0610
  1427.7000      8.0086      2.4603     -0.0184     11.4981     11.3456     82.4214
  1427.8000      8.0105      2.4617      0.0158     11.4107     11.6769     90.8736
  1427.9000      8.0105      2.4807      0.0423     10.2633     12.1022     90.0378
  1428.0000      8.0118      2.4948      0.0630      9.4048     12.6098     81.3419
  1428.1000      8.0118      2.4927      0.0403      9.5336     13.0443     74.8884
  1428.2000      8.0118      2.4805      0.0185     10.2747     13.2966     74.1159
  1428.3000      8.0106      2.4716      0.0558     10.8092     13.6087     74.5725
  1428.4000      8.0106      2.4732      0.0342     10.7146     13.9896     74.9771
  1428.5000      8.0094      2.4807      0.0494     10.2611     13.9992     77.0299
  1428.6000      8.0094      2.4828      0.0509     10.1337     13.6754     80.5423
  1428.7000      8.0094      2.4783      0.0234     10.4072     13.3472     81.8021
  1428.8000      8.0093      2.4723      0.0260     10.7715     12.9946     78.9170
  1428.9000      8.0093      2.4631      0.0175     11.3266     12.5226     76.6824
  1429.0000      8.0099      2.4535      0.0047     11.9087     11.8420     78.8626
  1429.1000      8.0099      2.4555      0.0295     11.7885     11.1945     84.0987
  1429.2000      8.0099      2.4719      0.0456     10.7917     11.0096     86.6105
  1429.3000      8.0110      2.4894      0.0501      9.7317     11.1132     82.1206
  1429.4000      8.0110      2.4957      0.0444      9.3494     11.0742     77.2716
  1429.5000      8.0124      2.4940      0.0233      9.4569     11.1404     77.9048
  1429.6000      8.0124      2.4938      0.0602      9.4655     11.5098     79.4454
  1429.7000      8.0124      2.4957      0.0485      9.3506     11.8250     78.9936
  1429.8000      8.0120      2.4984      0.0415      9.1855     11.9301     79.3848
  1429.9000      8.0120      2.5035      0.0578      8.8763     11.8603     80.6361
  1430.0000      8.0116      2.4999      0.0863      9.0991     11.6014     78.0190
  1430.1000      8.0116      2.4774      0.0489     10.4589     11.8241     73.1906
  1430.2000      8.0116      2.4560      0.0260     11.7591     12.6183     73.2841
  1430.3000      8.0130      2.4592      0.0283     11.5608     12.7057     76.8679
  1430.4000      8.0130      2.4716      0.0645     10.8101     11.8947     79.3769
  1430.5000      8.0138      2.4629      0.0406     11.3365     11.1500     82.3269
  1430.6000      8.0138      2.4352      0.0053     13.0183     10.8935     88.2678
  1430.7000      8.0138      2.4089     -0.0123     14.6133     11.1330     93.9985
  1430.8000      8.0129      2.3939      0.0174     15.5239     11.4998     92.5951
  1430.9000      8.0129      2.3935     -0.0402     15.5484     11.6540     82.2565
  1431.0000      8.0132      2.4144      0.0069     14.2803     11.8163     68.0246
  1431.1000      8.0132      2.4537      0.0193     11.8952     12.0766     55.7928
  1431.2000      8.0132      2.4962      0.0466      9.3205     12.4788     49.2278
  1431.3000      8.0148      2.5195      0.1039      7.9087     13.2160     49.3921
  1431.4000      8.0148      2.5126      0.0644      8.3274     13.8567     52.5524
  1431.5000      8.0142      2.4932      0.0267      9.5028     13.8382     55.9067
  1431.6000      8.0142      2.4755      0.0666     10.5763     13.4447     60.8153
  1431.7000      8.0142      2.4566      0.0099     11.7225     13.0352     65.8902
  1431.8000      8.0120      2.4416      0.0122     12.6326     12.7561     68.9065
  1431.9000      8.0120      2.4393      0.0213     12.7709     12.7351     72.5055
  1432.0000      8.0109      2.4544      0.0051     11.8552     12.5618     75.2572
  1432.1000      8.0109      2.4863      0.0326      9.9184     11.8642     71.8811
  1432.2000      8.0109      2.5180      0.0907      7.9995     11.0266     65.9560
  1432.3000      8.0110      2.5293      0.0665      7.3182     10.5960     63.2178
  1432.4000      8.0110      2.5237      0.0486      7.6539     10.6299     62.1246
  1432.5000      8.0117      2.5132      0.0684      8.2938     10.6030     59.3780
  1432.6000      8.0117      2.5036      0.0399      8.8717     10.2470     55.3224
  1432.7000      8.0117      2.5038      0.0257      8.8632      9.9162     52.7110
  1432.8000      8.0131      2.5128      0.0470      8.3145      9.9128     52.7577
  1432.9000      8.0131      2.5219      0.0260      7.7615     10.2167     57.2279
  1433.0000      8.0147      2.5307      0.0762      7.2298     10.7089     67.3045
  1433.1000      8.0147      2.5326      0.0582      7.1144     11.3103     76.5943
  1433.2000      8.0147      2.5172      0.0564      8.0467     11.8465     77.8907
  1433.3000      8.0152      2.4937     -0.0050      9.4726     12.1030     73.6323
  1433.4000      8.0152      2.4822      0.0415     10.1686     12.0063     70.1351
  1433.5000      8.0134      2.4859      0.0170      9.9457     11.7081     68.4389
  1433.6000      8.0134      2.4935      0.0365      9.4870     11.5059     66.7242
  1433.7000      8.0134      2.4976      0.0472      9.2375     11.5671     66.7972
  1433.8000      8.0111      2.4997      0.0391      9.1109     11.8935     71.5191
  1433.9000      8.0111      2.4960      0.0919      9.3330     12.2280     76.9743
  1434.0000      8.0102      2.4793      0.0437     10.3432     12.3705     75.9516
  1434.1000      8.0102      2.4565      0.0412     11.7268     12.6228     70.2100
  1434.2000      8.0102      2.4401      0.0168     12.7200     13.1517     67.5134
  1434.3000      8.0109      2.4363      0.0183     12.9537     13.5978     67.7908
  1434.4000      8.0109      2.4397      0.0707     12.7433     13.8547     70.4450
  1434.5000      8.0118      2.4429      0.0379     12.5531     14.0370     78.4880
  1434.6000      8.0118      2.4523      0.0367     11.9821     14.1839     87.6572
  1434.7000      8.0118      2.4728      0.0681     10.7412     14.3970     90.3829
  1434.8000      8.0127      2.4872      0.0780      9.8651     14.3801     85.1555
  1434.9000      8.0127      2.4771      0.0803     10.4814     14.0895     78.7236
  1435.0000      8.0146      2.4490      0.0219     12.1848     14.1977     76.3750
  1435.1000      8.0146      2.4307     -0.0055     13.2927     14.9606     75.5211
