~Version Information
VERS.                      2.0: CWLS Log ASCII Standard - VERSION 2.0
WRAP.                       NO: One line per depth step
~Well Information Block
STRT.FT               588.6000: 
STOP.FT              2281.0000: 
STEP.FT                 0.1000: 
NULL.                -999.2500: 
COMP.          Petrogulf Corporation: COMPANY
WELL.             State 16-41V: WELL
FLD.           Purgatorie River: FIELD
LOC.           335' FNL & 823' FEL: LOCATION
CNTY.               Las Animas: COUNTY
SRVC.                         : SERVICE COMPANY
DATE.          Tue Aug 02 07:31:25 2005: LOG DATE
UWI.                          : UNIQUE WELL ID
STAT.                 Colorado: STATE
~Curve Information Block
DEPT.FT            0 000 00 00: Depth
DCAL.in                       : CDL Caliper
RHOB.g/cc                     : CDL Bulk Density
RHOC.g/cc                     : CDL Density Correction
DPOR.pu                       : CDL Density Porosity
GR.GAPI                       : Gamma Ray
NPOR.pu                       : Neutron Porosity
~Parameter Information Block
~A  Depth       DCAL        RHOB        RHOC        DPOR         GR         NPOR    
# ...
   819.0000      8.2624      2.6086      0.0160      2.5098    131.6332     30.2528
   819.1000      8.2624      2.6134      0.0690      2.2211    129.0087     30.0539
   819.2000      8.2624      2.6085      0.0678      2.5169    127.6111     29.8615
   819.3000      8.2762      2.5917      0.0460      3.5321    131.1911     29.6825
   819.4000      8.2762      2.5769      0.0103      4.4295    137.5218     29.5202
   819.5000      8.2970      2.5710     -0.0171      4.7899    143.9377     29.3735
   819.6000      8.2970      2.5682      0.0270      4.9594    150.3828     29.2384
   819.7000      8.2970      2.5586      0.0221      5.5403    154.1735     29.1086
   819.8000      8.3095      2.5417      0.0021      6.5622    152.0779     28.9773
   819.9000      8.3095      2.5275      0.0283      7.4233    146.2301     28.8390
   820.0000      8.3392      2.5190      0.0355      7.9406    143.5365     28.6901
   820.1000      8.3392      2.5130      0.0321      8.3018    145.9372     28.5300
   820.2000      8.3392      2.5110      0.0358      8.4213    148.2949     28.3609
   820.3000      8.3723      2.5134      0.0580      8.2769    147.8053     28.1870
   820.4000      8.3723      2.5133      0.0709      8.2856    145.5665     28.0137
   820.5000      8.3844      2.5072      0.0824      8.6549    143.3804     27.8470
   820.6000      8.3844      2.5028      0.0417      8.9196    142.9843     27.6919
   820.7000      8.3844      2.5052      0.1021      8.7784    143.6911     27.5532
   820.8000      8.3980      2.5069      0.0763      8.6730    143.3839     27.4345
   820.9000      8.3980      2.5032      0.0991      8.8971    142.3014     27.3391
   821.0000      8.4098      2.4941      0.1036      9.4496    140.5442     27.2698
   821.1000      8.4098      2.4800      0.0625     10.3010    137.7410     27.2293
   821.2000      8.4098      2.4654      0.0720     11.1900    135.3763     27.2191
   821.3000      8.4354      2.4555      0.0472     11.7885    135.2455     27.2394
   821.4000      8.4354      2.4561      0.0508     11.7530    135.5015     27.2878
   821.5000      8.4194      2.4682      0.0908     11.0176    132.8970     27.3585
   821.6000      8.4194      2.4881      0.0923      9.8102    128.1307     27.4419
   821.7000      8.4194      2.5145      0.1023      8.2115    124.2334     27.5250
   821.8000      8.4291      2.5409      0.1634      6.6123    122.9614     27.5920
   821.9000      8.4291      2.5590      0.1498      5.5130    122.3344     27.6259
   822.0000      8.4521      2.5731      0.1446      4.6600    120.7906     27.6106
   822.1000      8.4521      2.5837      0.1548      4.0210    120.1954     27.5330
   822.2000      8.4521      2.5793      0.1259      4.2850    119.7229     27.3849
   822.3000      8.4271      2.5568      0.1037      5.6506    116.7808     27.1645
   822.4000      8.4271      2.5248      0.0974      7.5907    113.0780     26.8763
   822.5000      8.3858      2.4960      0.0228      9.3360    111.6155     26.5311
   822.6000      8.3858      2.4831     -0.0299     10.1155    112.4441     26.1449
   822.7000      8.3858      2.4854      0.0252      9.9784    113.8711     25.7374
   822.8000      8.3747      2.4896      0.0102      9.7205    114.7904     25.3298
   822.9000      8.3747      2.4925      0.0217      9.5480    115.1505     24.9430
   823.0000      8.4736      2.4961      0.0564      9.3245    114.9854     24.5963
   823.1000      8.4736      2.4906      0.1025      9.6627    116.4126     24.3058
   823.2000      8.4736      2.4690      0.0567     10.9691    121.4669     24.0836
   823.3000      8.5167      2.4486      0.0633     12.2040    127.8178     23.9377
   823.4000      8.5167      2.4477      0.0600     12.2593    132.9378     23.8720
   823.5000      8.5701      2.4635      0.1124     11.3051    138.0589     23.8857
   823.6000      8.5701      2.4833      0.0679     10.1013    142.6399     23.9747
   823.7000      8.5701      2.5016      0.1444      8.9947    144.5090     24.1314
   823.8000      8.6122      2.5206      0.1027      7.8412    145.4199     24.3459
   823.9000      8.6122      2.5440      0.1386      6.4214    148.1082     24.6061
   824.0000      8.6487      2.5625      0.2029      5.3025    151.7823     24.8995
   824.1000      8.6487      2.5643      0.1762      5.1954    153.7755     25.2131
   824.2000      8.6487      2.5498      0.2001      6.0730    153.2887     25.5347
   824.3000      8.6509      2.5230      0.1879      7.6967    152.3896     25.8537
   824.4000      8.6509      2.4979      0.0942      9.2170    153.0166     26.1609
   824.5000      8.6632      2.4956      0.0799      9.3591    155.1718     26.4487
   824.6000      8.6632      2.5151      0.1163      8.1736    157.8493     26.7111
   824.7000      8.6632      2.5391      0.1084      6.7205    159.1111     26.9433
   824.8000      8.6649      2.5555      0.1422      5.7265    158.0764     27.1413
   824.9000      8.6649      2.5517      0.1884      5.9581    156.9402     27.3018
   825.0000      8.6164      2.5212      0.1556      7.8068    157.6033     27.4221
   825.1000      8.6164      2.4790      0.1587     10.3661    159.1485     27.5000
   825.2000      8.6164      2.4466      0.0806     12.3278    160.2839     27.5342
   825.3000      8.6545      2.4298      0.1009     13.3425    160.1026     27.5246
   825.4000      8.6545      2.4201      0.0374     13.9351    159.6220     27.4719
   825.5000      8.5582      2.4134      0.0194     14.3398    160.0240     27.3777
   825.6000      8.5582      2.4064      0.0532     14.7617    159.2760     27.2443
   825.7000      8.5582      2.3959      0.0317     15.4010    157.0918     27.0745
   825.8000      8.5582      2.3899      0.0263     15.7662    156.4755     26.8707
   825.9000      8.5582      2.3923      0.0753     15.6152    156.4803     26.6353
   826.0000      8.5686      2.3929      0.0983     15.5815    153.4240     26.3700
   826.1000      8.5686      2.3825      0.0809     16.2137    148.2538     26.0763
   826.2000      8.5686      2.3567      0.0791     17.7737    147.1366     25.7548
   826.3000      8.5572      2.3174      0.0272     20.1583    152.6874     25.4063
   826.4000      8.5572      2.2802      0.0241     22.4127    158.8582     25.0314
   826.5000      8.5029      2.2624      0.0224     23.4937    159.8519     24.6315
   826.6000      8.5029      2.2673      0.0137     23.1965    158.3294     24.2082
   826.7000      8.5029      2.2800      0.0684     22.4236    157.2778     23.7650
   826.8000      8.5650      2.2803      0.0923     22.4062    154.8915     23.3071
   826.9000      8.5650      2.2614      0.0775     23.5516    152.8483     22.8424
   827.0000      8.5248      2.2246      0.0764     25.7846    154.4335     22.3819
   827.1000      8.5248      2.1662      0.0918     29.3215    156.7363     21.9401
   827.2000      8.5248      2.0916      0.0418     33.8441    156.1032     21.5346
   827.3000      8.5157      2.0258      0.0049     37.8285    152.4982     21.1861
   827.4000      8.5157      1.9849      0.0420     40.3118    147.5793     20.9165
   827.5000      8.6062      1.9577      0.0810     41.9563    141.9476     20.7480
   827.6000      8.6062      1.9310      0.1482     43.5780    134.0489     20.7011
   827.7000      8.6062      1.9135      0.0666     44.6376    126.5954     20.7920
   827.8000      8.6166      1.9208      0.1725     44.1963    125.5631     21.0314
   827.9000      8.6166      1.9444      0.2331     42.7664    129.1582     21.4224
   828.0000      8.8634      1.9686      0.2832     41.2982    133.5109     21.9591
   828.1000      8.8634      1.9994      0.2212     39.4324    139.9553     22.6267
   828.2000      8.8634      2.0619      0.1534     35.6433    147.3028     23.4013
   828.3000      9.0440      2.1679      0.1609     29.2161    151.1602     24.2516
   828.4000      9.0440      2.2894      0.1528     21.8560    152.1393     25.1409
   828.5000      8.5505      2.3802      0.2179     16.3527    152.5950     26.0309
