~Version Information
 VERS.                                  2.0 : CWLS LAS VERSION
 WRAP.                                   NO : WRAPING MODE
 SWARE .                 MController 2.5.0J : SOFTWARE VERSION
~Well Information
 WELL.                        Montoya 1-44R : WELL
 COMP.                       Petrogulf Corp : COMPANY
 FLD.                      Purgatoire River : FIELD
 LOC.                 SE/SE Sec 1 T33S R68W : LOCATION
 DATE.                             11/15/04 : DATE(S) LOGGED
 SRVC.       Blanco Geological Services LLC : SERVICE COMPANY
 STAT.                                   CO : STATE
 CNTY.                           Las Animas : COUNTY
 CTRY.                                  USA : COUNTRY
 API.                       05-071-08239-00 : API NUMBER
 STRT.FT                             615.00 : START DEPTH
 STOP.FT                            2140.00 : STOP DEPTH
 STEP.FT                               1.00 : DEPTH INCREMENT
 NULL.                                -9999 : NULL VALUE
~Curve information
 DEPTH.FT                                   :
 ROP.MIN/FT                                 :
 GAS.UNITS                                  :
~ASCII Log data
# ...
      1215.0         0.17          6.9 
      1216.0         0.20          7.2 
      1217.0         0.17          8.0 
      1218.0         0.17          6.4 
      1219.0         0.23          7.4 
      1220.0         0.17          8.1 
      1221.0         0.17          8.1 
      1222.0         0.20         18.5 
      1223.0         0.20         18.5 
      1224.0         0.22         28.8 
      1225.0         0.23         32.9 
      1226.0         0.30         32.5 
      1227.0         0.27         29.5 
      1228.0         0.23         24.0 
      1229.0         0.30         17.1 
      1230.0         0.38         12.8 
      1231.0         0.40          8.8 
      1232.0         0.17          7.9 
      1233.0         0.17          7.2 
      1234.0         0.20          6.7 
      1235.0         0.17          6.8 
      1236.0         0.17          7.4 
      1237.0         0.27          6.9 
      1238.0         0.17          6.6 
      1239.0         0.17          6.7 
      1240.0         0.23          7.5 
      1241.0         0.20          7.5 
      1242.0         0.20          7.2 
      1243.0         0.17          6.9 
      1244.0         0.20          6.9 
      1245.0         0.20          6.1 
      1246.0         0.22          6.5 
      1247.0         0.17          6.8 
      1248.0         0.23          7.0 
      1249.0         0.20          8.2 
      1250.0         0.23          7.8 
      1251.0         0.30          7.4 
      1252.0         0.27          8.0 
      1253.0         0.23         12.4 
      1254.0         0.23         19.1 
      1255.0         0.23         24.7 
      1256.0         0.27         26.6 
      1257.0         0.30         26.1 
      1258.0         0.37         19.8 
      1259.0         0.27         14.6 
      1260.0         0.27         12.8 
      1261.0         0.27          9.3 
      1262.0         0.20          8.3 
      1263.0         0.23          8.1 
      1264.0         0.20          7.4 
      1265.0         0.17          7.2 
      1266.0         0.20          6.3 
      1267.0         0.17          6.4 
      1268.0         0.22          6.3 
      1269.0         0.20          6.9 
      1270.0         0.17          7.2 
      1271.0         0.20          7.4 
      1272.0         0.20          7.1 
      1273.0         0.17          7.6 
      1274.0         0.13          7.2 
      1275.0         0.17          7.1 
      1276.0         0.17         13.0 
      1277.0         0.20         13.0 
      1278.0         0.17         13.0 
      1279.0         0.20         20.5 
      1280.0         0.17         24.5 
      1281.0         0.20         33.8 
      1282.0         0.17         42.1 
      1283.0         0.17         43.9 
      1284.0         0.20         44.1 
      1285.0         0.20         41.4 
      1286.0         0.35         39.3 
      1287.0         0.30         25.7 
      1288.0         0.27         21.2 
      1289.0         0.27         15.9 
      1290.0         0.20         15.8 
      1291.0         0.27         15.4 
      1292.0         0.25         16.1 
      1293.0         0.23         16.1 
      1294.0         0.20         16.8 
      1295.0         0.23         15.9 
      1296.0         0.23         15.6 
      1297.0         0.23         15.8 
      1298.0         0.23         15.1 
      1299.0         0.20         14.7 
      1300.0         0.20         14.0 
      1301.0         0.17         13.8 
      1302.0         0.23         13.9 
      1303.0         0.20         14.6 
      1304.0         0.23         15.4 
      1305.0         0.23         15.2 
      1306.0         0.20         14.0 
      1307.0         0.25         14.8 
      1308.0         0.23         14.2 
      1309.0         0.20         12.8 
      1310.0         0.23         10.1 
      1311.0         0.23         18.0 
      1312.0         0.23         25.6 
      1313.0         0.20         25.6 
      1314.0         0.23         29.3 
      1315.0         0.27         29.2 
      1316.0         0.30         25.6 
      1317.0         0.50         21.5 
      1318.0         0.37         15.4 
      1319.0         0.37          8.5 
      1320.0         0.30          6.5 
      1321.0         0.27          6.4 
      1322.0         0.33          6.1 
      1323.0         0.30          4.9 
      1324.0         0.33          5.8 
      1325.0         0.32          6.6 
      1326.0         0.27          6.2 
      1327.0         0.20          6.0 
      1328.0         0.20          6.1 
      1329.0         0.23          6.4 
      1330.0         0.20          6.2 
      1331.0         0.20          6.3 
      1332.0         0.20          6.7 
      1333.0         0.20          7.2 
      1334.0         0.23          7.3 
      1335.0         0.23          8.4 
      1336.0         0.20          8.1 
      1337.0         0.23          7.7 
      1338.0         0.17          7.7 
      1339.0         0.17          7.8 
      1340.0         0.17          8.2 
      1341.0         0.15          8.2 
      1342.0         0.17          9.5 
      1343.0         0.13          9.5 
      1344.0         0.13          9.2 
      1345.0         0.10          9.2 
      1346.0         0.10          9.9 
      1347.0         0.30         10.6 
      1348.0         0.30         10.6 
      1349.0         0.30         11.8 
      1350.0         0.20         11.8 
      1351.0         0.30         11.8 
      1352.0         0.20          9.2 
      1353.0         0.27          7.7 
      1354.0         0.28          7.6 
      1355.0         0.23          6.8 
      1356.0         0.20          5.6 
      1357.0         0.17          5.9 
      1358.0         0.30          5.9 
      1359.0         0.27          5.9 
      1360.0         0.27          5.4 
      1361.0         0.30          5.1 
      1362.0         0.20          5.5 
      1363.0         0.13          5.5 
      1364.0         0.17          5.0 
      1365.0         0.13          4.9 
      1366.0         0.13          4.9 
      1367.0         0.20          5.1 
      1368.0         0.23          5.1 
      1369.0         0.28          6.0 
      1370.0         0.30          4.9 
      1371.0         0.27          5.3 
      1372.0         0.23          7.0 
      1373.0         0.23          8.3 
      1374.0         0.20          8.2 
      1375.0         0.17          8.0 
      1376.0         0.27          6.1 
      1377.0         0.27          5.7 
      1378.0         0.20          3.7 
      1379.0         0.20          4.2 
      1380.0         0.27          4.8 
      1381.0         0.37          5.0 
      1382.0         0.33          5.6 
      1383.0         0.30          5.0 
      1384.0         0.30          5.5 
      1385.0         0.30          5.2 
      1386.0         0.25          5.7 
      1387.0         0.27          6.5 
      1388.0         0.27          6.4 
      1389.0         0.27          5.9 
      1390.0         0.27          6.1 
      1391.0         0.23          6.3 
      1392.0         0.20          6.8 
      1393.0         0.13          8.0 
      1394.0         0.10          8.0 
      1395.0         0.10          8.0 
      1396.0         0.13          8.4 
      1397.0         0.13          8.0 
      1398.0         0.23          8.1 
      1399.0         0.17          7.0 
      1400.0         0.23          7.1 
      1401.0         0.10          7.1 
      1402.0         0.27          9.5 
      1403.0         0.22         12.2 
      1404.0         0.20         14.1 
      1405.0         0.27         14.3 
      1406.0         0.40         13.4 
      1407.0         0.10          8.9 
      1408.0         0.27          8.7 
      1409.0         0.28          7.9 
      1410.0         0.23          7.6 
      1411.0         0.20          7.2 
      1412.0         0.23          6.5 
      1413.0         0.30          6.1 
      1414.0         0.33          6.0 
