~Version Information
 VERS.                                  2.0 : CWLS LAS VERSION
 WRAP.                                   NO : WRAPING MODE
 SWARE .                 MController 2.5.0J : SOFTWARE VERSION
~Well Information
 WELL.                      Robinson 15-12V : WELL
 COMP.                Petrogulf Corporation : COMPANY
 FLD.                      Purgatoire River : FIELD
 LOC.                SW/NW Sec 15 T33S R67W : LOCATION
 DATE.                             09/10/05 : DATE(S) LOGGED
 SRVC.       BLANCO Geological Services LLC : SERVICE COMPANY
 STAT.                                   CO : STATE
 CNTY.                           Las Animas : COUNTY
 CTRY.                                  USA : COUNTRY
 API.                       05-071-08308-00 : API NUMBER
 STRT.FT                              52.00 : START DEPTH
 STOP.FT                            2041.00 : STOP DEPTH
 STEP.FT                               1.00 : DEPTH INCREMENT
 NULL.                                -9999 : NULL VALUE
~Curve information
 DEPTH.FT                                   :
 ROP.MIN/FT                                 :
 GAS.UNITS                                  :
~ASCII Log data
# ...
      1252.0         0.27        910.4 
      1253.0         0.27        906.0 
      1254.0         0.17        903.1 
      1255.0         0.17        899.9 
      1256.0         0.17        897.4 
      1257.0         0.17        894.5 
      1258.0         0.23        894.9 
      1259.0         0.27        893.6 
      1260.0         2.68       1526.8 
      1261.0         0.33       1402.3 
      1262.0         0.27       1218.3 
      1263.0         0.38       1098.9 
      1264.0         0.30       1017.0 
      1265.0         0.23        995.5 
      1266.0         0.27       1007.8 
      1267.0         0.30       1008.8 
      1268.0         0.33        998.6 
      1269.0         0.37        980.5 
      1270.0         0.20        952.9 
      1271.0         0.20        937.1 
      1272.0         0.23        925.6 
      1273.0         0.20        917.4 
      1274.0         0.23        914.5 
      1275.0         0.28        911.0 
      1276.0         0.33        907.2 
      1277.0         0.17        898.3 
      1278.0         0.20        894.9 
      1279.0         0.20        891.4 
      1280.0         0.17        890.4 
      1281.0         0.17        890.7 
      1282.0         0.23        890.1 
      1283.0         0.23        889.1 
      1284.0         0.27        887.6 
      1285.0         0.37        886.9 
      1286.0         0.20        885.0 
      1287.0         0.17        885.0 
      1288.0         0.28        890.1 
      1289.0         0.30        899.0 
      1290.0         4.58       1560.4 
      1291.0         0.40       1384.6 
      1292.0         0.33       1184.6 
      1293.0         0.43       1147.2 
      1294.0         0.35       1089.1 
      1295.0         0.23       1037.7 
      1296.0         0.20       1014.8 
      1297.0         0.17       1007.2 
      1298.0         0.27        999.9 
      1299.0         0.23        983.7 
      1300.0         0.17        970.7 
      1301.0         0.20        963.7 
      1302.0         0.23        953.6 
      1303.0         0.20        940.9 
      1304.0         0.13        935.2 
      1305.0         0.17        928.8 
      1306.0         0.20        923.7 
      1307.0         0.20        916.8 
      1308.0         0.17        912.6 
      1309.0         0.30        910.1 
      1310.0         0.28        903.4 
      1311.0         0.20        901.8 
      1312.0         0.40        899.0 
      1313.0         0.27        894.2 
      1314.0         0.20        890.1 
      1315.0         0.30        888.2 
      1316.0         0.30        886.3 
      1317.0         0.23        886.0 
      1318.0         0.27        886.6 
      1319.0         0.30        888.2 
      1320.0         2.92       1813.0 
      1321.0         0.13       1620.4 
      1322.0         0.17       1476.0 
      1323.0         0.20       1335.7 
      1324.0         0.20       1244.9 
      1325.0         0.20       1202.1 
      1326.0         0.42       1171.6 
      1327.0         0.27       1100.5 
      1328.0         0.43       1057.4 
      1329.0         0.43       1014.5 
      1330.0         0.17        998.0 
      1331.0         0.27        987.5 
      1332.0         0.30        967.5 
      1333.0         0.17        947.5 
      1334.0         0.23        936.4 
      1335.0         0.40        930.4 
      1336.0         0.28        922.5 
      1337.0         0.23        915.2 
      1338.0         0.23        909.5 
      1339.0         0.23        906.9 
      1340.0         0.23        905.0 
      1341.0         0.23        903.1 
      1342.0         0.27        899.6 
      1343.0         0.23        896.8 
      1344.0         0.30        896.4 
      1345.0         0.23        894.2 
      1346.0         0.27        892.6 
      1347.0         0.23        893.0 
      1348.0         0.23        893.3 
      1349.0         0.23        894.2 
      1350.0         3.22       1596.3 
      1351.0         0.28       1275.7 
      1352.0         0.37       1198.3 
      1353.0         0.20       1131.3 
      1354.0         0.23       1095.4 
      1355.0         0.23       1058.3 
      1356.0         0.20       1032.3 
      1357.0         0.30       1017.7 
      1358.0         0.30        998.0 
      1359.0         0.27        975.2 
      1360.0         0.23        961.5 
      1361.0         0.23        948.2 
      1362.0         0.20        938.7 
      1363.0         0.17        929.8 
      1364.0         0.25        926.3 
      1365.0         0.20        922.5 
      1366.0         0.20        919.0 
      1367.0         0.17        916.1 
      1368.0         0.17        912.3 
      1369.0         0.17        907.9 
      1370.0         0.13        905.3 
      1371.0         0.17        903.4 
      1372.0         0.13        902.5 
      1373.0         0.17        898.7 
      1374.0         0.17        898.7 
      1375.0         0.17        897.4 
      1376.0         0.13        895.2 
      1377.0         0.13        893.9 
      1378.0         0.17        893.6 
      1379.0         0.23        889.1 
      1380.0         2.75       1643.2 
      1381.0         0.43       1521.4 
      1382.0         0.30       1216.7 
      1383.0         0.20       1131.6 
      1384.0         0.23       1111.9 
      1385.0         0.35       1092.9 
      1386.0         0.30       1063.4 
      1387.0         0.27       1039.6 
      1388.0         0.23       1019.9 
      1389.0         0.20       1001.5 
      1390.0         0.17        985.6 
      1391.0         0.27        976.4 
      1392.0         0.10        957.7 
      1393.0         0.20        953.9 
      1394.0         0.20        941.2 
      1395.0         0.20        933.6 
      1396.0         0.23        926.9 
      1397.0         0.20        920.9 
      1398.0         0.23        917.4 
      1399.0         0.20        913.9 
      1400.0         0.18        910.4 
      1401.0         0.17        907.2 
      1402.0         0.17        905.0 
      1403.0         0.10        903.1 
      1404.0         0.13        903.1 
      1405.0         0.13        900.6 
      1406.0         0.17        899.9 
      1407.0         0.20        897.4 
      1408.0         0.20        897.1 
      1409.0         0.17        895.5 
      1410.0         3.12       1759.1 
      1411.0         0.30       1594.7 
      1412.0         0.40       1332.5 
      1413.0         0.37       1177.3 
      1414.0         0.33       1106.9 
      1415.0         0.10       1057.7 
      1416.0         0.22       1043.4 
      1417.0         0.23       1017.7 
      1418.0         0.17       1000.5 
      1419.0         0.20        995.8 
      1420.0         0.17        992.3 
      1421.0         0.20        988.8 
      1422.0         0.17        984.0 
      1423.0         0.17        979.9 
      1424.0         0.13        973.9 
      1425.0         0.13        971.0 
      1426.0         0.13        965.6 
      1427.0         0.17        958.6 
      1428.0         0.23        948.5 
      1429.0         0.17        939.0 
      1430.0         0.20        937.7 
      1431.0         0.15        932.6 
      1432.0         0.20        929.4 
      1433.0         0.33        927.9 
      1434.0         0.17        926.6 
      1435.0         0.20        924.1 
      1436.0         0.23        918.0 
      1437.0         0.23        915.5 
      1438.0         0.17        913.6 
      1439.0         0.23        913.3 
      1440.0         3.75       1753.1 
      1441.0         0.17       1216.0 
      1442.0         0.17       1173.5 
      1443.0         0.15       1145.9 
      1444.0         0.17       1125.9 
      1445.0         0.20       1099.6 
      1446.0         0.27       1070.4 
      1447.0         0.20       1044.7 
      1448.0         0.23       1033.6 
      1449.0         0.23       1018.6 
      1450.0         0.27       1000.9 
      1451.0         0.23        989.8 
