~Version Information
VERS.                      2.0: CWLS Log ASCII Standard - VERSION 2.0
WRAP.                       NO: One line per depth step
~Well Information Block
STRT.FT               823.7000: 
STOP.FT              2444.0000: 
STEP.FT                 0.1000: 
NULL.                -999.2500: 
COMP.          Petrogulf Corporation: COMPANY
WELL.            Kraft 17-23 V: WELL
FLD.           Purgatorie River: FIELD
LOC.           1500' FSL & 1773' FWL: LOCATION
CNTY.               Las Animas: COUNTY
SRVC.                         : SERVICE COMPANY
DATE.          Thu Nov 20 07:09:00 2003: LOG DATE
UWI.                          : UNIQUE WELL ID
STAT.                 Colorado: STATE
~Curve Information Block
DEPT.FT            0 000 00 00: Depth
DCAL.in                       : CDL Caliper
RHOB.g/cc                     : CDL Bulk Density
RHOC.g/cc                     : CDL Density Correction
DPOR.pu                       : CDL Density Porosity
GR.GAPI                       : Gamma Ray
NPOR.pu                       : Neutron Porosity
~Parameter Information Block
~A  Depth       DCAL        RHOB        RHOC        DPOR         GR         NPOR    
# ...
  2215.7000      8.1117      2.3967      0.1153     15.3495     89.5033     32.8844
  2215.8000      8.0865      2.3856      0.0944     16.0270     85.2401     33.9087
  2215.9000      8.0865      2.3622      0.1347     17.4436     83.0578     34.3971
  2216.0000      8.0453      2.3216      0.0553     19.9049     84.0505     34.6167
  2216.1000      8.0453      2.2502      0.0448     24.2302     85.6663     34.8656
  2216.2000      8.0453      2.1334      0.0363     31.3101     81.3179     35.1788
  2216.3000      8.0287      1.9893     -0.0592     40.0400     69.1886     35.2679
  2216.4000      8.0287      1.8661     -0.0965     47.5074     57.0580     34.8376
  2216.5000      8.0910      1.7873     -0.0606     52.2840     52.2339     34.1913
  2216.6000      8.0910      1.7304     -0.0709     55.7342     53.5268     34.1855
  2216.7000      8.0910      1.6591     -0.0649     60.0523     55.9046     34.8617
  2216.8000      8.1897      1.5665     -0.0758     65.6676     55.9012     35.2932
  2216.9000      8.1897      1.4773      0.0305     71.0715     53.1202     35.2539
  2217.0000      8.2376      1.4132      0.0311     74.9571     48.1905     35.2811
  2217.1000      8.2376      1.3818      0.0504     76.8593     42.2077     35.3735
  2217.2000      8.2376      1.3847      0.0360     76.6844     38.1050     35.2477
  2217.3000      8.2309      1.4097      0.0981     75.1723     36.2266     35.1432
  2217.4000      8.2309      1.4252      0.1471     74.2306     37.0637     35.3978
  2217.5000      8.2529      1.4144      0.0498     74.8847     42.1176     35.7036
  2217.6000      8.2529      1.3957      0.0495     76.0165     48.5292     35.5244
  2217.7000      8.2529      1.3923      0.0457     76.2235     52.8020     35.0976
  2217.8000      8.2459      1.4144      0.0452     74.8876     55.4268     35.0697
  2217.9000      8.2459      1.4624      0.0732     71.9732     58.0226     35.3469
  2218.0000      8.1719      1.5267      0.0740     68.0803     62.0990     35.2882
  2218.1000      8.1719      1.5897      0.1288     64.2599     68.3670     34.8847
  2218.2000      8.1719      1.6486      0.0730     60.6916     71.4416     34.6667
  2218.3000      8.1340      1.7189      0.1403     56.4288     70.0352     34.5638
  2218.4000      8.1340      1.7952      0.2648     51.8034     69.1892     34.2254
  2218.5000      8.1299      1.8581      0.2583     47.9941     70.3608     33.9348
  2218.6000      8.1299      1.9113      0.2388     44.7700     74.1335     33.9315
  2218.7000      8.1299      1.9555      0.2923     42.0903     82.5692     33.7785
  2218.8000      8.1005      1.9810      0.1674     40.5455     92.3565     33.2826
  2218.9000      8.1005      2.0104      0.1104     38.7658     94.6255     32.7938
  2219.0000      8.0316      2.0711      0.1612     35.0853     89.1992     32.5047
  2219.1000      8.0316      2.1454      0.1981     30.5827     86.8294     32.2437
  2219.2000      8.0316      2.2047      0.2079     26.9852     91.7501     31.8400
  2219.3000      7.9964      2.2530      0.2415     24.0621     96.8936     31.2432
  2219.4000      7.9964      2.3112      0.2254     20.5327     97.4791     30.4771
  2219.5000      8.0556      2.3840      0.2530     16.1196     94.4734     29.9234
  2219.6000      8.0556      2.4474      0.1957     12.2773     91.8823     29.7916
  2219.7000      8.0556      2.4785      0.1534     10.3921     91.8057     29.7235
  2219.8000      8.0960      2.4811      0.1081     10.2384     92.8413     29.4650
  2219.9000      8.0960      2.4767      0.0739     10.5027     91.6107     29.3501
  2220.0000      8.0519      2.4827      0.1067     10.1414     89.1307     29.6471
  2220.1000      8.0519      2.4903      0.1296      9.6785     90.8748     29.9450
  2220.2000      8.0519      2.4846      0.0640     10.0213     97.4803     29.8643
  2220.3000      7.9903      2.4698      0.1240     10.9188    101.1132     29.6612
  2220.4000      7.9903      2.4550      0.0759     11.8198     96.2967     29.6381
  2220.5000      7.9729      2.4489      0.0433     12.1879     89.0734     29.8799
  2220.6000      7.9729      2.4635      0.0666     11.3011     83.6096     30.2030
  2220.7000      7.9729      2.4969      0.1390      9.2805     79.7023     30.2668
  2220.8000      7.9775      2.5312      0.1057      7.2017     80.9585     30.0035
  2220.9000      7.9775      2.5592      0.0940      5.5044     89.2623     29.6349
  2221.0000      7.9955      2.5765      0.1391      4.4552    100.4709     29.2989
  2221.1000      7.9955      2.5692      0.1254      4.8949    108.2846     29.0987
  2221.2000      7.9955      2.5358      0.0995      6.9228    111.8167     29.2629
  2221.3000      8.0341      2.4881      0.0508      9.8125    113.8405     29.8459
  2221.4000      8.0341      2.4479     -0.0359     12.2511    116.5008     30.3872
  2221.5000      8.0616      2.4291     -0.0132     13.3879    120.0960     30.3477
  2221.6000      8.0616      2.4113      0.1003     14.4638    122.2234     29.6848
  2221.7000      8.0616      2.3919     -0.0741     15.6453    119.0098     28.8305
  2221.8000      8.0927      2.4065      0.0162     14.7548    110.0877     28.1879
  2221.9000      8.0927      2.4385      0.1574     12.8193     97.6324     27.6647
  2222.0000      8.1706      2.4453      0.0386     12.4085     83.7594     27.3557
  2222.1000      8.1706      2.4449      0.0240     12.4310     76.1439     27.7010
  2222.2000      8.1706      2.4594      0.1093     11.5528     80.7846     28.3181
  2222.3000      8.1944      2.4651      0.1094     11.2079     89.8922     28.5003
  2222.4000      8.1944      2.4431      0.0531     12.5422     94.6239     28.5061
  2222.5000      8.0729      2.4169     -0.0229     14.1276     96.8249     28.9900
  2222.6000      8.0729      2.4103      0.0121     14.5300     96.9321     29.6926
  2222.7000      8.0729      2.4097      0.0171     14.5614     91.9879     29.7831
  2222.8000      7.9928      2.3994     -0.0197     15.1895     87.2644     29.1788
  2222.9000      7.9928      2.3891      0.0022     15.8149     87.9673     28.6696
  2223.0000      8.0018      2.4002      0.0101     15.1406     89.4866     28.8966
  2223.1000      8.0018      2.4444      0.0066     12.4594     85.9548     29.3790
  2223.2000      8.0018      2.4998      0.0946      9.1018     78.8241     29.2248
  2223.3000      8.0461      2.5135      0.1698      8.2751     76.2136     28.3159
  2223.4000      8.0461      2.4650      0.0649     11.2111     81.1704     27.1096
  2223.5000      8.0732      2.4026      0.0044     14.9938     83.8118     26.1602
  2223.6000      8.0732      2.3755      0.0167     16.6337     74.7204     25.9360
  2223.7000      8.0732      2.3860     -0.0223     15.9991     59.8552     26.1653
  2223.8000      8.1001      2.4130      0.0119     14.3629     51.7603     26.1142
  2223.9000      8.1001      2.4427     -0.0079     12.5623     52.4247     26.0025
  2224.0000      8.1336      2.4743      0.1103     10.6470     55.4371     26.4858
  2224.1000      8.1336      2.4923      0.1020      9.5575     57.2596     27.4148
  2224.2000      8.1336      2.4853      0.0184      9.9828     57.8790     28.1002
  2224.3000      8.1063      2.4730      0.0421     10.7279     58.1338     27.9525
  2224.4000      8.1063      2.4717      0.0441     10.8080     58.0770     27.1432
  2224.5000      8.0547      2.4731      0.0997     10.7222     59.7201     26.4737
  2224.6000      8.0547      2.4677      0.0594     11.0466     63.4266     26.3867
  2224.7000      8.0547      2.4620      0.0719     11.3919     66.2145     26.5160
  2224.8000      8.0291      2.4599      0.0529     11.5211     66.3314     26.5374
  2224.9000      8.0291      2.4623      0.0208     11.3769     63.8683     26.5129
  2225.0000      8.0285      2.4699      0.0959     10.9168     62.6814     26.3880
  2225.1000      8.0285      2.4741      0.0650     10.6621     65.5429     26.1282
  2225.2000      8.0285      2.4724      0.0802     10.7659     68.2544     25.9170
