~Version Information
VERS.                      2.0: CWLS Log ASCII Standard - VERSION 2.0
WRAP.                       NO: One line per depth step
~Well Information Block
STRT.FT               294.0000: 
STOP.FT              1958.0000: 
STEP.FT                 0.1000: 
NULL.                -999.2500: 
COMP.          Pioneer Natural Resources: COMPANY
WELL.          Commander 43-26 Tr: WELL
FLD.           Purgatoire River: FIELD
LOC.           2439' FSL & 446' FEL: LOCATION
PROV.                 Colorado: PROVINCE
CNTY.               Las Animas: COUNTRY
SRVC.                Patterson: SERVICE COMPANY
DATE.          Fri Apr 15 07:31:08 2005: LOG DATE
UWI.           05 071 08341 00: UNIQUE WELL ID
~Curve Information Block
DEPT.FT            0 000 00 00: Depth
DCAL.in                       : CDL Caliper
RHOB.g/cc                     : CDL Bulk Density
RHOC.g/cc                     : CDL Density Correction
DPOR.pu                       : CDL Density Porosity
GR.GAPI                       : Gamma Ray
NPOR.pu                       : Neutron Porosity
~Parameter Information Block
~A  Depth       DCAL        RHOB        RHOC        DPOR         GR         NPOR    
# ...
  1177.2000      8.0027      2.5909      0.0895      3.5826     78.2590     22.4652
  1177.3000      7.9688      2.5698      0.0767      4.8577     80.8112     21.5942
  1177.4000      7.9688      2.5518      0.0028      5.9517     80.7237     20.8088
  1177.5000      7.9542      2.5513     -0.0128      5.9830     77.9579     20.1161
  1177.6000      7.9542      2.5689      0.0035      4.9155     77.6158     19.4065
  1177.7000      7.9542      2.5936      0.0094      3.4161     81.0343     19.0538
  1177.8000      7.9544      2.6181      0.0572      1.9337     85.5949     19.6309
  1177.9000      7.9544      2.6426      0.1281      0.4491     90.1186     21.0134
  1178.0000      7.9564      2.6668      0.1147     -1.0188     94.5318     22.1825
  1178.1000      7.9564      2.6914      0.0878     -2.5097     99.4094     22.3797
  1178.2000      7.9564      2.7219      0.1462     -4.3564    105.0429     22.2703
  1178.3000      7.9219      2.7554      0.1406     -6.3890    109.1567     22.8025
  1178.4000      7.9219      2.7678      0.1869     -7.1367    109.4302     23.9371
  1178.5000      7.8615      2.7342      0.1509     -5.1028    108.6471     24.8836
  1178.6000      7.8615      2.6686      0.1035     -1.1297    110.9604     25.1736
  1178.7000      7.8615      2.6052      0.0557      2.7130    112.8888     25.3821
  1178.8000      7.8521      2.5617      0.0140      5.3495    109.2657     26.1229
  1178.9000      7.8521      2.5419     -0.0331      6.5517    103.4954     27.1410
  1179.0000      7.8681      2.5382     -0.0295      6.7743    101.1713     27.8826
  1179.1000      7.8681      2.5295      0.0466      7.3002    104.3611     28.2163
  1179.2000      7.8681      2.5070      0.0692      8.6682    112.4846     28.3193
  1179.3000      7.9657      2.4848      0.0705     10.0137    119.9666     28.1896
  1179.4000      7.9657      2.4719      0.0918     10.7932    121.8323     28.0394
  1179.5000      8.0139      2.4625      0.0734     11.3656    120.8022     28.0369
  1179.6000      8.0139      2.4573      0.0318     11.6806    120.4636     28.0973
  1179.7000      8.0139      2.4616      0.0409     11.4164    120.5123     28.2597
  1179.8000      8.0459      2.4680      0.0276     11.0279    117.7684     28.1312
  1179.9000      8.0459      2.4749      0.0188     10.6111    112.3229     27.5130
  1180.0000      7.9986      2.4952     -0.0157      9.3833    108.5171     26.9779
  1180.1000      7.9986      2.5310      0.0946      7.2133    107.7118     26.8105
  1180.2000      7.9986      2.5652      0.1064      5.1393    106.4046     26.7712
  1180.3000      7.9884      2.5799      0.1311      4.2477    100.0699     26.4792
  1180.4000      7.9884      2.5698      0.1025      4.8612     91.7725     26.1603
  1180.5000      7.9833      2.5515      0.0885      5.9695     88.3402     26.3661
  1180.6000      7.9833      2.5515      0.0728      5.9673     87.7372     26.6128
  1180.7000      7.9833      2.5733      0.1166      4.6474     86.0879     25.8110
  1180.8000      7.9681      2.5996      0.0972      3.0553     85.6559     24.3301
  1180.9000      7.9681      2.6203      0.0653      1.8013     87.4262     23.2784
  1181.0000      7.9604      2.6308      0.1102      1.1664     87.1778     22.6998
  1181.1000      7.9604      2.6306      0.0732      1.1750     82.6020     22.5399
  1181.2000      7.9604      2.6317      0.0839      1.1106     78.1842     22.6621
  1181.3000      7.9523      2.6477      0.0235      0.1411     76.4239     22.2616
  1181.4000      7.9523      2.6750      0.0409     -1.5142     73.0802     21.3774
  1181.5000      7.9328      2.6870      0.0739     -2.2431     66.3713     20.8256
  1181.6000      7.9328      2.6781      0.0105     -1.7059     59.2253     20.6501
  1181.7000      7.9328      2.6738      0.0186     -1.4442     54.3727     20.5463
  1181.8000      7.9444      2.6761      0.0342     -1.5842     55.2418     20.2181
  1181.9000      7.9444      2.6723      0.0028     -1.3497     62.7103     19.6290
  1182.0000      7.9586      2.6650      0.0244     -0.9106     72.8782     19.2581
  1182.1000      7.9586      2.6517      0.0382     -0.1013     82.4475     19.2149
  1182.2000      7.9586      2.6226      0.0115      1.6591     87.1702     19.2967
  1182.3000      7.9819      2.5828     -0.0536      4.0737     84.8420     19.4553
  1182.4000      7.9819      2.5541     -0.0007      5.8138     84.5413     19.3956
  1182.5000      7.9787      2.5614     -0.0347      5.3718     95.5998     19.5995
  1182.6000      7.9787      2.6011      0.0332      2.9651    111.0639     20.7502
  1182.7000      7.9787      2.6265      0.0860      1.4231    119.1081     22.0849
  1182.8000      7.9841      2.6107      0.0258      2.3825    122.0806     22.4658
  1182.9000      7.9841      2.5813      0.0258      4.1611    123.7139     22.2157
  1183.0000      7.9644      2.5655      0.0187      5.1228    119.3746     22.6356
  1183.1000      7.9644      2.5618      0.0385      5.3480    113.9104     24.2045
  1183.2000      7.9644      2.5605      0.0805      5.4243    116.3929     25.8634
  1183.3000      7.9409      2.5636      0.0199      5.2343    122.5207     26.3802
  1183.4000      7.9409      2.5744      0.0677      4.5829    124.6865     26.0957
  1183.5000      7.9283      2.5764      0.0383      4.4588    122.3639     25.7224
  1183.6000      7.9283      2.5602      0.0409      5.4399    119.2264     25.3909
  1183.7000      7.9283      2.5367      0.0582      6.8654    117.4682     25.6097
  1183.8000      7.9554      2.5193      0.0551      7.9240    117.3172     26.2557
  1183.9000      7.9554      2.5202     -0.0066      7.8661    118.5583     26.7677
  1184.0000      8.0046      2.5392      0.0700      6.7156    121.2086     27.3235
  1184.1000      8.0046      2.5502      0.0591      6.0512    124.0465     28.1450
  1184.2000      8.0046      2.5399      0.0698      6.6725    123.2498     28.9016
  1184.3000      8.0277      2.5308     -0.0029      7.2254    121.2034     28.9800
  1184.4000      8.0277      2.5420      0.0443      6.5434    124.7111     28.5849
  1184.5000      7.9952      2.5786      0.0020      4.3300    133.8010     28.5952
  1184.6000      7.9952      2.6423      0.0864      0.4672    141.2976     28.8529
  1184.7000      7.9952      2.7080      0.1559     -3.5178    140.7315     28.3340
  1184.8000      7.9623      2.7413      0.1521     -5.5304    134.7755     27.4618
  1184.9000      7.9623      2.7336      0.1306     -5.0651    128.8407     27.7805
  1185.0000      7.9652      2.6894      0.0990     -2.3888    125.4374     29.0972
  1185.1000      7.9652      2.6180      0.0552      1.9389    126.6619     29.4490
  1185.2000      7.9652      2.5415      0.0414      6.5748    131.2456     28.4325
  1185.3000      7.9678      2.4913      0.0122      9.6197    134.7777     27.8191
  1185.4000      7.9678      2.4848      0.0267     10.0139    135.9343     28.3655
  1185.5000      7.9664      2.5075      0.0320      8.6353    136.9040     29.2074
  1185.6000      7.9664      2.5276      0.0604      7.4162    139.5263     29.9636
  1185.7000      7.9664      2.5323      0.0386      7.1351    143.4622     30.5057
  1185.8000      7.9845      2.5313      0.0633      7.1946    143.8551     30.1010
  1185.9000      7.9845      2.5265      0.0712      7.4838    139.0072     28.7626
  1186.0000      7.9910      2.5126      0.0270      8.3283    132.7872     27.4088
  1186.1000      7.9910      2.4928      0.0635      9.5252    131.8191     26.5664
  1186.2000      7.9910      2.4775      0.0190     10.4574    138.0956     26.3034
  1186.3000      7.9783      2.4787      0.0215     10.3814    143.8611     26.6817
  1186.4000      7.9783      2.5012      0.0432      9.0180    141.9345     27.6175
  1186.5000      8.0085      2.5352      0.0717      6.9562    134.4362     28.5112
  1186.6000      8.0085      2.5656      0.0736      5.1173    128.8862     28.3431
  1186.7000      8.0085      2.5843      0.1036      3.9801    129.0218     27.1740
