~Version Information
VERS.                      2.0: CWLS Log ASCII Standard - VERSION 2.0
WRAP.                       NO: One line per depth step
~Well Information Block
STRT.FT               235.0000: 
STOP.FT              1633.0000: 
STEP.FT                 0.1000: 
NULL.                -999.2500: 
COMP.          Petrogulf Corporation: COMPANY
WELL.             State 16-41R: WELL
FLD.           Purgatorie River: FIELD
LOC.           280' FNL & 907' FEL: LOCATION
PROV.                 Colorado: PROVINCE
CNTY.               Las Animas: COUNTRY
SRVC.                Patterson: SERVICE COMPANY
DATE.          Wed Oct 19 07:05:20 2005: LOG DATE
API.           05-071-08345    : API
~Curve Information Block
DEPT.FT            0 000 00 00: Depth
DCAL.in                       : CDL Caliper
RHOB.g/cc                     : CDL Bulk Density
RHOC.g/cc                     : CDL Density Correction
DPOR.pu                       : CDL Density Porosity
GR.GAPI                       : Gamma Ray
NPOR.pu                       : Neutron Porosity
~Parameter Information Block
~A  Depth       DCAL        RHOB        RHOC        DPOR         GR         NPOR    
# ...
  1156.6000      7.9025      2.5986      0.0248      3.1164     70.5653     18.3931
  1156.7000      7.9025      2.6092      0.0726      2.4714     71.4769     17.8244
  1156.8000      7.8763      2.6187      0.1046      1.8957     71.7931     17.6163
  1156.9000      7.8763      2.6199      0.0940      1.8241     72.7393     17.6510
  1157.0000      7.8533      2.6144      0.0955      2.1575     75.0487     17.6441
  1157.1000      7.8533      2.6118      0.0592      2.3138     77.5853     17.7196
  1157.2000      7.8533      2.6174      0.0801      1.9760     79.0618     17.9105
  1157.3000      7.8766      2.6159      0.0972      2.0665     81.3322     18.0174
  1157.4000      7.8766      2.5975      0.0720      3.1840     87.4498     18.0164
  1157.5000      7.9059      2.5775      0.0263      4.3948     96.5089     18.2026
  1157.6000      7.9059      2.5688      0.0638      4.9234    103.3678     18.9387
  1157.7000      7.9059      2.5618      0.0558      5.3443    106.2511     20.1142
  1157.8000      7.9049      2.5434      0.0913      6.4593    109.9829     21.3808
  1157.9000      7.9049      2.5106      0.0656      8.4489    115.6221     22.7032
  1158.0000      7.9060      2.4725      0.0220     10.7570    121.7360     24.0987
  1158.1000      7.9060      2.4372      0.0673     12.8964    130.6465     25.4708
  1158.2000      7.9060      2.3949      0.0622     15.4611    143.0505     26.8309
  1158.3000      7.8985      2.3438      0.0306     18.5573    153.7643     28.1257
  1158.4000      7.8985      2.3041      0.0455     20.9648    159.1169     29.0335
  1158.5000      7.9764      2.2776      0.0850     22.5709    160.8280     29.5090
  1158.6000      7.9764      2.2408      0.0596     24.8004    161.3797     29.9143
  1158.7000      7.9764      2.1866      0.0787     28.0853    159.6184     30.3771
  1158.8000      8.0474      2.1326      0.0502     31.3579    155.3400     30.7089
  1158.9000      8.0474      2.0945      0.0690     33.6657    151.9770     30.7902
  1159.0000      7.9714      2.0766      0.0331     34.7537    151.9285     30.8382
  1159.1000      7.9714      2.0839      0.0696     34.3075    155.2515     31.1168
  1159.2000      7.9714      2.1188      0.0605     32.1934    161.0630     31.5058
  1159.3000      7.9771      2.1712      0.0800     29.0167    168.2019     31.7520
  1159.4000      7.9771      2.2240      0.0916     25.8166    173.3801     31.8826
  1159.5000      8.0040      2.2697      0.1096     23.0480    173.4961     32.0227
  1159.6000      8.0040      2.3189      0.1287     20.0687    169.4951     32.0613
  1159.7000      8.0040      2.3840      0.1651     16.1215    164.4727     31.7664
  1159.8000      8.0172      2.4552      0.1706     11.8052    161.2304     31.0994
  1159.9000      8.0172      2.5039      0.1824      8.8538    160.7303     30.4442
  1160.0000      7.9719      2.5170      0.1118      8.0629    162.4813     30.0807
  1160.1000      7.9719      2.5093      0.0726      8.5286    165.5758     30.0057
  1160.2000      7.9719      2.4930      0.1071      9.5149    169.3952     30.0887
  1160.3000      7.9653      2.4688      0.0621     10.9826    173.9268     30.0429
  1160.4000      7.9653      2.4500      0.0190     12.1215    177.7884     29.9135
  1160.5000      7.9629      2.4535      0.0477     11.9079    180.3434     29.8948
  1160.6000      7.9629      2.4740      0.0711     10.6672    184.3516     29.9352
  1160.7000      7.9629      2.4894      0.0664      9.7309    188.5574     29.9554
  1160.8000      7.9514      2.4885      0.0264      9.7899    187.5969     29.8882
  1160.9000      7.9514      2.4830     -0.0024     10.1222    182.2977     29.7062
  1161.0000      7.9415      2.4840      0.0458     10.0592    177.4023     29.4209
  1161.1000      7.9415      2.4859      0.0495      9.9429    176.8901     29.1467
  1161.2000      7.9415      2.4843      0.0910     10.0396    181.9115     29.0568
  1161.3000      7.9315      2.4839     -0.0006     10.0644    186.1874     29.1800
  1161.4000      7.9315      2.4899      0.0682      9.7036    182.7789     29.3390
  1161.5000      7.9316      2.5004      0.0400      9.0651    175.5396     29.2038
  1161.6000      7.9316      2.5129      0.0741      8.3117    173.2778     28.7551
  1161.7000      7.9316      2.5202      0.0705      7.8663    175.7503     28.4265
  1161.8000      7.9271      2.5211      0.0358      7.8095    177.1519     28.4034
  1161.9000      7.9271      2.5265      0.0486      7.4822    176.2906     28.3401
  1162.0000      7.9290      2.5391      0.0567      6.7235    174.2724     28.1166
  1162.1000      7.9290      2.5394      0.0781      6.7060    173.5653     27.9403
  1162.2000      7.9290      2.5048      0.0676      8.7999    178.8877     27.9108
  1162.3000      7.9251      2.4505     -0.0099     12.0893    187.4604     28.0659
  1162.4000      7.9251      2.4122      0.0362     14.4141    189.2122     28.3177
  1162.5000      7.9222      2.3963      0.0378     15.3745    183.8926     28.5022
  1162.6000      7.9222      2.3975      0.0085     15.3001    179.6126     28.5885
  1162.7000      7.9222      2.4238      0.0234     13.7104    176.7334     28.5891
  1162.8000      7.9126      2.4684      0.1015     11.0064    172.6437     28.4835
  1162.9000      7.9126      2.5077      0.0920      8.6273    170.2590     28.1795
  1163.0000      7.9095      2.5349      0.1454      6.9756    170.6034     27.6403
  1163.1000      7.9095      2.5568      0.1667      5.6506    172.0462     27.1532
  1163.2000      7.9095      2.5745      0.1383      4.5770    171.2494     27.1422
  1163.3000      7.9002      2.5851      0.0930      3.9321    165.7796     27.6169
  1163.4000      7.9002      2.5834      0.1060      4.0368    160.7191     28.0394
  1163.5000      7.8834      2.5694      0.0844      4.8841    160.3113     27.9335
  1163.6000      7.8834      2.5587      0.0207      5.5358    161.6471     27.4878
  1163.7000      7.8834      2.5598      0.0502      5.4696    160.7979     26.9525
  1163.8000      7.9227      2.5610      0.0485      5.3937    156.6897     26.3047
  1163.9000      7.9227      2.5562      0.0366      5.6874    150.9450     25.8962
  1164.0000      7.9258      2.5490      0.0332      6.1208    147.7070     26.0531
  1164.1000      7.9258      2.5417      0.0159      6.5633    149.5549     26.3974
  1164.2000      7.9258      2.5344      0.0249      7.0090    154.6610     26.6307
  1164.3000      7.9145      2.5311      0.0156      7.2058    157.4763     26.9706
  1164.4000      7.9145      2.5427      0.0082      6.5029    156.1303     27.4364
  1164.5000      7.9215      2.5607      0.0862      5.4123    156.0197     27.7662
  1164.6000      7.9215      2.5637      0.0403      5.2328    159.2750     27.8986
  1164.7000      7.9215      2.5580      0.0594      5.5756    163.5039     27.9017
  1164.8000      7.9192      2.5621      0.0463      5.3301    168.1009     27.8328
  1164.9000      7.9192      2.5746      0.0593      4.5726    171.3542     27.8044
  1165.0000      7.9231      2.5801      0.0589      4.2339    170.4543     27.8235
  1165.1000      7.9231      2.5704      0.0660      4.8213    165.2915     27.6664
  1165.2000      7.9231      2.5583      0.0235      5.5570    159.0852     27.2792
  1165.3000      7.9268      2.5608      0.0325      5.4052    155.4741     26.7218
  1165.4000      7.9268      2.5728      0.0576      4.6795    155.2342     26.0172
  1165.5000      7.9341      2.5833      0.0771      4.0437    155.0904     25.4581
  1165.6000      7.9341      2.5980      0.0600      3.1537    152.5831     25.2471
  1165.7000      7.9341      2.6170      0.0967      2.0006    147.4700     25.3078
  1165.8000      7.9259      2.6220      0.0703      1.6984    141.3417     25.4839
  1165.9000      7.9259      2.6090      0.0240      2.4831    136.2838     25.4271
  1166.0000      7.9264      2.5970      0.0190      3.2126    131.1509     25.0342
  1166.1000      7.9264      2.6022     -0.0283      2.8986    123.4497     24.5682
