~Version Information
VERS.                      2.0: CWLS Log ASCII Standard - VERSION 2.0
WRAP.                       NO: One line per depth step
~Well Information Block
STRT.FT               450.0000: 
STOP.FT              2756.0000: 
STEP.FT                 0.2500: 
NULL.                -999.2500: 
COMP.          Pioneer Natural Resources: COMPANY
WELL.             Squeal 11-26: WELL
FLD.           Purgatoire River: FIELD
LOC.           1186' FNL & 152' FWL: LOCATION
PROV.                 Colorado: PROVINCE
CNTY.               Las Animas: COUNTRY
SRVC.                Patterson: SERVICE COMPANY
DATE.          Wed Jun 15 02:22:08 2005: LOG DATE
UWI.           05 071 08404 00: UNIQUE WELL ID
~Curve Information Block
DEPT.FT            0 000 00 00: Depth
SN.Ohm-m                      : IEL Short Normal
SP.mV                         : IEL Spontaneous Potential
DIR.Ohm-m                     : IEL Induction Resistivity
GR.GAPI                       : Gamma Ray
~Parameter Information Block
~A  Depth        SN          SP         DIR          GR     
# ...
  2728.0000     31.1239     29.5934     24.5387     72.4183
  2728.2500     30.1118     29.6579     24.0949     73.2694
  2728.5000     29.1081     29.6784     23.8020     74.6481
  2728.7500     28.2136     29.6692     23.5889     75.5155
  2729.0000     27.5027     29.6538     23.3989     76.9019
  2729.2500     26.9722     29.6508     23.2140     77.9698
  2729.5000     26.5424     29.6665     23.0378     79.3912
  2729.7500     26.1259     29.6922     22.8688     79.7752
  2730.0000     25.6852     29.7090     22.6957     79.2056
  2730.2500     25.2535     29.6962     22.5094     78.3329
  2730.5000     24.8952     29.6405     22.3161     77.0318
  2730.7500     24.6377     29.5391     22.1367     76.5585
  2731.0000     24.4863     29.3940     21.9953     77.0341
  2731.2500     24.4227     29.2015     21.9040     78.3151
  2731.5000     24.3582     28.9477     21.8554     81.2277
  2731.7500     24.2139     28.6148     21.8296     83.1938
  2732.0000     24.0279     28.1946     21.8146     85.2494
  2732.2500     23.9347     27.7026     21.8229     85.9005
  2732.5000     24.0274     27.1837     21.8878     86.2260
  2732.7500     24.2658     26.7004     22.0416     86.4015
  2733.0000     24.5535     26.3065     22.2953     87.0982
  2733.2500     24.8683     26.0240     22.6346     87.9013
  2733.5000     25.3095     25.8410     23.0313     89.4052
  2733.7500     25.9967     25.7279     23.4604     90.4849
  2734.0000     26.8982     25.6550     23.9086     92.0704
  2734.2500     27.8714     25.6035     24.3740     92.9634
  2734.5000     28.8989     25.5687     24.8575     93.7461
  2734.7500     30.0825     25.5560     25.3532     93.7832
  2735.0000     31.3994     25.5698     25.8441     93.0923
  2735.2500     32.6510     25.6031     26.3104     92.1945
  2735.5000     33.6860     25.6377     26.7422     90.2267
  2735.7500     34.5565     25.6546     27.1443     88.1701
  2736.0000     35.3400     25.6421     27.5226     82.1371
  2736.2500     35.9446     25.5989     27.8624     74.6253
  2736.5000     36.2471     25.5347     28.1195     57.0955
  2736.7500     36.3019     25.4707     28.2453     42.7644
  2737.0000     36.3022     25.4375     28.2342     22.6074
  2737.2500     36.3456     25.4674     28.1460     12.6944
  2737.5000     36.3455     25.5836     28.0697      4.1673
  2737.7500     36.2122     25.7884     28.0585      1.6669
  2738.0000     35.9560     26.0597     28.0995      0.3209
  2738.2500     35.6015     26.3577     28.1420      0.0878
  2738.5000     35.1615     26.6409     28.1487      0.0081
  2738.7500     34.6772     26.8816     28.1147      0.0000
  2739.0000     34.2269     27.0730     28.0463   -999.2500
  2739.2500     33.9034     27.2263     27.9367   -999.2500
  2739.5000     33.7375     27.3625     27.7654   -999.2500
  2739.7500     33.6222     27.5093     27.5108   -999.2500
  2740.0000     33.3807     27.7003     27.1558   -999.2500
  2740.2500     32.9816     27.9680     26.6856   -999.2500
  2740.5000     32.6027     28.3269     26.0922   -999.2500
  2740.7500     32.3759     28.7596     25.3872   -999.2500
  2741.0000     32.2296     29.2258     24.6085   -999.2500
  2741.2500     32.0537     29.6895     23.8069   -999.2500
  2741.5000     31.8175     30.1388     23.0198   -999.2500
  2741.7500     31.5020     30.5786     22.2565   -999.2500
  2742.0000     31.0523     31.0109     21.5084   -999.2500
  2742.2500     30.4136     31.4231     20.7725   -999.2500
  2742.5000     29.5394     31.7927     20.0614   -999.2500
  2742.7500     28.4045     32.0965     19.3948   -999.2500
  2743.0000     27.0932     32.3229     18.5364   -999.2500
  2743.2500     25.7589     32.4863     17.9968   -999.2500
  2743.5000     24.4871     32.6317     17.5005   -999.2500
  2743.7500     23.2926     32.8163     17.0337   -999.2500
  2744.0000     22.1172     33.0743     16.5877   -999.2500
  2744.2500     20.8128     33.3885     16.1637   -999.2500
  2744.5000     19.2926     33.6975     15.7705   -999.2500
  2744.7500     17.6644     33.9368     15.4149   -999.2500
  2745.0000     16.1918     34.0814     15.0984   -999.2500
  2745.2500     15.1701     34.1548     14.8286   -999.2500
  2745.5000     14.7303     34.2016     14.6410   -999.2500
  2745.7500     14.7220     34.2552     14.6226   -999.2500
  2746.0000     14.8510     34.3245     14.9236   -999.2500
  2746.2500     14.9057     34.3980     15.7637   -999.2500
  2746.5000     14.8367     34.4572     17.7111   -999.2500
  2746.7500     14.7358     34.4944     20.7324   -999.2500
  2747.0000     14.7665     34.5298     25.5740   -999.2500
  2747.2500     15.0051     34.6137     32.6779   -999.2500
  2747.5000     15.3614     34.8063     41.8308   -999.2500
  2747.7500     15.6873     35.1417     51.4909   -999.2500
  2748.0000     15.8598     35.5982     59.3148   -999.2500
  2748.2500     15.7636     36.0947     64.0843   -999.2500
  2748.5000     15.3746     36.5250     66.4113   -999.2500
  2748.7500     14.8592     36.8132     67.5798   -999.2500
  2749.0000     14.5061     36.9490     68.5981   -999.2500
  2749.2500     14.5421     36.9770     70.0739   -999.2500
  2749.5000     14.9357     36.9567   1261.5632   -999.2500
  2749.7500     15.4006     36.9337   4149.5215   -999.2500
  2750.0000     15.6737     36.9397 100000.0000   -999.2500
  2750.2500     15.7590     37.0058 100000.0000   -999.2500
  2750.5000     15.8676     37.1599 100000.0000   -999.2500
  2750.7500     16.1381     37.4043 100000.0000   -999.2500
  2751.0000     16.5142     37.6986 100000.0000   -999.2500
  2751.2500     16.9339     37.9406 100000.0000   -999.2500
  2751.5000     17.4727     37.9039 100000.0000   -999.2500
  2751.7500     18.1928     37.1106 100000.0000   -999.2500
  2752.0000     18.9887     34.7878 100000.0000   -999.2500
  2752.2500     19.5911     30.2078 100000.0000   -999.2500
  2752.5000     19.3875     23.4152 100000.0000   -999.2500
  2752.7500     17.2375     15.6555 100000.0000   -999.2500
  2753.0000     12.4075      8.7807 100000.0000   -999.2500
  2753.2500      6.1747      4.0460 100000.0000   -999.2500
  2753.5000      1.1439      1.5088 100000.0000   -999.2500
  2753.7500     -1.4428      0.4504 100000.0000   -999.2500
  2754.0000     -2.2940      0.1067 100000.0000   -999.2500
  2754.2500     -2.4736      0.0197 100000.0000   -999.2500
  2754.5000     -2.4979      0.0026 100000.0000   -999.2500
  2754.7500   -999.2500   -999.2500 100000.0000   -999.2500
  2755.0000   -999.2500   -999.2500 100000.0000   -999.2500
  2755.2500   -999.2500   -999.2500 100000.0000   -999.2500
  2755.5000   -999.2500   -999.2500 100000.0000   -999.2500
  2755.7500   -999.2500   -999.2500 100000.0000   -999.2500
  2756.0000   -999.2500   -999.2500 100000.0000   -999.2500
