~Version Information
VERS.                      2.0: CWLS Log ASCII Standard - VERSION 2.0
WRAP.                       NO: One line per depth step
~Well Information Block
STRT.FT                -7.0000: 
STOP.FT              2736.0000: 
STEP.FT                 0.2500: 
NULL.                -999.2500: 
COMP.          Pioneer Natural Resources: COMPANY
WELL.              Getem 21-23: WELL
FLD.           Purgatorie River: FIELD
LOC.           2623' FWL & 790' FNL----: LOCATION
PROV.                       CO: PROVINCE
CNTY.               Las Animas: COUNTRY
SRVC.          Patterson Wireline: SERVICE COMPANY
DATE.          Mon Jun 27 09:57:55 2005: LOG DATE
UWI.           05 071 08411 00: UNIQUE WELL ID
~Curve Information Block
DEPT.FT            0 000 00 00: Depth
CCL.                          : Casing Collar Locator
TT3.usec                      : CBL 3' Travel Time
AMP3.mV                       : CBL 3' Amplitude
GR.GAPI                       : Gamma Ray
~Parameter Information Block
~A  Depth       CCL         TT3         AMP3         GR     
# ...
   897.5000      0.0000    864.7179      6.4704    127.6481
   897.7500      0.0000    864.5281      6.4899    127.1104
   898.0000      0.0000    864.0317      6.5231    125.5944
   898.2500      0.0000    862.6125      6.5620    124.1122
   898.5000      0.0000    859.1559      6.6022    124.9260
   898.7500      0.0000    852.5533      6.6429    129.6003
   899.0000      0.0000    842.6789      6.6842    137.5922
   899.2500      0.0000    830.8151      6.7282    146.5234
   899.5000      0.0000    818.7140      6.7771    153.1911
   899.7500      0.0000    807.3521      6.8295    154.8374
   900.0000      0.0000    797.1298      6.8797    150.6919
   900.2500      0.0000    789.1564      6.9210    142.7281
   900.5000      0.0000    785.3900      6.9483    134.5037
   900.7500      0.0000    786.9314      6.9574    128.9165
   901.0000      0.0000    792.6665      6.9490    126.7240
   901.2500      0.0000    800.4477      6.9344    126.6240
   901.5000      0.0000    809.5273      6.9286    126.6215
   901.7500      0.0000    820.6874      6.9333    125.8031
   902.0000      0.0000    833.5905      6.9324    125.0531
   902.2500      0.0000    845.2250      6.9068    126.0022
   902.5000      0.0000    851.4686      6.8492    129.5076
   902.7500      0.0000    849.4911      6.7680    135.1268
   903.0000      0.0000    838.9061      6.6851    141.4412
   903.2500      0.0000    821.8126      6.6278    146.5952
   903.5000      0.0000    801.6554      6.6110    148.9539
   903.7500      0.0000    781.2841      6.6251    148.0066
   904.0000      0.0000    762.3713      6.6457    145.0939
   904.2500      0.0000    746.6197      6.6549    142.9471
   904.5000      0.0000    735.9800      6.6519    143.5332
   904.7500      0.0000    731.0245      6.6452    146.0995
   905.0000      0.0000    730.1242      6.6416    147.8889
   905.2500      0.0000    730.7758      6.6417    146.7828
   905.5000      0.0000    731.3094      6.6438    142.8159
   905.7500      0.0000    731.3023      6.6461    137.3286
   906.0000      0.0000    731.0359      6.6459    131.2496
   906.2500      0.0000    731.0303      6.6350    124.5260
   906.5000      0.0000    731.9318      6.6009    117.0646
   906.7500      0.0000    734.5107      6.5330    109.6926
   907.0000      0.0000    739.3426      6.4315    103.9110
   907.2500      0.0000    746.2186      6.3068    100.8166
   907.5000      0.0000    753.9071      6.1699    100.3418
   907.7500      0.0000    760.9153      6.0274    101.4544
   908.0000      0.0000    766.8604      5.8938    103.0279
   908.2500      0.0000    773.2135      5.8010    104.6651
   908.5000      0.0000    782.5677      5.7799    106.5894
   908.7500      0.0000    796.7087      5.8290    108.5535
   909.0000      0.0000    814.8093      5.9103    109.1712
   909.2500      0.0000    833.4078      5.9778    106.8878
   909.5000      0.0000    848.4579      6.0033    101.5880
   909.7500      0.0000    857.6034      5.9831     94.8825
   910.0000      0.0000    860.6541      5.9318     88.8894
   910.2500      0.0000    858.6310      5.8700     84.8879
   910.5000      0.0000    853.2849      5.8106     82.7862
   910.7500      0.0000    847.4036      5.7547     81.3853
   911.0000      0.0000    844.0472      5.7006     79.1579
   911.2500      0.0000    844.0469      5.6545     75.2198
   911.5000      0.0000    844.4658      5.6301     69.9153
   911.7500      0.0000    840.5612      5.6394     64.5438
   912.0000      0.0000    829.6467      5.6828     60.4163
   912.2500      0.0000    813.1371      5.7461     57.9576
   912.5000      0.0000    795.1585      5.8074     56.4056
   912.7500      0.0000    779.3787      5.8472     54.2811
   913.0000      0.0000    767.0121      5.8559     50.5333
   913.2500      0.0000    757.3067      5.8320     45.6089
   913.5000      0.0000    749.1135      5.7794     41.2931
   913.7500      0.0000    741.8190      5.7066     39.2564
   914.0000      0.0000    735.5125      5.6269     39.8236
   914.2500      0.0000    730.8383      5.5573     42.0887
   914.5000      0.0000    728.2874      5.5135     44.8312
   914.7500      0.0000    727.1506      5.5017     47.1430
   915.0000      0.0000    725.4252      5.5132     48.5849
   915.2500      0.0000    721.5181      5.5280     49.2013
   915.5000      0.0000    716.5043      5.5318     49.5308
   915.7500      0.0000    714.3817      5.5300     50.5696
   916.0000      0.0000    719.3870      5.5460     53.5101
   916.2500      0.0000    732.5895      5.6023     59.2827
   916.5000      0.0000    750.8593      5.7029     68.0981
   916.7500      0.0000    769.0331      5.8340     79.1624
   917.0000      0.0000    782.9633      5.9772     90.8185
   917.2500      0.0000    790.6533      6.1176    101.3524
   917.5000      0.0000    791.6202      6.2407    110.0675
   917.7500      0.0000    786.6902      6.3328    117.5373
   918.0000      0.0000    778.4029      6.3916    124.5631
   918.2500      0.0000    770.2313      6.4327    130.8047
   918.5000      0.0000    764.6096      6.4759    134.5503
   918.7500      0.0000    761.9533      6.5234    134.1196
   919.0000      0.0000    761.3820      6.5521    129.8422
   919.2500      0.0000    761.7033      6.5337    124.6573
   919.5000      0.0000    761.9501      6.4681    122.4028
   919.7500      0.0000    761.9036      6.3966    125.0329
   920.0000      0.0000    762.1990      6.3754    131.2734
   920.2500      0.0000    763.4687      6.4350    138.1590
   920.5000      0.0000    765.4847      6.5597    143.8815
   920.7500      0.0000    767.4248      6.6992    148.6151
   921.0000      0.0000    768.7154      6.7988    152.5850
   921.2500      0.0000    769.3367      6.8260    154.5398
   921.5000      0.0000    769.5464      6.7818    152.9073
   921.7500      0.0000    769.5682      6.6939    147.7711
   922.0000      0.0000    769.4479      6.6061    140.9463
   922.2500      0.0000    769.0055      6.5607    134.3917
   922.5000      0.0000    767.9529      6.5703    129.1894
   922.7500      0.0000    766.2888      6.6056    125.8673
   923.0000      0.0000    764.6555      6.6240    124.6805
   923.2500      0.0000    764.0256      6.6111    124.9787
   923.5000      0.0000    764.7741      6.5844    124.9975
   923.7500      0.0000    766.2040      6.5625    123.2881
   924.0000      0.0000    767.2667      6.5473    120.2855
   924.2500      0.0000    767.6794      6.5389    117.8990
   924.5000      0.0000    768.0782      6.5462    117.6614
   924.7500      0.0000    768.9463      6.5705    119.7264
   925.0000      0.0000    769.5419      6.5904    123.5652
   925.2500      0.0000    768.2466      6.5656    128.9165
   925.5000      0.0000    764.1694      6.4471    135.4442
   925.7500      0.0000    758.4429      6.2018    141.7919
   926.0000      0.0000    754.1630      5.8699    145.9025
   926.2500      0.0000    754.9623      5.5901    146.5668
   926.5000      0.0000    762.9464      5.5001    144.1838
   926.7500      0.0000    777.3118      5.6026    139.8835
   927.0000      0.0000    794.7956      5.7811    134.4823
   927.2500      0.0000    811.6304      5.9366    128.5587
   927.5000      0.0000    825.3636      6.0490    123.1089
   927.7500      0.0000    835.3323      6.1192    119.5196
   928.0000      2.0000    842.1043      6.1232    118.5751
   928.2500      2.0000    846.8940      6.0378    119.4703
   928.5000      0.0000    850.9701      5.8851    119.9885
   928.7500      0.0000    854.6027      5.7342    118.0414
   929.0000      0.0000    856.4302      5.6498    113.3385
   929.2500      0.0000    854.7670      5.6235    107.5388
   929.5000      0.0000    849.9592      5.5675    102.5784
   929.7500      0.0000    844.9238      5.4045     98.9377
   930.0000      0.0000    842.8279      5.1499     95.6038
   930.2500      0.0000    844.3276      4.8870     91.4166
   930.5000      0.0000    847.4979      4.6850     86.2750
   930.7500      0.0000    850.3658      4.5619     81.5125
