~Version Information
VERS.                      2.0: CWLS Log ASCII Standard - VERSION 2.0
WRAP.                       NO: One line per depth step
~Well Information Block
STRT.FT                15.0000: 
STOP.FT              1869.0000: 
STEP.FT                 0.2500: 
NULL.                -999.2500: 
COMP.          Pioneer Natural Resources: COMPANY
WELL.          Victory 12-14 Tr: WELL
FLD.           Purgatoire River: FIELD
LOC.           2522' FNL & 276' FWL: LOCATION
PROV.                 Colorado: PROVINCE
CNTY.               Las Animas: COUNTRY
SRVC.                Patterson: SERVICE COMPANY
DATE.          Fri Jul 22 14:39:41 2005: LOG DATE
UWI.           05 071 08433 00: UNIQUE WELL ID
~Curve Information Block
DEPT.FT            0 000 00 00: Depth
GR.GAPI                       : Gamma Ray
CCL.                          : Casing Collar Locator
TT3.usec                      : CBL 3' Travel Time
AMP3.mV                       : CBL 3' Amplitude
~Parameter Information Block
~A  Depth        GR         CCL         TT3         AMP3    
# ...
   149.0000     81.7953      0.0000    786.6889     14.4298
   149.2500     81.4035      0.0000    786.5671     14.4979
   149.5000     80.7199      0.0000    786.2329     14.5880
   149.7500     79.5444      0.0000    785.3049     14.6959
   150.0000     78.2195      0.0000    783.2666     14.8155
   150.2500     77.3415      0.0000    779.9216     14.9381
   150.5000     77.2919      0.0000    776.0522     15.0510
   150.7500     78.0558      0.0000    773.4192     15.1398
   151.0000     79.5119      0.0000    773.5267     15.1936
   151.2500     81.6140      0.0000    776.1406     15.2023
   151.5000     83.9753      0.0000    779.2121     15.1497
   151.7500     85.6470      0.0000    780.2895     15.0202
   152.0000     85.9081      0.0000    777.9966     14.8198
   152.2500     85.0898      0.0000    772.6350     14.5878
   152.5000     84.1627      0.0000    765.9060     14.3808
   152.7500     83.7592      0.0000    759.9470     14.2431
   153.0000     83.9488      0.0000    756.2469     14.1846
   153.2500     84.6089      0.0000    755.1833     14.1816
   153.5000     85.5743      0.0000    756.1627     14.1924
   153.7500     86.5562      0.0000    757.8713     14.1773
   154.0000     87.2911      0.0000    758.7610     14.1165
   154.2500     87.8429      0.0000    757.9656     14.0182
   154.5000     88.5929      0.0000    755.8620     13.9098
   154.7500     89.8179      0.0000    753.5483     13.8160
   155.0000     91.3919      0.0000    751.8644     13.7452
   155.2500     92.9613      0.0000    750.9953     13.6909
   155.5000     94.1020      0.0000    750.7073     13.6397
   155.7500     94.1394      0.0000    750.6855     13.5836
   156.0000     92.2286      0.0000    750.7201     13.5277
   156.2500     88.0774      0.0000    750.7632     13.4822
   156.5000     82.5671      0.0000    750.8851     13.4459
   156.7500     77.3704      0.0000    751.1545     13.4076
   157.0000     73.7955      0.0000    751.5483     13.3670
   157.2500     71.9813      0.0000    751.9522     13.3434
   157.5000     71.1786      0.0000    752.2353     13.3641
   157.7500     70.6925      0.0000    752.3368     13.4477
   158.0000     70.5685      0.0000    752.3015     13.5996
   158.2500     71.4614      0.0000    752.2662     13.8095
   158.5000     73.7987      0.0000    752.4664     14.0483
   158.7500     77.0176      0.0000    753.3298     14.2722
   159.0000     79.8712      0.0000    755.4769     14.4400
   159.2500     81.5753      0.0000    759.3100     14.5310
   159.5000     82.4055      0.0000    764.1794     14.5471
   159.7500     83.1642      0.0000    767.9310     14.4944
   160.0000     84.4015      0.0000    767.5009     14.3487
   160.2500     86.2090      0.0000    759.9696     14.0285
   160.5000     88.4289      0.0000    743.0137     13.4437
   160.7500     90.8710      0.0000    716.4007     12.6287
   161.0000     93.4129      0.0000    686.5549     11.8018
   161.2500     95.9299      0.0000    670.4341     11.1959
   161.5000     98.0787      0.0000    689.2604     10.8222
   161.7500     99.1915      0.0000    750.8176     10.4958
   162.0000     98.6285      0.0000    835.7181     10.0869
   162.2500     96.4342      0.0000    905.8880      9.6425
   162.5000     93.6464      0.0000    932.2191      9.2736
   162.7500     91.7750      3.0000    915.4670      9.0295
   163.0000     91.7073      0.0000    880.2189      8.8954
   163.2500     92.9727      0.0000    850.6260      8.8713
   163.5000     94.2383      0.0000    833.3661      9.0367
   163.7500     94.5570      0.0000    820.8615      9.5171
   164.0000     94.0646      0.0000    805.3383     10.3438
   164.2500     93.5737      0.0000    787.0822     11.3587
   164.5000     93.5688      0.0000    771.2579     12.3159
   164.7500     93.5721      0.0000    761.1428     13.0634
   165.0000     92.7172      0.0000    756.0747     13.5895
   165.2500     90.9953      0.0000    753.8948     13.9440
   165.5000     89.4453      0.0000    753.0403     14.1747
   165.7500     88.9098      0.0000    752.7979     14.3179
   166.0000     89.0995      0.0000    752.8484     14.4007
   166.2500     89.1218      0.0000    753.0234     14.4418
   166.5000     88.5592      0.0000    753.1371     14.4552
   166.7500     87.8454      0.0000    752.7122     14.4525
   167.0000     87.8805      0.0000    750.6354     14.4420
   167.2500     89.4021      0.0000    745.0760     14.4369
   167.5000     92.4899      0.0000    734.3506     14.4609
   167.7500     96.4605      0.0000    718.6956     14.5366
   168.0000    100.2514      0.0000    701.4128     14.6644
   168.2500    102.9573      0.0000    687.7035     14.8163
   168.5000    104.1535      0.0000    681.8636     14.9539
   168.7500    103.9477      0.0000    685.0482     15.0441
   169.0000    102.8452      0.0000    694.8286     15.0675
   169.2500    101.5168      0.0000    706.7270     15.0245
   169.5000    100.5668      0.0000    717.2152     14.9375
   169.7500    100.2922      0.0000    725.7217     14.8393
   170.0000    100.4711      0.0000    733.3484     14.7614
   170.2500    100.5203      0.0000    740.2096     14.7301
   170.5000    100.0554      0.0000    744.9445     14.7639
   170.7500     99.1928      0.0000    746.3004     14.8684
   171.0000     98.2761      0.0000    744.2527     15.0345
   171.2500     97.6506      0.0000    739.7095     15.2368
   171.5000     97.6699      0.0000    733.4582     15.4308
   171.7500     98.4599      0.0000    725.5815     15.5635
   172.0000     99.7360      0.0000    716.3043     15.6026
   172.2500    101.1783      0.0000    707.2199     15.5589
   172.5000    102.7974      0.0000    700.8041     15.4750
   172.7500    104.5824      0.0000    698.8778     15.3921
   173.0000    105.9315      0.0000    702.2783     15.3284
   173.2500    105.9555      0.0000    710.9948     15.2827
   173.5000    104.5838      0.0000    723.3074     15.2491
   173.7500    103.0311      0.0000    735.6942     15.2273
   174.0000    102.6387      0.0000    744.9226     15.2254
   174.2500    103.3503      0.0000    750.0362     15.2542
   174.5000    103.8488      0.0000    752.0645     15.3128
   174.7500    103.0875      0.0000    752.4852     15.3736
   175.0000    101.2460      0.0000    752.1915     15.3906
   175.2500     99.3289      0.0000    751.2122     15.3305
   175.5000     98.1160      0.0000    748.6341     15.1968
   175.7500     97.5526      0.0000    742.7338     15.0191
   176.0000     97.2231      0.0000    731.8745     14.8256
   176.2500     97.1636      0.0000    716.2516     14.6325
   176.5000     97.7474      0.0000    698.9869     14.4557
   176.7500     98.9380      0.0000    684.8964     14.3171
   177.0000    100.2451      0.0000    677.5416     14.2349
   177.2500    101.3175      0.0000    677.0573     14.2139
   177.5000    102.0859      0.0000    680.4216     14.2426
   177.7500    102.4765      0.0000    684.0643     14.2937
   178.0000    102.4584      0.0000    686.9911     14.3322
   178.2500    102.3380      0.0000    691.2008     14.3385
   178.5000    102.5475      0.0000    698.5432     14.3203
   178.7500    103.0025      0.0000    708.0743     14.2999
   179.0000    102.9800      0.0000    717.5074     14.2932
   179.2500    101.7657      0.0000    726.0964     14.3095
   179.5000     99.1657      0.0000    734.5154     14.3604
   179.7500     95.3724      0.0000    742.7946     14.4546
   180.0000     90.7582      0.0000    750.1086     14.5850
   180.2500     85.9780      0.0000    756.3158     14.7300
   180.5000     81.9256      0.0000    762.3929     14.8686
   180.7500     79.3088      0.0000    769.1764     14.9901
   181.0000     78.2829      0.0000    776.2445     15.0925
   181.2500     78.4134      0.0000    782.2918     15.1779
   181.5000     78.9346      0.0000    786.3442     15.2529
   181.7500     79.2013      0.0000    788.4054     15.3306
   182.0000     79.0021      0.0000    789.1287     15.4312
   182.2500     78.4204      0.0000    789.1932     15.5736
