~Version Information
VERS.                      2.0: CWLS Log ASCII Standard - VERSION 2.0
WRAP.                       NO: One line per depth step
~Well Information Block
STRT.FT                -4.2500: 
STOP.FT              2018.7500: 
STEP.FT                 0.2500: 
NULL.                -999.2500: 
COMP.          Petrogulf Corporation: COMPANY
WELL.             State 16-21R: WELL
FLD.           Purgatoire River: FIELD
LOC.           203' FNL & 1560' FWL----: LOCATION
PROV.                 Colorado: PROVINCE
CNTY.               Las Animas: COUNTRY
SRVC.                         : SERVICE COMPANY
DATE.          Thu Sep 29 11:32:19 2005: LOG DATE
API.           05-071-08313 : API Number
~Curve Information Block
DEPT.FT            0 000 00 00: Depth
GR.GAPI                       : Gamma Ray
CCL.                          : Casing Collar Locator
AMP3.mV                       : CBL 3' Amplitude
AMP5.mV                       : CBL 5' Amplitude
~Parameter Information Block
~A  Depth        GR         CCL         AMP3        AMP5    
# ...
  1972.2500    128.0824      0.0000      2.3833      0.1086
  1972.5000    129.1775      0.0000      2.3271      0.1174
  1972.7500    131.8926      0.0000      2.2872      0.1258
  1973.0000    135.8250      0.0000      2.2567      0.1288
  1973.2500    139.8869      0.0000      2.2227      0.1240
  1973.5000    143.2245      0.0000      2.1754      0.1166
  1973.7500    145.3279      0.0000      2.1116      0.1160
  1974.0000    145.7222      0.0000      2.0414      0.1273
  1974.2500    144.3522      0.0000      1.9937      0.1457
  1974.5000    142.1847      0.0000      2.0051      0.1585
  1974.7500    140.6494      0.0000      2.0991      0.1554
  1975.0000    140.1561      0.0000      2.2730      0.1370
  1975.2500    139.5195      0.0000      2.5045      0.1130
  1975.5000    137.2536      0.0000      2.7706      0.0926
  1975.7500    133.1852      0.0000      3.0543      0.0796
  1976.0000    128.3885      0.0000      3.3287      0.0737
  1976.2500    123.8177      0.0000      3.5532      0.0735
  1976.5000    119.5718      0.0000      3.7071      0.0783
  1976.7500    115.3357      0.0000      3.8120      0.0902
  1977.0000    110.9660      0.0000      3.8996      0.1112
  1977.2500    106.5770      0.0000      3.9738      0.1373
  1977.5000    102.4949      0.0000      4.0185      0.1590
  1977.7500     99.3147     -1.2012      4.0239      0.1688
  1978.0000     97.6934      0.0000      3.9888      0.1670
  1978.2500     97.7945      0.0000      3.9084      0.1596
  1978.5000     99.0430      0.0000      3.7711      0.1526
  1978.7500    100.6899      0.0000      3.5608      0.1499
  1979.0000    102.5371      0.0000      3.2751      0.1518
  1979.2500    104.7525      0.0000      2.9567      0.1566
  1979.5000    107.0611      0.0000      2.6879      0.1619
  1979.7500    108.6523      0.0000      2.5313      0.1654
  1980.0000    108.9948      0.0000      2.4901      0.1664
  1980.2500    108.3149      0.0000      2.5349      0.1666
  1980.5000    107.0800      0.0000      2.6432      0.1692
  1980.7500    105.1544      0.0000      2.7998      0.1740
  1981.0000    101.6908      0.0000      2.9831      0.1771
  1981.2500     96.0363      0.0000      3.1678      0.1782
  1981.5000     88.7397      0.0000      3.3357      0.1849
  1981.7500     81.3818      0.0000      3.4783      0.2052
  1982.0000     75.2421      0.0000      3.5974      0.2365
  1982.2500     70.2572      0.0000      3.7053      0.2675
  1982.5000     65.4324      0.0000      3.8138      0.2892
  1982.7500     60.2123      0.0000      3.9176      0.3009
  1983.0000     55.2608      0.0000      3.9949      0.3072
  1983.2500     51.8916      0.0000      4.0294      0.3129
  1983.5000     50.8931      0.0000      4.0270      0.3214
  1983.7500     51.9229      0.0000      4.0110      0.3332
  1984.0000     53.8956      0.0000      4.0070      0.3469
  1984.2500     55.8129      0.0000      4.0302      0.3608
  1984.5000     57.2045      0.0000      4.0825      0.3747
  1984.7500     58.1029      0.0000      4.1564      0.3898
  1985.0000     59.0800      0.0000      4.2457      0.4085
  1985.2500     61.1856      0.0000      4.3505      0.4321
  1985.5000     65.0059      0.0000      4.4738      0.4577
  1985.7500     69.4143      0.0000      4.6176      0.4788
  1986.0000     71.9604      0.0000      4.7830      0.4907
  1986.2500     71.1316      0.0000      4.9672      0.4931
  1986.5000     68.0731      0.0000      5.1531      0.4870
  1986.7500     65.7349      0.0000      5.3077      0.4709
  1987.0000     66.3197      0.0000      5.3948      0.4444
  1987.2500     69.6409      0.0000      5.3938      0.4116
  1987.5000     73.7151      0.0000      5.3095      0.3795
  1987.7500     76.5131      0.0000      5.1714      0.3516
  1988.0000     77.0551      0.0000      5.0187      0.3276
  1988.2500     75.2251      0.0000      4.8789      0.3070
  1988.5000     71.0861      0.0000      4.7554      0.2914
  1988.7500     64.8095      0.0000      4.6379      0.2821
  1989.0000     57.3959      0.0000      4.5217      0.2774
  1989.2500     51.1296      0.0000      4.4147      0.2734
  1989.5000     48.6058      0.0000      4.3292      0.2696
  1989.7500     50.7634      0.0000      4.2737      0.2714
  1990.0000     55.7873      0.0000      4.2515      0.2872
  1990.2500     60.1848      0.0000      4.2588      0.3192
  1990.5000     61.2572      0.0000      4.2838      0.3588
  1990.7500     58.7665      0.0000      4.3071      0.3893
  1991.0000     54.5369      0.0000      4.3063      0.3962
  1991.2500     50.8864      0.0000      4.2632      0.3776
  1991.5000     49.5229      0.0000      4.1729      0.3447
  1991.7500     51.3309      0.0000      4.0494      0.3124
  1992.0000     56.2660      0.0000      3.9217      0.2886
  1992.2500     62.9958      0.0000      3.8182      0.2728
  1992.5000     69.1224      0.0000      3.7506      0.2617
  1992.7500     72.5265      0.0000      3.7082      0.2540
  1993.0000     72.6831      0.0000      3.6693      0.2494
  1993.2500     70.5066      0.0000      3.6191      0.2472
  1993.5000     67.0576      0.0000      3.5550      0.2484
  1993.7500     62.7824      0.0000      3.4811      0.2559
  1994.0000     57.9377      0.0000      3.4043      0.2721
  1994.2500     53.2006      0.0000      3.3395      0.2962
  1994.5000     49.5158      0.0000      3.3096      0.3232
  1994.7500     47.4993      0.0000      3.3344      0.3460
  1995.0000     47.1876      0.0000      3.4183      0.3595
  1995.2500     48.1732      0.0000      3.5468      0.3628
  1995.5000     49.7062      0.0000      3.6920      0.3577
  1995.7500     50.7622      0.0000      3.8257      0.3457
  1996.0000     50.5060      0.0000      3.9318      0.3276
  1996.2500     49.0779      0.0000      4.0069      0.3062
  1996.5000     47.8067      0.0000      4.0523      0.2862
  1996.7500     48.2134      0.0000      4.0711      0.2714
  1997.0000     50.5730      0.0000      4.0719      0.2642
  1997.2500     53.6645      0.0000      4.0657      0.2656
  1997.5000     56.2503      0.0000      4.0529      0.2749
  1997.7500     58.8362      0.0000      4.0226      0.2906
  1998.0000     63.7540      0.0000      3.9673      0.3108
  1998.2500     73.2525      0.0000      3.8964      0.3326
  1998.5000     87.2943      0.0000      3.8327      0.3501
  1998.7500    103.1488      0.0000      3.7992      0.3561
  1999.0000    117.2505      0.0000      3.8064      0.3491
  1999.2500    127.6510      0.0000      3.8488      0.3377
  1999.5000    134.9081      0.0000      3.9107      0.3369
  1999.7500    140.8921      0.0000      3.9801      0.3567
  2000.0000    146.7571      0.0000      4.0542      0.3927
  2000.2500    151.7805      0.0000      4.1330      0.4290
  2000.5000    154.0521      0.0000      4.2137      0.4527
  2000.7500    152.4180      0.0000      4.2956      0.4650
  2001.0000    147.7452      0.0000      4.3844      0.4760
  2001.2500    142.2778      0.0000      4.4878      0.4916
  2001.5000    137.9530      0.0000      4.6123      0.5085
  2001.7500    135.3496      0.0000      4.7640      0.5200
  2002.0000    133.9039      0.0000      4.9413      0.5226
  2002.2500    132.8607      0.0000      5.1247      0.5194
  2002.5000    131.9695      0.0000      5.2761      0.5184
  2002.7500    131.3839      0.0000      5.3534      0.5261
  2003.0000    131.1396      0.0000      5.3327      0.5423
  2003.2500    130.9764      0.0000      5.2253      0.5581
  2003.5000    130.6219      0.0000      5.0753      0.5621
  2003.7500    130.0133      0.0000      4.9315      0.5483
  2004.0000    129.1814      0.0000      4.8166      0.5220
  2004.2500    128.1992      0.0000      4.7195      0.4943
  2004.5000    127.4058      0.0000      4.6129      0.4713
  2004.7500    127.4043      0.0000      4.4734      0.4529
  2005.0000    128.5419      0.0000      4.2916      0.4399
  2005.2500    130.5659      0.0000      4.0660      0.4368
  2005.5000    132.9665      0.0000      3.7860      0.4447
