~Version Information
VERS.                      2.0: CWLS Log ASCII Standard - VERSION 2.0
WRAP.                       NO: One line per depth step
~Well Information Block
STRT.FT               238.0000: 
STOP.FT              1377.0000: 
STEP.FT                 0.1000: 
NULL.                -999.2500: 
COMP.          Pioneer Natural Resources: COMPANY
WELL.             Raptor 44-26: WELL
FLD.           Purgatoire River: FIELD
LOC.           180' FSL & 812' FEL: LOCATION
PROV.                 Colorado: PROVINCE
CNTY.               Las Animas: COUNTRY
SRVC.                Patterson: SERVICE COMPANY
DATE.          Tue Mar 22 15:28:33 2005: LOG DATE
UWI.           05 071 08187 00: UNIQUE WELL ID
~Curve Information Block
DEPT.FT            0 000 00 00: Depth
DCAL.in                       : CDL Caliper
RHOB.g/cc                     : CDL Bulk Density
RHOC.g/cc                     : CDL Density Correction
DPOR.pu                       : CDL Density Porosity
GR.GAPI                       : Gamma Ray
NPOR.pu                       : Neutron Porosity
~Parameter Information Block
~A  Depth       DCAL        RHOB        RHOC        DPOR         GR         NPOR    
   238.0000      8.1386      2.2812     -0.4256     22.3499    120.5558     21.9408
   238.1000      8.1386      2.2885     -0.3374     21.9062    118.7553     22.2946
   238.2000      8.1386      2.2689     -0.4655     23.0959    119.9740     22.2232
   238.3000      8.1385      2.2520     -0.4592     24.1199    121.9252     21.3295
   238.4000      8.1385      2.2486     -0.4552     24.3300    119.6307     20.2522
   238.5000      8.1437      2.2425     -0.4442     24.6947    114.9655     19.8303
   238.6000      8.1437      2.2331     -0.5176     25.2691    114.3600     20.2797
   238.7000      8.1437      2.2260     -0.3969     25.6990    115.5248     20.9365
   238.8000      8.1424      2.2257     -0.5145     25.7169    114.2959     21.1936
   238.9000      8.1424      2.2454     -0.4984     24.5200    114.5990     21.0981
   239.0000      8.1438      2.2825     -0.4637     22.2698    118.3251     20.9144
   239.1000      8.1438      2.3078     -0.3573     20.7406    123.2260     20.9626
   239.2000      8.1438      2.2908     -0.4056     21.7720    126.9479     21.1124
   239.3000      8.1431      2.2445     -0.5369     24.5783    126.4237     20.8455
   239.4000      8.1431      2.2181     -0.5441     26.1782    122.5162     20.2627
   239.5000      8.1434      2.2206     -0.3634     26.0242    117.7848     19.9645
   239.6000      8.1434      2.2299     -0.4299     25.4608    113.1508     20.0577
   239.7000      8.1434      2.2413     -0.4013     24.7681    108.9182     20.1937
   239.8000      8.1499      2.2465     -0.4178     24.4565    105.9394     20.3821
   239.9000      8.1499      2.2320     -0.4314     25.3309    105.4666     20.8943
   240.0000      8.1467      2.2166     -0.5153     26.2645    105.9379     21.4695
   240.1000      8.1467      2.2303     -0.5268     25.4338    106.0915     21.4744
   240.2000      8.1467      2.2527     -0.3538     24.0791    106.9957     20.7593
   240.3000      8.1432      2.2444     -0.4610     24.5837    107.3335     19.7387
   240.4000      8.1432      2.2173     -0.4963     26.2267    102.3465     19.0798
   240.5000      8.1424      2.1954     -0.3976     27.5531     93.0733     19.2469
   240.6000      8.1424      2.1787     -0.4963     28.5665     87.4540     19.8740
   240.7000      8.1424      2.1685     -0.4952     29.1843     88.6442     20.2263
   240.8000      8.1460      2.1684     -0.4823     29.1859     91.6446     20.1774
   240.9000      8.1460      2.1764     -0.4669     28.7020     92.7619     19.9830
   241.0000      8.1453      2.1835     -0.4768     28.2731     94.7793     19.7866
   241.1000      8.1453      2.1856     -0.4485     28.1432    100.0557     20.0019
   241.2000      8.1453      2.1904     -0.4196     27.8572    104.9390     20.4065
   241.3000      8.1429      2.2035     -0.4707     27.0634    104.3341     20.1671
   241.4000      8.1429      2.2163     -0.3814     26.2870     98.1425     19.5999
   241.5000      8.1403      2.2186     -0.4618     26.1444     91.4676     19.4605
   241.6000      8.1403      2.2103     -0.4250     26.6497     87.6125     19.3035
   241.7000      8.1403      2.1930     -0.4505     27.6995     87.9722     18.7323
   241.8000      8.1439      2.1819     -0.4720     28.3674     93.9932     18.0992
   241.9000      8.1439      2.1804     -0.3927     28.4614    102.4356     17.7199
   242.0000      8.1422      2.1670     -0.4797     29.2741    108.2018     17.8080
   242.1000      8.1422      2.1443     -0.5224     30.6472    108.9393     18.4210
   242.2000      8.1422      2.1383     -0.5225     31.0127    108.3235     18.8899
   242.3000      8.1431      2.1575     -0.4604     29.8470    110.1942     18.5670
   242.4000      8.1431      2.1893     -0.4631     27.9191    110.2637     18.1814
   242.5000      8.1443      2.2179     -0.4307     26.1900    103.9301     18.5733
   242.6000      8.1443      2.2376     -0.4171     24.9945     94.9326     19.2985
   242.7000      8.1443      2.2630     -0.4584     23.4529     91.2783     19.7266
   242.8000      8.1425      2.3035     -0.4166     20.9981     94.7660     19.7952
   242.9000      8.1425      2.3410     -0.3380     18.7293     99.1750     19.6053
   243.0000      8.1451      2.3574     -0.3625     17.7333    100.0398     19.5381
   243.1000      8.1451      2.3395     -0.3255     18.8176     97.1757     19.8951
   243.2000      8.1451      2.2840     -0.5395     22.1817     92.6446     20.3380
   243.3000      8.1451      2.2205     -0.5327     26.0292     90.1973     20.2360
   243.4000      8.1451      2.1782     -0.5874     28.5950     90.8611     19.4441
   243.5000      8.1389      2.1609     -0.5192     29.6398     93.8896     18.4867
   243.6000      8.1389      2.1589     -0.4978     29.7661     99.3581     18.0036
   243.7000      8.1389      2.1616     -0.4952     29.5972    104.9972     17.7017
   243.8000      8.1370      2.1644     -0.5359     29.4323    106.6289     17.0912
   243.9000      8.1370      2.1673     -0.5852     29.2521    103.7236     16.5999
   244.0000      8.1355      2.1656     -0.4790     29.3559     99.1109     16.8643
   244.1000      8.1355      2.1465     -0.4822     30.5145     94.3415     17.7118
   244.2000      8.1355      2.1171     -0.4955     32.2956     90.0280     18.3383
   244.3000      8.1323      2.1060     -0.5010     32.9691     89.6968     18.8506
   244.4000      8.1323      2.1172     -0.4919     32.2901     94.4151     19.5925
   244.5000      8.1314      2.1223     -0.4551     31.9797    101.7689     19.8547
   244.6000      8.1314      2.1086     -0.4892     32.8140    111.2625     19.5086
   244.7000      8.1314      2.0901     -0.4553     33.9360    118.6799     19.3227
   244.8000      8.1370      2.0825     -0.5133     34.3958    120.6968     19.4086
   244.9000      8.1370      2.1003     -0.4840     33.3132    121.7134     19.4746
   245.0000      8.1314      2.1463     -0.5039     30.5296    122.8437     19.5862
   245.1000      8.1314      2.1969     -0.3764     27.4622    120.3140     20.0248
   245.2000      8.1314      2.2229     -0.4426     25.8847    115.5200     20.9316
   245.3000      8.1324      2.2184     -0.3199     26.1547    113.9840     22.1200
   245.4000      8.1324      2.1968     -0.4519     27.4666    119.4748     23.0441
   245.5000      8.1356      2.1685     -0.4604     29.1847    129.5095     22.9978
   245.6000      8.1356      2.1229     -0.4288     31.9459    134.6259     22.0431
   245.7000      8.1356      2.0594     -0.4717     35.7946    131.9252     21.5041
   245.8000      8.1340      2.0114     -0.5045     38.7004    128.9157     22.2181
   245.9000      8.1340      1.9945     -0.4748     39.7288    128.7442     23.5014
   246.0000      8.1357      1.9822     -0.4868     40.4724    130.1845     24.3485
   246.1000      8.1357      1.9553     -0.4763     42.1052    131.7832     24.0802
   246.2000      8.1357      1.9320     -0.5579     43.5159    129.2236     23.0064
   246.3000      8.1333      1.9454     -0.5917     42.7048    122.3038     22.5287
   246.4000      8.1333      1.9891     -0.4242     40.0556    118.4765     23.1811
   246.5000      8.1340      2.0205     -0.4610     38.1521    122.4414     24.0927
   246.6000      8.1340      2.0269     -0.4796     37.7624    131.3599     24.1984
   246.7000      8.1340      2.0273     -0.4462     37.7399    136.9978     23.7668
   246.8000      8.1352      2.0274     -0.4605     37.7353    135.1841     23.6138
   246.9000      8.1352      2.0179     -0.4768     38.3069    132.0436     23.6351
   247.0000      8.1365      2.0072     -0.4846     38.9586    131.9643     23.7205
   247.1000      8.1365      2.0093     -0.4097     38.8327    132.4685     23.8075
   247.2000      8.1365      2.0070     -0.4185     38.9695    129.7070     23.5375
   247.3000      8.1351      1.9851     -0.4513     40.2952    125.7651     23.4476
   247.4000      8.1351      1.9690     -0.5226     41.2749    126.3068     23.9976
   247.5000      8.1370      1.9830     -0.4503     40.4263    128.2363     24.5233
