~Version Information
 VERS.                                  2.0 : CWLS LAS VERSION
 WRAP.                                   NO : WRAPING MODE
 SWARE .                 MController 2.5.0E : SOFTWARE VERSION
~Well Information
 WELL.                    Dude canyon 22-32 : WELL
 COMP.    Pioneer Natural Resources USA Inc : COMPANY
 FLD.                      Purgatoire River : FIELD
 LOC.                SE/NW Sec 32 T32S R67W : LOCATION
 DATE.                         3/06-07/2005 : DATE(S) LOGGED
 SRVC.       Blanco Geological Services LLC : SERVICE COMPANY
 STAT.                                   CO : STATE
 CNTY.                           Las Animas : COUNTY
 CTRY.                                  USA : COUNTRY
 API.                       05-071-08257-00 : API NUMBER
 STRT.FT                             494.00 : START DEPTH
 STOP.FT                            2760.00 : STOP DEPTH
 STEP.FT                               1.00 : DEPTH INCREMENT
 NULL.                                -9999 : NULL VALUE
~Curve information
 DEPTH.FT                                   :
 ROP.MIN/FT                                 :
 GAS.UNITS                                  :
~ASCII Log data
# ...
     2094.00        0.367          8.0 
     2095.00        0.300          5.7 
     2096.00        0.283         13.3 
     2097.00        0.333         20.2 
     2098.00        0.433         21.6 
     2099.00        0.400         18.6 
     2100.00        0.367         18.9 
     2101.00       21.100        223.0 
     2102.00        0.233         15.5 
     2103.00        0.233         40.2 
     2104.00        0.250         56.1 
     2105.00        0.167         57.8 
     2106.00        0.267         55.8 
     2107.00        0.367         47.5 
     2108.00        0.333         48.9 
     2109.00        0.300         47.6 
     2110.00        0.367         37.0 
     2111.00        0.167         19.3 
     2112.00        0.167         15.0 
     2113.00        0.267         20.6 
     2114.00        0.200         20.8 
     2115.00        0.067         23.6 
     2116.00        0.400         30.0 
     2117.00        0.450         28.6 
     2118.00        0.267          9.3 
     2119.00        0.200          4.1 
     2120.00        0.233          3.0 
     2121.00        0.233          2.8 
     2122.00        0.200          2.7 
     2123.00        0.233          2.7 
     2124.00        0.333          3.1 
     2125.00        0.333          3.2 
     2126.00        0.333          3.7 
     2127.00        0.300          3.0 
     2128.00        0.267          2.9 
     2129.00        0.317          3.2 
     2130.00        0.267          6.0 
     2131.00       25.150        405.3 
     2132.00        0.233        177.7 
     2133.00        0.233        169.1 
     2134.00        0.267        159.3 
     2135.00        0.267        154.4 
     2136.00        0.233        162.2 
     2137.00        0.250        171.6 
     2138.00        0.200        176.1 
     2139.00        0.267        176.7 
     2140.00        2.200        174.6 
     2141.00        0.483         61.4 
     2142.00        0.367         50.0 
     2143.00        0.333         39.6 
     2144.00        0.267         42.3 
     2145.00        0.300         54.1 
     2146.00        0.300         66.2 
     2147.00        0.333         74.3 
     2148.00        0.300         80.1 
     2149.00        0.233         86.5 
     2150.00        0.267         94.7 
     2151.00        0.300        101.9 
     2152.00        0.283        103.1 
     2153.00        0.267        100.8 
     2154.00        0.300         88.3 
     2155.00        0.300         72.0 
     2156.00        0.333         63.4 
     2157.00        0.400         58.8 
     2158.00        0.300         45.7 
     2159.00        0.300         30.3 
     2160.00        0.367         14.8 
     2161.00       11.967        268.5 
     2162.00        0.500        218.9 
     2163.00        0.533         91.9 
     2164.00        0.267         77.7 
     2165.00        0.367        101.4 
     2166.00        0.233        117.6 
     2167.00        0.283        131.5 
     2168.00        0.233        137.2 
     2169.00        0.267        139.0 
     2170.00        0.233        139.0 
     2171.00        0.233        138.7 
     2172.00        0.233        139.2 
     2173.00        0.200        140.9 
     2174.00        0.233        143.2 
     2175.00        0.267        144.5 
     2176.00        0.200        144.5 
     2177.00        0.267        144.0 
     2178.00        0.267        143.3 
     2179.00        0.233        135.4 
     2180.00        0.233        124.1 
     2181.00        0.250        109.1 
     2182.00        0.267         93.1 
     2183.00        0.267         75.6 
     2184.00        0.900         58.3 
     2185.00        0.233         33.8 
     2186.00        0.300         32.8 
     2187.00        0.300         27.2 
     2188.00        0.333         26.3 
     2189.00        0.300         30.8 
     2190.00        0.333         32.5 
     2191.00       14.083        322.0 
     2192.00        0.800        128.4 
     2193.00        0.300        140.7 
     2194.00        0.333        158.7 
     2195.00        0.300        172.1 
     2196.00        0.333        174.0 
     2197.00        0.650        170.8 
     2198.00        0.500        118.9 
     2199.00        0.800         80.7 
     2200.00        0.400         45.7 
     2201.00        0.333         30.7 
     2202.00        0.667         34.0 
     2203.00        0.483         34.2 
     2204.00        0.333         35.9 
     2205.00        0.333         38.6 
     2206.00        0.333         41.3 
     2207.00        0.367         44.2 
     2208.00        0.333         46.3 
     2209.00        0.333         50.1 
     2210.00        0.400         55.3 
     2211.00        0.433         55.6 
     2212.00        0.367         49.5 
     2213.00        0.383         45.0 
     2214.00        0.433         42.3 
     2215.00        0.433         47.0 
     2216.00        0.400         48.2 
     2217.00        0.433         47.4 
     2218.00        0.400         44.0 
     2219.00        0.400         41.8 
     2220.00        0.400         38.6 
     2221.00       15.117        223.1 
     2222.00        0.367         94.8 
     2223.00        0.400        101.5 
     2224.00        0.667        123.6 
     2225.00        0.167        120.7 
     2226.00        0.283        118.3 
     2227.00        0.333        102.5 
     2228.00        0.367         79.5 
     2229.00        0.400         61.6 
     2230.00        0.100         56.5 
     2231.00        0.200         57.6 
     2232.00        0.433         65.0 
     2233.00        0.433         78.5 
     2234.00        0.400         78.6 
     2235.00        0.267         59.6 
     2236.00        0.233         48.1 
     2237.00        0.283         48.1 
     2238.00        0.333         44.7 
     2239.00        0.300         34.9 
     2240.00        0.267         27.7 
     2241.00        0.200         24.6 
     2242.00        0.233         26.0 
     2243.00        0.300         28.9 
     2244.00        0.333         34.4 
     2245.00        0.400         37.8 
     2246.00        0.367         39.0 
     2247.00        0.333         44.1 
     2248.00        0.383         49.8 
     2249.00        0.367         49.2 
     2250.00        0.367         42.7 
     2251.00       12.900        215.7 
     2252.00        0.300        103.5 
     2253.00        0.300        103.6 
     2254.00        0.300         99.6 
     2255.00        0.300         90.2 
     2256.00        0.267         81.2 
     2257.00        0.300         80.0 
     2258.00        0.267         78.6 
     2259.00        0.367         77.5 
     2260.00        0.200         79.3 
     2261.00        0.283         83.6 
     2262.00        0.267         91.9 
     2263.00        0.767         92.1 
     2264.00        0.300         58.1 
     2265.00        0.267         49.4 
     2266.00        0.267         42.8 
     2267.00        0.333         39.1 
     2268.00        0.267         30.2 
     2269.00        0.300         15.6 
     2270.00        0.167          7.6 
     2271.00        0.167          7.0 
     2272.00        0.283         12.1 
     2273.00        0.400         25.9 
     2274.00        0.433         47.9 
     2275.00        0.400         64.5 
     2276.00        0.267         64.8 
     2277.00        0.333         58.2 
     2278.00        0.267         46.7 
     2279.00        0.333         66.2 
     2280.00        0.400         89.5 
     2281.00       14.250        215.7 
     2282.00        0.267         77.0 
     2283.00        0.367         79.4 
     2284.00        0.433         79.1 
     2285.00        0.333         71.1 
     2286.00        0.267         64.6 
     2287.00        0.233         63.9 
     2288.00        0.233         63.6 
     2289.00        0.267         62.9 
     2290.00        0.283         65.3 
     2291.00        0.267         67.1 
     2292.00        0.300         67.9 
     2293.00        0.300         67.9 
