~Version Information
 VERS.                                  2.0 : CWLS LAS VERSION
 WRAP.                                   NO : WRAPING MODE
 SWARE .                 MController 2.5.0J : SOFTWARE VERSION
~Well Information
 WELL.                      McDaniel 09-34V : WELL
 COMP.                Petrogulf Corporation : COMPANY
 FLD.                      Purgatoire River : FIELD
 LOC.                SW/SE Sec 09 T33S R67W : LOCATION
 DATE.                             09/27/05 : DATE(S) LOGGED
 SRVC.       BLANCO Geological Services LLC : SERVICE COMPANY
 STAT.                                   CO : STATE
 CNTY.                           Las Animas : COUNTY
 CTRY.                                  USA : COUNTRY
 API.                       05-071-08333-00 : API NUMBER
 STRT.FT                               0.00 : START DEPTH
 STOP.FT                             2433.0 : STOP DEPTH 775.00
 STEP.FT                               1.00 : DEPTH INCREMENT
 NULL.                                -9999 : NULL VALUE
~Curve information
 DEPTH.FT                                   :
 ROP.MIN/FT                                 :
 GAS.UNITS                                  :
~ASCII Log data
# ...
      1200.0         0.20        866.0 
      1201.0         0.13        820.3 
      1202.0         0.20        789.2 
      1203.0         0.20        768.2 
      1204.0         0.10        755.5 
      1205.0         0.13        747.6 
      1206.0         0.25        730.8 
      1207.0         0.30        720.3 
      1208.0         0.30        697.1 
      1209.0         0.30        660.9 
      1210.0         0.27        642.5 
      1211.0         0.20        620.3 
      1212.0         0.17        605.4 
      1213.0         0.13        610.5 
      1214.0         0.23        622.5 
      1215.0         0.23        626.3 
      1216.0         0.20        626.7 
      1217.0         0.20        625.7 
      1218.0         0.20        621.0 
      1219.0         0.18        615.9 
      1220.0         0.17        653.3 
      1221.0         0.17        653.6 
      1222.0         0.23        613.7 
      1223.0         0.17        534.0 
      1224.0         0.10        547.3 
      1225.0         0.13        572.7 
      1226.0         0.17        610.5 
      1227.0         0.17        697.4 
      1228.0         3.82       6045.7 
      1229.0         0.33        766.3 
      1230.0         0.20        684.7 
      1231.0         0.23        746.3 
      1232.0         0.20        763.5 
      1233.0         0.22        763.5 
      1234.0         0.17        751.7 
      1235.0         0.30        739.7 
      1236.0         0.27        759.0 
      1237.0         0.23        768.2 
      1238.0         0.27        775.2 
      1239.0         0.27        796.8 
      1240.0         0.20        802.8 
      1241.0         0.13        796.5 
      1242.0         0.13        784.1 
      1243.0         0.10        767.9 
      1244.0         0.20        757.4 
      1245.0         0.23        750.4 
      1246.0         0.23        752.0 
      1247.0         0.20        747.6 
      1248.0         0.17        742.2 
      1249.0         0.18        731.4 
      1250.0         0.27        727.3 
      1251.0         0.23        716.2 
      1252.0         0.23        708.6 
      1253.0         0.27        700.3 
      1254.0         0.20        703.2 
      1255.0         0.20        659.4 
      1256.0         0.23        587.6 
      1257.0         0.20        606.0 
      1258.0         0.17        654.9 
      1259.0         0.20        747.9 
      1260.0         2.12       1796.9 
      1261.0         0.50       1078.9 
      1262.0         0.53        740.0 
      1263.0         0.30        734.6 
      1264.0         0.30        709.2 
      1265.0         0.33        666.7 
      1266.0         0.25        655.9 
      1267.0         0.23        665.1 
      1268.0         0.30        671.1 
      1269.0         0.23        672.7 
      1270.0         0.27        672.7 
      1271.0         0.30        672.7 
      1272.0         0.37        681.9 
      1273.0         0.43        682.5 
      1274.0         0.33        667.3 
      1275.0         0.27        657.5 
      1276.0         0.23        649.8 
      1277.0         0.28        640.3 
      1278.0         0.27        630.8 
      1279.0         0.23        614.3 
      1280.0         0.27        577.5 
      1281.0         0.27        534.3 
      1282.0         0.27        495.0 
      1283.0         0.27        490.8 
      1284.0         0.27        508.9 
      1285.0         0.23        516.5 
      1286.0         0.27        495.3 
      1287.0         0.27        440.0 
      1288.0         0.27         91.9 
      1289.0         0.23        175.7 
      1290.0         2.48       1455.7 
      1291.0         0.47        896.8 
      1292.0         0.40        765.7 
      1293.0         0.45        672.1 
      1294.0         0.40        613.0 
      1295.0         0.33        559.1 
      1296.0         0.37        596.5 
      1297.0         0.30        630.5 
      1298.0         0.40        627.6 
      1299.0         0.43        567.0 
      1300.0         0.37        577.8 
      1301.0         0.32        617.8 
      1302.0         0.33        622.9 
      1303.0         0.10        616.2 
      1304.0         0.13        616.8 
      1305.0         0.23        616.8 
      1306.0         0.23        634.9 
      1307.0         0.27        650.5 
      1308.0         0.30        657.1 
      1309.0         0.23        657.8 
      1310.0         0.27        654.0 
      1311.0         0.23        646.0 
      1312.0         0.20        643.5 
      1313.0         0.23        624.4 
      1314.0         0.23        579.4 
      1315.0         0.22        547.0 
      1316.0         0.20        587.9 
      1317.0         0.13        615.9 
      1318.0         0.13        647.9 
      1319.0         0.17        711.4 
      1320.0         2.50       1626.7 
      1321.0         0.25       1005.3 
      1322.0         0.30        923.1 
      1323.0         0.37        813.9 
      1324.0         0.50        706.3 
      1325.0         0.43        616.5 
      1326.0         0.47        694.9 
      1327.0         0.43        702.5 
      1328.0         0.43        721.6 
      1329.0         0.42        725.1 
      1330.0         0.30        720.9 
      1331.0         0.30        687.9 
      1332.0         0.33        641.6 
      1333.0         0.30        579.1 
      1334.0         0.30        515.3 
      1335.0         0.30        456.2 
      1336.0         0.23        440.0 
      1337.0         0.17         54.9 
      1338.0         0.17         67.3 
      1339.0         0.17         83.8 
      1340.0         0.13         97.1 
      1341.0         0.20        131.8 
      1342.0         0.25        184.7 
      1343.0         0.30        212.2 
      1344.0         0.23        212.9 
      1345.0         0.23        196.7 
      1346.0         0.23        147.7 
      1347.0         0.13        127.4 
      1348.0         0.17        146.1 
      1349.0         0.17        170.6 
      1350.0         5.40       2057.7 
      1351.0         0.43        861.5 
      1352.0         0.57        793.9 
      1353.0         0.58        626.3 
      1354.0         0.50        471.5 
      1355.0         0.37        585.4 
      1356.0         0.33        598.4 
      1357.0         0.27        589.8 
      1358.0         0.30        545.1 
      1359.0         0.23        518.1 
      1360.0         0.30        501.9 
      1361.0         0.27        473.7 
      1362.0         0.33        463.8 
      1363.0         0.32        455.9 
      1364.0         0.23        440.0 
      1365.0         0.30         79.0 
      1366.0         0.27         84.2 
      1367.0         0.23         81.9 
      1368.0         0.27         74.3 
      1369.0         0.23         62.7 
      1370.0         0.23         49.9 
      1371.0         0.23         41.8 
      1372.0         0.23         36.9 
      1373.0         0.30         34.7 
      1374.0         0.23         38.1 
      1375.0         0.30         38.1 
      1376.0         0.22         31.7 
      1377.0         0.20         51.6 
      1378.0         0.17        107.9 
      1379.0         0.20        189.8 
      1380.0         4.85       3256.8 
      1381.0         0.43        534.3 
      1382.0         0.52        660.3 
      1383.0         0.33        674.3 
      1384.0         0.23        673.6 
      1385.0         0.20        669.8 
      1386.0         0.20        657.1 
      1387.0         0.27        615.6 
      1388.0         0.27        577.5 
      1389.0         0.37        612.4 
      1390.0         0.33        642.5 
      1391.0         0.27        642.5 
      1392.0         0.23        640.9 
      1393.0         0.27        634.3 
      1394.0         0.20        634.9 
      1395.0         0.25        634.9 
      1396.0         0.20        623.5 
      1397.0         0.23        611.4 
      1398.0         0.27        588.3 
      1399.0         0.27        546.1 
