~Version Information
VERS.                      2.0: CWLS Log ASCII Standard - VERSION 2.0
WRAP.                       NO: One line per depth step
~Well Information Block
STRT.FT               590.0000: 
STOP.FT              1563.5000: 
STEP.FT                 0.2500: 
NULL.                -999.2500: 
COMP.          Petrogulf Corporation: COMPANY
WELL.             State 16-43R: WELL
FLD.           Purgatorie River: FIELD
LOC.           2538' FSL & 716' FEL: LOCATION
PROV.                 Colorado: PROVINCE
CNTY.               Las Animas: COUNTRY
SRVC.                Patterson: SERVICE COMPANY
DATE.          Tue Aug 09 14:21:37 2005: LOG DATE
UWI.                          : UNIQUE WELL ID
~Curve Information Block
DEPT.FT            0 000 00 00: Depth
RILD.Ohm-m                    : DIL Deep Resistivity
RILM.Ohm-m                    : DIL Medium Resistivity
GR.GAPI                       : Gamma Ray
~Parameter Information Block
~A  Depth       RILD        RILM         GR     
# ...
   631.7500     19.1640     23.3289     86.4107
   632.0000     21.7025     24.8041     89.0198
   632.2500     22.1377     28.0917     95.0454
   632.5000     23.2292     29.6298     88.7161
   632.7500     24.8258     33.3758     82.3030
   633.0000     26.3605     33.9585     85.5718
   633.2500     28.7678     34.9056     76.1657
   633.5000     27.3610     34.6632     76.2424
   633.7500     28.1858     36.7360     83.9498
   634.0000     29.8420     43.3486     89.2148
   634.2500     28.3656     39.2197     88.3003
   634.5000     27.6269     37.4511     90.7477
   634.7500     29.3294     37.6013     85.7260
   635.0000     28.5306     35.9457     94.0528
   635.2500     28.3815     37.2159     97.4794
   635.5000     29.3416     36.4297    101.4071
   635.7500     29.6095     32.4520    109.1917
   636.0000     28.6131     32.4057     98.4499
   636.2500     28.5246     32.9130     93.0327
   636.5000     28.8067     32.1190     86.4000
   636.7500     29.5573     31.5640     91.5457
   637.0000     28.5872     29.7501     78.2673
   637.2500     28.7787     32.5238     77.7275
   637.5000     28.8488     32.5474     80.4209
   637.7500     28.6244     31.6441     81.3842
   638.0000     30.9456     32.5539     77.1148
   638.2500     29.9713     33.8511     77.2867
   638.5000     31.4471     33.8974     77.7017
   638.7500     30.1300     34.2723     79.1705
   639.0000     29.7406     33.2992     79.2363
   639.2500     30.2727     33.2793     79.7093
   639.5000     30.5279     33.9954     81.6469
   639.7500     31.0691     35.4588     80.5307
   640.0000     30.6208     35.6754     81.9888
   640.2500     32.1234     35.7763     89.5957
   640.5000     30.9255     35.3219     84.3482
   640.7500     30.2824     37.1386     76.1567
   641.0000     30.9373     36.4999     70.2108
   641.2500     33.7167     37.0218     69.6242
   641.5000     33.2900     36.7691     78.9130
   641.7500     30.8726     33.9876     84.7650
   642.0000     30.7047     35.4606     80.4452
   642.2500     32.9268     33.3548     76.7460
   642.5000     35.8501     35.1391     78.3472
   642.7500     33.6251     34.9947     77.9130
   643.0000     33.3537     35.6432     77.8477
   643.2500     32.9501     35.5542     76.9067
   643.5000     34.8667     35.2985     96.2316
   643.7500     35.2846     35.9423     97.0691
   644.0000     32.7729     34.8896     83.6640
   644.2500     33.0842     38.4577     80.4826
   644.5000     33.0581     37.9241     78.9255
   644.7500     34.8763     38.2589     78.8333
   645.0000     35.5728     35.9181     68.3513
   645.2500     38.3738     37.4034     67.9265
   645.5000     37.3487     37.9413     73.0598
   645.7500     35.5278     40.5556     72.8136
   646.0000     35.8009     40.8890     66.3816
   646.2500     37.1102     39.3595     64.8807
   646.5000     37.0584     41.0344     65.6100
   646.7500     35.2740     40.2810     68.4695
   647.0000     35.0261     41.7018     75.0922
   647.2500     35.3443     38.0540     74.8964
   647.5000     36.4400     36.0933     71.6546
   647.7500     38.7917     39.1686     75.9773
   648.0000     36.1929     38.4000     87.2828
   648.2500     35.6581     39.8391     82.4255
   648.5000     36.2617     38.9000     90.1945
   648.7500     34.1667     37.8304     92.1013
   649.0000     33.5280     33.2941     88.6045
   649.2500     30.2412     33.3174     93.2264
   649.5000     28.7816     34.1672    105.2875
   649.7500     29.4311     31.3851    120.1189
   650.0000     28.2621     28.5130    123.6822
   650.2500     26.8997     27.1327    124.0582
   650.5000     27.4919     26.2399    130.8313
   650.7500     28.2863     24.4261    135.7290
   651.0000     25.8045     23.0518    145.5402
   651.2500     25.8301     21.7456    146.4605
   651.5000     25.3447     20.8800    142.6581
   651.7500     25.8326     21.7228    137.3582
   652.0000     25.1992     22.0465    129.5452
   652.2500     24.2235     22.4596    129.7521
   652.5000     23.5914     22.8026    130.4568
   652.7500     22.7987     22.8981    130.7127
   653.0000     22.4918     23.0244    130.2673
   653.2500     22.3023     22.7559    127.5268
   653.5000     22.2590     21.8600    125.5555
   653.7500     22.0382     22.4118    127.1401
   654.0000     22.5638     22.5536    130.8688
   654.2500     22.6079     22.1527    129.4955
   654.5000     23.2314     21.7809    126.6754
   654.7500     23.1495     22.4041    132.5646
   655.0000     22.0713     22.4176    141.6885
   655.2500     21.9421     22.3454    143.9104
   655.5000     21.6219     21.5003    136.9810
   655.7500     20.2972     20.9804    133.7529
   656.0000     19.7522     20.9996    130.1390
   656.2500     19.2345     20.6351    127.2547
   656.5000     18.3784     19.4669    134.2787
   656.7500     18.0664     19.3213    137.2497
   657.0000     17.9823     18.3446    136.3258
   657.2500     17.2071     17.2242    133.4921
   657.5000     16.7662     16.7611    136.8026
   657.7500     16.5879     15.8139    139.5246
   658.0000     16.4336     15.2947    143.8217
   658.2500     16.2862     14.6046    144.1860
   658.5000     15.9208     14.3003    150.7370
   658.7500     16.3128     14.4605    146.7895
   659.0000     16.2071     14.5483    149.5162
   659.2500     16.4060     14.8498    147.5678
   659.5000     16.6509     15.5155    139.1253
   659.7500     16.9713     16.0748    126.5205
   660.0000     17.6020     16.5797    123.7835
   660.2500     17.1414     17.0688    127.4550
   660.5000     17.5579     17.4670    134.2440
   660.7500     18.4943     17.6314    134.3859
   661.0000     18.4783     18.9704    131.4504
   661.2500     19.4086     19.5785    140.1613
   661.5000     20.2786     20.4435    130.8771
   661.7500     21.5203     21.6037    123.7431
   662.0000     22.0056     23.0324    118.0625
   662.2500     22.9698     25.1660    114.2546
   662.5000     22.6633     26.3642    108.8593
   662.7500     22.4317     28.4993    107.5499
   663.0000     22.6288     29.4136    110.6967
   663.2500     23.0746     29.4436    114.5448
   663.5000     22.2188     28.1674    120.4646
   663.7500     20.7910     26.2190    119.5802
   664.0000     19.8450     25.2680    129.9485
   664.2500     20.6448     23.2140    137.0153
   664.5000     20.8067     21.5370    152.4977
   664.7500     20.7734     21.6795    153.1407
   665.0000     20.4594     20.5579    142.0305
   665.2500     19.7947     20.0003    148.8391
   665.5000     19.2450     19.7743    149.8006
   665.7500     19.0863     19.2651    134.6098
   666.0000     19.1124     18.5324    124.8657
   666.2500     17.8782     18.3855    128.2508
   666.5000     18.4585     18.5309    122.9342
   666.7500     19.4161     17.7509    122.9666
   667.0000     19.5206     17.7714    123.8788
   667.2500     20.0234     18.3415    124.6153
   667.5000     19.7544     19.4925    120.3742
   667.7500     21.2574     21.5652    117.9305
   668.0000     22.4066     22.0746    104.4593
   668.2500     23.8262     23.4596    101.0547
   668.5000     24.6165     24.8735     97.2183
   668.7500     26.2746     27.1173     91.4447
   669.0000     26.7747     30.0316     87.8934
   669.2500     28.0174     31.6193     84.5847
   669.5000     27.9600     33.9570     80.2258
   669.7500     29.3519     34.7965     76.6945
   670.0000     29.8399     37.9035     74.4694
   670.2500     30.1863     41.4866     70.9824
   670.5000     31.8052     37.8489     72.4549
   670.7500     31.0824     39.1585     77.2492
   671.0000     32.3112     37.3064     91.9843
   671.2500     33.9547     38.6183    111.3711
   671.5000     34.7446     35.5100    110.1068
   671.7500     35.2684     35.1739    116.4469
   672.0000     35.0823     35.3770     98.5391
   672.2500     32.4405     35.3108     79.2255
   672.5000     31.1435     36.2874     70.2976
   672.7500     29.2790     39.4426     65.8260
   673.0000     28.1082     37.9287     64.1823
   673.2500     27.1486     37.4788     72.1214
