~Version Information
VERS.                      2.0: CWLS Log ASCII Standard - VERSION 2.0
WRAP.                       NO: One line per depth step
~Well Information Block
STRT.FT               -10.0000: 
STOP.FT              2184.0000: 
STEP.FT                 0.2500: 
NULL.                -999.2500: 
COMP.          Petrogulf Corporation: COMPANY
WELL.              Silva 1-43R: WELL
FLD.           Purgatorie River: FIELD
LOC.           1971' FSL & 526' FEL--: LOCATION
CNTY.               Las Animas: COUNTY
SRVC.          Patterson Wireline: SERVICE COMPANY
DATE.          Thu Jul 13 13:08:17 2006: LOG DATE
UWI.           05 072 08372 00: UNIQUE WELL ID
STAT.                       CO: STATE
~Curve Information Block
DEPT.FT            0 000 00 00: Depth
CCL.                          : Casing Collar Locator
TT3.usec                      : CBL 3' Travel Time
AMP3.mV                       : CBL 3' Amplitude
GR.GAPI                       : Gamma Ray
~Parameter Information Block
~A  Depth       CCL         TT3         AMP3         GR     
# ...
   124.0000      0.0000    640.0767      6.8620    112.0232
   124.2500      0.0000    638.4097      6.9272    105.3124
   124.5000      0.0000    637.1475      6.9560     97.9007
   124.7500      0.0000    637.5542      6.9591     90.6218
   125.0000      0.0000    640.4015      6.9397     84.2806
   125.2500      0.0000    645.5214      6.8903     79.6708
   125.5000      0.0000    652.3113      6.8045     77.2788
   125.7500      0.0000    660.2606      6.6916     77.0154
   126.0000      0.0000    668.6669      6.5810     78.3320
   126.2500      0.0000    676.0438      6.5114     80.6775
   126.5000      0.0000    680.3281      6.5106     83.6029
   126.7500      0.0000    680.2709      6.5757     86.4109
   127.0000      0.0000    676.9642      6.6717     88.2875
   127.2500      0.0000    673.4599      6.7522     89.0579
   127.5000      0.0000    671.9260      6.7886     89.3035
   127.7500      0.0000    671.2921      6.7820     89.5210
   128.0000      0.0000    668.6661      6.7511     89.6083
   128.2500      0.0000    662.8921      6.7117     89.2926
   128.5000      0.0000    655.7148      6.6674     88.5887
   128.7500      0.0000    649.8083      6.6191     87.6377
   129.0000      0.0000    646.7241      6.5775     86.2996
   129.2500      0.0000    646.3887      6.5600     84.0411
   129.5000      0.0000    647.4951      6.5754     80.2266
   129.7500      0.0000    648.2989      6.6143     74.6496
   130.0000      0.0000    647.8046      6.6525     67.9436
   130.2500      0.0000    646.3980      6.6636     61.5191
   130.5000      0.0000    645.2081      6.6293     57.1167
   130.7500      0.0000    645.0865      6.5490     56.2160
   131.0000      0.0000    646.4462      6.4413     59.3288
   131.2500      0.0000    649.9619      6.3374     65.7211
   131.5000      0.0000    657.0771      6.2644     74.0549
   131.7500      0.0000    669.2818      6.2305     83.0981
   132.0000      0.0000    686.2819      6.2210     91.5431
   132.2500      0.0000    704.9507      6.2079     97.8711
   132.5000      0.0000    720.8567      6.1649    101.2718
   132.7500      0.0000    731.1840      6.0820    102.4351
   133.0000      0.0000    735.9805      5.9714    102.9613
   133.2500      0.0000    736.8431      5.8571    104.2963
   133.5000      0.0000    735.0839      5.7564    107.2259
   133.7500      0.0000    731.2007      5.6726    111.4130
   134.0000      0.0000    725.4077      5.6030    114.9887
   134.2500      0.0000    718.0479      5.5497    115.5311
   134.5000      0.0000    709.5225      5.5201    112.3837
   134.7500      0.0000    700.2473      5.5203    107.8226
   135.0000      0.0000    690.7371      5.5479    105.4223
   135.2500      0.0000    681.5809      5.5863    107.0694
   135.5000      0.0000    673.4610      5.6073    111.4893
   135.7500      0.0000    667.2577      5.5867    115.5240
   136.0000      0.0000    663.7239      5.5221    116.7299
   136.2500      0.0000    662.9178      5.4367    114.9691
   136.5000      0.0000    664.4660      5.3621    111.8748
   136.7500      0.0000    668.5995      5.3187    109.0137
   137.0000      0.0000    676.3907      5.3116    106.8446
   137.2500      0.0000    688.3462      5.3387    105.4626
   137.5000      0.0000    702.8935      5.3932    105.4264
   137.7500      0.0000    716.8077      5.4574    107.0041
   138.0000      0.0000    727.1729      5.5037    109.3289
   138.2500      0.0000    732.5667      5.5096    111.3976
   138.5000      0.0000    732.6598      5.4703    113.4773
   138.7500      0.0000    727.6235      5.3989    116.5297
   139.0000      0.0000    718.4323      5.3194    120.4034
   139.2500      0.0000    707.3326      5.2595    123.3276
   139.5000      0.0000    697.1875      5.2413    123.3641
   139.7500      0.0000    689.9532      5.2745    120.1050
   140.0000      0.0000    685.8439      5.3564    114.9284
   140.2500      0.0000    683.8868      5.4785    109.6978
   140.5000      0.0000    683.0008      5.6309    105.2904
   140.7500      0.0000    682.5484      5.8012    101.5311
   141.0000      0.0000    682.2688      5.9719     98.4397
   141.2500      0.0000    682.0471      6.1221     96.9431
   141.5000      0.0000    681.8203      6.2388     98.0905
   141.7500      0.0000    681.5723      6.3256    101.9144
   142.0000      0.0000    681.2921      6.3981    107.1294
   142.2500      0.0000    680.8790      6.4673    111.5723
   142.5000      0.0000    680.0679      6.5278    113.1779
   142.7500      0.0000    678.3672      6.5598    111.2699
   143.0000      0.0000    675.0762      6.5413    107.0524
   143.2500      0.0000    669.6920      6.4641    102.6120
   143.5000      0.0000    662.6768      6.3483     99.5599
   143.7500      0.0000    655.6884      6.2433     98.4114
   144.0000      0.0000    650.1971      6.2025     98.5600
   144.2500      0.0000    645.5184      6.2412     98.7329
   144.5000      0.0000    639.0636      6.3161     98.1509
   144.7500      0.0000    629.4308      6.3605     97.6084
   145.0000      0.0000    618.9389      6.3533     98.9530
   145.2500      0.0000    612.5110      6.3384    103.1146
   145.5000      0.0000    614.6159      6.3600    108.9454
   145.7500      0.0000    627.2325      6.4000    114.1501
   146.0000      0.0000    649.0027      6.4080    116.8381
   146.2500      0.0000    675.2021      6.3725    116.0601
   146.5000      0.0000    699.9780      6.3269    111.7835
   146.7500      0.0000    720.2610      6.3004    105.3013
   147.0000      2.0000    737.4269      6.2875     99.3794
   147.2500     -2.0000    753.9507      6.2526     96.9436
   147.5000      0.0000    767.8388      6.1540     99.1817
   147.7500      0.0000    771.0673      5.9773    105.0025
   148.0000      0.0000    755.5961      5.7495    112.0612
   148.2500      0.0000    721.9503      5.5080    117.9222
   148.5000      0.0000    680.5178      5.2703    120.6226
   148.7500      0.0000    644.7598      5.0554    119.1054
   149.0000      0.0000    624.6924      4.9067    113.6772
   149.2500      0.0000    623.9871      4.8580    105.9272
   149.5000      0.0000    638.7863      4.8919     97.9734
   149.7500      0.0000    659.6013      4.9582     91.7187
   150.0000      0.0000    677.0756      5.0177     88.4659
   150.2500      0.0000    686.7921      5.0554     88.5185
   150.5000      0.0000    689.4521      5.0733     90.9890
   150.7500      0.0000    688.0894      5.0869     94.3293
   151.0000      0.0000    685.5015      5.1220     96.9961
   151.2500      0.0000    683.0208      5.1981     97.6034
   151.5000      0.0000    680.5684      5.3183     95.2105
   151.7500      0.0000    677.3572      5.4723     90.1942
   152.0000      0.0000    672.8106      5.6442     84.6860
   152.2500      0.0000    667.3857      5.8163     81.4392
   152.5000      0.0000    662.7075      5.9726     81.8076
   152.7500      0.0000    660.5852      6.1016     84.9213
   153.0000      0.0000    661.7302      6.1980     89.0526
   153.2500      0.0000    665.4367      6.2612     93.5533
   153.5000      0.0000    670.2334      6.2944     98.8606
   153.7500      0.0000    674.6800      6.3025    104.9081
   154.0000      0.0000    677.9110      6.2914    110.5731
   154.2500      0.0000    679.8563      6.2668    114.6802
   154.5000      0.0000    681.0399      6.2349    116.7176
   154.7500      0.0000    682.1605      6.2007    116.5987
   155.0000      0.0000    683.7383      6.1668    114.5971
   155.2500      0.0000    685.8185      6.1346    111.9301
   155.5000      0.0000    687.7369      6.1051    110.8713
   155.7500      0.0000    688.3108      6.0770    113.3440
   156.0000      0.0000    686.5491      6.0459    119.0051
   156.2500      0.0000    682.2197      6.0059    125.1694
   156.5000      0.0000    675.8561      5.9556    129.0945
   156.7500      0.0000    668.5328      5.8999    130.0500
   157.0000      0.0000    661.3978      5.8510    128.9215
   157.2500      0.0000    654.6988      5.8247    126.4207
