~Version Information
VERS.                      2.0: CWLS Log ASCII Standard - VERSION 2.0
WRAP.                       NO: One line per depth step
~Well Information Block
STRT.FT                -3.2500: 
STOP.FT              2202.2500: 
STEP.FT                 0.2500: 
NULL.                -999.2500: 
COMP.          Pioneer Natural Resources: COMPANY
WELL.           Parklane 43-34: WELL
FLD.           Purgatorie River: FIELD
LOC.           1704' FSL & 1119' FEL--: LOCATION
PROV.                       CO: PROVINCE
CNTY.               Las Animas: COUNTRY
SRVC.                         : SERVICE COMPANY
DATE.          Thu Oct 14 14:49:09 2004: LOG DATE
UWI.           005 071 08162  : UNIQUE WELL ID
~Curve Information Block
DEPT.FT            0 000 00 00: Depth
GR.GAPI                       : Gamma Ray
CCL.                          : Casing Collar Locator
TT3.usec                      : CBL 3' Travel Time
AMP3.mV                       : CBL 3' Amplitude
~Parameter Information Block
~A  Depth        GR         CCL         TT3         AMP3    
# ...
   130.7500     48.7308      0.0000    907.1793      6.9103
   131.0000     49.9722      0.0000    904.4475      6.9557
   131.2500     50.0003      0.0000    904.4459      6.9981
   131.5000     49.4813      0.0000    907.1688      7.0287
   131.7500     49.2035      0.0000    911.3635      7.0399
   132.0000     49.6590      0.0000    915.3209      7.0269
   132.2500     50.7678      0.0000    917.8078      6.9938
   132.5000     52.0292      0.0000    918.4833      6.9582
   132.7500     53.0170      0.0000    917.7902      6.9418
   133.0000     53.6608      0.0000    916.6766      6.9546
   133.2500     53.9962      0.0000    916.1649      6.9920
   133.5000     53.7889      0.0000    916.7424      7.0397
   133.7500     52.7037      0.0000    918.0750      7.0782
   134.0000     50.8831      0.0000    919.4343      7.0937
   134.2500     49.0768      0.0000    920.3474      7.0896
   134.5000     48.0679      0.0000    920.7881      7.0829
   134.7500     47.9664      0.0000    920.9464      7.0865
   135.0000     48.1148      0.0000    920.9894      7.1006
   135.2500     47.8280      0.0000    920.9984      7.1193
   135.5000     47.2911      0.0000    921.0000      7.1368
   135.7500     47.5932      0.0000    921.0000      7.1461
   136.0000     49.8219      0.0000    921.0000      7.1375
   136.2500     54.3220      0.0000    921.0000      7.0986
   136.5000     61.0002      0.0000    921.0000      7.0176
   136.7500     69.9418      0.0000    921.0000      6.8940
   137.0000     80.8915      0.0000    921.0000      6.7452
   137.2500     92.0165      0.0000    921.0000      6.5950
   137.5000    100.1375      0.0000    920.9980      6.4607
   137.7500    103.0202      0.0000    920.9847      6.3529
   138.0000    101.3463      0.0000    920.9174      6.2806
   138.2500     98.0484      0.0000    920.6508      6.2457
   138.5000     95.7997      0.0000    919.8264      6.2351
   138.7500     95.3306      0.0000    917.8353      6.2249
   139.0000     95.7900      0.0000    914.0513      6.1955
   139.2500     96.0529      0.0000    908.2962      6.1510
   139.5000     95.6491      0.0000    901.0106      6.1252
   139.7500     95.0619      0.0000    892.7543      6.1616
   140.0000     95.4335      0.0000    883.6851      6.2785
   140.2500     97.7681      0.0000    873.9368      6.4544
   140.5000    102.2906      0.0000    864.4090      6.6476
   140.7500    108.2736      0.0000    856.5950      6.8213
   141.0000    114.0090      0.0000    851.4530      6.9521
   141.2500    117.3674      0.0000    848.7527      7.0311
   141.5000    117.2693      0.0000    847.5550      7.0646
   141.7500    114.6677      0.0000    846.9625      7.0620
   142.0000    111.7608      0.0000    846.2526      7.0197
   142.2500    110.2476      0.0000    844.4379      6.9265
   142.5000    110.3606      0.0000    839.9641      6.7840
   142.7500    111.3319      0.0000    831.2952      6.6080
   143.0000    112.5142      0.0000    818.3444      6.4065
   143.2500    113.7205      0.0000    803.3266      6.1670
   143.5000    114.5582      0.0000    789.5529      5.8668
   143.7500    114.2303      0.0000    778.9535      5.4922
   144.0000    112.5069      0.0000    770.8589      5.0504
   144.2500    110.2518      0.0000    763.1739      4.5699
   144.5000    108.2711      0.0000    754.5527      4.0915
   144.7500    106.0993      0.0000    745.5170      3.6534
   145.0000    102.7975      0.0000    737.7361      3.2798
   145.2500     98.9008      0.0000    732.4543      2.9813
   145.5000     96.6383      0.0000    729.6711      2.7598
   145.7500     97.8027      0.0000    728.5381      2.6086
   146.0000    102.0008      0.0000    728.1547      2.5107
   146.2500    107.4215      0.0000    727.9437      2.4421
   146.5000    112.6507      0.0000    727.5787      2.3806
   146.7500    116.9832      0.0000    726.7689      2.3163
   147.0000    119.5625      0.0000    725.2311      2.2590
   147.2500    119.5604      0.0000    723.0114      2.2344
   147.5000    117.4938      0.0000    720.8694      2.2667
   147.7500    115.3508      0.0000    720.0222      2.3590
   148.0000    114.7175      0.0000    721.1622      2.4881
   148.2500    115.2008      0.0000    723.9403      2.6185
   148.5000    115.2392      0.0000    727.7798      2.7212
   148.7500    114.3081      0.0000    733.2128      2.7848
   149.0000    113.8342      0.0000    742.0021      2.8171
   149.2500    115.7403      0.0000    755.4360      2.8478
   149.5000    120.1833      0.0000    772.5320      2.9259
   149.7500    124.8747      0.0000    790.8683      3.0998
   150.0000    126.7641      0.0000    809.2109      3.3851
   150.2500    124.4065      0.0000    827.5686      3.7488
   150.5000    118.7456      0.0000    844.4834      4.1296
   150.7500    111.9382      0.0000    856.5464      4.4769
   151.0000    105.9692      0.0000    860.8103      4.7725
   151.2500    102.2972      0.0000    855.9056      5.0227
   151.5000    101.7923      0.0000    842.0544      5.2340
   151.7500    104.0179      0.0000    822.4590      5.3982
   152.0000    106.8308      0.0000    803.4919      5.5002
   152.2500    107.6944      0.0000    790.9522      5.5321
   152.5000    105.6875      0.0000    785.5963      5.4946
   152.7500    101.8402      0.0000    782.3889      5.3823
   153.0000     97.6044      0.0000    774.2066      5.1770
   153.2500     93.6660      0.0000    757.4597      4.8690
   153.5000     90.2458      0.0000    735.0156      4.4894
   153.7500     87.6383      0.0000    713.5113      4.1086
   154.0000     85.9744      0.0000    698.7012      3.7928
   154.2500     84.9568      0.0000    693.9707      3.5663
   154.5000     84.2199      0.0000    700.1609      3.4170
   154.7500     83.6480      0.0000    713.3876      3.3222
   155.0000     83.2094      0.0000    725.2454      3.2605
   155.2500     82.7221      0.0000    729.4645      3.2118
   155.5000     81.9728      0.0000    727.8251      3.1604
   155.7500     80.9447      0.0000    726.9565      3.1018
   156.0000     79.8018      0.0000    730.3340      3.0456
   156.2500     78.6422      0.0000    735.1392      3.0100
   156.5000     77.5608      0.0000    735.8649      3.0113
   156.7500     77.1336      0.0000    729.9021      3.0515
   157.0000     78.3711      0.0000    720.1953      3.1138
   157.2500     81.5469      0.0000    712.7452      3.1768
   157.5000     85.2186      0.0000    711.5456      3.2363
   157.7500     87.0647      0.0000    715.8135      3.3082
   158.0000     85.7734      0.0000    721.1292      3.4010
   158.2500     81.9004      0.0000    722.5087      3.4830
   158.5000     77.1747      0.0000    718.0328      3.4823
   158.7500     73.2572      0.0000    710.8456      3.3281
   159.0000     70.8024      0.0000    706.8872      2.9962
   159.2500     69.4849      0.0000    710.0623      2.5196
   159.5000     69.0215      0.0000    720.8925      1.9607
   159.7500     69.6543      0.0000    739.5875      1.3829
   160.0000     71.1105      0.0000    766.7686      0.8426
   160.2500     71.8450      0.0000    799.5051      0.3906
   160.5000     70.3494      0.0000    829.6577      0.0734
   160.7500     66.8845     -2.0000    849.0002     -0.0713
   161.0000     63.2604      0.0000    855.7589     -0.0325
   161.2500     61.2926      0.0000    855.2706      0.1678
   161.5000     61.9005      0.0000    854.5870      0.4972
   161.7500     65.1079      0.0000    856.3557      0.9288
   162.0000     70.2133      0.0000    856.1508      1.4107
   162.2500     76.0858      0.0000    844.2377      1.8407
   162.5000     81.5452      0.0000    811.5639      2.1104
   162.7500     85.4406      0.0000    757.3028      2.1808
   163.0000     86.6546      0.0000    693.0377      2.0997
   163.2500     84.6981      0.0000    639.4361      1.9603
   163.5000     80.4574      0.0000    616.2073      1.8452
   163.7500     75.7857      0.0000    631.3922      1.7899
   164.0000     72.0103      0.0000    677.7040      1.7843
