~Version Information
VERS.                      2.0: CWLS Log ASCII Standard - VERSION 2.0
WRAP.                       NO: One line per depth step
~Well Information Block
STRT.FT               704.0000: 
STOP.FT              2530.0000: 
STEP.FT                 0.2500: 
NULL.                -999.2500: 
COMP.          Pioneer Natural Resources: COMPANY
WELL.          Aztec Federal 41-15: WELL
FLD.           Purgatorie River: FIELD
LOC.           706' FNL & 1253' FEL: LOCATION
CNTY.               Las Animas: COUNTY
SRVC.          Superior Well Services: SERVICE COMPANY
DATE.          Tue Mar 18 09-04-19 2008: LOG DATE
UWI.           05-071-08342-00: UNIQUE WELL ID
STAT.                       CO: STATE
~Curve Information Block
DEPT.FT            0 000 00 00: Depth
DIR.Ohm-m                     : IEL Induction Resistivity
SN.Ohm-m                      : IEL Short Normal
SP.mV                         : IEL Spontaneous Potential
GR.GAPI                       : Gamma Ray
~Parameter Information Block
~A  Depth       DIR          SN          SP          GR     
# ...
  2278.5000     27.7000     27.9078    197.2731     92.5931
  2278.7500     27.2951     27.8654    197.5453     90.8482
  2279.0000     26.9543     27.7531    197.8213     91.3267
  2279.2500     26.3211     27.5839    198.1324     94.8054
  2279.5000     25.7814     27.1319    198.5040     98.3627
  2279.7500     24.7414     26.7008    198.9507    103.9737
  2280.0000     23.8941     25.8835    199.4724    107.1412
  2280.2500     22.4528     25.2297    200.0525    110.4678
  2280.5000     21.4362     24.0888    200.6571    111.8472
  2280.7500     19.9359     23.2360    201.2368    113.3159
  2281.0000     19.0097     21.8861    201.7308    114.2408
  2281.2500     17.8075     21.0003    202.0730    115.6169
  2281.5000     17.1569     19.8003    202.1983    116.3078
  2281.7500     16.4203     19.1319    202.0510    116.7236
  2282.0000     16.0803     18.3786    201.5901    116.7182
  2282.2500     15.7656     18.0605    200.7955    116.9416
  2282.5000     15.6640     17.8572    199.6706    117.5884
  2282.7500     15.6384     17.8842    198.2430    119.2099
  2283.0000     15.6884     18.1195    196.5627    120.1606
  2283.2500     15.8419     18.3769    194.6974    120.0443
  2283.5000     15.9888     18.8799    192.7266    118.3884
  2283.7500     16.2723     19.2943    190.7346    113.5050
  2284.0000     16.5072     20.0740    188.8028    109.0387
  2284.2500     16.9417     20.7405    187.0032    101.3703
  2284.5000     17.2948     22.0296    185.3936     96.1465
  2284.7500     17.9315     23.0662    184.0146     89.3060
  2285.0000     18.4312     24.6923    182.8897     86.0991
  2285.2500     19.2949     25.6379    182.0261     83.9006
  2285.5000     19.9437     26.5328    181.4180     84.0857
  2285.7500     21.0054     26.6952    181.0498     86.4177
  2286.0000     21.7412     26.4103    180.8988     89.0752
  2286.2500     22.7844     26.0338    180.9373     94.0220
  2286.5000     23.3535     25.4226    181.1339     97.4067
  2286.7500     23.8719     25.0262    181.4539    101.8058
  2287.0000     23.9482     24.3666    181.8602    104.1101
  2287.2500     23.6786     23.7843    182.3147    106.8745
  2287.5000     23.2965     22.5477    182.7803    108.5673
  2287.7500     22.5377     21.4909    183.2240    111.2041
  2288.0000     21.9800     19.8221    183.6199    112.9232
  2288.2500     21.1833     18.8787    183.9523    114.9692
  2288.5000     20.7343     18.0096    184.2172    115.8464
  2288.7500     20.2325     17.8577    184.4226    116.9154
  2289.0000     20.0079     18.1955    184.5866    118.0245
  2289.2500     19.7811     18.6601    184.7350    120.8285
  2289.5000     19.6557     19.3811    184.8968    123.2469
  2289.7500     19.4229     19.7202    185.1008    126.9608
  2290.0000     19.2023     19.9521    185.3711    129.2534
  2290.2500     18.7485     19.9561    185.7246    132.2377
  2290.5000     18.3693     19.7603    186.1685    133.6953
  2290.7500     17.7114     19.4755    186.6996    134.6640
  2291.0000     17.2299     18.7884    187.3039    134.5361
  2291.2500     16.4682     18.1780    187.9580    133.6999
  2291.5000     15.9483     17.1456    188.6307    132.9530
  2291.7500     15.1768     16.4543    189.2857    131.7061
  2292.0000     14.6858     15.4825    189.8854    130.9764
  2292.2500     14.0143     14.8829    190.3946    130.6232
  2292.5000     13.6236     14.0526    190.7850    131.0690
  2292.7500     13.1310     13.5669    191.0387    132.4149
  2293.0000     12.8590     13.0227    191.1512    133.3638
  2293.2500     12.5105     12.8184    191.1331    134.4162
  2293.5000     12.2998     12.7337    191.0089    134.8604
  2293.7500     11.9901     12.7756    190.8144    135.3455
  2294.0000     11.7791     12.8718    190.5927    135.5731
  2294.2500     11.4551     12.9028    190.3885    135.4243
  2294.5000     11.2404     12.8692    190.2426    134.7374
  2294.7500     10.9381     12.8236    190.1872    132.8888
  2295.0000     10.7614     12.8081    190.2431    131.6094
  2295.2500     10.5504     12.8574    190.4182    130.8358
  2295.5000     10.4528     12.9860    190.7087    131.4618
  2295.7500     10.3767     13.0696    191.1015    133.4247
  2296.0000     10.3707     13.1601    191.5776    134.4590
  2296.2500     10.4139     13.2020    192.1147    134.3523
  2296.5000     10.4619     13.2430    192.6906    133.1911
  2296.7500     10.5327     13.2558    193.2845    130.9057
  2297.0000     10.5673     13.2703    193.8776    129.8267
  2297.2500     10.6009     13.2939    194.4538    129.7773
  2297.5000     10.6225     13.3720    194.9984    130.8279
  2297.7500     10.6799     13.4434    195.4991    133.4333
  2298.0000     10.7462     13.4950    195.9454    135.4158
  2298.2500     10.8930     13.4117    196.3294    138.0884
  2298.5000     11.0181     13.0008    196.6468    139.2786
  2298.7500     11.2313     12.5559    196.8978    139.6888
  2299.0000     11.3807     11.8474    197.0868    139.0847
  2299.2500     11.6042     11.5193    197.2226    137.2889
  2299.5000     11.7527     11.4892    197.3163    135.5796
  2299.7500     11.9863     11.8471    197.3792    132.1115
  2300.0000     12.1611     12.8908    197.4200    129.3831
  2300.2500     12.4731     13.8033    197.4426    125.5785
  2300.5000     12.7230     15.2397    197.4442    123.6211
  2300.7500     13.1619     16.1165    197.4155    121.3622
  2301.0000     13.4882     17.2023    197.3418    119.9627
  2301.2500     14.0015     17.7714    197.2055    117.9248
  2301.5000     14.3434     18.4461    196.9906    117.0281
  2301.7500     14.8366     18.8107    196.6866    117.3449
  2302.0000     15.1447     19.2659    196.2930    118.7925
  2302.2500     15.5593     19.5177    195.8217    121.7701
  2302.5000     15.7911     19.8146    195.2986    123.3318
  2302.7500     16.0561     19.9504    194.7625    124.0633
  2303.0000     16.1820     20.0668    194.2608    123.5562
  2303.2500     16.3249     20.1027    193.8449    121.9254
  2303.5000     16.4106     20.1269    193.5630    120.5016
  2303.7500     16.5435     20.1358    193.4531    117.9977
  2304.0000     16.6299     20.1261    193.5370    116.1664
  2304.2500     16.7315     20.0610    193.8169    113.4251
  2304.5000     16.7693     19.7536    194.2740    111.7167
  2304.7500     16.7821     19.3470    194.8708    109.3256
  2305.0000     16.7734     18.4174    195.5563    107.8152
  2305.2500     16.7605     17.6730    196.2719    105.9371
  2305.5000     16.7638     16.7017    196.9590    105.2549
  2305.7500     16.7998     16.3506    197.5654    105.3700
  2306.0000     16.8491     16.3981    198.0505    106.0929
  2306.2500     16.9640     16.7468    198.3880    107.8612
  2306.5000     17.0648     17.5210    198.5659    109.4383
  2306.7500     17.2384     18.0685    198.5858    112.2366
  2307.0000     17.3601     18.7494    198.4595    114.1019
  2307.2500     17.5457     19.0575    198.2057    116.3230
  2307.5000     17.6782     19.3252    197.8465    117.2824
  2307.7500     17.9199     19.4302    197.4049    118.0861
  2308.0000     18.1346     19.6092    196.9027    118.3579
  2308.2500     18.5813     19.8243    196.3602    118.6811
  2308.5000     18.9832     20.3748    195.7959    119.0463
  2308.7500     19.7634     20.8889    195.2274    119.9155
  2309.0000     20.4052     21.8046    194.6723    120.4947
  2309.2500     21.5406     22.4504    194.1480    120.8509
  2309.5000     22.3957     23.3586    193.6717    120.5578
  2309.7500     23.7674     23.8674    193.2598    119.1361
  2310.0000     24.6858     24.4428    192.9263    117.5418
  2310.2500     25.9436     24.7097    192.6803    114.7741
  2310.5000     26.6241     24.9599    192.5241    113.3236
  2310.7500     27.3025     25.0242    192.4513    112.5534
  2311.0000     27.4975     24.9453    192.4448    112.9262
  2311.2500     27.4147     24.7686    192.4767    114.0933
  2311.5000     27.1414     24.3396    192.5085    114.9433
  2311.7500     26.4842     23.9861    192.4941    116.3588
