~Version Information
VERS.                      2.0: CWLS Log ASCII Standard - VERSION 2.0
WRAP.                       NO: One line per depth step
~Well Information Block
STRT.FT               630.0000: 
STOP.FT              1155.5000: 
STEP.FT                 0.1000: 
NULL.                -999.2500: 
COMP.          Pioneer Natural Resources: COMPANY
WELL.          Drewmeister 34-34: WELL
FLD.           Purgatoire River: FIELD
LOC.           958' FSL & 1857' FEL: LOCATION
STAT.                 Colorado: State
CNTY.               Las Animas: COUNTY
CTRY. USA : Country
SECT. 34 : Section
TOWN. 32S : Township
RANG. 65W : Range
SRVC.                Patterson: SERVICE COMPANY
DATE.          Tue Oct 04 08:23:16 2005: LOG DATE
API.           05 071 08131 00: UNIQUE WELL ID
~Curve Information Block
DEPT.FT            0 000 00 00: Depth
DCAL.in                       : CDL Caliper
RHOB.g/cc                     : CDL Bulk Density
RHOC.g/cc                     : CDL Density Correction
DPOR.pu                       : CDL Density Porosity
GR.GAPI                       : Gamma Ray
NPOR.pu                       : Neutron Porosity
~Parameter Information Block
~A  Depth       DCAL        RHOB        RHOC        DPOR         GR         NPOR    
# ...
  1071.6000      7.8895      2.4953      0.0167      9.3772    102.2851     22.8345
  1071.7000      7.8895      2.4944     -0.0026      9.4316     88.3064     22.8586
  1071.8000      7.8898      2.4968      0.0270      9.2858     77.4842     23.0204
  1071.9000      7.8898      2.5036      0.0230      8.8714     77.1334     22.9072
  1072.0000      7.8897      2.5151      0.0451      8.1749     83.5331     22.2833
  1072.1000      7.8897      2.5241      0.0396      7.6315     90.1862     21.7284
  1072.2000      7.8897      2.5244      0.0406      7.6093     93.6238     21.3659
  1072.3000      7.8890      2.5189      0.0701      7.9476     92.5196     21.0032
  1072.4000      7.8890      2.5070      0.0452      8.6676     90.5734     21.3409
  1072.5000      7.8874      2.4878      0.0204      9.8300     88.9918     22.3728
  1072.6000      7.8874      2.4749     -0.0584     10.6103     86.2265     22.6936
  1072.7000      7.8874      2.4876     -0.0092      9.8436     86.1849     22.0308
  1072.8000      7.8856      2.5214      0.0332      7.7964     91.5116     21.5828
  1072.9000      7.8856      2.5543      0.0616      5.8029     99.5661     21.9477
  1073.0000      7.8855      2.5727      0.0610      4.6827    108.5404     22.6454
  1073.1000      7.8855      2.5727      0.0750      4.6867    119.4191     23.3912
  1073.2000      7.8855      2.5516      0.0882      5.9611    131.0644     24.5304
  1073.3000      7.8870      2.5141      0.0676      8.2382    139.6144     25.8906
  1073.4000      7.8870      2.4743      0.0386     10.6481    144.3580     26.8421
  1073.5000      7.8891      2.4501      0.0487     12.1149    142.0218     27.1507
  1073.6000      7.8891      2.4573      0.0269     11.6762    132.1713     27.3089
  1073.7000      7.8891      2.4965      0.0336      9.3041    123.5776     27.8955
  1073.8000      7.8903      2.5402      0.1135      6.6521    120.3174     28.5353
  1073.9000      7.8903      2.5623      0.0616      5.3154    119.6417     28.6260
  1074.0000      7.8896      2.5653      0.0825      5.1347    117.3646     28.0336
  1074.1000      7.8896      2.5581      0.1135      5.5697    112.8272     27.0199
  1074.2000      7.8896      2.5441      0.0966      6.4159    109.1180     26.2207
  1074.3000      7.8890      2.5413      0.0321      6.5863    107.2158     25.8153
  1074.4000      7.8890      2.5650      0.0729      5.1532    107.3226     25.5510
  1074.5000      7.8892      2.5903      0.1246      3.6206    108.1531     25.5869
  1074.6000      7.8892      2.5942      0.0439      3.3795    108.0104     25.8182
  1074.7000      7.8892      2.5928      0.0766      3.4649    106.8751     25.7476
  1074.8000      7.8888      2.6019      0.0689      2.9130    106.1112     25.3328
  1074.9000      7.8888      2.6192      0.1248      1.8647    107.5115     24.7221
  1075.0000      7.8888      2.6330      0.1177      1.0275    108.6633     24.0539
  1075.1000      7.8888      2.6332      0.1309      1.0163    107.9382     23.7308
  1075.2000      7.8888      2.6148      0.0901      2.1355    107.1336     23.7386
  1075.3000      7.8904      2.5766      0.0824      4.4480    105.8640     23.6130
  1075.4000      7.8904      2.5287      0.0021      7.3514     99.5055     23.3578
  1075.5000      7.8916      2.4932      0.0073      9.5047     88.1923     23.2149
  1075.6000      7.8916      2.4825     -0.0087     10.1494     79.9413     22.9443
  1075.7000      7.8916      2.4903      0.0129      9.6813     78.5105     22.5097
  1075.8000      7.8900      2.5005      0.0222      9.0578     82.1987     22.1600
  1075.9000      7.8900      2.5059      0.0199      8.7360     89.1353     22.0173
  1076.0000      7.8884      2.5124      0.0122      8.3373     98.4050     22.4179
  1076.1000      7.8884      2.5215      0.0629      7.7890    106.0841     23.1296
  1076.2000      7.8884      2.5236      0.0430      7.6596    106.9475     23.3431
  1076.3000      7.8881      2.5161      0.0344      8.1134    101.2288     22.7944
  1076.4000      7.8881      2.5077      0.0170      8.6261     93.4575     21.8537
  1076.5000      7.8882      2.5075      0.0242      8.6374     89.1823     20.9655
  1076.6000      7.8882      2.5216      0.0159      7.7845     90.3274     20.7804
  1076.7000      7.8882      2.5490      0.0437      6.1241     91.9880     21.6955
  1076.8000      7.8882      2.5716      0.0947      4.7519     89.8813     22.9890
  1076.9000      7.8882      2.5754      0.0670      4.5236     85.5065     23.6028
  1077.0000      7.8882      2.5749      0.0273      4.5485     84.1084     23.7254
  1077.1000      7.8882      2.5793      0.0841      4.2877     88.8019     23.8851
  1077.2000      7.8882      2.5685      0.0621      4.9368     95.0804     23.7073
  1077.3000      7.8882      2.5360      0.0218      6.9097     99.5183     23.2605
  1077.4000      7.8882      2.5006      0.0265      9.0530    102.9677     23.1450
  1077.5000      7.8888      2.4769      0.0060     10.4893    104.8215     23.3452
  1077.6000      7.8888      2.4671     -0.0118     11.0860    105.8725     23.6485
  1077.7000      7.8888      2.4652      0.0120     11.1989    105.7368     23.9110
  1077.8000      7.8890      2.4657     -0.0099     11.1713    101.7195     24.2230
  1077.9000      7.8890      2.4719     -0.0023     10.7918     96.2937     24.8516
  1078.0000      7.8885      2.4819      0.0165     10.1881     95.0028     25.3329
  1078.1000      7.8885      2.4824      0.0287     10.1573     99.3167     25.1864
  1078.2000      7.8885      2.4751      0.0053     10.6030    104.8189     24.8360
  1078.3000      7.8879      2.4815     -0.0205     10.2095    106.2563     24.4433
  1078.4000      7.8879      2.5089      0.0420      8.5493    102.4213     23.7180
  1078.5000      7.8881      2.5335      0.0856      7.0622     93.5360     22.6346
  1078.6000      7.8881      2.5298      0.0541      7.2874     84.0304     21.5787
  1078.7000      7.8881      2.5005      0.0078      9.0610     82.6253     21.1532
  1078.8000      7.8885      2.4654     -0.0090     11.1900     86.7814     21.6568
  1078.9000      7.8885      2.4397     -0.0106     12.7432     85.6050     22.4252
  1079.0000      7.8892      2.4338     -0.0112     13.1040     81.2857     22.5486
  1079.1000      7.8892      2.4414      0.0391     12.6445     82.7561     22.2276
  1079.2000      7.8892      2.4404      0.0053     12.7007     89.8761     22.0998
  1079.3000      7.8896      2.4216      0.0209     13.8416     95.2501     22.2173
  1079.4000      7.8896      2.3945      0.0033     15.4860     93.3162     22.2486
  1079.5000      7.8893      2.3766     -0.0327     16.5708     88.8702     21.8521
  1079.6000      7.8893      2.3783     -0.0392     16.4688     87.5578     21.2365
  1079.7000      7.8893      2.3919      0.0263     15.6449     86.7919     21.1183
  1079.8000      7.8891      2.4050      0.0004     14.8461     84.4151     21.2315
  1079.9000      7.8891      2.4154      0.0320     14.2201     82.0265     20.6429
  1080.0000      7.8894      2.4198      0.0294     13.9538     81.8097     19.5842
  1080.1000      7.8894      2.4182      0.0157     14.0494     85.7470     18.9820
  1080.2000      7.8894      2.4156      0.0420     14.2041     93.1563     18.9987
  1080.3000      7.8898      2.4120      0.0420     14.4225     96.7610     19.3124
  1080.4000      7.8898      2.4106      0.0247     14.5069     94.7341     19.7079
  1080.5000      7.8898      2.4176      0.0354     14.0873     94.7013     19.8214
  1080.6000      7.8898      2.4265      0.0622     13.5463     96.6900     19.4814
  1080.7000      7.8898      2.4328      0.0330     13.1640     96.2207     19.3419
  1080.8000      7.8894      2.4447      0.0552     12.4399     94.3347     19.8565
  1080.9000      7.8894      2.4632      0.0550     11.3228     92.2887     20.4997
  1081.0000      7.8887      2.4840      0.0385     10.0598     91.1077     20.7529
  1081.1000      7.8887      2.5064      0.0895      8.7052     94.0493     20.7240
