~Version Information
VERS.                      2.0: CWLS Log ASCII Standard - VERSION 2.0
WRAP.                       NO: One line per depth step
~Well Information Block
STRT.FT               651.5000: 
STOP.FT              2190.5000: 
STEP.FT                 0.2500: 
NULL.                -999.2500: 
COMP.          Pioneer Natural Resources: COMPANY
WELL.               King 22-13: WELL
FLD.           Purgatoire River: FIELD
LOC.           2419' FNL & 1806' FWL----: LOCATION
PROV.                 Colorado: PROVINCE
CNTY.               Las Animas: COUNTRY
SRVC.                Patterson: SERVICE COMPANY
DATE.          Thu Mar 31 14:33:28 2005: LOG DATE
UWI.           05 071 08318 00: UNIQUE WELL ID
~Curve Information Block
DEPT.FT            0 000 00 00: Depth
SN.Ohm-m                      : IEL Short Normal
SP.mV                         : IEL Spontaneous Potential
DIR.Ohm-m                     : IEL Induction Resistivity
GR.GAPI                       : Gamma Ray
~Parameter Information Block
~A  Depth        SN          SP         DIR          GR     
# ...
  1556.0000     34.4303    -11.3371     19.5948    110.7327
  1556.2500     36.1312    -10.7364     19.6056    112.2248
  1556.5000     36.4339    -10.0304     19.4570    114.6075
  1556.7500     34.9643     -9.2208     19.1560    115.6562
  1557.0000     31.8532     -8.3139     18.7174    116.6558
  1557.2500     27.8971     -7.3271     18.1674    117.1066
  1557.5000     24.1243     -6.2933     17.5401    116.8426
  1557.7500     21.1323     -5.2545     16.8717    115.6798
  1558.0000     18.9153     -4.2459     16.1950    113.2373
  1558.2500     17.1943     -3.2784     15.5377    112.2010
  1558.5000     15.7681     -2.3374     14.9208    112.7857
  1558.7500     14.6250     -1.4037     14.3595    114.5965
  1559.0000     13.8319     -0.4813     13.8642    118.5455
  1559.2500     13.3766      0.3955     13.4425    121.3179
  1559.5000     13.1433      1.1846     13.0990    124.7926
  1559.7500     13.0055      1.8650     12.8357    126.4569
  1560.0000     12.9013      2.4410     12.6511    128.0898
  1560.2500     12.8269      2.9161     12.5403    128.8902
  1560.5000     12.7851      3.2673     12.4943    130.3808
  1560.7500     12.7559      3.4510     12.5000    131.8014
  1561.0000     12.7088      3.4418     12.5393    133.9034
  1561.2500     12.6458      3.2631     12.5894    134.3813
  1561.5000     12.6326      2.9777     12.6245    132.5094
  1561.7500     12.7556      2.6528     12.6191    129.6449
  1562.0000     13.0336      2.3306     12.5550    124.3763
  1562.2500     13.3940      2.0205     12.4260    121.2456
  1562.5000     13.7219      1.7099     12.2394    118.4142
  1562.7500     13.9130      1.3844     12.0114    118.0608
  1563.0000     13.9162      1.0455     11.7621    119.3303
  1563.2500     13.7439      0.7122     11.5103    120.6442
  1563.5000     13.4114      0.4028     11.2716    122.2749
  1563.7500     12.8880      0.1138     11.0556    123.0052
  1564.0000     12.1600     -0.1827     10.8646    123.9655
  1564.2500     11.3141     -0.5142     10.6938    124.9048
  1564.5000     10.5050     -0.8774     10.5336    127.6666
  1564.7500      9.8651     -1.2314     10.3732    130.9505
  1565.0000      9.4622     -1.5192     10.2041    138.4122
  1565.2500      9.2871     -1.6962     10.0228    144.7052
  1565.5000      9.2469     -1.7448      9.8305    154.5593
  1565.7500      9.2178     -1.6708      9.6328    160.2621
  1566.0000      9.1423     -1.4890      9.4363    165.9186
  1566.2500      9.0398     -1.2063      9.2477    167.4542
  1566.5000      8.9391     -0.8158      9.0711    167.3683
  1566.7500      8.8535     -0.3074      8.9084    166.8103
  1567.0000      8.7853      0.3159      8.7585    166.5390
  1567.2500      8.7103      1.0317      8.6186    166.8432
  1567.5000      8.5826      1.8054      8.4848    167.8583
  1567.7500      8.3802      2.6037      8.3537    168.6471
  1568.0000      8.1275      3.4041      8.2245    168.2719
  1568.2500      7.8669      4.1962      8.0995    165.6457
  1568.5000      7.6179      4.9787      7.9829    158.3619
  1568.7500      7.3763      5.7520      7.8790    153.5191
  1569.0000      7.1470      6.5050      7.7898    150.7307
  1569.2500      6.9561      7.2047      7.7143    152.8017
  1569.5000      6.8325      7.8039      7.6487    159.8502
  1569.7500      6.7841      8.2685      7.5885    164.8232
  1570.0000      6.7942      8.5968      7.5304    168.7759
  1570.2500      6.8360      8.8093      7.4735    168.1104
  1570.5000      6.8919      8.9207      7.4197    163.8435
  1570.7500      6.9539      8.9235      7.3727    160.8087
  1571.0000      7.0137      8.7951      7.3373    158.1533
  1571.2500      7.0732      8.5161      7.3179    157.7449
  1571.5000      7.1527      8.0817      7.3179    158.8313
  1571.7500      7.2680      7.4984      7.3393    160.7240
  1572.0000      7.4159      6.7742      7.3827    164.9515
  1572.2500      7.5846      5.9128      7.4471    167.8657
  1572.5000      7.7473      4.9135      7.5303    170.8597
  1572.7500      7.8659      3.7821      7.6294    171.6248
  1573.0000      7.9239      2.5453      7.7416    170.8674
  1573.2500      7.9373      1.2573      7.8658    168.7907
  1573.5000      7.9309     -0.0151      8.0052    163.1629
  1573.7500      7.9241     -1.2220      8.1681    158.6462
  1574.0000      7.9467     -2.3503      8.3672    153.0732
  1574.2500      8.0393     -3.4176      8.6169    150.4830
  1574.5000      8.2271     -4.4483      8.9288    146.2725
  1574.7500      8.5242     -5.4475      9.3086    141.8160
  1575.0000      8.9604     -6.3929      9.7562    132.5069
  1575.2500      9.5767     -7.2488     10.2691    126.0879
  1575.5000     10.4188     -7.9908     10.8465    119.4861
  1575.7500     11.5700     -8.6190     11.4929    117.9260
  1576.0000     13.1654     -9.1492     12.2169    118.2112
  1576.2500     15.3221     -9.5927     13.0302    118.1091
  1576.5000     18.0423     -9.9456     13.9471    114.5394
  1576.7500     21.1927    -10.1947     14.9866    109.4061
  1577.0000     24.5828    -10.3314     16.1715     99.1535
  1577.2500     28.0298    -10.3642     17.5227     92.2678
  1577.5000     31.3433    -10.3286     19.0501     84.2909
  1577.7500     34.3255    -10.2889     20.7432     81.0798
  1578.0000     36.8348    -10.3223     22.5648     78.8660
  1578.2500     38.8455    -10.4852     24.4481     78.4948
  1578.5000     40.4504    -10.7855     26.3016     78.8241
  1578.7500     41.8066    -11.1833     28.0230     79.3321
  1579.0000     43.0637    -11.6156     29.5249     79.9324
  1579.2500     44.2954    -12.0240     30.7599     79.9181
  1579.5000     45.4634    -12.3720     31.7342     79.2419
  1579.7500     46.4637    -12.6489     32.5023     78.7975
  1580.0000     47.2368    -12.8638     33.1406     79.4763
  1580.2500     47.8402    -13.0365     33.7112     81.2850
  1580.5000     48.3972    -13.1889     34.2363     84.9209
  1580.7500     48.9796    -13.3416     34.6999     86.5885
  1581.0000     49.5584    -13.5145     35.0708     86.9387
  1581.2500     50.0353    -13.7237     35.3290     86.6149
  1581.5000     50.3113    -13.9679     35.4784     87.4970
  1581.7500     50.3835    -14.2148     35.5452     89.2903
  1582.0000     50.4107    -14.4078     35.5649     92.1829
  1582.2500     50.6511    -14.4982     35.5606     93.0160
  1582.5000     51.2713    -14.4768     35.5230     91.8551
  1582.7500     52.1850    -14.3718     35.4035     90.0161
  1583.0000     53.1406    -14.2124     35.1265     87.0034
  1583.2500     53.9946    -13.9965     34.6130     84.9516
  1583.5000     54.8154    -13.6879     33.8030     80.7585
  1583.7500     55.7079    -13.2365     32.6677     76.8016
  1584.0000     56.6157    -12.5986     31.2146     70.3416
  1584.2500     57.2797    -11.7515     29.4849     67.1965
  1584.5000     57.3355    -10.6970     27.5500     66.0617
  1584.7500     56.4758     -9.4506     25.5038     67.6340
  1585.0000     54.5453     -8.0268     23.4510     72.0328
  1585.2500     51.4878     -6.4328     21.4869     75.2746
  1585.5000     47.2479     -4.6755     19.6802     79.1292
  1585.7500     41.7866     -2.7754     18.0643     80.8074
  1586.0000     35.2752     -0.7788     16.6414     83.1522
  1586.2500     28.3016      1.2379     15.3924     85.5619
  1586.5000     21.7780      3.1738     14.2888     90.7587
  1586.7500     16.5570      4.9199     13.3029     94.7278
  1587.0000     13.0539      6.3825     12.4156    101.1649
  1587.2500     11.1156      7.5069     11.6175    106.4476
  1587.5000     10.2325      8.2964     10.9054    116.6641
  1587.7500      9.8767      8.8153     10.2771    124.3076
  1588.0000      9.6807      9.1637      9.7284    134.5915
  1588.2500      9.4586      9.4337      9.2537    139.7608
  1588.5000      9.1617      9.6771      8.8474    145.2289
  1588.7500      8.8124      9.9031      8.5051    147.9930
  1589.0000      8.4632     10.1009      8.2228    151.5527
  1589.2500      8.1712     10.2646      7.9953    153.6115
