~Version Information
VERS.                      2.0: CWLS Log ASCII Standard - VERSION 2.0
WRAP.                       NO: One line per depth step
~Well Information Block
STRT.FT               430.0000: 
STOP.FT              2417.0000: 
STEP.FT                 0.2500: 
NULL.                -999.2500: 
COMP.          Evergreen Operating Corporation: COMPANY
WELL.          McCullough 34-32: WELL
FLD.           Purgatorie River: FIELD
LOC.           261' FSL & 2098' FEL: LOCATION
PROV.                 Colorado: PROVINCE
CNTY.               Las Animas: COUNTRY
SRVC.                Patterson: SERVICE COMPANY
DATE.          Sun May 16 02:33:07 2004: LOG DATE
UWI.           05 071 07953 00: UNIQUE WELL ID
~Curve Information Block
DEPT.FT            0 000 00 00: Depth
SN.Ohm-m                      : IEL Short Normal
SP.mV                         : IEL Spontaneous Potential
DIR.Ohm-m                     : IEL Induction Resistivity
GR.GAPI                       : Gamma Ray
~Parameter Information Block
~A  Depth        SN          SP         DIR          GR     
# ...
  2105.0000     46.6001    144.9848     26.7500     85.8709
  2105.2500     48.3138    144.9477     26.8232     79.0544
  2105.5000     50.5004    144.9153     26.7359     69.5988
  2105.7500     53.1299    144.9117     26.4452     64.4477
  2106.0000     55.9072    144.9502     25.9436     58.5142
  2106.2500     58.4028    145.0334     25.2443     55.5599
  2106.5000     60.1748    145.1548     24.3684     52.3521
  2106.7500     60.7149    145.3030     23.3434     50.9154
  2107.0000     59.4402    145.4699     22.2094     49.6196
  2107.2500     55.9328    145.6569     21.0194     49.3176
  2107.5000     50.2545    145.8751     19.8300     50.4495
  2107.7500     43.0917    146.1396     18.6897     53.2827
  2108.0000     35.6401    146.4620     17.6333     62.4975
  2108.2500     29.1665    146.8442     16.6829     72.2793
  2108.5000     24.3861    147.2731     15.8491     91.1126
  2108.7500     21.2029    147.7185     15.1299    104.9269
  2109.0000     19.0868    148.1377     14.5123    124.5256
  2109.2500     17.5697    148.4907     13.9785    135.2518
  2109.5000     16.4169    148.7559     13.5146    146.0886
  2109.7500     15.5694    148.9330     13.1152    149.6125
  2110.0000     15.0142    149.0342     12.7801    150.4838
  2110.2500     14.6832    149.0752     12.5104    149.5755
  2110.5000     14.4831    149.0726     12.3070    149.1817
  2110.7500     14.3751    149.0451     12.1738    150.9732
  2111.0000     14.3702    149.0125     12.1197    156.5940
  2111.2500     14.4577    148.9906     12.1571    160.6660
  2111.5000     14.5953    148.9847     12.2963    163.9942
  2111.7500     14.7743    148.9872     12.5416    163.5544
  2112.0000     15.0166    148.9861     12.8875    159.8777
  2112.2500     15.3231    148.9745     13.3155    156.4623
  2112.5000     15.6804    148.9530     13.7905    150.8903
  2112.7500     16.0667    148.9252     14.2597    146.8626
  2113.0000     16.4288    148.8927     14.6615    139.9079
  2113.2500     16.6899    148.8552     14.9432    134.5281
  2113.5000     16.7877    148.8103     15.0793    125.9477
  2113.7500     16.6988    148.7514     15.0777    120.8029
  2114.0000     16.4227    148.6708     14.9723    115.4521
  2114.2500     15.9607    148.5723     14.8095    113.5358
  2114.5000     15.3374    148.4821     14.6362    112.0377
  2114.7500     14.6470    148.4450     14.4910    111.5582
  2115.0000     14.0518    148.5052     14.3975    112.2083
  2115.2500     13.7246    148.6835     14.3605    113.9618
  2115.5000     13.8129    148.9671     14.3657    118.2045
  2115.7500     14.4089    149.3158     14.3844    121.6754
  2116.0000     15.4288    149.6810     14.3811    127.8957
  2116.2500     16.5354    150.0230     14.3253    132.9738
  2116.5000     17.3334    150.3190     14.2005    141.4064
  2116.7500     17.6468    150.5621     14.0078    146.4791
  2117.0000     17.5456    150.7604     13.7608    151.4240
  2117.2500     17.1892    150.9337     13.4754    152.7119
  2117.5000     16.7364    151.1050     13.1614    152.7988
  2117.7500     16.3326    151.2855     12.8224    152.5005
  2118.0000     16.0440    151.4663     12.4616    152.0800
  2118.2500     15.7637    151.6246     12.0876    151.5328
  2118.5000     15.2610    151.7418     11.7144    149.6293
  2118.7500     14.3893    151.8207     11.3575    147.4535
  2119.0000     13.2572    151.8982     11.0288    142.7223
  2119.2500     12.1646    152.0400     10.7342    138.5806
  2119.5000     11.3896    152.3017     10.4732    131.4621
  2119.7500     11.0618    152.6800     10.2406    126.9275
  2120.0000     11.1410    153.1049     10.0284    121.9641
  2120.2500     11.4209    153.4879      9.8278    120.4061
  2120.5000     11.6082    153.7766      9.6308    120.7544
  2120.7500     11.5040    153.9680      9.4322    122.2449
  2121.0000     11.1338    154.0858      9.2323    124.4685
  2121.2500     10.6802    154.1561      9.0381    124.7569
  2121.5000     10.3170    154.1937      8.8619    122.6399
  2121.7500     10.1225    154.1958      8.7153    120.1304
  2122.0000     10.1042    154.1397      8.6041    116.7959
  2122.2500     10.2271    153.9942      8.5251    115.9793
  2122.5000     10.4135    153.7465      8.4683    117.5998
  2122.7500     10.5776    153.4241      8.4233    120.1869
  2123.0000     10.6747    153.0921      8.3853    124.7245
  2123.2500     10.7011    152.8228      8.3560    127.1452
  2123.5000     10.6733    152.6604      8.3412    128.6099
  2123.7500     10.6205    152.6049      8.3462    127.9035
  2124.0000     10.5751    152.6251      8.3733    124.5682
  2124.2500     10.5498    152.6843      8.4209    121.1482
  2124.5000     10.5375    152.7569      8.4834    114.8377
  2124.7500     10.5320    152.8301      8.5522    110.1706
  2125.0000     10.5463    152.9025      8.6196    103.0224
  2125.2500     10.6146    152.9783      8.6819     98.6904
  2125.5000     10.7487    153.0560      8.7412     94.4428
  2125.7500     10.9030    153.1172      8.8029     94.1018
  2126.0000     11.0125    153.1321      8.8706     97.7679
  2126.2500     11.0492    153.0776      8.9424    102.1422
  2126.5000     11.0338    152.9542      9.0115    108.9704
  2126.7500     11.0129    152.7905      9.0699    112.3392
  2127.0000     11.0031    152.6324      9.1131    114.6577
  2127.2500     10.9326    152.5229      9.1408    114.5271
  2127.5000     10.6929    152.4820      9.1542    112.4009
  2127.7500     10.2854    152.4990      9.1514    110.0133
  2128.0000      9.8650    152.5419      9.1272    105.7510
  2128.2500      9.6063    152.5733      9.0753    103.0407
  2128.5000      9.5615    152.5641      8.9932     99.7534
  2128.7500      9.6452    152.5044      8.8849     97.9309
  2129.0000      9.7029    152.4142      8.7604     95.1279
  2129.2500      9.6174    152.3456      8.6320     93.1625
  2129.5000      9.4075    152.3629      8.5094     90.9750
  2129.7500      9.2061    152.5026      8.3976     90.7034
  2130.0000      9.1351    152.7416      8.2974     92.1930
  2130.2500      9.2264    153.0039      8.2058     93.7683
  2130.5000      9.4406    153.2093      8.1172     95.7294
  2130.7500      9.6718    153.3243      8.0230     96.5652
  2131.0000      9.7473    153.3672      7.9144     97.5928
  2131.2500      9.5735    153.3692      7.7863     98.5030
  2131.5000      9.2454    153.3376      7.6419    100.5733
  2131.7500      8.9044    153.2545      7.4915    102.5009
  2132.0000      8.6106    153.1047      7.3475    106.2822
  2132.2500      8.3840    152.9036      7.2196    109.3162
  2132.5000      8.2459    152.6956      7.1120    113.9476
  2132.7500      8.2100    152.5265      7.0229    116.4475
  2133.0000      8.2530    152.4155      6.9461    118.5231
  2133.2500      8.3091    152.3494      6.8723    118.8029
  2133.5000      8.3291    152.2994      6.7925    118.3681
  2133.7500      8.3157    152.2403      6.7003    118.2886
  2134.0000      8.2654    152.1586      6.5946    119.7503
  2134.2500      8.1502    152.0499      6.4801    121.9377
  2134.5000      7.9822    151.9159      6.3655    125.8935
  2134.7500      7.8212    151.7622      6.2606    128.0301
  2135.0000      7.7137    151.5951      6.1736    129.7785
  2135.2500      7.6550    151.4186      6.1099    130.1927
  2135.5000      7.6117    151.2388      6.0716    130.1582
  2135.7500      7.5616    151.0697      6.0578    129.7745
  2136.0000      7.5133    150.9289      6.0665    128.9881
  2136.2500      7.4955    150.8227      6.0962    128.6879
  2136.5000      7.5216    150.7399      6.1459    128.5551
  2136.7500      7.5807    150.6645      6.2149    128.0246
  2137.0000      7.6769    150.5919      6.3025    125.3326
  2137.2500      7.8508    150.5284      6.4068    122.1724
  2137.5000      8.1156    150.4771      6.5263    116.2934
  2137.7500      8.3871    150.4221      6.6596    112.2423
  2138.0000      8.5633    150.3250      6.8056    106.5156
  2138.2500      8.6459    150.1430      6.9625    103.0468
