~Version Information
VERS.                      2.0: CWLS Log ASCII Standard - VERSION 2.0
WRAP.                       NO: One line per depth step
~Well Information Block
STRT.FT               258.0000: 
STOP.FT              1001.0000: 
STEP.FT                 0.2500: 
NULL.                -999.2500: 
COMP.          Pioneer Natural Resources: COMPANY
WELL.          Piggyback 33-25: WELL
FLD.           Purgatoire River: FIELD
LOC.           1600' FSL & 1800' FEL: LOCATION
PROV.                 Colorado: PROVINCE
CNTY.               Las Animas: COUNTRY
SRVC.                Patterson: SERVICE COMPANY
DATE.          Fri Apr 29 14:22:38 2005: LOG DATE
UWI.           05 071 08233 00: UNIQUE WELL ID
~Curve Information Block
DEPT.FT            0 000 00 00: Depth
SN.Ohm-m                      : IEL Short Normal
SP.mV                         : IEL Spontaneous Potential
DIR.Ohm-m                     : IEL Induction Resistivity
GR.GAPI                       : Gamma Ray
~Parameter Information Block
~A  Depth        SN          SP         DIR          GR     
# ...
   526.0000     35.2839      0.3453     25.2914    124.5332
   526.2500     33.4256      0.2897     23.9945    128.4337
   526.5000     32.2250      0.1900     22.7621    132.9775
   526.7500     31.3523      0.0752     21.6374    135.2693
   527.0000     30.3585     -0.0173     20.6766    138.2537
   527.2500     29.1686     -0.0644     19.9161    140.3334
   527.5000     27.8822     -0.0724     19.3607    144.0486
   527.7500     26.5928     -0.0736     18.9933    147.0256
   528.0000     25.4211     -0.1087     18.7937    151.8763
   528.2500     24.4618     -0.2079     18.7503    154.7137
   528.5000     23.7740     -0.3785     18.8567    156.8254
   528.7500     23.4472     -0.6092     19.0936    156.0623
   529.0000     23.5528     -0.8926     19.4086    151.2609
   529.2500     24.0839     -1.2455     19.7171    145.9706
   529.5000     24.9528     -1.7130     19.9375    136.2317
   529.7500     26.0001     -2.3511     20.0429    129.4802
   530.0000     27.0913     -3.1981     20.0861    120.3533
   530.2500     28.1916     -4.2394     20.1722    115.5590
   530.5000     29.2713     -5.3841     20.4080    111.2884
   530.7500     30.3520     -6.4776     20.8695    110.8383
   531.0000     31.6321     -7.3534     21.5958    113.5944
   531.2500     33.0794     -7.8990     22.5944    116.9367
   531.5000     34.1261     -8.0908     23.8440    122.3738
   531.7500     34.2794     -7.9885     25.2908    125.2780
   532.0000     33.6598     -7.6996     26.8479    126.9511
   532.2500     32.8702     -7.3353     28.4008    125.4571
   532.5000     32.5968     -6.9657     29.8153    118.8808
   532.7500     33.1620     -6.5994     30.9392    112.3834
   533.0000     34.4886     -6.2021     31.6234    102.2310
   533.2500     36.3389     -5.7338     31.7918     96.7953
   533.5000     38.4129     -5.1630     31.5265     92.0264
   533.7500     40.4698     -4.4535     31.0629     91.1644
   534.0000     42.1905     -3.5661     30.6687     93.0272
   534.2500     43.1650     -2.4946     30.5132     96.0828
   534.5000     43.5830     -1.3038     30.6137    102.3369
   534.7500     44.1835     -0.1137     30.8559    106.6429
   535.0000     44.9101      0.9671     31.0526    111.5695
   535.2500     44.8324      1.8984     31.0189    113.2003
   535.5000     43.8443      2.7066     30.6429    113.2679
   535.7500     42.7527      3.4416     29.9168    112.5069
   536.0000     41.7726      4.1399     28.9168    112.0478
   536.2500     40.4967      4.8110     27.7531    112.9390
   536.5000     38.8696      5.4403     26.5261    115.8472
   536.7500     37.1231      5.9976     25.3086    118.0371
   537.0000     35.2986      6.4509     24.1447    120.3547
   537.2500     33.3520      6.7889     23.0556    121.0586
   537.5000     31.3549      7.0447     22.0486    122.0346
   537.7500     29.4405      7.2964     21.1279    123.9508
   538.0000     27.7232      7.6266     20.3026    130.3349
   538.2500     26.3330      8.0607     19.5862    136.5631
   538.5000     25.3904      8.5377     18.9880    146.1631
   538.7500     24.7763      8.9400     18.5044    151.0563
   539.0000     24.1222      9.1643     18.1183    155.0325
   539.2500     23.2481      9.1792     17.8105    155.9822
   539.5000     22.3559      9.0293     17.5749    156.3924
   539.7500     21.7337      8.7919     17.4210    156.3303
   540.0000     21.5252      8.5261     17.3598    154.8924
   540.2500     21.7836      8.2487     17.3871    152.2677
   540.5000     22.6156      7.9461     17.4858    145.5133
   540.7500     24.1638      7.6058     17.6483    139.8827
   541.0000     26.3369      7.2450     17.8973    131.7982
   541.2500     28.6478      6.9154     18.2825    127.3726
   541.5000     30.5875      6.6771     18.8558    121.7934
   541.7500     32.0246      6.5612     19.6453    118.1067
   542.0000     33.2008      6.5517     20.6449    112.1636
   542.2500     34.5691      6.6045     21.8180    108.2170
   542.5000     36.2079      6.6845     23.1017    102.6669
   542.7500     37.6711      6.7813     24.3965     98.7420
   543.0000     38.7836      6.8949     25.5453     90.8864
   543.2500     39.7720      7.0163     26.3425     83.7441
   543.5000     40.9008      7.1285     26.6155     71.0389
   543.7500     42.4562      7.2245     26.3379     62.6835
   544.0000     44.5042      7.3181     25.6615     52.8541
   544.2500     46.6060      7.4373     24.8228     48.8692
   544.5000     47.9136      7.6060     24.0201     46.8539
   544.7500     47.5311      7.8283     23.3561     48.0694
   545.0000     45.1128      8.0838     22.8468     53.9901
   545.2500     41.2502      8.3377     22.4547     60.8257
   545.5000     37.0321      8.5640     22.1189     74.7347
   545.7500     33.2368      8.7620     21.7754     85.1799
   546.0000     30.1028      8.9530     21.3699     99.2943
   546.2500     27.6383      9.1632     20.8623    105.7478
   546.5000     25.8694      9.4093     20.2260    109.1465
   546.7500     24.8064      9.6965     19.4478    107.3362
   547.0000     24.3267     10.0241     18.5352    100.3395
   547.2500     24.2105     10.3881     17.5244     94.4191
   547.5000     24.2884     10.7804     16.4803     86.6659
   547.7500     24.4574     11.1836     15.4825     83.8523
   548.0000     24.5023     11.5704     14.6004     84.9507
   548.2500     24.1213     11.9109     13.8713     89.4111
   548.5000     23.2761     12.1881     13.2910    100.3720
   548.7500     22.2249     12.4113     12.8219    108.9706
   549.0000     21.0755     12.6136     12.4142    120.7396
   549.2500     19.6650     12.8344     12.0286    126.5704
   549.5000     18.0175     13.0969     11.6467    131.8647
   549.7500     16.4908     13.3980     11.2686    133.5725
   550.0000     15.3422     13.7150     10.9046    134.4061
   550.2500     14.5114     14.0187     10.5696    134.2793
   550.5000     13.8620     14.2812     10.2806    133.8214
   550.7500     13.4039     14.4792     10.0542    133.6775
   551.0000     13.2279     14.5971      9.9023    133.7876
   551.2500     13.3141     14.6314      9.8299    133.8906
   551.5000     13.5368     14.5925      9.8348    133.6889
   551.7500     13.8262     14.4995      9.9092    133.1220
   552.0000     14.1999     14.3696     10.0424    131.4352
   552.2500     14.6755     14.2113     10.2234    129.7600
   552.5000     15.2342     14.0274     10.4421    126.4621
   552.7500     15.8400     13.8211     10.6889    123.7286
   553.0000     16.4664     13.6001     10.9557    119.0050
   553.2500     17.1195     13.3756     11.2374    115.7481
   553.5000     17.8533     13.1631     11.5343    111.3695
   553.7500     18.7284     12.9867     11.8491    109.1995
   554.0000     19.7217     12.8836     12.1797    107.8167
   554.2500     20.6459     12.9012     12.5113    108.3554
   554.5000     21.0740     13.0767     12.8160    110.6649
   554.7500     20.4637     13.4113     13.0589    112.3097
   555.0000     18.7061     13.8617     13.2073    113.7473
   555.2500     16.5676     14.3629     13.2394    114.0604
   555.5000     15.2127     14.8626     13.1513    114.6507
   555.7500     15.1154     15.3373     12.9590    115.6919
   556.0000     15.7391     15.7822     12.6934    117.9900
   556.2500     16.3401     16.1918     12.3918    119.2038
   556.5000     16.6240     16.5520     12.0916    119.3104
   556.7500     16.6257     16.8501     11.8261    118.3553
   557.0000     16.4497     17.0861     11.6217    117.1588
   557.2500     16.2155     17.2753     11.4930    117.7451
   557.5000     16.0345     17.4403     11.4396    121.3934
   557.7500     15.9688     17.6033     11.4442    124.8631
   558.0000     16.0130     17.7770     11.4780    129.0358
   558.2500     16.1033     17.9535     11.5111    129.8588
   558.5000     16.1460     18.0996     11.5264    127.4878
   558.7500     16.0459     18.1696     11.5259    123.9544
   559.0000     15.7374     18.1309     11.5260    117.3637
   559.2500     15.2239     17.9853     11.5464    113.2536
