~Version Information
 VERS.                                  2.0 : CWLS LAS VERSION
 WRAP.                                   NO : WRAPING MODE
 SWARE .                  MController 2.6.3 : SOFTWARE VERSION
~Well Information
 WELL.                        Chevron 13-13 : WELL
 COMP.    Pioneer Natural Resources USA Inc : COMPANY
 FLD.                      Purgatoire River : FIELD
 LOC.                NW/SW Sec 13 T32S R66W : LOCATION
 DATE.                         2/10-11/2007 : DATE(S) LOGGED
 SRVC.        Ismay Geological Services Ltd : SERVICE COMPANY
 STAT.                                   CO : STATE
 CNTY.                           Las Animas : COUNTY
 CTRY.                                  USA : COUNTRY
 API.                          05-071-08319 : API NUMBER
 STRT.FT                             985.00 : START DEPTH
 STOP.FT                            2410.00 : STOP DEPTH
 STEP.FT                               1.00 : DEPTH INCREMENT
 NULL.                                -9999 : NULL VALUE
~Curve information
 DEPTH.FT                                   :
 ROP.MIN/FT                                 :
 GAS.UNITS                                  :
~ASCII Log data
      885.00         0.65          5.1 
      886.00         0.33          4.7 
      887.00         0.73          6.0 
      888.00         1.07          5.6 
      889.00         0.20          5.6 
      890.00         1.28          5.5 
      891.00         0.10          5.1 
      892.00         0.53          6.0 
      893.00         1.73          5.8 
      894.00         0.20          5.2 
      895.00         0.92          5.6 
      896.00         0.10          5.0 
      897.00         0.40          4.8 
      898.00         0.67          5.5 
      899.00         0.13          5.4 
      900.00         0.90          5.5 
      901.00         0.10          5.8 
      902.00         0.85          5.7 
      903.00         0.23          5.2 
      904.00         0.13          5.3 
      905.00         0.40          5.8 
      906.00         0.50          5.6 
      907.00         0.10          4.8 
      908.00         0.47          5.2 
      909.00         0.47          5.1 
      910.00         0.10          4.7 
      911.00         0.55          5.1 
      912.00         0.47          5.5 
      913.00         0.27          5.7 
      914.00         0.43          5.3 
      915.00         0.33          5.9 
      916.00         0.37          5.8 
      917.00         0.40          6.4 
      918.00         0.67          6.2 
      919.00         0.22          5.5 
      920.00         0.67          6.4 
      921.00         0.50          5.8 
      922.00         0.17          5.8 
      923.00         0.27          4.1 
      924.00         0.37          5.5 
      925.00         0.33          6.1 
      926.00         0.13          5.7 
      927.00         0.95          5.9 
      928.00         0.10          5.5 
      929.00         4.42          6.2 
      930.00         1.23          5.9 
      931.00         0.13          5.0 
      932.00         0.13          4.6 
      933.00         0.78          4.9 
      934.00         0.13          4.8 
      935.00         0.27          5.9 
      936.00         0.17          5.5 
      937.00         0.07          5.5 
      938.00         1.30          5.9 
      939.00         0.57          5.9 
      940.00         0.13          5.0 
      941.00         1.08          5.7 
      942.00         0.13          5.4 
      943.00         1.00          5.6 
      944.00         0.63          5.1 
      945.00         0.30          5.5 
      946.00         0.13          5.8 
      947.00         0.62          5.3 
      948.00         0.60          5.2 
      949.00         0.60          5.2 
      950.00         0.30          5.4 
      951.00         0.83          5.5 
      952.00         2.68          6.1 
      953.00         1.03          6.0 
      954.00         0.50          5.0 
      955.00         0.58          4.9 
      956.00         0.77          5.2 
      957.00         0.57          5.3 
      958.00         0.80          5.3 
      959.00         0.57          6.1 
      960.00         0.58          6.5 
      961.00         0.53          6.5 
      962.00         0.13          5.9 
      963.00         0.30          5.6 
      964.00         0.20          6.7 
      965.00         0.13          5.5 
      966.00         0.27          6.1 
      967.00         0.70          6.8 
      968.00         0.17          5.6 
      969.00         0.27          6.3 
      970.00         0.55          6.5 
      971.00         0.10          6.0 
      972.00         0.30          4.6 
      973.00         0.40          2.6 
      974.00         0.13          2.3 
      975.00         0.10          2.3 
      976.00         0.37          2.6 
      977.00         0.27          1.3 
      978.00         0.20          2.5 
      979.00         0.23          2.3 
      980.00         0.63          2.8 
      981.00         1.05          7.8 
      982.00         0.47          7.7 
      983.00         0.30          5.7 
      984.00         0.23          4.4 
      985.00         0.50          4.5 
      986.00         0.37         57.2 
      987.00         0.23         46.6 
      988.00         0.20         39.2 
      989.00         0.20         16.4 
      990.00         0.18          6.2 
      991.00         0.20          4.3 
      992.00         0.20          2.6 
      993.00         0.17          2.0 
      994.00         0.20          3.0 
      995.00         0.20          3.0 
      996.00         0.20          3.8 
      997.00         0.20          3.1 
      998.00         0.17          2.9 
      999.00         0.20          3.2 
     1000.00         0.13          3.4 
     1001.00         0.17          2.6 
     1002.00         0.20          4.3 
     1003.00         0.20          4.3 
     1004.00         0.17          4.9 
     1005.00         0.20          4.4 
     1006.00         0.17          3.9 
     1007.00         0.17          3.9 
     1008.00         0.18          4.0 
     1009.00         0.17          3.6 
     1010.00         0.23          4.5 
     1011.00         1.23          4.3 
     1012.00         0.40          3.6 
     1013.00         0.37          4.2 
     1014.00         0.20          4.3 
     1015.00         0.23          3.3 
     1016.00         0.17          4.1 
     1017.00         0.20          4.2 
     1018.00         0.18          3.3 
     1019.00         0.17          3.9 
     1020.00         0.13          3.1 
     1021.00         0.20          4.0 
     1022.00         0.17          4.0 
     1023.00         0.17          3.8 
     1024.00         0.17          4.1 
     1025.00         0.27          3.6 
     1026.00         0.13          2.9 
     1027.00         0.17          3.7 
     1028.00         0.13          3.1 
     1029.00         0.13          3.8 
     1030.00         0.17          3.2 
     1031.00         0.17          3.4 
     1032.00         0.17          2.7 
     1033.00         0.17          2.7 
     1034.00         0.20          4.1 
     1035.00         0.17          3.0 
     1036.00         0.17          3.0 
     1037.00         0.25          3.1 
     1038.00         0.17          3.5 
     1039.00         0.13          3.5 
     1040.00         0.17          4.0 
     1041.00         2.20          3.7 
     1042.00         0.10          1.6 
     1043.00         0.13          1.8 
     1044.00         0.33          2.2 
     1045.00         0.28          1.4 
     1046.00         0.23          1.7 
     1047.00         0.20          0.7 
     1048.00         0.20          2.3 
     1049.00         0.20          0.4 
     1050.00         0.17          1.7 
     1051.00         0.17          0.6 
     1052.00         0.17          2.1 
     1053.00         0.17          2.0 
     1054.00         0.13          1.9 
     1055.00         0.17          4.1 
     1056.00         0.13         18.8 
     1057.00         0.17         26.1 
     1058.00         0.13         45.0 
     1059.00         0.13         45.0 
     1060.00         0.20         59.0 
     1061.00         0.17         41.0 
     1062.00         0.13         41.0 
     1063.00         0.20         32.4 
     1064.00         0.12         32.4 
     1065.00         0.10         35.5 
     1066.00         0.17         53.8 
     1067.00         0.17         83.2 
     1068.00         0.13         83.2 
     1069.00         0.17        107.4 
     1070.00         0.17        145.1 
     1071.00         1.20        260.4 
     1072.00         0.57        133.3 
     1073.00         0.37         91.6 
     1074.00         0.32         80.7 
     1075.00         0.23         74.0 
     1076.00         0.23         67.4 
     1077.00         0.20         66.2 
     1078.00         0.20         65.9 
     1079.00         0.23         64.2 
     1080.00         0.20         63.3 
     1081.00         0.17         62.6 
     1082.00         0.20         62.1 
     1083.00         0.17         61.2 
     1084.00         0.17         61.0 
