~Version Information
VERS.                      2.0: CWLS Log ASCII Standard - VERSION 2.0
WRAP.                       NO: One line per depth step
~Well Information Block
STRT.FT                -7.0000: 
STOP.FT              1656.2500: 
STEP.FT                 0.2500: 
NULL.                -999.2500: 
COMP.          Pioneer Natural Resources: COMPANY
WELL.               Elmo 14-21: WELL
FLD.           Purgatorie River: FIELD
LOC.           623' FSL & 450' FWL--: LOCATION
PROV.                       CO: PROVINCE
CNTY.               Las Animas: COUNTRY
SRVC.          Patterson Wireline: SERVICE COMPANY
DATE.          Mon Jun 27 15:45:41 2005: LOG DATE
UWI.           05 071 08360 00: UNIQUE WELL ID
~Curve Information Block
DEPT.FT            0 000 00 00: Depth
CCL.                          : Casing Collar Locator
TT3.usec                      : CBL 3' Travel Time
AMP3.mV                       : CBL 3' Amplitude
GR.GAPI                       : Gamma Ray
~Parameter Information Block
~A  Depth       CCL         TT3         AMP3         GR     
# ...
   763.5000      0.0000    764.1838      8.1636    132.6484
   763.7500      0.0000    752.0278      8.2238    131.7699
   764.0000      0.0000    746.0444      8.2886    131.4066
   764.2500      0.0000    748.4314      8.3159    130.6124
   764.5000      0.0000    759.2292      8.2854    129.3197
   764.7500      0.0000    775.8129      8.2096    129.3170
   765.0000      0.0000    793.4481      8.1240    133.0027
   765.2500      0.0000    808.1732      8.0616    140.8889
   765.5000      0.0000    819.1509      8.0289    150.6588
   765.7500      0.0000    826.9844      8.0007    158.8683
   766.0000      0.0000    830.6158      7.9448    163.6892
   766.2500      0.0000    827.9337      7.8525    165.9513
   766.5000      0.0000    819.3063      7.7416    167.5284
   766.7500      0.0000    808.7918      7.6374    169.1225
   767.0000      0.0000    801.2402      7.5625    169.7982
   767.2500      0.0000    798.8060      7.5342    168.1639
   767.5000      0.0000    800.4145      7.5486    163.6372
   767.7500      0.0000    803.8090      7.5694    156.8450
   768.0000      0.0000    807.6288      7.5560    149.0385
   768.2500      0.0000    811.8713      7.5061    141.0791
   768.5000      0.0000    816.6659      7.4561    133.2867
   768.7500      0.0000    820.5267      7.4353    126.4355
   769.0000      0.0000    819.6351      7.4361    122.3574
   769.2500      0.0000    809.2807      7.4257    122.8873
   769.5000      0.0000    786.4924      7.3747    128.3126
   769.7500      0.0000    752.1835      7.2709    136.9321
   770.0000      0.0000    712.5559      7.1134    145.5081
   770.2500      0.0000    678.8820      6.8960    150.0542
   770.5000      0.0000    662.4805      6.6105    147.6054
   770.7500      0.0000    666.0848      6.2821    138.2613
   771.0000      0.0000    681.0392      5.9832    124.9461
   771.2500      0.0000    695.6400      5.7821    110.9184
   771.5000      0.0000    705.7491      5.6858     98.2683
   771.7500      0.0000    716.2676      5.6412     88.4970
   772.0000      2.0000    733.4196      5.5823     82.9066
   772.2500      0.0000    756.7443      5.4752     81.7530
   772.5000      0.0000    778.4124      5.3485     83.7036
   772.7500      0.0000    789.6965      5.2852     86.6138
   773.0000      0.0000    787.7043      5.3618     88.8503
   773.2500      0.0000    776.8978      5.5742     89.9656
   773.5000      0.0000    765.5795      5.8263     90.3852
   773.7500      0.0000    760.8174      6.0004     90.5401
   774.0000      0.0000    764.8832      6.0378     90.2683
   774.2500      0.0000    775.3040      5.9541     89.0737
   774.5000      0.0000    787.9756      5.7999     87.0397
   774.7500      0.0000    800.0623      5.6282     85.3474
   775.0000      0.0000    810.3987      5.4873     85.5470
   775.2500      0.0000    818.3422      5.4126     88.1710
   775.5000      0.0000    823.0549      5.4130     92.1612
   775.7500      0.0000    824.2453      5.4712     95.5447
   776.0000      0.0000    823.3842      5.5563     96.4406
   776.2500      0.0000    823.1794      5.6348     93.7177
   776.5000      0.0000    824.9652      5.6813     87.4703
   776.7500      0.0000    826.9182      5.6845     79.3349
   777.0000      0.0000    825.7291      5.6499     71.9683
   777.2500      0.0000    820.4841      5.5984     67.4501
   777.5000      0.0000    814.3366      5.5562     65.8960
   777.7500      0.0000    811.6398      5.5384     65.8345
   778.0000      0.0000    813.5302      5.5478     65.9926
   778.2500      0.0000    817.0687      5.5883     66.4265
   778.5000      0.0000    818.6271      5.6620     67.7440
   778.7500      0.0000    817.2697      5.7516     69.7041
   779.0000      0.0000    814.7474      5.8256     71.2963
   779.2500      0.0000    812.9788      5.8643     72.1601
   779.5000      0.0000    812.0861      5.8663     73.0595
   779.7500      0.0000    810.9269      5.8402     74.5346
   780.0000      0.0000    809.3158      5.8031     75.7232
   780.2500      0.0000    809.1072      5.7765     75.2326
   780.5000      0.0000    812.2684      5.7681     73.0365
   780.7500      0.0000    817.9499      5.7659     70.9276
   781.0000      0.0000    822.5685      5.7561     70.8229
   781.2500      0.0000    823.2438      5.7348     72.9237
   781.5000      0.0000    820.4684      5.6990     75.9265
   781.7500      0.0000    817.1450      5.6409     78.7510
   782.0000      0.0000    815.5444      5.5605     81.3502
   782.2500      0.0000    815.8258      5.4772     83.9318
   782.5000      0.0000    817.3933      5.4147     86.2937
   782.7500      0.0000    820.5255      5.3772     88.1765
   783.0000      0.0000    825.7175      5.3514     89.5514
   783.2500      0.0000    831.9880      5.3361     90.1900
   783.5000      0.0000    837.0291      5.3476     89.4203
   783.7500      0.0000    839.2514      5.3882     86.7716
   784.0000      0.0000    839.1666      5.4270     82.6847
   784.2500      0.0000    838.4551      5.4296     78.2287
   784.5000      0.0000    837.8510      5.3905     74.2683
   784.7500      0.0000    836.3074      5.3272     71.2806
   785.0000      0.0000    832.3486      5.2574     69.7184
   785.2500      0.0000    825.8065      5.1978     69.9228
   785.5000      0.0000    817.8122      5.1653     71.5609
   785.7500      0.0000    809.3605      5.1589     73.6504
   786.0000      0.0000    800.4772      5.1526     75.4465
   786.2500      0.0000    790.9484      5.1248     76.9796
   786.5000      0.0000    781.4028      5.0863     78.4783
   786.7500      0.0000    773.2199      5.0664     79.6606
   787.0000      0.0000    767.4573      5.0735     79.9702
   787.2500      0.0000    764.1704      5.0831     79.2695
   787.5000      0.0000    762.7214      5.0638     77.9436
   787.7500      0.0000    762.4317      5.0085     76.5013
   788.0000      0.0000    762.8979      4.9413     75.2612
   788.2500      0.0000    763.9154      4.8981     74.2272
   788.5000      0.0000    765.2838      4.8996     73.2019
   788.7500      0.0000    766.7526      4.9413     72.1797
   789.0000      0.0000    768.0884      5.0064     71.5153
   789.2500      0.0000    769.0619      5.0821     71.4970
   789.5000      0.0000    769.4723      5.1582     71.9928
   789.7500      0.0000    769.4833      5.2184     72.9257
   790.0000      0.0000    769.7375      5.2483     74.9343
   790.2500      0.0000    770.5369      5.2500     78.9413
   790.5000      0.0000    771.0992      5.2361     84.7781
   790.7500      0.0000    770.3763      5.2083     90.5771
   791.0000      0.0000    768.4180      5.1543     93.9355
   791.2500      0.0000    766.2601      5.0708     93.6739
   791.5000      0.0000    764.7050      4.9779     90.4823
   791.7500      0.0000    763.7543      4.9019     86.2889
   792.0000      0.0000    763.0327      4.8478     83.1698
   792.2500      0.0000    762.3193      4.7967     82.4297
   792.5000      0.0000    761.6503      4.7315     84.2921
   792.7500      0.0000    761.1481      4.6564     88.3487
   793.0000      0.0000    760.8600      4.5875     94.1444
   793.2500      0.0000    760.7465      4.5321    101.1861
   793.5000      0.0000    760.7377      4.4900    108.6971
   793.7500      0.0000    760.7480      4.4720    115.9492
   794.0000      0.0000    760.7390      4.5016    122.9967
   794.2500      0.0000    760.9221      4.5919    130.4825
   794.5000      0.0000    762.0272      4.7280    138.2294
   794.7500      0.0000    765.3126      4.8819    144.6959
   795.0000      0.0000    772.0189      5.0471    148.5181
   795.2500      0.0000    782.2308      5.2555    150.0611
   795.5000      0.0000    794.0004      5.5549    150.7490
   795.7500      0.0000    803.9699      5.9598    151.1128
   796.0000      0.0000    809.4320      6.4184    149.8720
   796.2500      0.0000    809.9776      6.8343    144.7627
   796.5000      0.0000    807.2454      7.1321    134.3848
   796.7500      0.0000    803.4779      7.3075    119.8490
