~Version Information
VERS.                      2.0: CWLS Log ASCII Standard - VERSION 2.0
WRAP.                       NO: One line per depth step
~Well Information Block
STRT.FT               460.0000: 
STOP.FT               961.2500: 
STEP.FT                 0.2500: 
NULL.                -999.2500: 
COMP.          Pioneer Natural Resources: COMPANY
WELL.                Pug 33-19: WELL
FLD.           Purgatoire River: FIELD
LOC.           1381' FSL & 2140' FEL: LOCATION
PROV.                 Colorado: PROVINCE
CNTY.               Las Animas: COUNTRY
SRVC.                Patterson: SERVICE COMPANY
DATE.          Tue Dec 14 08:25:14 2004: LOG DATE
UWI.           05 071 08193 00: UNIQUE WELL ID
~Curve Information Block
DEPT.FT            0 000 00 00: Depth
SN.Ohm-m                      : IEL Short Normal
SP.mV                         : IEL Spontaneous Potential
DIR.Ohm-m                     : IEL Induction Resistivity
GR.GAPI                       : Gamma Ray
~Parameter Information Block
~A  Depth        SN          SP         DIR          GR     
# ...
   895.5000     25.4628     89.5551     21.1392    108.5445
   895.7500     24.4803     90.1629     20.3887    115.1039
   896.0000     23.4810     90.6797     19.6226    124.9911
   896.2500     22.5342     91.0618     18.8716    131.8769
   896.5000     21.6894     91.2828     18.1634    142.4014
   896.7500     20.9680     91.3353     17.5240    148.9610
   897.0000     20.3698     91.2284     16.9785    157.2923
   897.2500     19.8866     90.9873     16.5500    161.5884
   897.5000     19.5121     90.6521     16.2556    165.0678
   897.7500     19.2414     90.2764     16.1021    164.3573
   898.0000     19.0636     89.9223     16.0811    157.8511
   898.2500     18.9555     89.6537     16.1687    150.5129
   898.5000     18.8839     89.5292     16.3275    137.3142
   898.7500     18.8148     89.5991     16.5134    128.5258
   899.0000     18.7232     89.9041     16.6845    117.7796
   899.2500     18.5995     90.4741     16.8045    113.3541
   899.5000     18.4493     91.3225     16.8428    111.1506
   899.7500     18.2864     92.4371     16.7727    111.7485
   900.0000     18.1193     93.7718     16.5764    113.8757
   900.2500     17.9400     95.2440     16.2546    115.7906
   900.5000     17.7330     96.7435     15.8344    120.0648
   900.7500     17.5011     98.1499     15.3668    124.1166
   901.0000     17.2769     99.3556     14.9130    131.4391
   901.2500     17.1065    100.2841     14.5268    136.3459
   901.5000     17.0206    100.8989     14.2443    141.8669
   901.7500     17.0254    101.1997     14.0829    143.1146
   902.0000     17.1158    101.2123     14.0474    139.8593
   902.2500     17.2938    100.9777     14.1362    134.2912
   902.5000     17.5759    100.5458     14.3454    122.7400
   902.7500     17.9855     99.9740     14.6708    114.6529
   903.0000     18.5391     99.3278     15.1097    104.4770
   903.2500     19.2317     98.6768     15.6608     99.6993
   903.5000     20.0235     98.0872     16.3162     95.6248
   903.7500     20.8381     97.6105     17.0478     94.6590
   904.0000     21.5797     97.2755     17.7944     95.0401
   904.2500     22.1682     97.0847     18.4654     96.2042
   904.5000     22.5666     97.0164     18.9688     99.5263
   904.7500     22.7827     97.0324     19.2503    103.1740
   905.0000     22.8502     97.0854     19.3139    111.0533
   905.2500     22.8083     97.1274     19.2110    117.6121
   905.5000     22.6930     97.1159     19.0109    128.1308
   905.7500     22.5360     97.0189     18.7774    134.3687
   906.0000     22.3678     96.8191     18.5610    139.9116
   906.2500     22.2192     96.5160     18.4021    139.8728
   906.5000     22.1186     96.1254     18.3317    134.3091
   906.7500     22.0859     95.6771     18.3670    128.3784
   907.0000     22.1243     95.2096     18.5046    119.5617
   907.2500     22.2156     94.7652     18.7198    115.1964
   907.5000     22.3259     94.3831     18.9736    111.6113
   907.7500     22.4188     94.0947     19.2239    110.9324
   908.0000     22.4676     93.9191     19.4344    112.1617
   908.2500     22.4577     93.8606     19.5755    114.5585
   908.5000     22.3797     93.9087     19.6252    120.3682
   908.7500     22.2234     94.0406     19.5710    125.1063
   909.0000     21.9803     94.2256     19.4111    131.7150
   909.2500     21.6489     94.4315     19.1524    134.6254
   909.5000     21.2374     94.6303     18.8074    135.3263
   909.7500     20.7632     94.8018     18.3954    133.4179
   910.0000     20.2490     94.9352     17.9443    129.1747
   910.2500     19.7227     95.0284     17.4890    127.2350
   910.5000     19.2157     95.0878     17.0642    127.2667
   910.7500     18.7581     95.1290     16.6959    128.6559
   911.0000     18.3682     95.1776     16.3967    130.5595
   911.2500     18.0461     95.2686     16.1622    131.0365
   911.5000     17.7749     95.4412     15.9723    131.2958
   911.7500     17.5280     95.7308     15.8000    131.8990
   912.0000     17.2797     96.1590     15.6243    133.6709
   912.2500     17.0168     96.7264     15.4384    135.0524
   912.5000     16.7448     97.4106     15.2476    137.1987
   912.7500     16.4854     98.1710     15.0584    139.0569
   913.0000     16.2671     98.9589     14.8714    143.0206
   913.2500     16.1103     99.7274     14.6841    146.1176
   913.5000     16.0161    100.4391     14.4968    150.2860
   913.7500     15.9641    101.0675     14.3136    152.4569
   914.0000     15.9234    101.5944     14.1385    154.8190
   914.2500     15.8686    102.0074     13.9714    155.3786
   914.5000     15.7940    102.2994     13.8107    153.4559
   914.7500     15.7175    102.4704     13.6581    150.3599
   915.0000     15.6724    102.5293     13.5224    144.8753
   915.2500     15.6901    102.4929     13.4189    141.7744
   915.5000     15.7842    102.3823     13.3669    138.1974
   915.7500     15.9472    102.2184     13.3846    135.9905
   916.0000     16.1573    102.0194     13.4848    132.5319
   916.2500     16.3913    101.7996     13.6693    130.5877
   916.5000     16.6361    101.5701     13.9269    129.6037
   916.7500     16.8945    101.3400     14.2349    130.6944
   917.0000     17.1794    101.1175     14.5646    134.0835
   917.2500     17.4948    100.9119     14.8894    136.2279
   917.5000     17.8195    100.7362     15.1889    137.4425
   917.7500     18.1116    100.6071     15.4477    136.8196
   918.0000     18.3319    100.5442     15.6530    134.9743
   918.2500     18.4623    100.5657     15.7928    134.0300
   918.5000     18.5046    100.6845     15.8576    133.9911
   918.7500     18.4686    100.9039     15.8426    134.9359
   919.0000     18.3644    101.2165     15.7479    137.2007
   919.2500     18.2027    101.6060     15.5785    138.8186
   919.5000     17.9945    102.0497     15.3450    141.0563
   919.7500     17.7480    102.5202     15.0631    142.4870
   920.0000     17.4673    102.9868     14.7546    144.4289
   920.2500     17.1583    103.4163     14.4460    145.0885
   920.5000     16.8368    103.7768     14.1652    144.0878
   920.7500     16.5292    104.0435     13.9348    142.1340
   921.0000     16.2645    104.2050     13.7657    139.0012
   921.2500     16.0660    104.2660     13.6577    137.9806
   921.5000     15.9465    104.2416     13.6048    138.4796
   921.7500     15.9052    104.1473     13.6023    139.3473
   922.0000     15.9314    103.9852     13.6481    139.6758
   922.2500     16.0130    103.7384     13.7405    138.5890
   922.5000     16.1494    103.3751     13.8780    134.6149
   922.7500     16.3541    102.8646     14.0609    130.7332
   923.0000     16.6467    102.1970     14.2944    124.8147
   923.2500     17.0363    101.3979     14.5868    122.0739
   923.5000     17.5088    100.5309     14.9427    120.6366
   923.7500     18.0247     99.6847     15.3544    120.7474
   924.0000     18.5289     98.9522     15.7960    120.4165
   924.2500     18.9723     98.4073     16.2243    119.2473
   924.5000     19.3351     98.0900     16.5892    116.7333
   924.7500     19.6349     98.0009     16.8536    115.3201
   925.0000     19.9094     98.1056     17.0122    114.3791
   925.2500     20.1882     98.3465     17.0956    114.7762
   925.5000     20.4735     98.6553     17.1550    117.5147
   925.7500     20.7395     98.9669     17.2377    120.9963
   926.0000     20.9479     99.2318     17.3673    127.7216
   926.2500     21.0681     99.4242     17.5380    131.7518
   926.5000     21.0892     99.5459     17.7207    134.6250
   926.7500     21.0180     99.6199     17.8756    133.8309
   927.0000     20.8743     99.6790     17.9647    128.9854
   927.2500     20.6876     99.7501     17.9642    123.7394
   927.5000     20.4952     99.8431     17.8754    113.5744
   927.7500     20.3351     99.9475     17.7279    106.1922
   928.0000     20.2382    100.0380     17.5704     96.7053
   928.2500     20.2220    100.0849     17.4515     92.1470
   928.5000     20.2842    100.0642     17.4026     85.2801
   928.7500     20.3954     99.9632     17.4277     77.5381
