~Version Information
VERS.                      2.0: CWLS Log ASCII Standard - VERSION 2.0
WRAP.                       NO: One line per depth step
~Well Information Block
STRT.FT               710.0000: 
STOP.FT              2921.0000: 
STEP.FT                 0.1000: 
NULL.                -999.2500: 
COMP.          Petrogulf Corporation: COMPANY
WELL.            Montoya 1-41V: WELL
FLD.           Purgatorie River: FIELD
LOC.           610' FNL & 1205' FEL: LOCATION
PROV.                 Colorado: PROVINCE
CNTY.               Las Animas: COUNTRY
SRVC.                Patterson: SERVICE COMPANY
DATE.          Mon Aug 22 07:54:27 2005: LOG DATE
UWI.                          : UNIQUE WELL ID
~Curve Information Block
DEPT.FT            0 000 00 00: Depth
DCAL.in                       : CDL Caliper
RHOB.g/cc                     : CDL Bulk Density
RHOC.g/cc                     : CDL Density Correction
DPOR.pu                       : CDL Density Porosity
GR.GAPI                       : Gamma Ray
NPOR.pu                       : Neutron Porosity
~Parameter Information Block
~A  Depth       DCAL        RHOB        RHOC        DPOR         GR         NPOR    
# ...
  1737.2000      8.4257      2.5127      0.0786      8.3210    145.9862     26.0378
  1737.3000      8.3165      2.5008      0.0187      9.0397    155.3730     25.4947
  1737.4000      8.3165      2.4857      0.0054      9.9597    161.0232     25.5928
  1737.5000      8.3575      2.4766     -0.0024     10.5081    159.7431     26.2056
  1737.6000      8.3575      2.4791     -0.0070     10.3583    154.9055     26.6995
  1737.7000      8.3575      2.4978      0.0100      9.2258    148.6402     26.6727
  1737.8000      8.4226      2.5326      0.0198      7.1162    142.5517     26.4683
  1737.9000      8.4226      2.5704      0.0848      4.8267    139.9785     26.3957
  1738.0000      8.5365      2.5918      0.0862      3.5297    139.9201     26.4386
  1738.1000      8.5365      2.5909      0.0836      3.5810    139.7020     26.5805
  1738.2000      8.5365      2.5810      0.0655      4.1842    137.6239     26.5542
  1738.3000      8.3023      2.5816      0.0289      4.1446    135.5201     26.2543
  1738.4000      8.3023      2.5973      0.0925      3.1913    136.1426     26.0932
  1738.5000      8.2697      2.6144      0.0912      2.1549    137.1134     26.0123
  1738.6000      8.2697      2.6237      0.0602      1.5936    136.2599     25.5717
  1738.7000      8.2697      2.6236      0.0619      1.5995    134.6616     24.7846
  1738.8000      8.2259      2.6218      0.0340      1.7121    133.7302     24.2621
  1738.9000      8.2259      2.6311      0.0730      1.1477    133.1802     24.4086
  1739.0000      8.1563      2.6423      0.0843      0.4657    132.1686     24.8051
  1739.1000      8.1563      2.6373      0.0608      0.7705    133.2163     25.0921
  1739.2000      8.1563      2.6244      0.0441      1.5533    136.8745     25.2271
  1739.3000      8.1712      2.6224      0.0568      1.6711    137.8478     24.8912
  1739.4000      8.1712      2.6299      0.0741      1.2160    136.5706     24.3009
  1739.5000      8.1684      2.6341      0.0678      0.9631    136.6377     24.1541
  1739.6000      8.1684      2.6281      0.0715      1.3258    135.8687     24.6210
  1739.7000      8.1684      2.6151      0.0758      2.1174    134.5512     25.1022
  1739.8000      8.1619      2.6038      0.0219      2.7973    137.1202     25.0636
  1739.9000      8.1619      2.5957      0.0741      3.2892    142.5476     24.8665
  1740.0000      8.1680      2.5872      0.0169      3.8062    143.7668     25.0086
  1740.1000      8.1680      2.5853     -0.0034      3.9195    138.3716     25.2957
  1740.2000      8.1680      2.5893      0.0390      3.6809    133.1232     25.4273
  1740.3000      8.1772      2.5909     -0.0176      3.5804    134.1124     25.4620
  1740.4000      8.1772      2.5852      0.1012      3.9255    139.9959     25.4241
  1740.5000      8.1485      2.5584      0.0644      5.5516    145.3647     25.3293
  1740.6000      8.1485      2.5121      0.0022      8.3563    147.8248     25.3817
  1740.7000      8.1485      2.4722     -0.0120     10.7732    148.9496     25.7062
  1740.8000      8.1697      2.4534     -0.0129     11.9156    150.8289     26.0964
  1740.9000      8.1697      2.4487     -0.0022     12.1985    153.4875     26.2967
  1741.0000      8.1721      2.4514     -0.0012     12.0338    155.2650     26.3743
  1741.1000      8.1721      2.4624      0.0190     11.3715    156.7197     26.5359
  1741.2000      8.1721      2.4773      0.0465     10.4660    159.6803     26.6700
  1741.3000      8.1827      2.4895      0.0504      9.7287    164.1453     26.4715
  1741.4000      8.1827      2.4968      0.0479      9.2865    168.6591     26.1353
  1741.5000      8.1902      2.4967      0.0509      9.2883    168.5495     26.0957
  1741.6000      8.1902      2.4920      0.0279      9.5758    161.9890     26.2487
  1741.7000      8.1902      2.4879      0.0687      9.8268    155.6250     26.1915
  1741.8000      8.2117      2.4789      0.0839     10.3725    153.7189     25.8841
  1741.9000      8.2117      2.4626      0.0234     11.3585    154.8590     25.6830
  1742.0000      8.2532      2.4480      0.0832     12.2396    158.4923     25.9411
  1742.1000      8.2532      2.4403      0.0811     12.7090    161.3528     26.5185
  1742.2000      8.2532      2.4371      0.0763     12.9030    158.9343     26.7968
  1742.3000      8.2625      2.4305      0.0822     13.3020    153.9679     26.6562
  1742.4000      8.2625      2.4133      0.0665     14.3428    152.7288     26.6798
  1742.5000      8.2187      2.3887      0.0681     15.8366    155.0435     27.0154
  1742.6000      8.2187      2.3647      0.0151     17.2889    156.7355     27.2895
  1742.7000      8.2187      2.3402      0.0418     18.7727    156.7650     27.3682
  1742.8000      8.2279      2.3063      0.0193     20.8283    157.8206     27.3805
  1742.9000      8.2279      2.2691      0.0739     23.0826    160.8707     27.6119
  1743.0000      8.2400      2.2473      0.1082     24.4078    162.6043     28.1923
  1743.1000      8.2400      2.2354      0.1579     25.1281    160.5883     28.7420
  1743.2000      8.2400      2.2004      0.1576     27.2458    155.1330     29.0729
  1743.3000      8.2742      2.1272      0.1311     31.6828    147.1485     29.4791
  1743.4000      8.2742      2.0378      0.1375     37.1045    137.6769     30.0559
  1743.5000      8.5207      1.9539      0.2550     42.1865    128.1625     30.6468
  1743.6000      8.5207      1.8731      0.2338     47.0877    121.0535     31.1070
  1743.7000      8.5207      1.7837      0.1716     52.5009    117.7336     31.2080
  1743.8000      8.9393      1.6738      0.1599     59.1613    117.2587     30.9954
  1743.9000      8.9393      1.5523      0.0351     66.5272    115.3745     30.9303
  1744.0000      8.9989      1.4652     -0.0548     71.8046    107.5964     31.1504
  1744.1000      8.9989      1.4459      0.0289     72.9775     96.5329     31.4427
  1744.2000      8.9989      1.4881      0.0126     70.4162     90.6913     31.7790
  1744.3000      8.4019      1.5850      0.0790     64.5482     93.1874     32.1599
  1744.4000      8.4019      1.7308      0.0956     55.7072     99.1672     32.3979
  1744.5000      8.3083      1.8921      0.1897     45.9308    103.6563     32.4569
  1744.6000      8.3083      2.0208      0.1996     38.1351    105.5573     32.4449
  1744.7000      8.3083      2.1100      0.1943     32.7289    108.1653     32.3128
  1744.8000      8.2722      2.2050      0.1850     26.9678    113.9724     31.9364
  1744.9000      8.2722      2.3363      0.2554     19.0101    120.8630     31.3783
  1745.0000      8.2730      2.4664      0.2741     11.1249    127.0350     30.7890
  1745.1000      8.2730      2.5418      0.1600      6.5590    131.7724     30.3515
  1745.2000      8.2730      2.5669      0.1160      5.0355    132.4223     30.1439
  1745.3000      8.2926      2.5846      0.0892      3.9664    130.4497     29.9942
  1745.4000      8.2926      2.6147      0.1125      2.1375    131.2613     29.7498
  1745.5000      8.2721      2.6397      0.1754      0.6240    136.4788     29.2828
  1745.6000      8.2721      2.6449      0.0931      0.3074    142.6516     28.4898
  1745.7000      8.2721      2.6427      0.0912      0.4432    145.9814     27.7000
  1745.8000      8.2599      2.6380      0.0981      0.7277    146.6955     27.2686
  1745.9000      8.2599      2.6282      0.0824      1.3185    148.6760     27.1032
  1746.0000      8.2603      2.6291      0.0388      1.2649    152.4823     26.9683
  1746.1000      8.2603      2.6446      0.1013      0.3291    153.9131     26.8683
  1746.2000      8.2603      2.6476      0.0938      0.1463    150.5252     26.8039
  1746.3000      8.2722      2.6238      0.0486      1.5860    145.8391     26.7354
  1746.4000      8.2722      2.5939      0.0043      3.3988    146.5703     26.6982
  1746.5000      8.2746      2.5775      0.0432      4.3926    153.5253     26.6141
  1746.6000      8.2746      2.5613      0.0737      5.3781    160.3055     26.5536
  1746.7000      8.2746      2.5330     -0.0186      7.0898    161.9847     26.7582
