~Version Information
VERS.                      2.0: CWLS Log ASCII Standard - VERSION 2.0
WRAP.                       NO: One line per depth step
~Well Information Block
STRT.FT                -6.7500: 
STOP.FT              1766.5000: 
STEP.FT                 0.2500: 
NULL.                -999.2500: 
COMP.          Pioneer Natural Resources: COMPANY
WELL.            Hill 33-22 Tr: WELL
FLD.           Purgatorie River: FIELD
LOC.           1573' FSL & 1585' FEL: LOCATION
PROV.                 Colorado: PROVINCE
CNTY.               Las Animas: COUNTRY
SRVC.          Patterson Wireline: SERVICE COMPANY
DATE.          Tue Apr 19 09:26:19 2005: LOG DATE
UWI.           05-071-08316-00: UNIQUE WELL ID
~Curve Information Block
DEPT.FT            0 000 00 00: Depth
CCL.                          : Casing Collar Locator
TT3.usec                      : CBL 3' Travel Time
AMP3.mV                       : CBL 3' Amplitude
GR.GAPI                       : Gamma Ray
~Parameter Information Block
~A  Depth       CCL         TT3         AMP3         GR     
# ...
   931.2500      0.0000    766.4353      5.8874    108.4371
   931.5000      0.0000    760.6753      5.8079    108.2111
   931.7500      0.0000    757.1299      5.7166    110.9441
   932.0000      0.0000    754.7001      5.6498    115.6076
   932.2500      0.0000    752.2148      5.6198    120.0546
   932.5000      0.0000    749.3915      5.6145    122.4118
   932.7500      0.0000    747.3395      5.6177    121.7460
   933.0000      0.0000    747.8852      5.6233    117.9128
   933.2500      0.0000    751.7319      5.6306    111.5339
   933.5000      0.0000    757.2152      5.6334    104.0637
   933.7500      0.0000    761.4030      5.6196     97.1891
   934.0000      0.0000    762.5540      5.5814     91.8858
   934.2500      0.0000    761.2133      5.5241     88.1494
   934.5000      0.0000    759.0686      5.4634     85.4943
   934.7500      0.0000    757.3407      5.4147     83.5992
   935.0000      0.0000    756.3219      5.3818     82.7344
   935.2500      0.0000    755.8184      5.3563     83.5713
   935.5000      0.0000    755.5453      5.3309     86.1395
   935.7500      0.0000    755.1816      5.3121     89.0058
   936.0000      0.0000    754.2845      5.3158     90.1359
   936.2500      0.0000    752.4064      5.3516     88.7780
   936.5000      0.0000    749.5792      5.4147     86.1565
   936.7500      0.0000    746.7874      5.4932     84.2758
   937.0000      0.0000    745.5562      5.5795     84.3297
   937.2500      0.0000    746.6457      5.6745     86.2733
   937.5000      0.0000    749.2957      5.7807     89.6741
   937.7500      0.0000    752.0078      5.8919     94.5612
   938.0000      0.0000    753.8351      5.9905    100.9621
   938.2500      0.0000    754.7426      6.0611    107.6169
   938.5000      0.0000    755.1020      6.1069    111.9546
   938.7500      0.0000    755.2277      6.1504    111.9172
   939.0000      0.0000    755.2899      6.2119    107.5495
   939.2500      0.0000    755.3670      6.2889    100.6325
   939.5000      0.0000    755.4224      6.3569     93.1875
   939.7500      0.0000    755.2533      6.3881     86.4717
   940.0000      0.0000    754.4886      6.3697     80.9987
   940.2500      0.0000    752.7626      6.3093     77.1966
   940.5000      0.0000    750.1484      6.2270     75.8488
   940.7500      0.0000    747.5565      6.1414     77.6584
   941.0000      0.0000    746.3817      6.0603     82.5107
   941.2500      0.0000    747.3560      5.9814     89.5552
   941.5000      0.0000    749.8455      5.9010     97.8678
   941.7500      0.0000    752.4976      5.8223    106.6027
   942.0000      0.0000    754.3889      5.7557    114.5295
   942.2500      0.0000    755.4545      5.7140    119.7925
   942.5000      0.0000    756.2458      5.7072    120.4789
   942.7500      0.0000    758.1898      5.7360    115.8586
   943.0000      0.0000    764.8875      5.7762    107.3587
   943.2500      0.0000    783.6342      5.7577     97.9957
   943.5000      0.0000    823.8447      5.5813     90.4463
   943.7500      0.0000    889.1851      5.1936     85.7528
   944.0000      0.0000    967.8522      4.6658     83.7264
   944.2500      0.0000   1033.7198      4.1705     83.9429
   944.5000      0.0000   1062.6754      3.8568     86.1952
   944.7500      0.0000   1048.7480      3.7514     90.3339
   945.0000     -5.0000   1004.3752      3.7800     95.7535
   945.2500      5.0000    949.1635      3.8542    101.1310
   945.5000      0.0000    899.4186      3.9352    105.1479
   945.7500      0.0000    862.3058      4.0493    107.6340
   946.0000      0.0000    835.2697      4.2662    109.7404
   946.2500      0.0000    812.0018      4.6437    113.0202
   946.5000      0.0000    790.3389      5.1690    118.2464
   946.7500      0.0000    774.0082      5.7536    124.4469
   947.0000      0.0000    767.2364      6.2921    128.9135
   947.2500      0.0000    769.5915      6.7189    128.9052
   947.5000      0.0000    776.6259      7.0169    123.8952
   947.7500      0.0000    784.0968      7.1980    116.0803
   948.0000      0.0000    790.1740      7.2866    108.8412
   948.2500      0.0000    794.4481      7.3088    104.8551
   948.5000      0.0000    796.6175      7.2824    104.9956
   948.7500      0.0000    796.4708      7.2146    108.0505
   949.0000      0.0000    794.4856      7.1079    111.4527
   949.2500      0.0000    792.0831      6.9693    112.9701
   949.5000      0.0000    791.1820      6.8115    112.1331
   949.7500      0.0000    793.3463      6.6452    110.1089
   950.0000      0.0000    799.6992      6.4734    108.3592
   950.2500      0.0000    811.8034      6.2951    107.4748
   950.5000      0.0000    831.5121      6.1148    106.9939
   950.7500      0.0000    858.5576      5.9449    106.0591
   951.0000      0.0000    888.5176      5.7963    104.2859
   951.2500      0.0000    914.6307      5.6689    101.9923
   951.5000      0.0000    932.1341      5.5558     99.6028
   951.7500      0.0000    940.3860      5.4547     97.1357
   952.0000      0.0000    941.0172      5.3677     94.3975
   952.2500      0.0000    935.2085      5.2878     91.3044
   952.5000      0.0000    923.2185      5.1930     87.8488
   952.7500      0.0000    905.7634      5.0633     84.0230
   953.0000      0.0000    884.7286      4.9015     79.8332
   953.2500      0.0000    862.4692      4.7302     75.2755
   953.5000      0.0000    841.3048      4.5730     70.4234
   953.7500      0.0000    823.5896      4.4436     65.5651
   954.0000      0.0000    811.0546      4.3518     61.0823
   954.2500      0.0000    803.7352      4.3095     57.2411
   954.5000      0.0000    800.1462      4.3273     54.1444
   954.7500      0.0000    798.5505      4.4106     51.6274
   955.0000      0.0000    797.8354      4.5631     49.2105
   955.2500      0.0000    797.4757      4.7912     46.5967
   955.5000      0.0000    797.1193      5.0981     44.2722
   955.7500      0.0000    796.2961      5.4732     43.2045
   956.0000      0.0000    794.3941      5.8893     43.9188
   956.2500      0.0000    791.0638      6.3113     46.2036
   956.5000      0.0000    786.8553      6.7063     49.6108
   956.7500      0.0000    783.6545      7.0482     53.6740
   957.0000      0.0000    784.4500      7.3144     57.4885
   957.2500      0.0000    792.1553      7.4771     59.6936
   957.5000      0.0000    807.6348      7.5031     59.4406
   957.7500      0.0000    828.4652      7.3763     57.2833
   958.0000      0.0000    850.6953      7.1244     54.8438
   958.2500      0.0000    872.4915      6.8150     53.6902
   958.5000      0.0000    895.8114      6.5145     54.4595
   958.7500      0.0000    923.9561      6.2488     56.5753
   959.0000      0.0000    956.8085      5.9988     58.6232
   959.2500      0.0000    989.7315      5.7242     59.3204
   959.5000      0.0000   1021.4753      5.3915     58.4291
   959.7500      0.0000   1062.7751      4.9941     56.8275
   960.0000      0.0000   1127.2794      4.5616     55.8317
   960.2500      0.0000   1208.2434      4.1512     56.4796
   960.5000      0.0000   1272.7485      3.8240     59.0877
   960.7500      0.0000   1287.6760      3.6218     63.0038
   961.0000      0.0000   1251.2511      3.5624     66.7501
   961.2500      0.0000   1198.3777      3.6518     68.7561
   961.5000      0.0000   1175.4104      3.8972     68.2230
   961.7500      0.0000   1206.0840      4.3043     65.4430
   962.0000      0.0000   1276.9128      4.8644     61.4877
   962.2500      0.0000   1352.0411      5.5485     57.6662
   962.5000      0.0000   1399.1577      6.3222     55.0205
   962.7500      0.0000   1402.2238      7.1698     53.8913
   963.0000      0.0000   1359.3810      8.1038     53.7932
   963.2500      0.0000   1280.3933      9.1457     53.9095
   963.5000      0.0000   1186.7806     10.2936     53.6975
   963.7500      0.0000   1104.5629     11.5012     52.7234
   964.0000      0.0000   1048.9413     12.6838     50.2673
   964.2500      0.0000   1015.9026     13.7567     45.9688
   964.5000      0.0000    990.4509     14.6852     40.9524
