~Version Information
VERS.                      2.0: CWLS Log ASCII Standard - VERSION 2.0
WRAP.                       NO: One line per depth step
~Well Information Block
STRT.FT                 3.0000: 
STOP.FT              1884.7500: 
STEP.FT                 0.2500: 
NULL.                -999.2500: 
COMP.          Pioneer Natural Resources: COMPANY
WELL.          Blackjack 32-11 Tr: WELL
FLD.           Purgatoire River: FIELD
LOC.           2066' FNL & 1453' FEL: LOCATION
PROV.                 Colorado: PROVINCE
CNTY.               Las Animas: COUNTRY
SRVC.                Patterson: SERVICE COMPANY
DATE.          Fri Aug 19 11:07:11 2005: LOG DATE
UWI.           05 071 08310 00: UNIQUE WELL ID
~Curve Information Block
DEPT.FT            0 000 00 00: Depth
CCL.                          : Casing Collar Locator
TT3.usec                      : CBL 3' Travel Time
AMP3.mV                       : CBL 3' Amplitude
GR.GAPI                       : Gamma Ray
~Parameter Information Block
~A  Depth       CCL         TT3         AMP3         GR     
# ...
   874.0000      0.0000    991.1837      9.5844     97.0810
   874.2500      0.0000    951.4761      9.5963     98.5333
   874.5000      0.0000    909.2086      9.5994     99.9205
   874.7500      0.0000    879.6426      9.5424    101.1243
   875.0000      0.0000    869.5421      9.4112    102.1446
   875.2500      0.0000    880.3867      9.2446    102.7817
   875.5000      0.0000    911.8188      9.0981    102.5906
   875.7500      0.0000    958.9170      9.0020    101.2802
   876.0000      0.0000   1008.1203      8.9573     99.2643
   876.2500      0.0000   1040.5275      8.9544     97.7988
   876.5000      0.0000   1043.1090      8.9803     98.2412
   876.7500      0.0000   1019.0375      9.0172    100.8611
   877.0000      0.0000    987.6938      9.0489    104.4225
   877.2500      0.0000    971.9194      9.0696    107.0440
   877.5000      0.0000    980.5279      9.0822    107.3750
   877.7500      0.0000   1001.1053      9.0867    105.1790
   878.0000      0.0000   1011.4944      9.0751    101.3468
   878.2500      0.0000   1000.4447      9.0395     97.3874
   878.5000      0.0000    977.3861      8.9814     94.3765
   878.7500      0.0000    961.1917      8.9096     92.2625
   879.0000      0.0000    959.5063      8.8280     90.3595
   879.2500      0.0000    960.7140      8.7310     88.2277
   879.5000      0.0000    947.1323      8.6152     85.8081
   879.7500      0.0000    914.0026      8.4950     83.2511
   880.0000      0.0000    873.1721      8.4042     81.1122
   880.2500      0.0000    840.3604      8.3760     80.2999
   880.5000      0.0000    822.4683      8.4166     81.3293
   880.7500      0.0000    815.9642      8.4956     83.5196
   881.0000      0.0000    813.0972      8.5661     85.0093
   881.2500      0.0000    808.5681      8.6011     83.7923
   881.5000      0.0000    802.8242      8.6085     79.1066
   881.7500      0.0000    801.1296      8.6047     71.9731
   882.0000      0.0000    810.3365      8.5771     64.3779
   882.2500      0.0000    835.3333      8.4829     58.0298
   882.5000      0.0000    874.7556      8.2886     53.8130
   882.7500      0.0000    918.9486      8.0068     51.8285
   883.0000      0.0000    957.4638      7.6878     51.4619
   883.2500      0.0000    991.4136      7.3804     51.7169
   883.5000      0.0000   1030.9972      7.1037     52.0435
   883.7500      0.0000   1076.4945      6.8571     52.8725
   884.0000      0.0000   1110.8451      6.6454     55.1208
   884.2500      0.0000   1117.8096      6.4840     59.2387
   884.5000      0.0000   1100.7181      6.3851     64.8156
   884.7500      0.0000   1076.3895      6.3505     70.8769
   885.0000      0.0000   1053.9564      6.3843     76.4249
   885.2500      0.0000   1026.2134      6.5020     80.8472
   885.5000      0.0000    982.7244      6.7174     83.9387
   885.7500      0.0000    926.3271      7.0202     85.5208
   886.0000      0.0000    872.6428      7.3721     85.1946
   886.2500      0.0000    835.7012      7.7279     82.6521
   886.5000      0.0000    818.6160      8.0565     78.1995
   886.7500      0.0000    816.3145      8.3414     72.9343
   887.0000      0.0000    821.5700      8.5692     68.3710
   887.2500      0.0000    827.8167      8.7308     65.6748
   887.5000      0.0000    830.1046      8.8356     65.0206
   887.7500      0.0000    826.2381      8.9114     65.7661
   888.0000      0.0000    817.3802      8.9790     67.3351
   888.2500      0.0000    806.8879      9.0291     69.7622
   888.5000      0.0000    797.5871      9.0338     73.2765
   888.7500      0.0000    789.8349      8.9864     77.6045
   889.0000      0.0000    782.4843      8.9265     81.9076
   889.2500      0.0000    775.0516      8.9255     85.4191
   889.5000      0.0000    768.1380      9.0437     88.0839
   889.7500      0.0000    762.4822      9.2931     90.5300
   890.0000      0.0000    758.6682      9.6260     93.3592
   890.2500      0.0000    757.2909      9.9624     96.6056
   890.5000      0.0000    758.4393     10.2423     99.9659
   890.7500      0.0000    761.1354     10.4551    103.2589
   891.0000      0.0000    763.8789     10.6122    106.2055
   891.2500      0.0000    765.7154     10.6921    107.9773
   891.5000      0.0000    766.5800     10.6383    107.7558
   891.7500      0.0000    766.8779     10.4247    106.0048
   892.0000      0.0000    767.0059     10.1061    104.6054
   892.2500      0.0000    767.2297      9.7813    105.2974
   892.5000      0.0000    767.8342      9.5191    108.1192
   892.7500      0.0000    769.3292      9.3365    111.4422
   893.0000      0.0000    772.3243      9.2288    113.5111
   893.2500      0.0000    776.7621      9.1953    114.0935
   893.5000      0.0000    781.1904      9.2311    114.6933
   893.7500      0.0000    783.4911      9.3090    116.9607
   894.0000      0.0000    783.0579      9.3801    120.7383
   894.2500      0.0000    781.8514      9.3991    123.8685
   894.5000      0.0000    782.4747      9.3520    124.1468
   894.7500      0.0000    785.4495      9.2598    121.3786
   895.0000      0.0000    789.0595      9.1564    117.5480
   895.2500      0.0000    791.5951      9.0648    115.2624
   895.5000      0.0000    792.8972      8.9970    115.9157
   895.7500      0.0000    794.2325      8.9705    119.1417
   896.0000      0.0000    797.6141      9.0071    124.0067
   896.2500      0.0000    804.1073      9.1103    130.1967
   896.5000      0.0000    811.1373      9.2505    137.3389
   896.7500      0.0000    812.9227      9.3825    143.5967
   897.0000      0.0000    805.8921      9.4777    146.2067
   897.2500      0.0000    792.8087      9.5376    143.7511
   897.5000      0.0000    779.9611      9.5845    137.3953
   897.7500      0.0000    771.4460      9.6425    129.8615
   898.0000      0.0000    767.3178      9.7221    123.6371
   898.2500      0.0000    765.6813      9.8160    120.1307
   898.5000      0.0000    764.8021      9.9055    119.8559
   898.7500      0.0000    763.5052      9.9685    122.5248
   899.0000      0.0000    760.7648      9.9831    126.6250
   899.2500      0.0000    755.7736      9.9336    129.5337
   899.5000      0.0000    748.7037      9.8213    129.1178
   899.7500      0.0000    741.3523      9.6712    125.6294
   900.0000      0.0000    736.5502      9.5219    121.6236
   900.2500      0.0000    736.4692      9.4091    119.6702
   900.5000      0.0000    741.1597      9.3582    120.1877
   900.7500      0.0000    748.5328      9.3867    121.4440
   901.0000      0.0000    755.7869      9.4985    121.3828
   901.2500      0.0000    761.0724      9.6682    119.3602
   901.5000      0.0000    764.0905      9.8374    116.4193
   901.7500      0.0000    765.5032      9.9472    114.2188
   902.0000      0.0000    766.1429      9.9828    113.6804
   902.2500      0.0000    766.6859      9.9840    114.4290
   902.5000      0.0000    767.6778     10.0033    115.4701
   902.7500      0.0000    769.4996     10.0465    116.3182
   903.0000      0.0000    772.4086     10.0570    117.1536
   903.2500      0.0000    777.4003      9.9568    117.9393
   903.5000      0.0000    787.7578      9.6919    118.0136
   903.7500      0.0000    808.3651      9.2454    116.7565
   904.0000      0.0000    841.0287      8.6515    114.2316
   904.2500      0.0000    880.6116      8.0168    111.0082
   904.5000      0.0000    917.8049      7.4827    107.8007
   904.7500     -2.0917    945.2900      7.1327    105.5935
   905.0000      3.0000    960.7699      6.9474    105.5140
   905.2500      0.0000    966.8240      6.8444    107.6882
   905.5000     -2.2095    968.3845      6.7463    110.4155
   905.7500      0.0000    966.9008      6.6334    111.4113
   906.0000      0.0000    957.9814      6.5641    109.9348
   906.2500      0.0000    939.5357      6.6455    107.0264
   906.5000      0.0000    920.1583      6.9635    103.8917
   906.7500      0.0000    912.6348      7.5319    100.9294
   907.0000      0.0000    919.0280      8.2817     98.2311
   907.2500      0.0000    927.2678      9.0628     96.2325
