~Version Information
VERS.                      2.0: CWLS Log ASCII Standard - VERSION 2.0
WRAP.                       NO: One line per depth step
~Well Information Block
STRT.FT               898.0000: 
STOP.FT              2359.2000: 
STEP.FT                 0.1000: 
NULL.                -999.2500: 
COMP.          Pioneer Natural Resources: COMPANY
WELL.             Trimax 44-23: WELL
FLD.           Purgatoire River: FIELD
LOC.           527' FSL & 1064' FEL: LOCATION
PROV.                 Colorado: PROVINCE
CNTY.               Las Animas: COUNTRY
SRVC.                Patterson: SERVICE COMPANY
DATE.          Mon Mar 14 07:28:19 2005: LOG DATE
UWI.           05 071 08326 00: UNIQUE WELL ID
~Curve Information Block
DEPT.FT            0 000 00 00: Depth
DCAL.in                       : CDL Caliper
RHOB.g/cc                     : CDL Bulk Density
RHOC.g/cc                     : CDL Density Correction
DPOR.pu                       : CDL Density Porosity
GR.GAPI                       : Gamma Ray
NPOR.pu                       : Neutron Porosity
~Parameter Information Block
~A  Depth       DCAL        RHOB        RHOC        DPOR         GR         NPOR    
# ...
   994.0000      8.0031      2.4119      0.0273     14.4288    128.3023     24.9652
   994.1000      8.0031      2.3910      0.0074     15.6942    126.3608     24.6012
   994.2000      8.0031      2.3787     -0.0061     16.4451    126.1379     23.4097
   994.3000      8.0074      2.3770      0.0182     16.5468    128.7093     21.7915
   994.4000      8.0074      2.3877     -0.0042     15.8983    129.0284     20.2023
   994.5000      8.0193      2.4064      0.0527     14.7639    122.2117     18.7206
   994.6000      8.0193      2.4101      0.1459     14.5380    112.3657     17.4662
   994.7000      8.0193      2.3714      0.1208     16.8826    104.6179     16.3674
   994.8000      8.0414      2.2883      0.0970     21.9193     99.9301     15.0471
   994.9000      8.0414      2.1724      0.1407     28.9434     97.5499     13.6529
   995.0000      8.0711      2.0255      0.0793     37.8457     95.4181     12.7325
   995.1000      8.0711      1.8564      0.0176     48.0974     92.5697     12.3569
   995.2000      8.0711      1.6893     -0.0490     58.2241     88.4586     12.2338
   995.3000      8.1103      1.5460     -0.0975     66.9085     82.4021     12.2143
   995.4000      8.1103      1.4350     -0.0202     73.6335     75.8627     12.4549
   995.5000      8.1688      1.3665     -0.0196     77.7881     70.8352     13.1371
   995.6000      8.1688      1.3535      0.0026     78.5739     69.5020     13.9659
   995.7000      8.1688      1.3778      0.1608     77.1023     73.3994     14.7060
   995.8000      8.2429      1.4025      0.1431     75.6079     79.3875     15.7045
   995.9000      8.2429      1.4249      0.1316     74.2460     83.6627     17.2114
   996.0000      8.2451      1.4659      0.1522     71.7657     87.1208     18.9933
   996.1000      8.2451      1.5313      0.1338     67.7976     93.5244     20.6758
   996.2000      8.2451      1.6113      0.1727     62.9511    103.8651     22.2384
   996.3000      8.1203      1.7001      0.1563     57.5686    113.6110     23.6357
   996.4000      8.1203      1.8077      0.1547     51.0485    119.3013     24.5592
   996.5000      8.0165      1.9378      0.2222     43.1627    125.0114     25.3670
   996.6000      8.0165      2.0757      0.2485     34.8041    134.1625     26.7478
   996.7000      8.0165      2.2037      0.3211     27.0491    142.6482     28.2112
   996.8000      7.9801      2.3041      0.3138     20.9618    145.4734     29.0395
   996.9000      7.9801      2.3703      0.2496     16.9503    140.9629     29.5259
   997.0000      7.9521      2.4221      0.1481     13.8141    134.1073     30.1077
   997.1000      7.9521      2.4740      0.2177     10.6688    133.9953     30.6153
   997.2000      7.9521      2.5150      0.1413      8.1828    142.5926     30.8083
   997.3000      7.9206      2.5411      0.1211      6.6003    151.5010     30.8739
   997.4000      7.9206      2.5515      0.1305      5.9686    153.0606     30.9442
   997.5000      7.9032      2.5379      0.0788      6.7926    151.3522     30.8343
   997.6000      7.9032      2.5095      0.0328      8.5179    150.2384     30.3439
   997.7000      7.9032      2.4945      0.0395      9.4252    147.3047     29.6718
   997.8000      7.8987      2.5024      0.0638      8.9442    143.8375     29.1685
   997.9000      7.8987      2.5141      0.0525      8.2368    144.1664     28.6633
   998.0000      7.8976      2.5165      0.0447      8.0912    148.1902     28.2975
   998.1000      7.8976      2.5174      0.0181      8.0377    151.7723     28.5460
   998.2000      7.8976      2.5155      0.0914      8.1493    151.1636     29.1172
   998.3000      7.8965      2.4952      0.1012      9.3820    146.4821     29.5026
   998.4000      7.8965      2.4686      0.0254     10.9945    139.3062     29.4404
   998.5000      7.8937      2.4700      0.0811     10.9097    133.9016     29.0266
   998.6000      7.8937      2.5135      0.0604      8.2756    135.4806     28.9066
   998.7000      7.8937      2.5881      0.0772      3.7497    141.3506     29.2088
   998.8000      7.8869      2.6691      0.1283     -1.1592    147.5277     29.1986
   998.9000      7.8869      2.7257      0.2241     -4.5854    153.3555     28.5732
   999.0000      7.8784      2.7367      0.2345     -5.2532    157.3628     27.7077
   999.1000      7.8784      2.7066      0.2206     -3.4288    159.2547     27.1864
   999.2000      7.8784      2.6573      0.1075     -0.4406    158.3349     27.2541
   999.3000      7.8758      2.6080      0.0472      2.5434    149.7803     27.4690
   999.4000      7.8758      2.5604      0.0072      5.4277    135.2165     27.4512
   999.5000      7.8811      2.5076     -0.0891      8.6296    130.1400     27.0881
   999.6000      7.8811      2.4645     -0.1742     11.2446    142.5684     26.4442
   999.7000      7.8811      2.4569     -0.0825     11.7006    157.9757     25.6555
   999.8000      7.8913      2.4776      0.0332     10.4474    162.3655     24.6386
   999.9000      7.8913      2.4934      0.1290      9.4939    157.8160     23.5416
  1000.0000      7.8982      2.4903      0.1543      9.6813    152.7826     22.8081
  1000.1000      7.8982      2.4784      0.1660     10.4029    151.5631     22.6167
  1000.2000      7.8982      2.4623      0.1848     11.3756    151.1199     22.5455
  1000.3000      7.9004      2.4370      0.2326     12.9113    150.3243     22.1329
  1000.4000      7.9004      2.4063      0.1770     14.7699    151.8154     21.5466
  1000.5000      7.9007      2.3829      0.1799     16.1860    155.1907     21.2607
  1000.6000      7.9007      2.3620      0.2214     17.4533    158.4248     21.6549
  1000.7000      7.9007      2.3209      0.2319     19.9460    159.0681     22.7524
  1000.8000      7.9006      2.2514      0.1913     24.1572    154.9641     23.8892
  1000.9000      7.9006      2.1710      0.1811     29.0325    146.3579     24.3138
  1001.0000      7.9011      2.1026      0.1218     33.1746    138.8565     24.3094
  1001.1000      7.9011      2.0617      0.0876     35.6576    136.8524     24.8861
  1001.2000      7.9011      2.0545      0.0681     36.0881    136.6317     26.0836
  1001.3000      7.9018      2.0786      0.0927     34.6298    135.8110     27.1353
  1001.4000      7.9018      2.1188      0.1612     32.1933    133.9893     27.9487
  1001.5000      7.9025      2.1672      0.1366     29.2629    126.4831     28.6465
  1001.6000      7.9025      2.2315      0.1532     25.3612    114.7800     28.8691
  1001.7000      7.9025      2.3030      0.2129     21.0274    108.4607     28.7773
  1001.8000      7.9029      2.3697      0.2071     16.9895    110.0732     28.8952
  1001.9000      7.9029      2.4475      0.1652     12.2714    112.6105     29.0225
  1002.0000      7.9015      2.5368      0.2017      6.8627    107.4859     28.9658
  1002.1000      7.9015      2.6037      0.1853      2.8048     93.2264     29.0487
  1002.2000      7.9015      2.6396      0.0958      0.6300     78.6031     29.3463
  1002.3000      7.8985      2.6622      0.1033     -0.7377     71.3769     29.3375
  1002.4000      7.8985      2.6732      0.1174     -1.4065     69.2965     28.7382
  1002.5000      7.8953      2.6755      0.0404     -1.5456     66.2044     27.8606
  1002.6000      7.8953      2.6849      0.0950     -2.1157     62.2588     26.8945
  1002.7000      7.8953      2.7001      0.0913     -3.0373     61.0913     25.8100
  1002.8000      7.8937      2.7066      0.0876     -3.4317     62.0827     24.9411
  1002.9000      7.8937      2.6909      0.1261     -2.4795     62.4957     24.8644
  1003.0000      7.8932      2.6583     -0.0026     -0.5035     61.9082     25.2729
  1003.1000      7.8932      2.6357     -0.0534      0.8638     62.0098     25.2406
  1003.2000      7.8932      2.6220      0.0046      1.6968     65.8716     24.7659
  1003.3000      7.8877      2.5993     -0.0687      3.0749     73.3123     24.2858
  1003.4000      7.8877      2.5857     -0.1003      3.8968     81.9449     23.7837
  1003.5000      7.8769      2.6008     -0.0492      2.9843     90.9606     23.2425
