~Version Information
VERS.                      2.0: CWLS Log ASCII Standard - VERSION 2.0
WRAP.                       NO: One line per depth step
~Well Information Block
STRT.FT               240.0000: 
STOP.FT               966.2000: 
STEP.FT                 0.1000: 
NULL.                -999.2500: 
COMP.          Pioneer Natural Resources: COMPANY
WELL.          New Mexico 21-5: WELL
FLD.           Purgatoire River: FIELD
LOC.           175' FNL & 1700' FWL: LOCATION
PROV.                 Colorado: PROVINCE
CNTY.               Las Animas: COUNTRY
SRVC.                Patterson: SERVICE COMPANY
DATE.          Mon Dec 13 06:55:26 2004: LOG DATE
UWI.           05 071 08234 00: UNIQUE WELL ID
~Curve Information Block
DEPT.FT            0 000 00 00: Depth
DCAL.in                       : CDL Caliper
RHOB.g/cc                     : CDL Bulk Density
RHOC.g/cc                     : CDL Density Correction
DPOR.pu                       : CDL Density Porosity
NPOR.pu                       : Neutron Porosity
GR.GAPI                       : Gamma Ray
~Parameter Information Block
~A  Depth       DCAL        RHOB        RHOC        DPOR        NPOR         GR     
# ...
   518.4000      8.0466      2.5307      0.0333      7.2316     26.8000    132.5776
   518.5000      8.0386      2.5152     -0.0078      8.1696     27.4549    137.5534
   518.6000      8.0386      2.5140      0.0288      8.2433     27.8462    140.6273
   518.7000      8.0386      2.5218      0.0283      7.7708     28.1117    136.2827
   518.8000      8.0360      2.5346      0.0017      6.9969     28.7883    126.2960
   518.9000      8.0360      2.5491      0.0434      6.1139     29.1980    117.1167
   519.0000      8.0352      2.5581      0.0415      5.5704     28.7938    114.2463
   519.1000      8.0352      2.5674      0.0192      5.0037     28.3108    115.2649
   519.2000      8.0352      2.5832      0.0638      4.0502     28.2954    117.2636
   519.3000      8.0358      2.5886      0.0870      3.7231     28.4889    124.3711
   519.4000      8.0358      2.5787      0.0207      4.3241     28.6078    136.1328
   519.5000      8.0389      2.5641      0.0582      5.2041     28.4896    143.3980
   519.6000      8.0389      2.5333      0.0799      7.0738     28.0055    141.6626
   519.7000      8.0389      2.4790      0.0230     10.3659     27.1119    138.1494
   519.8000      8.0541      2.4233      0.0295     13.7386     25.8449    141.5416
   519.9000      8.0541      2.3884     -0.0056     15.8572     24.4399    150.6744
   520.0000      8.0923      2.3818     -0.0068     16.2542     23.4281    157.7140
   520.1000      8.0923      2.3986      0.0335     15.2361     23.0610    160.0569
   520.2000      8.0923      2.4298      0.0435     13.3441     22.7365    159.4136
   520.3000      8.1295      2.4685      0.0931     11.0025     22.0979    156.7325
   520.4000      8.1295      2.5005      0.1248      9.0611     21.5443    154.4731
   520.5000      8.1202      2.5158      0.1325      8.1352     21.2303    150.9505
   520.6000      8.1202      2.5284      0.1001      7.3726     20.9920    141.8243
   520.7000      8.1202      2.5522      0.1762      5.9244     20.8688    130.4987
   520.8000      8.0732      2.5678      0.1670      4.9848     20.9748    122.9020
   520.9000      8.0732      2.5596      0.0445      5.4812     21.3708    119.3271
   521.0000      8.0425      2.5479      0.0190      6.1896     21.9821    118.6498
   521.1000      8.0425      2.5501      0.0367      6.0571     22.5801    119.5985
   521.2000      8.0425      2.5607      0.0258      5.4103     23.0640    117.4885
   521.3000      8.0336      2.5653      0.0716      5.1362     23.5374    109.4913
   521.4000      8.0336      2.5616     -0.0053      5.3550     24.1427    101.9724
   521.5000      8.0264      2.5687      0.0210      4.9252     24.8167    100.6985
   521.6000      8.0264      2.5876      0.0386      3.7797     25.1340    101.8493
   521.7000      8.0264      2.5924      0.0578      3.4915     24.6654    102.2551
   521.8000      8.0137      2.5704      0.0417      4.8236     23.9591    103.0055
   521.9000      8.0137      2.5377     -0.0008      6.8036     24.0661    103.2289
   522.0000      8.0001      2.5139      0.0228      8.2489     24.7688    101.8718
   522.1000      8.0001      2.5060      0.0045      8.7265     25.0446    100.9453
   522.2000      8.0001      2.5168      0.0340      8.0734     24.8137    102.4032
   522.3000      7.9951      2.5413      0.0035      6.5864     24.6082    104.7068
   522.4000      7.9951      2.5654      0.0416      5.1298     24.4364    108.0205
   522.5000      7.9969      2.5748      0.0498      4.5573     24.2091    114.2896
   522.6000      7.9969      2.5700      0.0146      4.8478     24.0090    120.8250
   522.7000      7.9969      2.5580      0.0445      5.5786     23.8670    122.3371
   522.8000      7.9979      2.5420      0.0347      6.5479     23.8942    118.7306
   522.9000      7.9979      2.5301      0.0417      7.2690     23.9872    115.1624
   523.0000      8.0010      2.5221      0.0696      7.7499     23.7923    114.6983
   523.1000      8.0010      2.5135      0.0135      8.2702     23.1833    114.5101
   523.2000      8.0010      2.5136      0.0327      8.2686     22.3194    110.4256
   523.3000      8.0048      2.5249      0.0251      7.5846     21.3552    104.7060
   523.4000      8.0048      2.5303      0.0865      7.2559     20.4574    101.0290
   523.5000      8.0065      2.5169      0.0562      8.0643     20.0547     94.2338
   523.6000      8.0065      2.4916      0.0854      9.5972     20.2531     82.2149
   523.7000      8.0065      2.4630      0.0633     11.3359     20.5208     74.1026
   523.8000      8.0069      2.4371      0.0518     12.9058     20.5022     76.1783
   523.9000      8.0069      2.4264      0.0070     13.5512     20.3047     83.5998
   524.0000      8.0070      2.4408      0.0440     12.6795     20.0996     87.5616
   524.1000      8.0070      2.4694      0.0767     10.9471     19.8101     86.6920
   524.2000      8.0070      2.4886      0.1058      9.7800     19.3573     85.8176
   524.3000      8.0100      2.4896      0.0808      9.7209     19.0895     84.8494
   524.4000      8.0100      2.4867      0.0561      9.8953     19.1887     80.1171
   524.5000      8.0208      2.4907      0.1030      9.6517     19.2372     74.6236
   524.6000      8.0208      2.4922      0.1032      9.5654     18.9962     73.5937
   524.7000      8.0208      2.4830      0.0959     10.1195     18.6649     77.6302
   524.8000      8.0329      2.4641      0.0966     11.2648     18.2646     85.1543
   524.9000      8.0329      2.4349      0.0608     13.0377     17.9223     91.4872
   525.0000      8.0393      2.4003      0.0422     15.1347     17.8381     92.0875
   525.1000      8.0393      2.3750     -0.0077     16.6645     17.8846     89.7611
   525.2000      8.0393      2.3732      0.0110     16.7748     17.9944     87.6343
   525.3000      8.0449      2.3929      0.0649     15.5788     18.3171     85.0870
   525.4000      8.0449      2.4143      0.0925     14.2831     18.6033     81.9883
   525.5000      8.0487      2.4264      0.0703     13.5535     18.2198     79.0655
   525.6000      8.0487      2.4428      0.0668     12.5563     17.2828     78.3780
   525.7000      8.0487      2.4610      0.1677     11.4573     16.4898     80.0436
   525.8000      8.0423      2.4568      0.0838     11.7093     16.2522     81.2011
   525.9000      8.0423      2.4358      0.0704     12.9801     16.4568     82.3049
   526.0000      8.0311      2.4196      0.0763     13.9629     16.7023     85.3343
   526.1000      8.0311      2.4165      0.0636     14.1521     16.8245     88.9701
   526.2000      8.0311      2.4222      0.0805     13.8086     16.9360     90.9414
   526.3000      8.0189      2.4272      0.0650     13.5055     17.0833     90.9626
   526.4000      8.0189      2.4331      0.0580     13.1472     17.3683     89.4332
   526.5000      8.0079      2.4503      0.0444     12.1018     17.7803     86.9501
   526.6000      8.0079      2.4756      0.1020     10.5725     18.0276     85.8613
   526.7000      8.0079      2.4917      0.1393      9.5942     17.9250     85.4215
   526.8000      8.0016      2.4903      0.1170      9.6780     17.7235     83.2395
   526.9000      8.0016      2.4780      0.0754     10.4214     17.6912     84.3429
   527.0000      8.0014      2.4706      0.0715     10.8704     17.8196     93.6060
   527.1000      8.0014      2.4720      0.1046     10.7860     18.0382    103.4183
   527.2000      8.0014      2.4661      0.1202     11.1427     18.3061    103.0565
   527.3000      8.0026      2.4487      0.0705     12.2014     18.4250     95.5164
   527.4000      8.0026      2.4416      0.0557     12.6322     18.3368     92.0745
   527.5000      8.0047      2.4522      0.0861     11.9862     18.2924     94.4267
   527.6000      8.0047      2.4576      0.0907     11.6636     18.3520     96.2636
   527.7000      8.0047      2.4472      0.0418     12.2895     18.4299     96.4136
   527.8000      8.0094      2.4358      0.0399     12.9804     18.6168     97.5799
   527.9000      8.0094      2.4284      0.0747     13.4293     18.7263    100.1287
