~Version Information
VERS.                      2.0: CWLS Log ASCII Standard - VERSION 2.0
WRAP.                       NO: One line per depth step
~Well Information Block
STRT.FT               500.0000: 
STOP.FT              2732.5000: 
STEP.FT                 0.2500: 
NULL.                -999.2500: 
COMP.          Pioneer Natural Resources: COMPANY
WELL.          Dude Canyon 22-32: WELL
FLD.           Purgatoire River: FIELD
LOC.           1662' FNL & 2446' FWL----: LOCATION
PROV.                 Colorado: PROVINCE
CNTY.               Las Animas: COUNTRY
SRVC.                Patterson: SERVICE COMPANY
DATE.          Thu Mar 10 07:15:42 2005: LOG DATE
UWI.           05 071 08257 00: UNIQUE WELL ID
~Curve Information Block
DEPT.FT            0 000 00 00: Depth
DIR.Ohm-m                     : IEL Induction Resistivity
GR.GAPI                       : Gamma Ray
SN.Ohm-m                      : IEL Short Normal
SP.mV                         : IEL Spontaneous Potential
~Parameter Information Block
~A  Depth       DIR          GR          SN          SP     
# ...
  1103.0000     33.4021     62.0810   2000.0000   2000.0000
  1103.2500     33.3837     61.7661   2000.0000   2000.0000
  1103.5000     33.2570     61.5287   2000.0000   2000.0000
  1103.7500     32.8205     61.5792   2000.0000   2000.0000
  1104.0000     31.9053     62.1618   2000.0000   2000.0000
  1104.2500     30.4487     63.0433   2000.0000   2000.0000
  1104.5000     28.5287     65.3097   2000.0000   2000.0000
  1104.7500     26.3350     67.5547   2000.0000   2000.0000
  1105.0000     24.0924     72.3573   2000.0000   2000.0000
  1105.2500     21.9871     76.8184   2000.0000   2000.0000
  1105.5000     20.1274     85.7989   2000.0000   2000.0000
  1105.7500     18.5465     93.1513   2000.0000   2000.0000
  1106.0000     17.2264    104.7437   2000.0000   2000.0000
  1106.2500     16.1264    111.4800   2000.0000   2000.0000
  1106.5000     15.2038    118.3648   2000.0000   2000.0000
  1106.7500     14.4258    120.8486   2000.0000   2000.0000
  1107.0000     13.7723    122.9481   2000.0000   2000.0000
  1107.2500     13.2338    124.2201   2000.0000   2000.0000
  1107.5000     12.8066    126.7212   2000.0000   2000.0000
  1107.7500     12.4877    128.7275   2000.0000   2000.0000
  1108.0000     12.2711    131.5578   2000.0000   2000.0000
  1108.2500     12.1454    132.7848   2000.0000   2000.0000
  1108.5000     12.0925    133.0368   2000.0000   2000.0000
  1108.7500     12.0886    132.2457   2000.0000   2000.0000
  1109.0000     12.1073    130.4926   2000.0000   2000.0000
  1109.2500     12.1264    129.5793   2000.0000   2000.0000
  1109.5000     12.1354    129.2892   2000.0000   2000.0000
  1109.7500     12.1387    129.7975   2000.0000   2000.0000
  1110.0000     12.1512    130.8719   2000.0000   2000.0000
  1110.2500     12.1876    131.1597   2000.0000   2000.0000
  1110.5000     12.2530    130.0791   2000.0000   2000.0000
  1110.7500     12.3391    128.2290   2000.0000   2000.0000
  1111.0000     12.4286    124.3760   2000.0000   2000.0000
  1111.2500     12.5026    121.7215   2000.0000   2000.0000
  1111.5000     12.5476    118.3991   2000.0000   2000.0000
  1111.7500     12.5577    116.7168   2000.0000   2000.0000
  1112.0000     12.5319    115.0410   2000.0000   2000.0000
  1112.2500     12.4702    114.7266   2000.0000   2000.0000
  1112.5000     12.3715    115.8353   2000.0000   2000.0000
  1112.7500     12.2347    117.4487   2000.0000   2000.0000
  1113.0000     12.0621    120.2385   2000.0000   2000.0000
  1113.2500     11.8627    121.7828   2000.0000   2000.0000
  1113.5000     11.6522    123.1535   2000.0000   2000.0000
  1113.7500     11.4490    123.4853   2000.0000   2000.0000
  1114.0000     11.2669    123.4845   2000.0000   2000.0000
  1114.2500     11.1088    123.3688   2000.0000   2000.0000
  1114.5000     10.9679    123.2874   2000.0000   2000.0000
  1114.7500     10.8341    123.3961   2000.0000   2000.0000
  1115.0000     10.7029    123.7954   2000.0000   2000.0000
  1115.2500     10.5802    124.0756   2000.0000   2000.0000
  1115.5000     10.4799    124.1568   2000.0000   2000.0000
  1115.7500     10.4190    123.8246   2000.0000   2000.0000
  1116.0000     10.4112    122.7616   2000.0000   2000.0000
  1116.2500     10.4637    121.8673   2000.0000   2000.0000
  1116.5000     10.5741    120.5412   2000.0000   2000.0000
  1116.7500     10.7311    119.6118   2000.0000   2000.0000
  1117.0000     10.9188    117.8539   2000.0000   2000.0000
  1117.2500     11.1245    116.4799   2000.0000   2000.0000
  1117.5000     11.3456    114.6724   2000.0000   2000.0000
  1117.7500     11.5885    113.9190   2000.0000   2000.0000
  1118.0000     11.8632    113.3225   2000.0000   2000.0000
  1118.2500     12.1758    112.9179   2000.0000   2000.0000
  1118.5000     12.5269    111.8522   2000.0000   2000.0000
  1118.7500     12.9114    110.9265   2000.0000   2000.0000
  1119.0000     13.3183    109.7863   2000.0000   2000.0000
  1119.2500     13.7280    109.4703   2000.0000   2000.0000
  1119.5000     14.1141    109.6775   2000.0000   2000.0000
  1119.7500     14.4528    110.0642   2000.0000   2000.0000
  1120.0000     14.7364    110.6790   2000.0000   2000.0000
  1120.2500     14.9760    111.1016   2000.0000   2000.0000
  1120.5000     15.1909    112.0578   2000.0000   2000.0000
  1120.7500     15.3921    113.0874   2000.0000   2000.0000
  1121.0000     15.5722    115.2086   2000.0000   2000.0000
  1121.2500     15.7082    116.7987   2000.0000   2000.0000
  1121.5000     15.7790    118.9045   2000.0000   2000.0000
  1121.7500     15.7862    119.7991   2000.0000   2000.0000
  1122.0000     15.7607    120.0471   2000.0000   2000.0000
  1122.2500     15.7493    119.5096   2000.0000   2000.0000
  1122.5000     15.7926    117.9768   2000.0000   2000.0000
  1122.7500     15.9097    116.6838   2000.0000   2000.0000
  1123.0000     16.0963    114.6408   2000.0000   2000.0000
  1123.2500     16.3332    113.3684   2000.0000   2000.0000
  1123.5000     16.5985    111.8620   2000.0000   2000.0000
  1123.7500     16.8758    111.2566   2000.0000   2000.0000
  1124.0000     17.1570    111.0707   2000.0000   2000.0000
  1124.2500     17.4387    111.4123   2000.0000   2000.0000
  1124.5000     17.7194    112.4421   2000.0000   2000.0000
  1124.7500     17.9994    113.3763   2000.0000   2000.0000
  1125.0000     18.2837    115.0606   2000.0000   2000.0000
  1125.2500     18.5844    116.2247   2000.0000   2000.0000
  1125.5000     18.9210    117.4489   2000.0000   2000.0000
  1125.7500     19.3148    117.5506   2000.0000   2000.0000
  1126.0000     19.7815    116.4216   2000.0000   2000.0000
  1126.2500     20.3274    114.9557   2000.0000   2000.0000
  1126.5000     20.9534    112.0138   2000.0000   2000.0000
  1126.7500     21.6634    109.7095   2000.0000   2000.0000
  1127.0000     22.4661    106.1279   2000.0000   2000.0000
  1127.2500     23.3678    103.9359   2000.0000   2000.0000
  1127.5000     24.3615    101.0228   2000.0000   2000.0000
  1127.7500     25.4246     99.0205   2000.0000   2000.0000
  1128.0000     26.5246     95.2968   2000.0000   2000.0000
  1128.2500     27.6309     92.3246   2000.0000   2000.0000
  1128.5000     28.7262     87.9973   2000.0000   2000.0000
  1128.7500     29.8117     85.9723   2000.0000   2000.0000
  1129.0000     30.8973     85.0982   2000.0000   2000.0000
  1129.2500     31.9774     85.8851   2000.0000   2000.0000
  1129.5000     33.0056     88.3461   2000.0000   2000.0000
  1129.7500     33.8881     90.4426   2000.0000   2000.0000
  1130.0000     34.5064     93.9470   2000.0000   2000.0000
  1130.2500     34.7566     96.3760   2000.0000   2000.0000
  1130.5000     34.5843     99.8381   2000.0000   2000.0000
  1130.7500     34.0037    101.9119   2000.0000   2000.0000
  1131.0000     33.0989    104.7493   2000.0000   2000.0000
  1131.2500     32.0088    106.5784   2000.0000   2000.0000
  1131.5000     30.8922    109.2900   2000.0000   2000.0000
  1131.7500     29.8810    110.9983   2000.0000   2000.0000
  1132.0000     29.0464    113.3783   2000.0000   2000.0000
  1132.2500     28.3942    114.9789   2000.0000   2000.0000
  1132.5000     27.8890    117.4921   2000.0000   2000.0000
  1132.7500     27.4890    118.9140   2000.0000   2000.0000
  1133.0000     27.1696    119.6625   2000.0000   2000.0000
  1133.2500     26.9264    118.9589   2000.0000   2000.0000
  1133.5000     26.7663    116.9081   2000.0000   2000.0000
  1133.7500     26.7023    115.8429   2000.0000   2000.0000
  1134.0000     26.7547    115.8253   2000.0000   2000.0000
  1134.2500     26.9522    116.7533   2000.0000   2000.0000
  1134.5000     27.3231    118.3573   2000.0000   2000.0000
  1134.7500     27.8767    118.7456   2000.0000   2000.0000
  1135.0000     28.5873    117.3787   2000.0000   2000.0000
  1135.2500     29.3917    115.2035   2000.0000   2000.0000
  1135.5000     30.2067    111.1703   2000.0000   2000.0000
  1135.7500     30.9615    108.8388   2000.0000   2000.0000
  1136.0000     31.6293    106.6724   2000.0000   2000.0000
  1136.2500     32.2402    106.0041   2000.0000   2000.0000
