~Version Information
VERS.                      2.0: CWLS Log ASCII Standard - VERSION 2.0
WRAP.                       NO: One line per depth step
~Well Information Block
STRT.FT               784.0000: 
STOP.FT              1033.0000: 
STEP.FT                 0.1000: 
NULL.                -999.2500: 
COMP.          Pioneer Natural Resources: COMPANY
WELL.          Run-Away-Train 43-26: WELL
FLD.           Purgatoire River: FIELD
LOC.           1693' FSL & 1195' FEL: LOCATION
PROV.                 Colorado: PROVINCE
CNTY.               Las Animas: COUNTRY
SRVC.                Patterson: SERVICE COMPANY
DATE.          Wed Apr 06 07:23:28 2005: LOG DATE
UWI.           05 071 08188 00: UNIQUE WELL ID
~Curve Information Block
DEPT.FT            0 000 00 00: Depth
DCAL.in                       : CDL Caliper
RHOB.g/cc                     : CDL Bulk Density
RHOC.g/cc                     : CDL Density Correction
DPOR.pu                       : CDL Density Porosity
GR.GAPI                       : Gamma Ray
NPOR.pu                       : Neutron Porosity
~Parameter Information Block
~A  Depth       DCAL        RHOB        RHOC        DPOR         GR         NPOR    
   784.0000      8.1414      2.1128     -0.5100     -0.0107     55.6773     18.7249
   784.1000      8.1414      2.1337     -0.5127     -0.0103     56.0141     19.3237
   784.2000      8.1414      2.1405     -0.5110     -0.0102     54.8340     20.0348
   784.3000      8.1427      2.1307     -0.5306     -0.0104     53.5521     20.7602
   784.4000      8.1427      2.1070     -0.4908     32.9085     55.5818     21.4475
   784.5000      8.1386      2.0824     -0.5777     34.4006     60.3704     21.5800
   784.6000      8.1386      2.0782     -0.5329     34.6573     62.6805     21.3197
   784.7000      8.1386      2.0962     -0.5517     33.5654     58.8348     20.6504
   784.8000      8.1304      2.1156     -0.4965     32.3851     51.2726     19.4650
   784.9000      8.1304      2.1140     -0.5281     32.4853     46.1614     18.7721
   785.0000      8.1389      2.0914     -0.5485     33.8568     47.6342     18.9377
   785.1000      8.1389      2.0645     -0.5482     35.4828     53.7733     19.1667
   785.2000      8.1389      2.0510     -0.6210     36.3004     59.7062     19.0101
   785.3000      8.1465      2.0625     -0.6261     35.6091     62.3540     18.6711
   785.4000      8.1465      2.0878     -0.5464     34.0737     61.3462     18.5030
   785.5000      8.1510      2.0972     -0.4837     33.5038     60.1207     18.5785
   785.6000      8.1510      2.0806     -0.5215     34.5075     62.6071     18.6813
   785.7000      8.1510      2.0611     -0.5975     35.6880     67.1118     18.9889
   785.8000      8.1628      2.0586     -0.5487     35.8441     68.5018     19.3854
   785.9000      8.1628      2.0701     -0.5972     35.1455     65.7913     19.5124
   786.0000      8.1524      2.0778     -0.5302     34.6795     63.8591     19.6345
   786.1000      8.1524      2.0624     -0.5867     35.6151     64.6307     20.0969
   786.2000      8.1524      2.0335     -0.5965     37.3666     63.1811     20.2837
   786.3000      8.1478      2.0211     -0.5997     38.1180     56.1056     19.6900
   786.4000      8.1478      2.0355     -0.5653     37.2410     48.9044     18.8774
   786.5000      8.1494      2.0637     -0.6332     35.5361     48.5381     18.4604
   786.6000      8.1494      2.0930     -0.5762     33.7594     51.8329     18.4016
   786.7000      8.1494      2.1197     -0.5638     32.1372     50.2663     18.4014
   786.8000      8.1468      2.1409     -0.5029     30.8523     45.1786     18.4179
   786.9000      8.1468      2.1523     -0.5616     30.1633     43.6222     18.3204
   787.0000      8.1463      2.1498     -0.4673     30.3133     44.1404     17.6901
   787.1000      8.1463      2.1287     -0.5261     31.5929     44.8040     16.9520
   787.2000      8.1463      2.1005     -0.5628     33.3028     47.8292     16.9397
   787.3000      8.1488      2.0823     -0.5165     34.4052     50.9947     17.3247
   787.4000      8.1488      2.0702     -0.5474     35.1373     51.0533     16.9459
   787.5000      8.1474      2.0644     -0.5248     35.4882     48.8737     15.8369
   787.6000      8.1474      2.0862     -0.5832     34.1689     44.5915     14.7566
   787.7000      8.1474      2.1312     -0.4397     31.4431     39.2785     14.0264
   787.8000      8.1519      2.1594     -0.5266     29.7359     35.5053     13.9716
   787.9000      8.1519      2.1674     -0.6154     29.2475     35.2456     14.4687
   788.0000      8.1568      2.1796     -0.4992     28.5101     36.7485     14.9965
   788.1000      8.1568      2.1926     -0.5355     27.7204     36.2599     15.6815
   788.2000      8.1568      2.1918     -0.5224     27.7689     34.1104     16.5990
   788.3000      8.1578      2.1618     -0.4643     29.5881     32.5810     17.1985
   788.4000      8.1578      2.0998     -0.5677     33.3451     32.5067     17.3342
   788.5000      8.1519      2.0445     -0.6230     36.6990     33.0101     17.0666
   788.6000      8.1519      2.0371     -0.6336     37.1445     33.2586     16.6442
   788.7000      8.1519      2.0718     -0.5380     35.0452     34.9091     16.5294
   788.8000      8.1368      2.1128     -0.5225     32.5593     38.9402     16.5061
   788.9000      8.1368      2.1283     -0.4582     31.6166     43.7702     16.4339
   789.0000      8.1520      2.1106     -0.6278     32.6922     47.0941     16.8919
   789.1000      8.1520      2.0797     -0.5778     34.5625     47.0292     18.0264
   789.2000      8.1520      2.0551     -0.6102     36.0523     44.0206     18.9403
   789.3000      8.1544      2.0446     -0.5823     36.6931     42.8570     18.9982
   789.4000      8.1544      2.0408     -0.4978     36.9227     46.2005     18.5834
   789.5000      8.1519      2.0422     -0.6470     36.8337     49.7044     18.2357
   789.6000      8.1519      2.0626     -0.5446     35.6020     49.1128     18.1516
   789.7000      8.1519      2.0954     -0.5489     33.6097     45.7020     17.9668
   789.8000      8.1528      2.1193     -0.5102     32.1639     43.1809     17.4577
   789.9000      8.1528      2.1183     -0.5365     32.2268     44.5852     16.9181
   790.0000      8.1489      2.0945     -0.5304     33.6651     49.1224     16.6898
   790.1000      8.1489      2.0754     -0.6403     34.8270     52.6995     17.1022
   790.2000      8.1489      2.0787     -0.5160     34.6257     54.2664     17.8648
   790.3000      8.1524      2.0882     -0.6307     34.0467     54.1244     18.3755
   790.4000      8.1524      2.0894     -0.5272     33.9737     53.1926     18.9904
   790.5000      8.1522      2.0837     -0.5598     34.3241     52.0089     20.0183
   790.6000      8.1522      2.0794     -0.5321     34.5848     47.7056     20.6221
   790.7000      8.1522      2.0703     -0.5445     35.1320     42.8674     20.5639
   790.8000      8.1502      2.0500     -0.6130     36.3615     44.9391     20.7798
   790.9000      8.1502      2.0400     -0.6418     36.9692     53.0620     21.4826
   791.0000      8.1526      2.0617     -0.6248     35.6521     59.0092     22.3158
   791.1000      8.1526      2.1029     -0.5896     33.1574     57.7236     22.7693
   791.2000      8.1526      2.1376     -0.5563     31.0515     52.7713     22.3145
   791.3000      8.1493      2.1611     -0.5923     29.6291     51.5902     21.2669
   791.4000      8.1493      2.1638     -0.4465     29.4674     54.2493     20.4843
   791.5000      8.1519      2.1404     -0.5655     30.8854     55.1153     20.3496
   791.6000      8.1519      2.1264     -0.5987     31.7314     54.6828     20.5922
   791.7000      8.1519      2.1352     -0.5252     31.2006     56.3253     20.6216
   791.8000      8.1498      2.1320     -0.5062     31.3947     58.7194     19.9909
   791.9000      8.1498      2.1030     -0.4934     33.1524     60.2415     19.1254
   792.0000      8.1362      2.0753     -0.5913     34.8274     59.8443     18.8419
   792.1000      8.1362      2.0705     -0.5910     35.1236     56.8938     19.1982
   792.2000      8.1362      2.0763     -0.5710     34.7689     54.5945     19.7840
   792.3000      8.1526      2.0829     -0.5457     34.3685     55.6632     20.2766
   792.4000      8.1526      2.0953     -0.5351     33.6189     58.8049     20.5663
   792.5000      8.1607      2.1066     -0.5159     32.9327     63.1793     20.7295
   792.6000      8.1607      2.1022     -0.4537     33.1983     65.6311     20.7072
   792.7000      8.1607      2.0886     -0.5329     34.0213     63.3538     20.2022
   792.8000      8.1619      2.0875     -0.5148     34.0893     57.8105     19.3267
   792.9000      8.1619      2.0947     -0.4796     33.6545     51.3889     18.4168
   793.0000      8.1616      2.0946     -0.5349     33.6577     47.5679     17.6720
   793.1000      8.1616      2.0898     -0.5319     33.9519     50.1375     17.3190
   793.2000      8.1616      2.0747     -0.4774     34.8670     58.5290     17.2055
   793.3000      8.1628      2.0463     -0.5975     36.5893     66.0671     17.2821
   793.4000      8.1628      2.0265     -0.5641     37.7854     65.5543     18.0647
   793.5000      8.1655      2.0222     -0.5602     38.0504     58.2180     19.1854
