~Version Information
VERS.                      2.0: CWLS Log ASCII Standard - VERSION 2.0
WRAP.                       NO: One line per depth step
~Well Information Block
STRT.FT               240.0000: 
STOP.FT              1453.0000: 
STEP.FT                 0.2500: 
NULL.                -999.2500: 
COMP.          Petrogulf Corporation: COMPANY
WELL.          Robinson 15-12R: WELL
FLD.           Purgatorie River: FIELD
LOC.           1752' FNL & 561' FWL: LOCATION
PROV.                 Colorado: PROVINCE
CNTY.               Las Animas: COUNTRY
SRVC.                Patterson: SERVICE COMPANY
DATE.          Tue Sep 13 15:11:42 2005: LOG DATE
UWI.                          : UNIQUE WELL ID
~Curve Information Block
DEPT.FT            0 000 00 00: Depth
SP.mV                         : DIL Spontaneous Potential
RILD.Ohm-m                    : DIL Deep Resistivity
RILM.Ohm-m                    : DIL Medium Resistivity
RLL3.Ohm-m                    : DIL Shallow Resistivity
GR.GAPI                       : Gamma Ray
~Parameter Information Block
~A  Depth        SP         RILD        RILM        RLL3         GR     
# ...
   632.0000    194.4898     11.7385     11.6157     10.4003    131.0850
   632.2500    194.3489     11.6511     11.5656     10.3789    135.6978
   632.5000    194.0629     11.6779     12.1963     11.3779    121.2583
   632.7500    193.7211     11.5929     12.4402     12.9865    111.2176
   633.0000    193.6807     11.4801     12.9045     14.8633    132.7697
   633.2500    193.7464     11.6258     13.2340     16.9928    129.5186
   633.5000    193.8076     11.6689     13.8369     19.2869    119.1145
   633.7500    194.0952     11.4529     13.8186     19.7219    121.3439
   634.0000    194.1154     11.6897     13.5773     17.8038    137.0985
   634.2500    193.6326     11.7394     13.1904     15.5940    117.9198
   634.5000    192.8503     11.9167     13.2177     13.9560    128.8718
   634.7500    192.3309     11.8389     13.3155     13.0404    139.9898
   635.0000    191.8996     11.8660     13.1306     12.8132    136.5060
   635.2500    191.5248     11.9436     13.2822     12.9160    129.1414
   635.5000    191.2415     11.5933     13.0694     12.9946    147.9524
   635.7500    190.8221     11.6102     12.7934     12.6364    171.2778
   636.0000    190.4449     11.4955     12.7747     12.2034    133.9572
   636.2500    190.1196     11.4011     12.4727     12.0020    149.8438
   636.5000    189.8112     11.2655     12.3539     12.4895    150.3354
   636.7500    189.5493     10.8635     12.2097     12.9226    135.6191
   637.0000    189.4451     10.8973     11.9066     13.0582    154.0195
   637.2500    189.6278     10.7120     11.5702     13.2147    149.1943
   637.5000    190.1428     10.7297     11.3879     13.3756    149.6530
   637.7500    190.7412     10.9843     11.1104     12.1607    147.2316
   638.0000    191.3659     11.0537     11.0566     10.3983    128.9290
   638.2500    192.1263     11.0663     11.0606      9.7316    136.3018
   638.5000    192.7967     10.9083     11.3243     10.4510    125.4689
   638.7500    193.4553     11.0260     11.7508     12.0906    128.9494
   639.0000    193.8412     10.9803     12.0354     14.1720    120.2045
   639.2500    193.9181     11.0095     12.4570     16.5621    112.7804
   639.5000    194.0674     11.0849     12.3251     19.3738    116.7062
   639.7500    194.0190     11.1041     11.9696     18.2167    123.7333
   640.0000    193.6848     11.3190     11.9979     13.8616    138.0417
   640.2500    193.3669     11.4503     11.8515     12.2608    132.0322
   640.5000    193.1363     11.7641     11.9737     12.8692    146.1624
   640.7500    192.6124     12.4042     12.1852     12.9701    132.7514
   641.0000    191.9816     12.6833     12.7489     12.4547    126.2015
   641.2500    191.6433     13.0197     13.2630     12.5438    135.8470
   641.5000    191.3771     13.1184     13.7315     13.1451    133.9979
   641.7500    191.0711     13.4886     14.7153     14.9057    135.1078
   642.0000    190.7326     13.4684     15.5760     17.5776    108.8862
   642.2500    190.6814     13.5719     16.1101     20.0580     99.8759
   642.5000    190.8592     13.5940     16.0508     22.9581    114.6094
   642.7500    191.2626     13.3824     16.5745     23.7940    122.5977
   643.0000    191.7466     13.4993     16.3683     20.2370    102.4601
   643.2500    192.1523     13.2864     16.1358     18.5664    121.3818
   643.5000    192.4701     13.2832     16.0208     18.2362    131.0548
   643.7500    192.6136     13.5874     15.6607     17.0246    139.6719
   644.0000    192.5368     13.6368     15.2549     15.0476    149.8925
   644.2500    192.1568     13.1657     14.7481     13.8810    147.0956
   644.5000    191.5726     13.2117     14.5589     13.2595    133.9685
   644.7500    190.9043     13.0425     14.4368     13.2497    113.5816
   645.0000    190.3808     12.8183     13.9625     13.7840    124.4692
   645.2500    190.1186     12.5796     13.6893     14.6033    112.0570
   645.5000    189.8711     12.4450     13.2149     14.6929    131.3166
   645.7500    189.5191     12.1464     13.1508     14.2746    137.5530
   646.0000    189.3813     12.2595     12.9033     13.7234    128.1718
   646.2500    189.2592     12.0400     13.0462     13.3250    128.2361
   646.5000    189.2597     11.9320     13.1924     12.6544    156.7103
   646.7500    189.1632     11.7759     13.1518     12.4358    140.8534
   647.0000    189.1353     11.6194     13.3925     12.9162    121.6112
   647.2500    189.4336     11.5561     13.6888     14.5709    117.5561
   647.5000    189.8540     11.3948     13.3905     17.1496    123.7748
   647.7500    190.2758     11.3450     13.1276     19.9685    116.3256
   648.0000    190.5615     11.3687     13.0282     19.7725    127.4876
   648.2500    190.6846     11.2829     12.3100     16.1591    145.4941
   648.5000    190.5169     11.1558     11.7450     12.6576    138.3867
   648.7500    190.2955     11.2441     11.3256     11.0776    140.6884
   649.0000    189.7022     11.1077     11.1554     10.4900    157.3983
   649.2500    189.1226     11.3772     10.9577     11.0279    137.5343
   649.5000    188.7822     11.6749     11.1119     11.9154    146.5315
   649.7500    188.5913     11.9613     11.0106     12.4663    162.1930
   650.0000    188.2878     11.8460     11.2045     12.2932    158.4853
   650.2500    187.9178     12.4172     11.4236     11.5414    152.2581
   650.5000    187.7114     12.9182     12.0844     11.2505    148.5383
   650.7500    188.0408     13.1310     13.1774     12.8056    131.4866
   651.0000    188.7886     13.9085     14.1679     16.6836     98.8737
   651.2500    189.7180     14.5484     15.5705     23.4607     80.0479
   651.5000    190.8311     14.9419     17.4025     40.4164     83.1325
   651.7500    192.1143     15.4901     19.1291     86.0452     53.5034
   652.0000    193.5905     16.0962     21.9632    149.0950     42.2926
   652.2500    194.9243     16.2071     25.2534    201.1252     51.3032
   652.5000    196.3565     16.4601     26.8753    203.7003     57.0886
   652.7500    197.7308     16.9091     29.6120    151.8736     69.9273
   653.0000    198.8451     16.5496     28.5211    102.4739     67.3075
   653.2500    199.8047     16.3689     26.2861     81.7372     93.1377
   653.5000    200.7291     16.1481     22.2354     60.5805     98.6424
   653.7500    201.4776     15.8955     20.4905     33.3820    114.6476
   654.0000    201.9176     15.3342     17.5874     19.0062    136.4970
   654.2500    202.2787     14.8048     15.4510     14.0465    152.8063
   654.5000    202.4457     14.5893     14.1332     12.4979    172.0202
   654.7500    202.5347     14.3385     13.1390     12.5160    167.4955
   655.0000    202.4837     13.9969     12.4985     12.4874    168.7271
   655.2500    202.3352     14.0299     12.1872     12.5924    160.7757
   655.5000    202.2481     13.9452     12.0451     12.3228    172.7063
   655.7500    202.0384     13.6918     12.3338     11.7887    182.8207
   656.0000    201.8925     13.3393     12.6026     12.4128    134.5179
   656.2500    201.8825     13.5102     13.7018     16.4411    126.3146
   656.5000    201.8278     13.3949     14.0439     22.7827    120.3906
   656.7500    201.8458     13.5187     15.4648     28.3115    113.1720
   657.0000    202.0129     13.7109     16.2967     31.7228    100.2733
   657.2500    202.2718     14.0851     16.7190     34.0428    101.8604
   657.5000    202.4703     14.3129     17.1343     35.1783    126.0444
   657.7500    202.3735     14.4547     17.1867     34.3217    127.3753
   658.0000    202.0053     15.2121     17.4196     33.1438    124.7794
   658.2500    201.5714     15.9578     17.6196     29.5285    125.6762
   658.5000    201.1631     17.0880     17.3318     22.8196    147.1334
   658.7500    200.4963     17.4889     17.7315     17.8621    137.7916
   659.0000    199.6297     18.0518     17.5370     16.0675    158.6340
   659.2500    198.6865     18.4992     18.0080     16.4591    162.5429
   659.5000    197.3401     17.7660     18.4126     18.5959    132.2329
   659.7500    195.5400     17.7261     19.4901     21.2484    137.8634
