~Version Information
VERS.                      2.0: CWLS Log ASCII Standard - VERSION 2.0
WRAP.                       NO: One line per depth step
~Well Information Block
STRT.FT               546.0000: 
STOP.FT              1771.5000: 
STEP.FT                 0.2500: 
NULL.                -999.2500: 
COMP.          Petrogulf Corporation: COMPANY
WELL.             McLeod 9-42R: WELL
FLD.           Purgatorie River: FIELD
LOC.           1748' FNL & 372' FEL: LOCATION
PROV.                 Colorado: PROVINCE
CNTY.               Las Animas: COUNTRY
SRVC.                Patterson: SERVICE COMPANY
DATE.          Tue Aug 16 11:11:38 2005: LOG DATE
UWI.           071 08092  : UNIQUE WELL ID
~Curve Information Block
DEPT.FT            0 000 00 00: Depth
SP.mV                         : DIL Spontaneous Potential
RILD.Ohm-m                    : DIL Deep Resistivity
RILM.Ohm-m                    : DIL Medium Resistivity
RLL3.Ohm-m                    : DIL Shallow Resistivity
GR.GAPI                       : Gamma Ray
~Parameter Information Block
~A  Depth        SP         RILD        RILM        RLL3         GR     
# ...
  1638.0000    101.6435      8.7240     10.0586     14.7233    140.4600
  1638.2500     98.7383      8.9547     10.0552     14.6273    139.7261
  1638.5000     98.1197      9.2581     10.0304     13.9617    135.2663
  1638.7500     97.0883      8.8977     10.0376     13.7526    144.5172
  1639.0000     96.4979      8.7533      9.9381     13.5401    139.4054
  1639.2500     95.1127      8.5245      9.8069     14.0128    141.3802
  1639.5000     95.9204      9.0388      9.7401     14.4983    143.4735
  1639.7500     96.7413      9.2525      9.4476     13.5455    140.2556
  1640.0000     94.8609      9.0572      9.5954     13.1402    139.0061
  1640.2500     92.9147      9.2488      9.6553     12.9655    136.7101
  1640.5000     89.3077      9.3384      9.8391     12.4888    137.1138
  1640.7500     83.2425      9.3197      9.8509     11.8628    132.3461
  1641.0000     76.6985     10.4428     10.5579     11.7237    130.3396
  1641.2500     70.7499     10.9135     10.9167     11.9145    119.9695
  1641.5000     67.5598     11.7742     12.0816     12.3946    111.3151
  1641.7500     76.3075     12.2752     12.6540     14.5762    102.4955
  1642.0000     76.6049     13.2726     13.2656     17.9234     92.1576
  1642.2500     79.2792     13.0216     14.7003     20.7483     88.7413
  1642.5000     69.4389     13.6117     16.8232     23.2080     76.3916
  1642.7500     64.5903     14.1815     18.9113     27.5137     65.7699
  1643.0000     55.6165     15.1190     22.3020     38.1230     60.7808
  1643.2500     52.8337     15.4481     22.7344     55.0264     57.2012
  1643.5000     49.0125     16.9547     25.6098    104.3944     61.6649
  1643.7500     47.4196     19.9171     30.2060    117.1492     62.4030
  1644.0000     45.3528     18.7449     37.5786    100.5853     54.5403
  1644.2500     43.4660     20.5232     38.9174     78.7787     50.5393
  1644.5000     42.7373     20.9276     53.6357     87.4590     46.3182
  1644.7500     41.2620     20.8984     43.5310    140.7608     55.0046
  1645.0000     42.3494     22.7745     36.8782    181.3806     76.9149
  1645.2500     41.4928     20.9712     31.0043    155.8377     88.1938
  1645.5000     45.6204     20.7535     27.5107    112.1751    115.2066
  1645.7500     48.8010     18.3492     23.0998     44.7816    110.8300
  1646.0000     53.5688     16.1431     21.1150     27.5474    116.9680
  1646.2500     57.8189     15.7675     18.0252     20.3809    113.7813
  1646.5000     59.8358     14.8375     16.4111     18.0148    120.9600
  1646.7500     62.7030     15.0040     14.7721     15.8773    124.2678
  1647.0000     65.5320     13.9396     13.8204     13.5968    131.5999
  1647.2500     68.1507     12.9448     12.4209     12.8227    128.0129
  1647.5000     68.8247     11.8143     11.5904     12.5180    127.6269
  1647.7500     71.3891     12.2426     11.0284     12.2045    132.9696
  1648.0000     72.1203     11.1865     10.7051     11.2725    127.0186
  1648.2500     74.1854     11.1777     10.0522     10.5835    125.7066
  1648.5000     73.3602     10.8082      9.8942     11.0550    119.2683
  1648.7500     73.6899     11.3034      9.7410     11.4450    114.8553
  1649.0000     71.9591     10.9675      9.7632     11.6510    114.5745
  1649.2500     71.3615     11.3838      9.7648     11.9865    113.3464
  1649.5000     71.8360     11.4108     10.2192     12.5240    116.7604
  1649.7500     71.7876     11.2610     10.7099     13.1598    118.8711
  1650.0000     71.5747     11.4701     10.6243     13.7442    105.9007
  1650.2500     71.2208     11.7667     10.8283     14.4899    103.0422
  1650.5000     70.6578     11.6162     11.2391     15.2824    112.0199
  1650.7500     68.3766     11.7061     11.2494     16.2710    117.2141
  1651.0000     68.0119     11.2095     11.7034     17.4031    114.3235
  1651.2500     67.0323     10.8303     11.4860     18.1170    114.4901
  1651.5000     66.6153     10.3248     11.2467     18.2898    104.8395
  1651.7500     65.5609      9.5253     10.6832     17.6400    111.3596
  1652.0000     63.8457      9.1777     10.4474     16.5085    118.5540
  1652.2500     62.4044      9.1269      9.9416     14.3646    128.1199
  1652.5000     61.8535      8.8134      9.5035     11.7958    136.7343
  1652.7500     61.5063      8.5264      9.0310     10.8079    137.4424
  1653.0000     59.9078      7.9322      8.8489     10.4309    135.9876
  1653.2500     58.5358      8.3053      8.5575     10.1562    138.2598
  1653.5000     57.5270      8.0300      8.3729      9.9657    140.0171
  1653.7500     56.9641      8.0079      8.1191     10.0170    143.0538
  1654.0000     55.9279      7.8163      7.8975      9.9481    154.0418
  1654.2500     55.3066      8.1122      7.6543      9.9972    158.1921
  1654.5000     51.5461      7.7408      7.7302     10.1501    156.1191
  1654.7500     50.5025      7.5778      7.6194     10.2502    164.4119
  1655.0000     49.4532      7.3640      7.8271      9.7994    159.0786
  1655.2500     46.7840      7.4393      7.9595      8.9103    143.6342
  1655.5000     42.5927      7.4796      8.0626      9.5202    128.2800
  1655.7500     39.9613      7.7289      8.1842     11.5904    121.0056
  1656.0000     35.8907      7.7227      8.3662     12.5378    112.5948
  1656.2500     33.6254      7.8208      8.5051     11.9545    117.3506
  1656.5000     32.4973      7.8952      8.5523     11.5120    117.5481
  1656.7500     29.0624      8.3033      9.0686     11.0995    117.7688
  1657.0000     27.7991      8.6820      8.8859     11.1412    117.5394
  1657.2500     25.0355      9.1303      9.5852     10.8820    104.4509
  1657.5000     24.2507      9.0866     10.2973     10.7879     89.9859
  1657.7500     20.1495      9.5880     11.3954     11.4297     82.3618
  1658.0000     19.8706      9.9919     11.2619     12.7777     73.9363
  1658.2500     15.2922     10.5480     12.7564     15.1582     70.3470
  1658.5000     15.2846     11.4080     13.5416     19.1311     61.0591
  1658.7500     12.9436     11.7582     15.3782     22.1801     60.7350
  1659.0000     13.3046     12.0635     15.5417     26.6054     49.4820
  1659.2500     13.8535     12.9363     15.4193     27.8096     48.3275
  1659.5000     14.9213     13.5380     15.6737     27.9123     44.7086
  1659.7500     15.6142     13.8355     17.8997     27.5325     42.2800
  1660.0000     15.9301     15.1628     18.8886     26.1506     33.4252
  1660.2500     15.8208     15.7420     21.3322     25.1702     34.1125
  1660.5000     14.1001     14.6991     21.4538     24.4208     37.0518
  1660.7500     13.8208     17.1736     21.7717     23.6439     34.2841
  1661.0000     10.8443     17.5651     21.5770     23.2140     32.5271
  1661.2500     10.9407     17.5199     23.2098     23.5303     34.2364
  1661.5000      8.0668     18.9886     23.1404     23.8025     33.5983
  1661.7500      7.7803     21.1492     23.1079     24.2328     31.5951
  1662.0000      5.7216     20.7982     23.8200     24.5617     33.4515
  1662.2500      4.6605     21.5224     24.2994     25.8186     33.2478
  1662.5000      2.2414     21.9950     26.9013     27.6174     31.7669
  1662.7500      0.6204     23.2974     25.9203     31.6080     32.7509
  1663.0000      0.2355     25.1072     27.3927     34.1365     32.7111
  1663.2500     -0.4518     25.8463     27.3600     36.0446     34.1648
  1663.5000     -0.5823     24.9391     29.2430     35.9248     28.7509
  1663.7500     -1.2715     23.1625     28.2442     34.5534     30.6365
  1664.0000     -2.1033     26.6316     29.2834     34.1060     29.6557
  1664.2500     -2.7574     23.9326     31.7775     34.9058     26.0174
  1664.5000     -2.1886     23.2711     30.2412     35.0765     33.6009
  1664.7500     -1.6616     20.5063     33.9242     36.0904     38.3029
  1665.0000     -0.2921     17.4811     29.5838     36.1748     38.4200
  1665.2500      0.9383     14.9592     25.8874     36.8723     44.9118
  1665.5000      5.0946     14.2625     20.8817     41.2025     63.2651
  1665.7500      9.8145     13.2660     17.2736     46.2888     87.0129
