~Version Information
VERS.                      2.0: CWLS Log ASCII Standard - VERSION 2.0
WRAP.                       NO: One line per depth step
~Well Information Block
STRT.FT               235.0000: 
STOP.FT              1634.5000: 
STEP.FT                 0.2500: 
NULL.                -999.2500: 
COMP.          Petrogulf Corporation: COMPANY
WELL.             State 16-41R: WELL
FLD.           Purgatorie River: FIELD
LOC.           280' FNL & 907' FEL: LOCATION
SECT.                       16: SECTION
TOWN.                      33S: TOWNSHIP
RANG.                      67W: RANGE
STAT.                 Colorado: STATE
CNTY.               Las Animas: COUNTY
CTRY.                      USA: COUNTRY
SRVC.                Patterson: SERVICE COMPANY
DATE.         Tue Oct 18 15:59:41 2005: LOG DATE
API.              05-071-08345: UNIQUE WELL ID
~Curve Information Block
DEPT.FT            0 000 00 00: Depth
SP.mV                         : DIL Spontaneous Potential
RILD.Ohm-m                    : DIL Deep Resistivity
RILM.Ohm-m                    : DIL Medium Resistivity
RLL3.Ohm-m                    : DIL Shallow Resistivity
GR.GAPI                       : Gamma Ray
~Parameter Information Block
~A  Depth        SP         RILD        RILM        RLL3         GR     
# ...
  1159.0000    176.3397     10.2085     10.3032     12.6442    143.9555
  1159.2500    176.6307      9.7489      9.7264     11.5768    145.0126
  1159.5000    176.9986      9.3783      9.2573     10.7170    148.2321
  1159.7500    177.4417      9.0914      8.8881     10.2392    151.7515
  1160.0000    177.9531      8.8790      8.6101     10.1348    157.2439
  1160.2500    178.5182      8.7310      8.4137     10.2780    159.7040
  1160.5000    179.1147      8.6377      8.2894     10.5164    161.0764
  1160.7500    179.7144      8.5920      8.2286     10.7311    161.2344
  1161.0000    180.2865      8.5886      8.2238     10.8648    161.7770
  1161.2500    180.8030      8.6238      8.2687     10.9376    162.5531
  1161.5000    181.2427      8.6939      8.3577     11.0390    163.9684
  1161.7500    181.5941      8.7939      8.4855     11.2810    164.8512
  1162.0000    181.8560      8.9181      8.6457     11.7251    165.7566
  1162.2500    182.0356      9.0622      8.8312     12.3346    165.8065
  1162.5000    182.1466      9.2245      9.0344     12.9887    164.5376
  1162.7500    182.2054      9.4076      9.2483     13.5458    162.6321
  1163.0000    182.2288      9.6182      9.4693     13.9052    158.4796
  1163.2500    182.2321      9.8662      9.6982     14.0267    155.4668
  1163.5000    182.2270     10.1629      9.9423     13.9181    152.0467
  1163.7500    182.2207     10.5185     10.2151     13.6296    150.9654
  1164.0000    182.2153     10.9384     10.5352     13.2602    150.4949
  1164.2500    182.2078     11.4200     10.9249     12.9578    150.2074
  1164.5000    182.1916     11.9511     11.4082     12.9270    149.4568
  1164.7500    182.1585     12.5111     12.0088     13.4904    148.9260
  1165.0000    182.1011     13.0739     12.7473     15.1867    147.3019
  1165.2500    182.0152     13.6128     13.6369     18.7927    144.3531
  1165.5000    181.9012     14.1041     14.6763     25.1426    135.4036
  1165.7500    181.7641     14.5302     15.8398     34.7582    126.7732
  1166.0000    181.6127     14.8812     17.0662     47.4521    112.3526
  1166.2500    181.4567     15.1547     18.2522     62.0492    103.2556
  1166.5000    181.3038     15.3553     19.2604     76.2874     91.6677
  1166.7500    181.1557     15.4904     19.9487     87.0409     85.5339
  1167.0000    181.0070     15.5645     20.2157     91.1107     79.3315
  1167.2500    180.8445     15.5730     20.0390     86.5729     77.8823
  1167.5000    180.6500     15.5005     19.4790     74.0734     80.6806
  1167.7500    180.4043     15.3258     18.6484     57.0368     85.7814
  1168.0000    180.0928     15.0330     17.6684     40.2075     96.9378
  1168.2500    179.7102     14.6218     16.6379     27.3125    105.5413
  1168.5000    179.2635     14.1120     15.6228     19.5873    118.5216
  1168.7500    178.7713     13.5413     14.6606     16.0910    126.8297
  1169.0000    178.2601     12.9557     13.7711     15.0645    138.6632
  1169.2500    177.7583     12.3987     12.9658     15.0121    145.7411
  1169.5000    177.2890     11.9025     12.2539     15.0048    153.6223
  1169.7500    176.8652     11.4849     11.6439     14.5713    156.3064
  1170.0000    176.4880     11.1493     11.1424     13.6147    156.6223
  1170.2500    176.1487     10.8881     10.7524     12.3917    155.2387
  1170.5000    175.8347     10.6871     10.4715     11.3794    152.5919
  1170.7500    175.5366     10.5302     10.2912     11.0142    151.1358
  1171.0000    175.2543     10.4049     10.1973     11.4771    149.5319
  1171.2500    174.9992     10.3052     10.1706     12.6466    148.3513
  1171.5000    174.7928     10.2335     10.1904     14.1772    145.1883
  1171.7500    174.6619     10.1983     10.2374     15.6144    141.7843
  1172.0000    174.6318     10.2117     10.2981     16.5179    135.4588
  1172.2500    174.7209     10.2857     10.3680     16.6030    131.5396
  1172.5000    174.9366     10.4279     10.4516     15.8694    128.2679
  1172.7500    175.2757     10.6384     10.5599     14.6310    128.5817
  1173.0000    175.7261     10.9087     10.7067     13.3980    132.1336
  1173.2500    176.2703     11.2225     10.9033     12.6668    134.9649
  1173.5000    176.8879     11.5597     11.1560     12.7363    136.7305
  1173.7500    177.5569     11.9000     11.4636     13.6123    135.3854
  1174.0000    178.2520     12.2270     11.8187     15.0049    130.6422
  1174.2500    178.9441     12.5307     12.2088     16.4395    127.1411
  1174.5000    179.5996     12.8097     12.6201     17.4914    123.4920
  1174.7500    180.1837     13.0701     13.0402     18.0366    122.4656
  1175.0000    180.6647     13.3219     13.4600     18.3088    122.1917
  1175.2500    181.0197     13.5725     13.8735     18.6803    122.1225
  1175.5000    181.2375     13.8212     14.2754     19.3399    121.4920
  1175.7500    181.3203     14.0580     14.6590     20.1468    120.6394
  1176.0000    181.2812     14.2687     15.0141     20.7698    118.6578
  1176.2500    181.1403     14.4420     15.3282     20.9727    116.9447
  1176.5000    180.9210     14.5771     15.5889     20.8001    114.5574
  1176.7500    180.6471     14.6853     15.7887     20.5298    113.8240
  1177.0000    180.3411     14.7862     15.9293     20.4441    114.7682
  1177.2500    180.0222     14.8997     16.0234     20.5868    116.4247
  1177.5000    179.7054     15.0367     16.0938     20.6789    118.8525
  1177.7500    179.4000     15.1947     16.1703     20.3020    119.7411
  1178.0000    179.1098     15.3578     16.2832     19.2880    120.4056
  1178.2500    178.8340     15.5008     16.4562     18.0407    121.3039
  1178.5000    178.5693     15.5945     16.6989     17.5184    124.1252
  1178.7500    178.3119     15.6114     16.9995     18.8819    126.2202
  1179.0000    178.0590     15.5318     17.3192     23.0331    126.4653
  1179.2500    177.8092     15.3516     17.5926     30.2133    122.8192
  1179.5000    177.5615     15.0895     17.7392     39.6885    110.8142
  1179.7500    177.3156     14.7875     17.6878     49.6090     99.8483
  1180.0000    177.0709     14.5033     17.4073     57.2908     83.4126
  1180.2500    176.8266     14.2949     16.9251     60.1036     75.1861
  1180.5000    176.5812     14.2064     16.3197     56.7271     70.1946
  1180.7500    176.3320     14.2589     15.6936     48.0221     72.4746
  1181.0000    176.0757     14.4483     15.1435     36.7555     83.5043
  1181.2500    175.8092     14.7481     14.7424     26.2058     94.4431
  1181.5000    175.5325     15.1165     14.5376     18.6533    112.4795
  1181.7500    175.2504     15.5073     14.5544     14.8218    123.2239
  1182.0000    174.9730     15.8802     14.8035     14.3567    134.0853
  1182.2500    174.7162     16.2106     15.2849     16.5582    136.6481
  1182.5000    174.4993     16.4955     15.9916     20.7246    133.1568
  1182.7500    174.3418     16.7566     16.9108     26.1328    126.7547
  1183.0000    174.2604     17.0370     18.0272     32.0015    113.4447
  1183.2500    174.2645     17.3912     19.3257     37.5952    103.4858
  1183.5000    174.3544     17.8694     20.7945     42.4021     88.7940
  1183.7500    174.5211     18.5020     22.4238     46.2774     80.0984
  1184.0000    174.7492     19.2860     24.1963     49.4497     69.9807
  1184.2500    175.0216     20.1741     26.0670     52.3368     65.3680
  1184.5000    175.3244     21.0668     27.9340     55.2658     60.8601
  1184.7500    175.6504     21.8195     29.6098     58.2912     58.9136
  1185.0000    175.9992     22.2747     30.8205     61.1908     57.4376
  1185.2500    176.3746     22.3184     31.2639     63.5449     57.6175
  1185.5000    176.7804     21.9274     30.7338     64.7712     59.5843
  1185.7500    177.2160     21.1702     29.2420     64.1040     61.6848
  1186.0000    177.6743     20.1664     27.0341     60.7026     65.3941
  1186.2500    178.1415     19.0382     24.4752     54.1000     68.1795
  1186.5000    178.5992     17.8837     21.9016     44.8249     73.6300
  1186.7500    179.0291     16.7691     19.5370     34.5471     78.9744
