~Version Information
VERS.                      2.0: CWLS Log ASCII Standard - VERSION 2.0
WRAP.                       NO: One line per depth step
~Well Information Block
STRT.FT               350.0000: 
STOP.FT              2531.5000: 
STEP.FT                 0.1000: 
NULL.                -999.2500: 
COMP.          Pioneer Natural Resources: COMPANY
WELL.          Cock-a-doodle-doo: WELL
FLD.           Purgatoire River: FIELD
LOC.           163' FSL & 54' FEL: LOCATION
PROV.                 Colorado: PROVINCE
CNTY.               Las Animas: COUNTRY
SRVC.                Patterson: SERVICE COMPANY
DATE.          Fri Jul 01 09:34:59 2005: LOG DATE
UWI.           05 071 08429 00: UNIQUE WELL ID
~Curve Information Block
DEPT.FT            0 000 00 00: Depth
DCAL.in                       : CDL Caliper
RHOB.g/cc                     : CDL Bulk Density
RHOC.g/cc                     : CDL Density Correction
DPOR.pu                       : CDL Density Porosity
GR.GAPI                       : Gamma Ray
NPOR.pu                       : Neutron Porosity
~Parameter Information Block
~A  Depth       DCAL        RHOB        RHOC        DPOR         GR         NPOR    
   350.0000      5.0736      2.0569      2.0000     -0.0119     70.4635     20.2945
   350.1000      5.0736      2.0624      2.0000     -0.0118     70.3899     21.2017
   350.2000      5.0736      2.0715      2.0000     -0.0116     70.0384     22.2453
   350.3000      5.0750      2.0842      2.0000     -0.0113     70.4442     23.1219
   350.4000      5.0750      2.0978      2.0000     -0.0110     70.3525     23.2350
   350.5000      5.0729      2.1058      2.0000     -0.0109     67.7399     22.2229
   350.6000      5.0729      2.0977      2.0000     -0.0111     64.1707     20.4979
   350.7000      5.0729      2.0749      2.0000     -0.0115     63.5512     19.0118
   350.8000      5.0711      2.0574      2.0000     -0.0119     64.6806     18.3879
   350.9000      5.0711      2.0611      2.0000     -0.0118     63.4273     18.5700
   351.0000      5.0668      2.0814      2.0000     -0.0114     59.8352     19.2182
   351.1000      5.0668      2.1095      2.0000     -0.0108     57.6165     19.4881
   351.2000      5.0668      2.1467      2.0000     -0.0101     60.2435     18.9947
   351.3000      5.0652      2.1865      2.0000     -0.0093     65.8523     18.8109
   351.4000      5.0652      2.2184      2.0000     -0.0086     69.5587     18.9706
   351.5000      5.0528      2.2442      2.0000     -0.0081     69.4203     18.6865
   351.6000      5.0528      2.2609      2.0000     -0.0078     65.6265     18.1305
   351.7000      5.0528      2.2653      2.0000     -0.0077     58.9907     17.5031
   351.8000      5.0676      2.2644      2.0000     -0.0077     51.7564     16.9936
   351.9000      5.0676      2.2616      2.0000     -0.0078     47.6863     16.9603
   352.0000      5.0808      2.2612      2.0000     -0.0078     48.0998     17.6703
   352.1000      5.0808      2.2699      2.0000     -0.0076     49.5474     18.8072
   352.2000      5.0808      2.2825      2.0000     -0.0074     49.6890     19.2816
   352.3000      5.0724      2.2921      2.0000     -0.0072     50.9962     18.7638
   352.4000      5.0724      2.3020      2.0000     -0.0070     53.6619     18.1288
   352.5000      5.0742      2.3078      2.0000     -0.0068     56.2045     17.9282
   352.6000      5.0742      2.3011      2.0000     -0.0070     61.0404     17.9559
   352.7000      5.0742      2.2866      2.0000     -0.0073     69.0534     17.7818
   352.8000      5.0655      2.2752      2.0000     -0.0075     77.1861     17.4903
   352.9000      5.0655      2.2703      2.0000     -0.0076     82.0629     17.5699
   353.0000      5.0699      2.2764      2.0000     -0.0075     82.8765     17.8522
   353.1000      5.0699      2.2998      2.0000     -0.0070     82.5813     17.9868
   353.2000      5.0699      2.3316      2.0000     -0.0064     82.6204     17.9029
   353.3000      5.0618      2.3587      2.0000     -0.0058     82.7712     17.3710
   353.4000      5.0618      2.3729      2.0000     -0.0055     84.5310     16.6711
   353.5000      5.0635      2.3725      2.0000     -0.0056     87.7354     16.4032
   353.6000      5.0635      2.3735      2.0000     -0.0055     90.2275     16.7130
   353.7000      5.0635      2.3887      2.0000     -0.0052     89.7807     17.5951
   353.8000      5.0701      2.4120      2.0000     -0.0048     87.4372     18.4162
   353.9000      5.0701      2.4333      0.5676     -0.0043     88.6690     18.5129
   354.0000      5.0777      2.4513      0.5333     -0.0040     93.3954     18.5266
   354.1000      5.0777      2.4711      0.5310     -0.0036     94.9853     19.0273
   354.2000      5.0777      2.4915      0.5376     -0.0032     92.4921     19.5536
   354.3000      5.0716      2.5055      0.5399     -0.0029     89.4634     19.6608
   354.4000      5.0716      2.5204      0.5135      7.8574     85.1317     19.5587
   354.5000      5.0736      2.5795      0.4664      4.2716     78.8029     19.7944
   354.6000      5.0736      2.7375      0.4682     -5.3008     74.2873     20.5631
   354.7000      5.0736      2.9611      0.5965    -18.8531     74.9989     21.4437
   354.8000      5.0804      3.1321      0.5541    -29.2161     79.4503     21.8039
   354.9000      5.0804      3.1967      0.5427    -33.1314     84.2677     21.8342
   355.0000      5.4161      3.1780      0.5489    -32.0004     85.0043     22.2381
   355.1000      5.4161      3.0721      0.5328    -25.5830     79.9502     22.7354
   355.2000      5.4161      2.8494      0.4153    -12.0828     75.1578     23.0922
   355.3000      7.8419      2.5593     -0.2900      5.4969     76.9004     23.8184
   355.4000      7.8419      2.3269     -0.4161     19.5818     81.6395     24.4409
   355.5000      8.1762      2.2135     -0.5021     26.4549     81.9618     24.1888
   355.6000      8.1762      2.1975     -0.4388     27.4249     78.3560     23.2655
   355.7000      8.1762      2.2272     -0.4194     25.6257     75.7767     22.4087
   355.8000      8.1688      2.2441     -0.3972     24.6012     76.1675     22.0105
   355.9000      8.1688      2.2157     -0.3982     26.3218     79.5760     21.8450
   356.0000      8.1689      2.1683     -0.5222     29.1933     82.6463     21.9197
   356.1000      8.1689      2.1493     -0.4530     30.3439     80.6831     22.5428
   356.2000      8.1689      2.1631     -0.4624     29.5105     75.9608     23.4745
   356.3000      8.1688      2.1864     -0.4687     28.0968     73.8419     23.8901
   356.4000      8.1688      2.2042     -0.4355     27.0157     74.9484     23.5647
   356.5000      8.1700      2.2085     -0.3937     26.7588     76.3335     23.1745
   356.6000      8.1700      2.2001     -0.4511     27.2683     75.8137     22.9210
   356.7000      8.1700      2.1946     -0.4330     27.6017     73.8936     22.0609
   356.8000      8.1696      2.1976     -0.4253     27.4166     73.0422     20.6044
   356.9000      8.1696      2.2028     -0.4268     27.1031     73.5060     19.7747
   357.0000      8.1714      2.2160     -0.4622     26.3013     73.4932     19.9896
   357.1000      8.1714      2.2333     -0.3970     25.2572     71.8218     20.4431
   357.2000      8.1714      2.2235     -0.4689     25.8487     69.8056     20.6812
   357.3000      8.1693      2.1853     -0.4520     28.1607     70.1123     21.1803
   357.4000      8.1693      2.1537     -0.5053     30.0775     72.3759     21.9082
   357.5000      8.1711      2.1430     -0.4884     30.7283     74.4826     22.1894
   357.6000      8.1711      2.1460     -0.5086     30.5482     75.3287     21.7139
   357.7000      8.1711      2.1648     -0.4886     29.4058     74.9590     21.0602
   357.8000      8.1704      2.1958     -0.4097     27.5273     75.1551     20.6839
   357.9000      8.1704      2.2197     -0.4673     26.0784     77.1251     20.5369
   358.0000      8.1685      2.2205     -0.4001     26.0296     79.6608     21.0330
   358.1000      8.1685      2.1905     -0.4643     27.8455     81.7840     22.0582
   358.2000      8.1685      2.1383     -0.4548     31.0133     81.7976     22.6762
   358.3000      8.1600      2.0977     -0.5699     33.4736     78.2624     22.6615
   358.4000      8.1600      2.0995     -0.5388     33.3654     74.2000     22.3301
   358.5000      8.1697      2.1205     -0.4551     32.0937     74.3271     21.8116
   358.6000      8.1697      2.1211     -0.5027     32.0569     79.6499     21.6277
   358.7000      8.1697      2.1137     -0.5298     32.5038     85.1300     22.2506
   358.8000      8.1723      2.1364     -0.5656     31.1287     85.3574     23.2637
   358.9000      8.1723      2.1866     -0.4653     28.0877     82.0675     23.7940
   359.0000      8.1708      2.2127     -0.3784     26.5054     80.0050     23.5490
   359.1000      8.1708      2.1978     -0.4830     27.4078     80.1471     23.0511
   359.2000      8.1708      2.1828     -0.4394     28.3153     78.9489     22.6162
   359.3000      8.1720      2.1910     -0.4323     27.8188     74.5829     22.3954
   359.4000      8.1720      2.2206     -0.4578     26.0212     71.2728     22.6054
   359.5000      8.1725      2.2601     -0.3899     23.6280     71.1153     22.9528
