~Version Information
VERS.                      2.0: CWLS Log ASCII Standard - VERSION 2.0
WRAP.                       NO: One line per depth step
~Well Information Block
STRT.FT                -6.7500: 
STOP.FT               983.2500: 
STEP.FT                 0.2500: 
NULL.                -999.2500: 
COMP.          Pioneer Natural Resources: COMPANY
WELL.          Run-Away-Train 43-26: WELL
FLD.           Purgatorie River: FIELD
LOC.           1693' FSL & 1195' FWL------------: LOCATION
PROV.                       CO: PROVINCE
CNTY.               Las Animas: COUNTRY
SRVC.          Patterson Wireline: SERVICE COMPANY
DATE.          Thu Apr 14 12:30:00 2005: LOG DATE
UWI.           05 071 08188 00: UNIQUE WELL ID
~Curve Information Block
DEPT.FT            0 000 00 00: Depth
CCL.                          : Casing Collar Locator
TT3.usec                      : CBL 3' Travel Time
AMP3.mV                       : CBL 3' Amplitude
GR.GAPI                       : Gamma Ray
~Parameter Information Block
~A  Depth       CCL         TT3         AMP3         GR     
# ...
   763.7500      0.0000    663.1320      4.3904     36.9570
   764.0000      0.0000    663.7225      4.2752     34.8385
   764.2500      0.0000    655.4261      4.0473     34.4552
   764.5000      0.0000    636.8726      3.8085     36.1865
   764.7500      0.0000    609.6544      3.6932     39.0711
   765.0000      0.0000    578.6827      3.7692     41.3702
   765.2500      0.0000    550.8558      3.9966     42.1273
   765.5000      0.0000    531.3763      4.2558     41.8445
   765.7500      0.0000    521.4457      4.4242     41.4773
   766.0000      0.0000    519.9608      4.4527     41.1942
   766.2500      0.0000    526.4225      4.3886     40.4577
   766.5000      0.0000    540.9845      4.3276     39.0600
   766.7500      0.0000    561.2305      4.3362     37.5619
   767.0000      0.0000    579.8730      4.4068     36.6186
   767.2500      0.0000    587.7167      4.4735     36.2791
   767.5000      0.0000    580.3917      4.4716     36.2809
   767.7500      0.0000    561.9751      4.3926     36.7245
   768.0000      0.0000    541.4201      4.2928     37.9125
   768.2500      0.0000    525.7840      4.2453     39.5734
   768.5000      0.0000    516.8693      4.2706     40.8158
   768.7500      0.0000    512.7950      4.3068     41.0543
   769.0000      0.0000    511.0731      4.2576     40.6760
   769.2500      0.0000    510.2086      4.0861     40.5800
   769.5000      0.0000    509.6821      3.8643     41.1158
   769.7500      0.0000    509.3938      3.7247     41.6280
   770.0000      0.0000    509.3024      3.7468     41.2055
   770.2500      0.0000    509.3307      3.8891     39.9138
   770.5000      0.0000    509.4095      4.0325     39.1639
   770.7500      0.0000    509.5286      4.0886     40.7773
   771.0000      0.0000    509.8846      4.0616     45.6388
   771.2500      0.0000    511.2083      4.0182     52.9786
   771.5000      0.0000    515.2787      4.0128     60.6682
   771.7500      0.0000    525.1544      4.0448     66.3742
   772.0000      0.0000    544.1768      4.0809     68.9042
   772.2500      0.0000    573.4343      4.1086     68.6422
   772.5000      0.0000    609.5140      4.1627     66.7337
   772.7500      0.0000    645.3396      4.3015     64.1248
   773.0000      0.0000    674.2258      4.5598     61.4191
   773.2500      0.0000    693.7421      4.9147     59.1812
   773.5000      0.0000    706.3099      5.2873     57.9251
   773.7500      0.0000    716.9114      5.5897     57.7815
   774.0000      0.0000    729.9063      5.7893     58.2865
   774.2500      0.0000    746.2253      5.9331     58.5724
   774.5000      0.0000    762.4159      6.1121     57.9506
   774.7500      0.0000    773.1265      6.3886     56.5747
   775.0000      0.0000    775.2723      6.7291     55.5483
   775.2500      0.0000    769.7767      7.0033     56.0821
   775.5000      0.0000    760.0198      7.0770     58.3293
   775.7500      0.0000    749.3433      6.9262     61.1782
   776.0000      0.0000    739.4048      6.6519     63.2906
   776.2500      0.0000    730.0233      6.3761     64.1355
   776.5000      0.0000    720.5291      6.1363     63.9803
   776.7500      0.0000    711.2430      5.8969     63.3253
   777.0000      0.0000    703.4458      5.6415     62.5756
   777.2500      0.0000    698.1367      5.4121     61.9972
   777.5000      0.0000    695.2821      5.2534     61.8477
   777.7500      0.0000    694.2357      5.1627     62.6329
   778.0000      0.0000    694.5076      5.1169     64.9564
   778.2500      0.0000    696.0264      5.1127     68.7072
   778.5000      0.0000    698.7679      5.1488     72.6306
   778.7500      0.0000    702.3539      5.1908     75.1133
   779.0000      0.0000    706.2963      5.1882     75.3344
   779.2500      0.0000    710.6450      5.1267     73.5171
   779.5000      0.0000    715.8797      5.0405     70.3654
   779.7500      0.0000    721.8871      4.9665     66.6052
   780.0000      0.0000    727.5045      4.8980     63.0548
   780.2500      0.0000    731.3288      4.8050     60.7223
   780.5000      0.0000    732.5499      4.6970     60.2538
   780.7500      0.0000    730.8596      4.6314     61.0794
   781.0000      0.0000    726.1768      4.6501     61.5539
   781.2500      0.0000    719.0462      4.7366     60.3851
   781.5000      0.0000    711.1625      4.8428     57.6522
   781.7500      0.0000    704.9503      4.9255     54.2604
   782.0000      0.0000    702.3019      4.9561     51.0168
   782.2500      0.0000    703.4840      4.9383     48.4889
   782.5000      0.0000    706.8840      4.9310     47.0121
   782.7500      0.0000    709.8199      5.0120     46.3746
   783.0000      0.0000    710.3300      5.1940     45.9867
   783.2500      0.0000    708.6456      5.4060     45.6483
   783.5000      0.0000    706.5698      5.5795     45.8343
   783.7500      0.0000    705.2565      5.7243     47.0695
   784.0000      0.0000    704.1278      5.8845     49.4029
   784.2500      0.0000    702.0823      6.0432     52.6019
   784.5000      0.0000    698.9648      6.1213     56.4259
   784.7500      0.0000    695.3445      6.0734     60.3959
   785.0000      0.0000    691.3094      5.9416     63.5750
   785.2500      0.0000    686.0387      5.7929     64.9870
   785.5000      0.0000    678.2261      5.6367     64.3109
   785.7500      0.0000    666.7515      5.4429     62.0438
   786.0000      0.0000    651.5606      5.2232     59.0612
   786.2500      0.0000    634.7173      5.0439     56.2365
   786.5000      0.0000    620.1998      4.9565     54.3620
   786.7500      0.0000    612.0182      4.9567     53.8570
   787.0000      0.0000    612.7983      5.0211     54.2249
   787.2500      0.0000    623.8569      5.1426     54.1732
   787.5000      0.0000    644.8298      5.3013     52.6690
   787.7500      0.0000    672.4119      5.4398     49.7151
   788.0000      0.0000    701.2415      5.5174     46.0202
   788.2500      0.0000    727.5433      5.5789     42.3842
   788.5000      0.0000    750.8882      5.7142     39.5815
   788.7500      0.0000    771.4637      5.9430     38.2421
   789.0000      2.0000    787.4614      6.1888     38.4304
   789.2500      2.0000    797.3634      6.3815     39.5890
   789.5000      0.0000    803.4166      6.5424     41.0150
   789.7500      0.0000    809.2362      6.7404     42.1525
   790.0000      0.0000    813.3100      6.9813     42.5928
   790.2500      0.0000    808.5342      7.1734     42.2969
   790.5000      0.0000    791.0488      7.2105     41.9271
   790.7500      0.0000    767.9208      7.0828     42.5943
   791.0000      0.0000    752.7803      6.8920     45.0056
   791.2500      0.0000    753.0079      6.7523     48.8594
   791.5000      0.0000    762.4780      6.6895     53.0964
   791.7500      0.0000    768.0787      6.6462     56.6365
   792.0000      0.0000    762.5737      6.5641     58.7663
   792.2500      0.0000    749.2219      6.4392     59.0157
   792.5000      0.0000    735.2373      6.2997     57.0839
   792.7500      0.0000    724.7053      6.1502     53.1760
   793.0000      0.0000    718.0816      5.9654     48.3714
   793.2500      0.0000    714.6835      5.7429     44.3885
   793.5000      0.0000    713.5275      5.5441     42.5734
   793.7500      0.0000    713.2835      5.4658     42.9318
   794.0000      0.0000    713.0332      5.5619     44.2445
   794.2500      0.0000    712.9178      5.7981     45.0709
   794.5000      0.0000    713.6707      6.0824     44.5761
   794.7500      0.0000    715.5967      6.3359     42.7069
   795.0000      0.0000    718.2448      6.5238     40.1141
   795.2500      0.0000    721.0166      6.6300     37.9763
   795.5000      0.0000    723.9836      6.6396     37.4512
   795.7500      0.0000    727.9276      6.5695     39.0005
   796.0000      0.0000    733.2252      6.4954     42.2182
   796.2500      0.0000    738.7315      6.5087     46.1299
   796.5000      0.0000    742.3727      6.6268     49.4709
   796.7500      0.0000    743.1006      6.7644     51.1077
   797.0000      0.0000    741.9212      6.8130     50.7850
