~Version Information
VERS.                      2.0: CWLS Log ASCII Standard - VERSION 2.0
WRAP.                       NO: One line per depth step
~Well Information Block
STRT.FT               235.0000: 
STOP.FT              1634.5000: 
STEP.FT                 0.2500: 
NULL.                -999.2500: 
COMP.          Petrogulf Corporation: COMPANY
WELL.             State 16-41R: WELL
FLD.           Purgatorie River: FIELD
LOC.           280' FNL & 907' FEL: LOCATION
SECT.                       16: SECTION
TOWN.                      33S: TOWNSHIP
RANG.                      67W: RANGE
STAT.                 Colorado: STATE
CNTY.               Las Animas: COUNTY
CTRY.                      USA: COUNTRY
SRVC.                Patterson: SERVICE COMPANY
DATE.         Tue Oct 18 15:59:41 2005: LOG DATE
API.              05-071-08345: UNIQUE WELL ID
~Curve Information Block
DEPT.FT            0 000 00 00: Depth
SP.mV                         : DIL Spontaneous Potential
RILD.Ohm-m                    : DIL Deep Resistivity
RILM.Ohm-m                    : DIL Medium Resistivity
RLL3.Ohm-m                    : DIL Shallow Resistivity
GR.GAPI                       : Gamma Ray
~Parameter Information Block
~A  Depth        SP         RILD        RILM        RLL3         GR     
# ...
   431.0000   2000.0000     27.8376     32.8216   2000.0000     84.2732
   431.2500   2000.0000     28.1807     33.9293   2000.0000     84.0765
   431.5000   2000.0000     28.4229     34.9011   2000.0000     82.5173
   431.7500   2000.0000     28.6175     35.7142   2000.0000     80.7428
   432.0000   2000.0000     28.8043     36.3544   2000.0000     78.4459
   432.2500   2000.0000     29.0097     36.8144   2000.0000     78.0585
   432.5000   2000.0000     29.2490     37.0945   2000.0000     79.2909
   432.7500   2000.0000     29.5224     37.2070   2000.0000     80.5119
   433.0000   2000.0000     29.8108     37.1810   2000.0000     81.7651
   433.2500   2000.0000     30.0769     37.0629   2000.0000     82.4279
   433.5000   2000.0000     30.2759     36.9085   2000.0000     84.5195
   433.7500   2000.0000     30.3739     36.7686   2000.0000     87.1006
   434.0000   2000.0000     30.3650     36.6761   2000.0000     91.9794
   434.2500   2000.0000     30.2752     36.6388   2000.0000     94.7753
   434.5000   2000.0000     30.1482     36.6419   2000.0000     96.6457
   434.7500   2000.0000     30.0250     36.6568   2000.0000     96.2927
   435.0000   2000.0000     29.9333     36.6515   2000.0000     94.5049
   435.2500   2000.0000     29.8909     36.6004   2000.0000     92.9522
   435.5000   2000.0000     29.9133     36.4899   2000.0000     89.8625
   435.7500   2000.0000     30.0161     36.3193   2000.0000     87.0992
   436.0000   2000.0000     30.2073     36.1003   2000.0000     82.5515
   436.2500   2000.0000     30.4776     35.8519   2000.0000     80.0951
   436.5000   2000.0000     30.7928     35.5955   2000.0000     78.5104
   436.7500   2000.0000     31.0968     35.3475   2000.0000     79.1125
   437.0000   2000.0000     31.3266     35.1136   2000.0000     82.2273
   437.2500   2000.0000     31.4341     34.8848   2000.0000     85.1887
   437.5000   2000.0000     31.4008     34.6390   2000.0000     89.1073
   437.7500   2000.0000     31.2356     34.3470   2000.0000     90.2673
   438.0000   2000.0000     30.9596     33.9808   2000.0000     89.3873
   438.2500   2000.0000     30.5903     33.5225   2000.0000     87.7676
   438.5000   2000.0000     30.1361     32.9693   2000.0000     85.3724
   438.7500   2000.0000     29.6016     32.3313   2000.0000     84.4288
   439.0000   2000.0000     28.9953     31.6253   2000.0000     84.7833
   439.2500   2000.0000     28.3337     30.8666   2000.0000     86.5627
   439.5000   2000.0000     27.6392     30.0627   2000.0000     91.3625
   439.7500   2000.0000     26.9384     29.2140   2000.0000     95.1321
   440.0000   2000.0000     26.2613     28.3185   2000.0000     99.4691
   440.2500   2000.0000     25.6366     27.3806   2000.0000    100.4966
   440.5000   2000.0000     25.0821     26.4168   2000.0000     99.1091
   440.7500   2000.0000     24.5948     25.4561   2000.0000     97.0911
   441.0000   2000.0000     24.1479     24.5322   2000.0000     94.5608
   441.2500   2000.0000     23.6985     23.6735   2000.0000     94.2362
   441.5000   2000.0000     23.1989     22.8920   2000.0000     96.7209
   441.7500   2000.0000     22.6069     22.1789   2000.0000    100.4448
   442.0000   2000.0000     21.8931     21.5047   2000.0000    108.2934
   442.2500   2000.0000     21.0477     20.8266   2000.0000    113.7784
   442.5000   2000.0000     20.0880     20.0998   2000.0000    119.6011
   442.7500   2000.0000     19.0600     19.2915   2000.0000    120.8767
   443.0000   2000.0000     18.0287     18.3922   2000.0000    119.4556
   443.2500   2000.0000     17.0595     17.4192   2000.0000    117.5705
   443.5000   2000.0000     16.2008     16.4121   2000.0000    115.4505
   443.7500   2000.0000     15.4754     15.4208   2000.0000    115.1428
   444.0000   2000.0000     14.8837     14.4940   2000.0000    116.3762
   444.2500   2000.0000     14.4117     13.6700   2000.0000    117.9955
   444.5000   2000.0000     14.0389     12.9741   2000.0000    121.0963
   444.7500   2000.0000     13.7413     12.4181   2000.0000    123.5880
   445.0000   2000.0000     13.4929     12.0032   2000.0000    127.9985
   445.2500   2000.0000     13.2679     11.7220   2000.0000    130.9321
   445.5000   2000.0000     13.0439     11.5602   2000.0000    133.5711
   445.7500   2000.0000     12.8066     11.4978   2000.0000    133.1840
   446.0000   2000.0000     12.5520     11.5090   2000.0000    129.0747
   446.2500   2000.0000     12.2846     11.5630   2000.0000    124.7287
   446.5000   2000.0000     12.0150     11.6264   2000.0000    117.8901
   446.7500   2000.0000     11.7573     11.6662   2000.0000    114.2260
   447.0000   2000.0000     11.5271     11.6553   2000.0000    111.1122
   447.2500   2000.0000     11.3398     11.5778   2000.0000    110.7039
   447.5000   2000.0000     11.2082     11.4325   2000.0000    112.0935
   447.7500   2000.0000     11.1408     11.2327   2000.0000    113.8827
   448.0000   2000.0000     11.1407     11.0028   2000.0000    117.2247
   448.2500   2000.0000     11.2073     10.7723   2000.0000    119.8246
   448.5000   2000.0000     11.3375     10.5708   2000.0000    124.5562
   448.7500   2000.0000     11.5280     10.4244   2000.0000    128.3595
   449.0000   2000.0000     11.7744     10.3549   2000.0000    134.6986
   449.2500   2000.0000     12.0711     10.3812   2000.0000    138.8049
   449.5000   2000.0000     12.4113     10.5200   2000.0000    143.4809
   449.7500   2000.0000     12.7899     10.7887   2000.0000    144.9001
   450.0000   2000.0000     13.2086     11.2061   2000.0000    143.8149
   450.2500   2000.0000     13.6798     11.7939   2000.0000    140.8538
   450.5000   2000.0000     14.2267     12.5765   2000.0000    132.9531
   450.7500   2000.0000     14.8783     13.5811   2000.0000    125.2767
   451.0000   2000.0000     15.6639     14.8362   2000.0000    110.4013
   451.2500   2000.0000     16.6106     16.3693   2000.0000     98.9518
   451.5000   2000.0000     17.7438     18.2032   2000.0000     81.5889
   451.7500   2000.0000     19.0888     20.3495   2000.0000     71.2316
   452.0000   2000.0000     20.6677     22.7981   2000.0000     58.8628
   452.2500   2000.0000     22.4858     25.5013   2000.0000     52.5391
   452.5000   2000.0000     24.5045     28.3545   2000.0000     44.5663
   452.7500   2000.0000     26.6120     31.1814   2000.0000     39.7790
   453.0000   2000.0000     28.6155     33.7403   2000.0000     34.1436
   453.2500   2000.0000     30.2855     35.7672   2000.0000     32.3801
   453.5000   2000.0000     31.4438     37.0524   2000.0000     33.7868
   453.7500   2000.0000     32.0351     37.5157   2000.0000     37.2350
   454.0000   2000.0000     32.1234     37.2331   2000.0000     44.5280
   454.2500   2000.0000     31.8310     36.3985   2000.0000     49.4876
   454.5000   2000.0000     31.2769     35.2490   2000.0000     55.5268
   454.7500   2000.0000     30.5539     33.9971   2000.0000     58.8429
   455.0000   2000.0000     29.7319     32.7933   2000.0000     64.9886
   455.2500   2000.0000     28.8673     31.7174   2000.0000     71.1634
   455.5000   2000.0000     28.0075     30.7878   2000.0000     83.5335
   455.7500   2000.0000     27.1911     29.9806   2000.0000     92.4401
   456.0000   2000.0000     26.4489     29.2520   2000.0000    103.7056
   456.2500   2000.0000     25.8060     28.5615   2000.0000    108.4479
   456.5000   2000.0000     25.2824     27.8900   2000.0000    110.3594
   456.7500   2000.0000     24.8911     27.2467   2000.0000    108.7222
   457.0000   2000.0000     24.6350     26.6640   2000.0000    105.3419
   457.2500   2000.0000     24.5025     26.1817   2000.0000    105.0077
   457.5000   2000.0000     24.4675     25.8315   2000.0000    109.4144
   457.7500   2000.0000     24.4933     25.6252   2000.0000    114.6985
   458.0000   2000.0000     24.5401     25.5494   2000.0000    122.5017
   458.2500   2000.0000     24.5739     25.5677   2000.0000    125.5811
   458.5000   2000.0000     24.5750     25.6297   2000.0000    125.0145
   458.7500   2000.0000     24.5458     25.6841   2000.0000    121.2467
