~Version Information
 VERS.                                  2.0 : CWLS LAS VERSION
 WRAP.                                   NO : WRAPING MODE
 SWARE .                 MController 2.5.0E : SOFTWARE VERSION
~Well Information
 WELL.                         STATE 16-32R : WELL
 COMP.                      Petrogulf Corp. : COMPANY
 FLD.                      Purgatorie River : FIELD
 LOC.                SW/NE Sec 16 T33S R67W : LOCATION
 DATE.                      5/12/04-5/13/04 : DATE(S) LOGGED
 SRVC.       Blanco Geological Services LLC : SERVICE COMPANY
 STAT.                                   CO : STATE
 CNTY.                           Las Animas : COUNTY
 CTRY.                                  USA : COUNTRY
 API.                       05-071-08033-00 : API NUMBER
 STRT.FT                             167.00 : START DEPTH
 STOP.FT                            1918.00 : STOP DEPTH
 STEP.FT                               1.00 : DEPTH INCREMENT
 NULL.                                -9999 : NULL VALUE
~Curve information
 DEPTH.FT                                   :
 ROP.MIN/FT                                 :
 GAS.UNITS                                  :
~ASCII Log data
      167.00    -9999.000          2.3 
      168.00        0.200          2.1 
      169.00        0.200          2.0 
      170.00        0.200          2.1 
      171.00        0.233          2.6 
      172.00        2.417          2.5 
      173.00        0.200          1.9 
      174.00        0.233          2.2 
      175.00        0.200          1.3 
      176.00        0.233          1.1 
      177.00        0.383          2.1 
      178.00        0.233          2.0 
      179.00        0.233          1.7 
      180.00        0.233          1.6 
      181.00        0.233          1.9 
      182.00        0.233          1.5 
      183.00        0.233          1.5 
      184.00        0.233          1.5 
      185.00        0.217          1.9 
      186.00        0.233          1.9 
      187.00        0.233          2.0 
      188.00        0.267          1.5 
      189.00        0.233          1.8 
      190.00        0.233          2.0 
      191.00        0.200          1.3 
      192.00        0.267          1.3 
      193.00        0.233          2.0 
      194.00        0.233          1.1 
      195.00        0.233          2.0 
      196.00        0.233          2.1 
      197.00        0.217          2.4 
      198.00        0.233          1.9 
      199.00        0.267          1.8 
      200.00        0.133          1.5 
      201.00        0.267          1.5 
      202.00        1.000          2.1 
      203.00        0.300          1.3 
      204.00        0.267          1.3 
      205.00        0.233          1.3 
      206.00        0.217          1.0 
      207.00        0.233          1.7 
      208.00        0.200          1.0 
      209.00        0.233          2.1 
      210.00        0.233          1.1 
      211.00        0.233          1.3 
      212.00        0.233          1.9 
      213.00        0.200          1.6 
      214.00        0.233          1.9 
      215.00        0.233          1.6 
      216.00        0.233          1.6 
      217.00        0.233          2.0 
      218.00        0.217          2.7 
      219.00        0.200          2.1 
      220.00        0.233          2.4 
      221.00        0.233          2.5 
      222.00        0.200          2.4 
      223.00        0.133          2.4 
      224.00        0.167          2.5 
      225.00        0.167          1.6 
      226.00        0.200          1.9 
      227.00        0.200          2.1 
      228.00        0.200          2.1 
      229.00        0.200          1.6 
      230.00        0.233          2.5 
      231.00        0.200          2.0 
      232.00        1.883          2.2 
      233.00        0.333          2.0 
      234.00        0.267          2.1 
      235.00        0.233          1.5 
      236.00        0.300          1.5 
      237.00        0.200          1.8 
      238.00        0.200          1.8 
      239.00        0.183          1.2 
      240.00        0.133          2.0 
      241.00        0.167          2.0 
      242.00        0.200          1.7 
      243.00        0.200          1.9 
      244.00        0.267          1.5 
      245.00        0.200          1.5 
      246.00        0.167          1.5 
      247.00        0.233          1.9 
      248.00        0.267          1.1 
      249.00        0.233          1.6 
      250.00        0.233          1.7 
      251.00        0.233          1.4 
      252.00        0.233          0.9 
      253.00        0.250          1.6 
      254.00        0.267          1.9 
      255.00        0.267          1.1 
      256.00        0.267          1.2 
      257.00        0.200          1.2 
      258.00        0.233          1.8 
      259.00        0.300          1.5 
      260.00        0.200          0.6 
      261.00        0.267          1.4 
      262.00        1.583          1.8 
      263.00        0.233          1.1 
      264.00        0.300          1.5 
      265.00        0.233          0.9 
      266.00        0.200          0.9 
      267.00        0.200          0.6 
      268.00        0.200          1.0 
      269.00        0.267          0.6 
      270.00        0.233          0.3 
      271.00        0.250          0.9 
      272.00        0.267          0.6 
      273.00        0.233          1.4 
      274.00        0.267          0.6 
      275.00        0.233          1.6 
      276.00        0.167          1.3 
      277.00        0.167          1.3 
      278.00        0.200          4.4 
      279.00        0.233          4.1 
      280.00        0.233          3.9 
      281.00        0.233          4.4 
      282.00        0.200          4.4 
      283.00        0.233          4.1 
      284.00        0.200          4.2 
      285.00        0.233          4.1 
      286.00        0.167          4.1 
      287.00        0.183          3.4 
      288.00        0.100          3.1 
      289.00        0.200          3.4 
      290.00        0.200          3.8 
      291.00        0.233          3.6 
      292.00        1.667          3.9 
      293.00        0.267          3.6 
      294.00        0.233          3.1 
      295.00        0.233          3.4 
      296.00        0.283          2.8 
      297.00        0.267          2.6 
      298.00        0.267          2.8 
      299.00        0.267          2.8 
      300.00        0.267          3.1 
      301.00        0.533          3.4 
      302.00        0.567          3.2 
      303.00        0.433          2.7 
      304.00        0.267          3.2 
      305.00        0.167          2.5 
      306.00        0.150          2.9 
      307.00        0.233          2.2 
      308.00        0.133          3.2 
      309.00        0.167          2.4 
      310.00        0.100          2.4 
      311.00        0.100          2.3 
      312.00        0.233          2.7 
      313.00        0.300          2.9 
      314.00        0.267          3.1 
      315.00        0.200          3.1 
      316.00        0.133          3.1 
      317.00        0.133          2.0 
      318.00        0.100          2.8 
      319.00        0.100          2.6 
      320.00        0.067          2.6 
      321.00        0.100          2.6 
      322.00        1.450          3.1 
      323.00        0.167          2.5 
      324.00        0.167          2.5 
      325.00        0.167          2.5 
      326.00        0.167          2.4 
      327.00        0.233          2.8 
      328.00        0.267          2.8 
      329.00        0.367          2.4 
      330.00        0.333          2.9 
      331.00        0.333          2.5 
      332.00        0.300          2.2 
      333.00        0.167          2.5 
      334.00        0.217          2.6 
      335.00        0.200          2.9 
      336.00        0.200          2.9 
      337.00        0.200          1.9 
      338.00        0.200          2.4 
      339.00        0.167          2.6 
      340.00        0.233          2.7 
      341.00        0.233          2.3 
      342.00        0.300          3.1 
      343.00        0.267          2.3 
      344.00        0.433          2.5 
      345.00        0.400          3.0 
      346.00        0.517          2.1 
      347.00        0.267          2.1 
      348.00        0.300          3.0 
      349.00        0.267          2.8 
      350.00        0.233          2.4 
      351.00        0.133          2.4 
      352.00        1.567          2.9 
      353.00        0.333          2.7 
      354.00        0.250          2.4 
      355.00        0.167          2.9 
      356.00        0.167          2.9 
      357.00        0.200          2.3 
      358.00        0.267          2.8 
      359.00        0.267          2.3 
      360.00        0.233          2.5 
      361.00        0.267          2.1 
      362.00        0.233          2.6 
      363.00        0.233          1.9 
      364.00        0.267          2.7 
      365.00        0.233          2.3 
      366.00        0.233          2.6 
