~Version Information
 VERS.                                  2.0 : CWLS LAS VERSION
 WRAP.                                   NO : WRAPING MODE
 SWARE .                 MController 2.5.0J : SOFTWARE VERSION
~Well Information
 WELL.                    Oink-Oink 14-36Tr : WELL
 COMP.    Pioneer Natural Resources USA Inc : COMPANY
 FLD.                      Purgatoire River : FIELD
 LOC.                SW/SW Sec 36 T32S R67W : LOCATION
 DATE.                         6/09-10/2005 : DATE(S) LOGGED
 SRVC.       Blanco Geological Services LLC : SERVICE COMPANY
 STAT.                                   CO : STATE
 CNTY.                           Las Animas : COUNTY
 CTRY.                                  USA : COUNTRY
 API.                       05-071-08393-00 : API NUMBER
 STRT.FT                             231.00 : START DEPTH
 STOP.FT                            1924.00 : STOP DEPTH
 STEP.FT                               1.00 : DEPTH INCREMENT
 NULL.                                -9999 : NULL VALUE
~Curve information
 DEPTH.FT                                   :
 ROP.MIN/FT                                 :
 GAS.UNITS                                  :
~ASCII Log data
# ...
      1231.0         0.27       2670.3 
      1232.0         0.27       1872.8 
      1233.0         0.20       1417.4 
      1234.0         0.33        944.0 
      1235.0         0.40        680.6 
      1236.0         0.37        584.4 
      1237.0         0.37        557.3 
      1238.0         0.37        530.1 
      1239.0         0.30        525.2 
      1240.0         0.20        509.5 
      1241.0         0.17        484.0 
      1242.0         0.15        465.0 
      1243.0         0.20        444.4 
      1244.0         0.13        484.0 
      1245.0         0.23        464.1 
      1246.0         0.13        452.6 
      1247.0         0.57        282.9 
      1248.0         0.43        266.7 
      1249.0         0.40        261.7 
      1250.0         0.27        353.0 
      1251.0         0.27       1033.3 
      1252.0         0.23       1390.9 
      1253.0         0.23       1662.7 
      1254.0         0.22       1774.0 
      1255.0         0.20       1809.9 
      1256.0         3.42       2245.4 
      1257.0         0.50       3348.2 
      1258.0         0.37       4276.3 
      1259.0         0.33       4544.9 
      1260.0         0.33       3760.1 
      1261.0         0.30       3076.3 
      1262.0         0.27       2575.8 
      1263.0         0.27       2146.9 
      1264.0         0.23       1849.5 
      1265.0         0.20       1639.8 
      1266.0         0.25       1446.8 
      1267.0         0.27       1275.1 
      1268.0         0.27       1151.1 
      1269.0         0.13       1108.2 
      1270.0         0.13       1083.0 
      1271.0         0.30       1044.7 
      1272.0         0.63        964.9 
      1273.0         0.70        785.0 
      1274.0         0.27        728.7 
      1275.0         0.20        730.4 
      1276.0         0.23        668.8 
      1277.0         0.22        724.8 
      1278.0         0.17        724.1 
      1279.0         0.17        709.1 
      1280.0         0.17        705.2 
      1281.0         0.20        696.0 
      1282.0         0.23        681.0 
      1283.0         0.27        666.6 
      1284.0         0.27        607.0 
      1285.0         0.27        694.7 
      1286.0         3.98       2298.7 
      1287.0         0.57       3332.8 
      1288.0         0.58       4313.0 
      1289.0         0.23       3864.1 
      1290.0         0.23       3210.5 
      1291.0         0.30       2457.4 
      1292.0         0.27       1901.5 
      1293.0         0.27       1515.5 
      1294.0         0.23       1318.2 
      1295.0         0.23       1166.4 
      1296.0         0.13       1089.6 
      1297.0         0.17       1012.7 
      1298.0         0.17        937.4 
      1299.0         0.10        904.4 
      1300.0         0.10        865.5 
      1301.0         0.10        839.6 
      1302.0         0.23        783.4 
      1303.0         0.27        720.2 
      1304.0         0.42        646.3 
      1305.0         0.27        604.7 
      1306.0         0.30        623.7 
      1307.0         0.27        653.1 
      1308.0         0.30        629.6 
      1309.0         0.27        648.2 
      1310.0         0.27        632.5 
      1311.0         0.23        628.0 
      1312.0         0.23        610.3 
      1313.0         0.20        598.8 
      1314.0         0.23        586.4 
      1315.0         0.23        566.8 
      1316.0         3.60       1605.8 
      1317.0         0.60       2552.9 
      1318.0         0.50       3501.3 
      1319.0         0.43       3354.4 
      1320.0         0.33       2651.4 
      1321.0         0.37       1950.6 
      1322.0         0.23       1605.8 
      1323.0         0.20       1325.4 
      1324.0         0.20       1095.8 
      1325.0         0.20        936.5 
      1326.0         0.17        832.1 
      1327.0         0.22        744.7 
      1328.0         0.20        687.5 
      1329.0         0.20        649.9 
      1330.0         0.20        623.7 
      1331.0         0.23        611.6 
      1332.0         0.23        587.1 
      1333.0         0.20        571.4 
      1334.0         0.23        564.2 
      1335.0         0.23        543.9 
      1336.0         0.30        539.0 
      1337.0         0.20        538.6 
      1338.0         0.20        537.7 
      1339.0         0.20        533.1 
      1340.0         0.20        531.4 
      1341.0         0.17        515.7 
      1342.0         0.13        501.3 
      1343.0         0.12        512.1 
      1344.0         0.17        506.3 
      1345.0         0.20        487.3 
      1346.0         4.08       2486.8 
      1347.0         0.27       2932.7 
      1348.0         0.30       3121.8 
      1349.0         0.27       2833.3 
      1350.0         0.17       2543.1 
      1351.0         0.20       2225.1 
      1352.0         0.23       1855.4 
      1353.0         0.23       1525.3 
      1354.0         0.20       1305.5 
      1355.0         0.20       1125.5 
      1356.0         0.18       1007.4 
      1357.0         0.17        888.4 
      1358.0         0.20        781.7 
      1359.0         0.17        725.1 
      1360.0         0.17        661.7 
      1361.0         0.47        559.6 
      1362.0         0.30        530.1 
      1363.0         0.17        502.7 
      1364.0         0.13        493.2 
      1365.0         0.17        508.2 
      1366.0         0.10        495.8 
      1367.0         0.10        484.0 
      1368.0         0.27        492.5 
      1369.0         0.27        457.2 
      1370.0         0.23        440.0 
      1371.0         0.23        308.4 
      1372.0         0.22        317.2 
      1373.0         0.23        335.5 
      1374.0         0.17        356.4 
      1375.0         0.23        383.8 
      1376.0         3.88       2094.6 
      1377.0         0.40       2683.8 
      1378.0         0.37       3373.1 
      1379.0         0.33       3982.5 
      1380.0         0.37       3951.1 
      1381.0         0.23       3243.2 
      1382.0         0.27       2426.6 
      1383.0         0.25       1845.9 
      1384.0         0.33       1296.0 
      1385.0         0.33        931.2 
      1386.0         0.27        733.3 
      1387.0         0.23        616.8 
      1388.0         0.17        545.2 
      1389.0         0.23        487.0 
      1390.0         0.20        517.4 
      1391.0         0.27        471.3 
      1392.0         0.17        470.3 
      1393.0         0.17        467.3 
      1394.0         0.10        470.3 
      1395.0         0.13        465.7 
      1396.0         0.10        464.4 
      1397.0         0.10        451.3 
      1398.0         0.10        453.3 
      1399.0         0.10        440.5 
      1400.0         0.13        481.1 
      1401.0         0.15        457.5 
      1402.0         0.27        440.0 
      1403.0         0.20        290.0 
      1404.0         0.17        271.8 
      1405.0         0.13        259.7 
      1406.0         6.17       5656.6 
      1407.0         0.37       5439.3 
      1408.0         0.33       4139.6 
      1409.0         0.27       2936.6 
      1410.0         0.27       2103.1 
      1411.0         0.27       1498.5 
      1412.0         0.27       1126.5 
      1413.0         0.23        884.8 
      1414.0         0.27        707.8 
      1415.0         0.30        547.1 
      1416.0         0.23        477.1 
      1417.0         0.20        440.8 
      1418.0         0.28        464.1 
      1419.0         0.27        440.0 
      1420.0         0.23        440.0 
      1421.0         0.23        440.0 
      1422.0         0.23        315.2 
      1423.0         0.20        313.7 
      1424.0         0.27        312.5 
      1425.0         0.27        309.6 
      1426.0         0.30        307.0 
      1427.0         0.23        302.6 
      1428.0         0.20        298.3 
      1429.0         0.20        294.2 
      1430.0         0.23        287.2 
