~Version Information
VERS.                      2.0: CWLS Log ASCII Standard - VERSION 2.0
WRAP.                       NO: One line per depth step
~Well Information Block
STRT.FT               590.0000: 
STOP.FT              1563.5000: 
STEP.FT                 0.1000: 
NULL.                -999.2500: 
COMP.          Petrogulf Corporation: COMPANY
WELL.             State 16-43R: WELL
FLD.           Purgatorie River: FIELD
LOC.           2538' FSL & 716' FEL: LOCATION
PROV.                 Colorado: PROVINCE
CNTY.               Las Animas: COUNTRY
SRVC.                Patterson: SERVICE COMPANY
DATE.          Tue Aug 09 14:21:37 2005: LOG DATE
UWI.                          : UNIQUE WELL ID
~Curve Information Block
DEPT.FT            0 000 00 00: Depth
DCAL.in                       : CDL Caliper
RHOB.g/cc                     : CDL Bulk Density
RHOC.g/cc                     : CDL Density Correction
DPOR.pu                       : CDL Density Porosity
GR.GAPI                       : Gamma Ray
NPOR.pu                       : Neutron Porosity
~Parameter Information Block
~A  Depth       DCAL        RHOB        RHOC        DPOR         GR         NPOR    
# ...
   714.8000      7.9530      2.5167      0.0823      8.0760    146.7873     27.8770
   714.9000      7.9530      2.5138      0.0671      8.2532    145.8919     28.0672
   715.0000      7.9777      2.5217      0.0366      7.7757    147.1335     28.6394
   715.1000      7.9777      2.5449      0.0735      6.3689    150.7548     29.1022
   715.2000      7.9777      2.5745      0.1094      4.5754    155.7153     28.9589
   715.3000      7.9969      2.5802      0.1729      4.2297    157.4373     28.4941
   715.4000      7.9969      2.5510      0.0761      6.0026    156.4784     28.2240
   715.5000      7.9819      2.5135      0.0644      8.2706    156.9922     28.1013
   715.6000      7.9819      2.4877      0.0417      9.8364    159.7671     27.7640
   715.7000      7.9819      2.4715      0.0448     10.8191    160.7794     27.1462
   715.8000      7.9862      2.4587      0.0445     11.5916    156.8890     26.5037
   715.9000      7.9862      2.4430      0.0315     12.5483    149.8503     26.0645
   716.0000      7.9895      2.4213      0.0409     13.8579    144.9788     25.5585
   716.1000      7.9895      2.3986      0.0294     15.2366    146.0594     24.7666
   716.2000      7.9895      2.3726      0.0659     16.8120    147.6135     23.9880
   716.3000      7.9989      2.3314      0.0714     19.3075    142.7364     23.2095
   716.4000      7.9989      2.2772      0.0404     22.5932    135.8622     22.1868
   716.5000      8.0140      2.2258      0.0529     25.7118    134.4474     21.3165
   716.6000      8.0140      2.1828      0.0802     28.3168    136.4739     21.0256
   716.7000      8.0140      2.1472      0.0840     30.4757    138.1603     20.9239
   716.8000      8.0427      2.1319      0.0857     31.3983    138.7391     20.7508
   716.9000      8.0427      2.1515      0.1464     30.2109    136.2927     20.7917
   717.0000      8.0476      2.1914      0.2456     27.7943    133.4185     21.0180
   717.1000      8.0476      2.2192      0.2782     26.1082    134.3267     21.3489
   717.2000      8.0476      2.2205      0.2630     26.0278    136.7925     22.0066
   717.3000      7.9955      2.2147      0.1768     26.3805    138.8204     23.0076
   717.4000      7.9955      2.2370      0.1233     25.0312    140.2713     23.9595
   717.5000      7.9563      2.2888      0.1758     21.8929    140.0258     24.6105
   717.6000      7.9563      2.3334      0.1614     19.1860    138.3819     25.2483
   717.7000      7.9563      2.3563      0.1093     17.8007    137.5765     26.1482
   717.8000      7.9586      2.3783      0.0919     16.4671    139.3452     27.2038
   717.9000      7.9586      2.4155      0.0742     14.2133    143.7200     28.1223
   718.0000      7.9313      2.4617      0.1479     11.4123    148.0757     28.6172
   718.1000      7.9313      2.5022      0.1365      8.9569    148.8559     28.8582
   718.2000      7.9313      2.5345      0.1550      7.0010    146.8044     29.3211
   718.3000      7.9085      2.5664      0.1626      5.0691    145.3616     29.8763
   718.4000      7.9085      2.6001      0.1682      3.0237    145.4343     30.1073
   718.5000      7.9002      2.6281      0.1880      1.3298    145.2893     30.0694
   718.6000      7.9002      2.6384      0.1697      0.7019    143.3096     29.9692
   718.7000      7.9002      2.6303      0.1371      1.1965    140.9054     29.8334
   718.8000      7.9022      2.6187      0.0644      1.8980    141.4320     29.8034
   718.9000      7.9022      2.6138      0.0819      2.1935    143.2083     30.0028
   719.0000      7.8848      2.6086      0.0825      2.5119    144.4956     30.2192
   719.1000      7.8848      2.5987      0.0325      3.1068    146.9162     30.1964
   719.2000      7.8848      2.5952      0.0077      3.3186    149.0230     29.9224
   719.3000      7.8792      2.6056      0.0441      2.6912    148.6909     29.3890
   719.4000      7.8792      2.6188      0.0703      1.8897    145.8548     28.7018
   719.5000      7.9099      2.6150      0.0924      2.1239    140.2632     28.0818
   719.6000      7.9099      2.5874      0.0856      3.7946    132.9419     27.4455
   719.7000      7.9099      2.5469      0.0701      6.2485    128.7055     26.6577
   719.8000      7.8934      2.5056      0.0724      8.7523    129.0046     25.9953
   719.9000      7.8934      2.4666      0.0728     11.1150    131.0782     25.7331
   720.0000      7.8592      2.4325      0.0672     13.1827    133.6234     25.6937
   720.1000      7.8592      2.4150      0.0649     14.2443    137.5298     25.6716
   720.2000      7.8592      2.4224      0.0817     13.7954    143.4980     25.7552
   720.3000      7.8507      2.4559      0.0852     11.7608    149.8837     25.9652
   720.4000      7.8507      2.5090      0.1550      8.5425    153.4148     26.0428
   720.5000      7.9130      2.5592      0.2368      5.5038    154.3215     25.9226
   720.6000      7.9130      2.5830      0.2340      4.0603    154.8711     25.7370
   720.7000      7.9130      2.5700      0.2461      4.8460    155.5484     25.5841
   720.8000      7.9206      2.5278      0.1636      7.4076    156.7958     25.6438
   720.9000      7.9206      2.4839      0.1057     10.0677    157.9183     26.1646
   721.0000      7.9224      2.4590      0.1133     11.5735    155.5412     27.2573
   721.1000      7.9224      2.4524      0.1005     11.9766    148.7294     28.5940
   721.2000      7.9224      2.4675      0.0709     11.0599    142.1834     29.7514
   721.3000      7.9280      2.5181      0.0648      7.9946    138.7229     30.8439
   721.4000      7.9280      2.6014      0.1075      2.9430    136.0270     32.1953
   721.5000      7.9284      2.6878      0.2156     -2.2885    132.5892     33.5194
   721.6000      7.9284      2.7487      0.2067     -5.9828    129.0745     34.0942
   721.7000      7.9284      2.7838      0.2262     -8.1094    125.3432     33.9018
   721.8000      7.9077      2.7981      0.2232     -8.9766    122.2606     33.6668
   721.9000      7.9077      2.7907      0.1908     -8.5285    121.9128     33.5497
   722.0000      7.8361      2.7741      0.1465     -7.5216    123.0437     33.0545
   722.1000      7.8361      2.7668      0.1218     -7.0814    124.3556     32.0810
   722.2000      7.8361      2.7685      0.1314     -7.1791    127.3210     31.0196
   722.3000      7.8098      2.7648      0.1426     -6.9601    131.7542     30.2557
   722.4000      7.8098      2.7500      0.1404     -6.0625    135.6321     29.7473
   722.5000      7.8574      2.7240      0.1279     -4.4860    137.0344     29.3641
   722.6000      7.8574      2.6883      0.0829     -2.3216    137.2168     29.1294
   722.7000      7.8574      2.6538      0.0470     -0.2297    138.3010     28.8960
   722.8000      7.8962      2.6312      0.0700      1.1405    137.5655     28.6872
   722.9000      7.8962      2.6210      0.0543      1.7575    134.2372     28.6518
   723.0000      7.9439      2.6219      0.0456      1.7043    132.5152     28.8043
   723.1000      7.9439      2.6274      0.0468      1.3689    133.6630     29.2644
   723.2000      7.9439      2.6249      0.0463      1.5233    134.0921     29.8943
   723.3000      7.9354      2.6133      0.0092      2.2222    131.2697     30.2253
   723.4000      7.9354      2.6063      0.0315      2.6501    127.1447     30.1699
   723.5000      7.9209      2.6123      0.0271      2.2871    126.0095     29.9510
   723.6000      7.9209      2.6263      0.0967      1.4375    128.7217     29.5537
   723.7000      7.9209      2.6367      0.1060      0.8042    134.3807     29.0156
   723.8000      7.9144      2.6392      0.0815      0.6550    141.3327     28.5768
   723.9000      7.9144      2.6343      0.0851      0.9493    144.7747     28.4645
   724.0000      7.9230      2.6233      0.1123      1.6195    143.1806     28.7165
   724.1000      7.9230      2.6151      0.1137      2.1143    140.3533     29.0931
   724.2000      7.9230      2.6206      0.1087      1.7846    139.7508     29.3331
   724.3000      7.9074      2.6474      0.0938      0.1558    139.3025     29.4242
