~Version Information
VERS.                      2.0: CWLS Log ASCII Standard - VERSION 2.0
WRAP.                       NO: One line per depth step
~Well Information Block
STRT.FT               679.2000: 
STOP.FT              2289.5000: 
STEP.FT                 0.1000: 
NULL.                -999.2500: 
COMP.          Petrogulf Corporation: COMPANY
WELL.          Anderson 18-43V: WELL
FLD.           Purgatorie River: FIELD
LOC.           1782' FSL & 887' FEL: LOCATION
CNTY.               Las Animas: COUNTY
SRVC.                         : SERVICE COMPANY
DATE.          Thu Sep 02 08:33:50 2004: LOG DATE
UWI.           05 071 08156 00: UNIQUE WELL ID
STAT.                 Colorado: STATE
~Curve Information Block
DEPT.FT            0 000 00 00: Depth
GR.GAPI                       : Gamma Ray
DCAL.in                       : CDL Caliper
DPOR.pu                       : CDL Density Porosity
NPOR.pu                       : Neutron Porosity
RHOB.g/cc                     : CDL Bulk Density
RHOC.g/cc                     : CDL Density Correction
~Parameter Information Block
~A  Depth        GR         DCAL        DPOR        NPOR        RHOB        RHOC    
# ...
  2272.8000   -999.2500      7.5866      5.8401     20.7171      2.5536      0.0645
  2272.9000   -999.2500      7.5866      5.8776     20.4869      2.5530      0.1047
  2273.0000   -999.2500      7.5775      6.7860     20.0049      2.5380      0.0355
  2273.1000   -999.2500      7.5775      7.7122     19.6994      2.5227      0.0757
  2273.2000   -999.2500      7.5775      8.3019     19.8808      2.5130      0.0584
  2273.3000   -999.2500      7.5797      8.5232     20.6166      2.5094      0.0394
  2273.4000   -999.2500      7.5797      8.3581     21.8434      2.5121      0.0315
  2273.5000   -999.2500      7.5986      8.0294     22.9484      2.5175      0.0294
  2273.6000   -999.2500      7.5986      8.0209     22.8655      2.5177      0.0661
  2273.7000   -999.2500      7.5986      8.4706     21.6953      2.5102      0.0506
  2273.8000   -999.2500      7.6088      8.8462     20.7837      2.5040      0.0303
  2273.9000   -999.2500      7.6088      8.9349     20.7225      2.5026      0.0397
  2274.0000   -999.2500      7.6142      9.3327     20.7611      2.4960      0.0443
  2274.1000   -999.2500      7.6142     10.1714     20.4138      2.4822      0.0300
  2274.2000   -999.2500      7.6142     10.5411     20.1259      2.4761      0.0129
  2274.3000   -999.2500      7.6097      9.9967     19.8540      2.4851      0.0230
  2274.4000   -999.2500      7.6097      9.5041     19.3064      2.4932      0.0709
  2274.5000   -999.2500      7.6085      9.8433     18.8980      2.4876      0.0569
  2274.6000   -999.2500      7.6085     10.3909     19.0987      2.4786      0.0676
  2274.7000   -999.2500      7.6085     10.2891     19.6640      2.4802      0.0195
  2274.8000   -999.2500      7.6102      9.8227     19.8871      2.4879      0.0978
  2274.9000   -999.2500      7.6102     10.0494     19.6534      2.4842      0.0919
  2275.0000   -999.2500      7.6120     10.8380     19.1879      2.4712      0.0571
  2275.1000   -999.2500      7.6120     11.0301     18.5047      2.4680     -0.0031
  2275.2000   -999.2500      7.6120     10.5445     17.9938      2.4760      0.0649
  2275.3000   -999.2500      7.6263     10.0605     18.0381      2.4840      0.0533
  2275.4000   -999.2500      7.6263      9.4320     18.2940      2.4944      0.0678
  2275.5000   -999.2500      7.6273      8.7301     18.5995      2.5060      0.0772
  2275.6000   -999.2500      7.6273      8.6338     19.3209      2.5075      0.0565
  2275.7000   -999.2500      7.6273      9.3809     21.9034      2.4952      0.0926
  2275.8000   -999.2500      7.6265     10.2604     29.6419      2.4807      0.0289
  2275.9000   -999.2500      7.6265     10.3292     41.6121      2.4796      0.0678
  2276.0000   -999.2500      7.6291     10.1234     50.0764      2.4830      0.0721
  2276.1000   -999.2500      7.6291     10.7448     53.0550      2.4727      0.0532
  2276.2000   -999.2500      7.6291     12.0704     53.6320      2.4508      0.0536
  2276.3000   -999.2500      7.6281     13.0533     53.6930      2.4346      0.0074
  2276.4000   -999.2500      7.6281     13.2777     53.6964      2.4309      0.0580
  2276.5000   -999.2500      7.6283     13.2793   -999.2500      2.4309      0.0332
  2276.6000   -999.2500      7.6283     12.9583   -999.2500      2.4362      0.0246
  2276.7000   -999.2500      7.6283     11.9984   -999.2500      2.4520      0.0671
  2276.8000   -999.2500      7.6281     11.1070   -999.2500      2.4667      0.0920
  2276.9000   -999.2500      7.6281     10.7786   -999.2500      2.4722      0.0583
  2277.0000   -999.2500      7.6268     10.4659   -999.2500      2.4773      0.0540
  2277.1000   -999.2500      7.6268      9.9164   -999.2500      2.4864      0.0843
  2277.2000   -999.2500      7.6268      9.6571   -999.2500      2.4907      0.1089
  2277.3000   -999.2500      7.6281      9.8987   -999.2500      2.4867      0.0522
  2277.4000   -999.2500      7.6281     10.3281   -999.2500      2.4796      0.0662
  2277.5000   -999.2500      7.6279     10.7227   -999.2500      2.4731      0.0219
  2277.6000   -999.2500      7.6279     10.9098   -999.2500      2.4700      0.0543
  2277.7000   -999.2500      7.6279     10.8948   -999.2500      2.4702      0.0562
  2277.8000   -999.2500      7.6282     10.8291   -999.2500      2.4713      0.0849
  2277.9000   -999.2500      7.6282     10.8866   -999.2500      2.4704      0.0706
  2278.0000   -999.2500      7.6272     11.0161   -999.2500      2.4682      0.0293
  2278.1000   -999.2500      7.6272     11.1999   -999.2500      2.4652      0.0863
  2278.2000   -999.2500      7.6272     11.4228   -999.2500      2.4615      0.0419
  2278.3000   -999.2500      7.6250     10.9421   -999.2500      2.4695      0.0426
  2278.4000   -999.2500      7.6250      9.4764   -999.2500      2.4936      0.0422
  2278.5000   -999.2500      7.6257      8.2050   -999.2500      2.5146      0.1041
  2278.6000   -999.2500      7.6257      8.2706   -999.2500      2.5135      0.0658
  2278.7000   -999.2500      7.6257      8.9690   -999.2500      2.5020      0.0514
  2278.8000   -999.2500      7.6268      9.0663   -999.2500      2.5004      0.0794
  2278.9000   -999.2500      7.6268      8.8639   -999.2500      2.5037      0.0532
  2279.0000   -999.2500      7.6190      9.3568   -999.2500      2.4956      0.0769
  2279.1000   -999.2500      7.6190     10.3835   -999.2500      2.4787      0.0350
  2279.2000   -999.2500      7.6190     10.8622   -999.2500      2.4708      0.0507
  2279.3000   -999.2500      7.6236     10.5422   -999.2500      2.4761      0.0324
  2279.4000   -999.2500      7.6236     10.0957   -999.2500      2.4834      0.0582
  2279.5000   -999.2500      7.6220     10.1734   -999.2500      2.4821      0.0465
  2279.6000   -999.2500      7.6220     10.7672   -999.2500      2.4723      0.0238
  2279.7000   -999.2500      7.6220     11.2949   -999.2500      2.4636      0.0373
  2279.8000   -999.2500      7.6121     11.5031   -999.2500      2.4602      0.0498
  2279.9000   -999.2500      7.6121     11.4981   -999.2500      2.4603      0.0215
  2280.0000   -999.2500      7.6098     11.4419   -999.2500      2.4612      0.0650
  2280.1000   -999.2500      7.6098     11.6612   -999.2500      2.4576      0.0387
  2280.2000   -999.2500      7.6098     12.1393   -999.2500      2.4497      0.0347
  2280.3000   -999.2500      7.6101     12.4627   -999.2500      2.4444      0.0322
  2280.4000   -999.2500      7.6101     12.5371   -999.2500      2.4431      0.0719
  2280.5000   -999.2500      7.6083     12.4102   -999.2500      2.4452      0.0659
  2280.6000   -999.2500      7.6083     11.6860   -999.2500      2.4572      0.0643
  2280.7000   -999.2500      7.6083     10.5497   -999.2500      2.4759      0.0940
  2280.8000   -999.2500      7.6117      9.9911   -999.2500      2.4851      0.0820
  2280.9000   -999.2500      7.6117      9.9940   -999.2500      2.4851      0.0684
  2281.0000   -999.2500      7.6239      9.7345   -999.2500      2.4894      0.0709
  2281.1000   -999.2500      7.6239      9.3557   -999.2500      2.4956      0.0901
  2281.2000   -999.2500      7.6239      9.7601   -999.2500      2.4890      0.0757
  2281.3000   -999.2500      7.6282     10.9981   -999.2500      2.4685      0.0568
  2281.4000   -999.2500      7.6282     11.9766   -999.2500      2.4524      0.0069
  2281.5000   -999.2500      7.6271     11.8266   -999.2500      2.4549      0.0375
  2281.6000   -999.2500      7.6271     10.8913   -999.2500      2.4703      0.0562
  2281.7000   -999.2500      7.6271     10.0875   -999.2500      2.4836      0.0649
  2281.8000   -999.2500      7.6245      9.8142   -999.2500      2.4881      0.0607
  2281.9000   -999.2500      7.6245      9.6714   -999.2500      2.4904      0.0748
  2282.0000   -999.2500      7.6271      9.2236   -999.2500      2.4978      0.0648
  2282.1000   -999.2500      7.6271      8.7669   -999.2500      2.5053      0.0727
  2282.2000   -999.2500      7.6271      8.7188   -999.2500      2.5061      0.0434
  2282.3000   -999.2500      7.6257      9.1672   -999.2500      2.4987      0.0722
