~Version Information
VERS.                      2.0: CWLS Log ASCII Standard - VERSION 2.0
WRAP.                       NO: One line per depth step
~Well Information Block
STRT.FT               953.8000: 
STOP.FT              2226.0000: 
STEP.FT                 0.1000: 
NULL.                -999.2500: 
COMP.          Petrogulf Corporation: COMPANY
WELL.             Burson 8-13R: WELL
FLD.           Purgatorie River: FIELD
LOC.           1045' FNL & 2189' FEL: LOCATION
CNTY.               Las Animas: COUNTY
SRVC.                         : SERVICE COMPANY
DATE.          Fri Apr 30 07:30:36 2004: LOG DATE
UWI.           05 071 08039 00: UNIQUE WELL ID
STAT.                 Colorado: STATE
~Curve Information Block
DEPT.FT            0 000 00 00: Depth
DCAL.in                       : CDL Caliper
RHOB.g/cc                     : CDL Bulk Density
RHOC.g/cc                     : CDL Density Correction
DPOR.pu                       : CDL Density Porosity
NPOR.pu                       : Neutron Porosity
GR.GAPI                       : Gamma Ray
~Parameter Information Block
~A  Depth       DCAL        RHOB        RHOC        DPOR        NPOR         GR     
# ...
  1693.0000      7.8619      2.4784      0.1024     10.3971     22.4044     74.3765
  1693.1000      7.8619      2.4843      0.0397     10.0425     22.4981     70.8879
  1693.2000      7.8619      2.5022      0.1058      8.9600     22.1211     68.0585
  1693.3000      7.8726      2.5140      0.1256      8.2395     21.9549     64.6165
  1693.4000      7.8726      2.5093      0.0991      8.5302     21.7153     63.8543
  1693.5000      7.8734      2.5008      0.0748      9.0411     21.1182     66.6635
  1693.6000      7.8734      2.5032      0.0507      8.8944     20.9458     68.0487
  1693.7000      7.8734      2.5159      0.0676      8.1286     21.5412     65.9706
  1693.8000      7.8713      2.5300      0.0954      7.2754     22.1712     62.2548
  1693.9000      7.8713      2.5347      0.1004      6.9868     22.2889     60.2555
  1694.0000      7.8746      2.5294      0.0595      7.3076     22.2706     63.7713
  1694.1000      7.8746      2.5270      0.0415      7.4557     22.4989     70.4921
  1694.2000      7.8746      2.5269      0.0794      7.4586     22.6169     73.9174
  1694.3000      7.8685      2.5229      0.0190      7.7018     22.2891     71.8136
  1694.4000      7.8685      2.5204      0.0472      7.8535     21.7994     67.2963
  1694.5000      7.8652      2.5142      0.0759      8.2308     21.4764     65.3487
  1694.6000      7.8652      2.4993      0.0304      9.1333     21.2801     68.2687
  1694.7000      7.8652      2.4869      0.0613      9.8874     20.8025     73.0341
  1694.8000      7.8614      2.4775      0.0779     10.4520     19.9014     74.4400
  1694.9000      7.8614      2.4644      0.0553     11.2507     19.0183     71.9197
  1695.0000      7.8625      2.4595      0.0053     11.5470     18.5370     70.8947
  1695.1000      7.8625      2.4762      0.0511     10.5329     18.2511     74.5737
  1695.2000      7.8625      2.4979      0.0922      9.2157     17.9712     80.7470
  1695.3000      7.8638      2.5044      0.0855      8.8269     17.6206     84.7177
  1695.4000      7.8638      2.4985      0.0613      9.1819     17.3662     81.1173
  1695.5000      7.8869      2.4934      0.0147      9.4896     17.7056     72.0018
  1695.6000      7.8869      2.4948      0.0350      9.4050     18.2724     65.9057
  1695.7000      7.8869      2.4970      0.0508      9.2708     18.1629     67.0878
  1695.8000      7.8656      2.4934      0.0611      9.4888     17.5860     75.0617
  1695.9000      7.8656      2.4856      0.0333      9.9640     17.3947     82.0949
  1696.0000      7.8678      2.4822      0.0557     10.1707     17.8288     81.0678
  1696.1000      7.8678      2.4917      0.0309      9.5947     18.4474     75.8094
  1696.2000      7.8678      2.5088      0.0847      8.5597     18.7358     72.2279
  1696.3000      7.8714      2.5148      0.0678      8.1965     18.4909     70.0873
  1696.4000      7.8714      2.5082      0.0744      8.5968     17.9857     67.0162
  1696.5000      7.8689      2.5006      0.0597      9.0554     17.6811     63.3083
  1696.6000      7.8689      2.4955      0.0252      9.3650     17.5583     62.0077
  1696.7000      7.8689      2.4958      0.0310      9.3436     17.8137     65.8163
  1696.8000      7.8897      2.5063      0.0412      8.7121     18.5874     71.7977
  1696.9000      7.8897      2.5223      0.0835      7.7367     19.2581     73.8879
  1697.0000      7.8677      2.5301      0.0749      7.2666     19.3512     71.9016
  1697.1000      7.8677      2.5209      0.0836      7.8246     18.8870     67.8991
  1697.2000      7.8677      2.5039      0.0315      8.8570     18.0865     64.3179
  1697.3000      7.8621      2.4923      0.0666      9.5602     17.4175     66.4000
  1697.4000      7.8621      2.4865      0.0434      9.9118     17.4633     74.1879
  1697.5000      7.8639      2.4900      0.0464      9.6981     18.1018     81.5744
  1697.6000      7.8639      2.5072      0.0657      8.6555     18.7589     83.8810
  1697.7000      7.8639      2.5278      0.0731      7.4040     19.3991     81.0483
  1697.8000      7.8616      2.5390      0.0783      6.7291     19.7916     77.9905
  1697.9000      7.8616      2.5427      0.0588      6.5033     19.4141     78.1277
  1698.0000      7.8644      2.5496      0.0623      6.0842     18.8629     77.8843
  1698.1000      7.8644      2.5621      0.0645      5.3285     19.1199     73.6719
  1698.2000      7.8644      2.5748      0.0473      4.5553     19.7822     70.3717
  1698.3000      7.8550      2.5815      0.0884      4.1542     19.8777     72.3813
  1698.4000      7.8550      2.5796      0.0453      4.2656     19.5307     73.4417
  1698.5000      7.8524      2.5703      0.0821      4.8333     19.1208     71.0860
  1698.6000      7.8524      2.5447      0.0768      6.3848     18.8392     73.8161
  1698.7000      7.8524      2.5042      0.0306      8.8349     18.8952     82.9612
  1698.8000      7.8663      2.4731      0.0128     10.7194     19.0331     88.7855
  1698.9000      7.8663      2.4658      0.0332     11.1620     19.2617     88.8911
  1699.0000      7.8703      2.4778      0.0277     10.4357     19.8902     90.5641
  1699.1000      7.8703      2.5044      0.0204      8.8242     20.6148     94.8163
  1699.2000      7.8703      2.5337      0.0725      7.0500     21.1056     96.3974
  1699.3000      7.8720      2.5522      0.0563      5.9292     21.2280     97.7382
  1699.4000      7.8720      2.5648      0.0592      5.1633     20.8633    101.8359
  1699.5000      7.8736      2.5735      0.0803      4.6353     20.6107    101.8272
  1699.6000      7.8736      2.5712      0.0333      4.7763     20.9873     93.6173
  1699.7000      7.8736      2.5606      0.0639      5.4198     21.5470     85.2400
  1699.8000      7.8745      2.5437      0.0604      6.4446     21.5491     84.5052
  1699.9000      7.8745      2.5280     -0.0174      7.3915     20.9324     87.5724
  1700.0000      7.8747      2.5246      0.0373      7.5972     20.5510     89.0895
  1700.1000      7.8747      2.5313      0.0212      7.1933     20.6477     88.0277
  1700.2000      7.8747      2.5454      0.0441      6.3382     20.6516     85.2596
  1700.3000      7.8688      2.5536      0.1121      5.8442     20.6460     82.5719
  1700.4000      7.8688      2.5383      0.0513      6.7714     20.7925     80.2931
  1700.5000      7.8475      2.5181     -0.0062      7.9916     20.8807     81.5702
  1700.6000      7.8475      2.5160      0.0418      8.1187     20.6318     86.9328
  1700.7000      7.8475      2.5186      0.0551      7.9657     19.9415     89.9802
  1700.8000      7.8471      2.5132      0.0137      8.2932     19.3963     87.1846
  1700.9000      7.8471      2.5094      0.0311      8.5219     19.3024     80.6937
  1701.0000      7.8501      2.5139      0.0658      8.2487     19.0591     76.1293
  1701.1000      7.8501      2.5203      0.0712      7.8579     18.3819     77.0000
  1701.2000      7.8501      2.5167      0.0735      8.0805     17.8624     78.7347
  1701.3000      7.8757      2.5064      0.0148      8.7023     17.8245     77.4546
  1701.4000      7.8757      2.5125      0.0133      8.3317     17.7163     78.3541
  1701.5000      7.8515      2.5374      0.0618      6.8234     17.0804     82.2492
  1701.6000      7.8515      2.5618      0.0239      5.3484     16.3693     82.9893
  1701.7000      7.8515      2.5784      0.0691      4.3389     16.0854     79.3845
  1701.8000      7.8412      2.5920      0.0794      3.5142     15.8521     74.2397
  1701.9000      7.8412      2.6080      0.0846      2.5482     15.0671     68.5875
  1702.0000      7.8275      2.6253      0.0662      1.4960     14.0237     63.7264
  1702.1000      7.8275      2.6304      0.1358      1.1908     13.5681     61.2057
  1702.2000      7.8275      2.6135      0.0702      2.2105     13.8077     61.4167
  1702.3000      7.8423      2.5942      0.0369      3.3796     14.0875     63.5225
  1702.4000      7.8423      2.5885      0.0497      3.7292     14.1116     65.6586
  1702.5000      7.8469      2.5837      0.0514      4.0187     14.0921     67.4621
