~Version Information
VERS.                      2.0: CWLS Log ASCII Standard - VERSION 2.0
WRAP.                       NO: One line per depth step
~Well Information Block
STRT.FT               -12.2500: 
STOP.FT              2595.7500: 
STEP.FT                 0.2500: 
NULL.                -999.2500: 
COMP.          Petrogulf Corporation: COMPANY
WELL.            Montoya 1-44V: WELL
FLD.           Purgatoire River: FIELD
LOC.           753' FSL & 990' FEL--: LOCATION
PROV.                       CO: PROVINCE
CNTY.               Las Aniams: COUNTRY
SRVC.          Patterson Wireline: SERVICE COMPANY
DATE.          Mon Jun 13 11:58:10 2005: LOG DATE
UWI.           05 071 08142 00: UNIQUE WELL ID
~Curve Information Block
DEPT.FT            0 000 00 00: Depth
CCL.                          : Casing Collar Locator
TT3.usec                      : CBL 3' Travel Time
AMP3.mV                       : CBL 3' Amplitude
GR.GAPI                       : Gamma Ray
~Parameter Information Block
~A  Depth       CCL         TT3         AMP3         GR     
# ...
   155.2500      0.0000    264.6631     81.3420    129.1457
   155.5000      0.0000    264.6598     81.4767    134.0939
   155.7500      0.0000    264.6593     81.5973    135.5583
   156.0000      0.0000    264.6636     81.6845    134.7912
   156.2500      0.0000    264.6721     81.7560    133.9214
   156.5000      0.0000    264.6823     81.8345    134.3102
   156.7500      0.0000    264.6888     81.9092    135.5135
   157.0000      0.0000    264.6856     81.9458    135.8103
   157.2500      0.0000    264.6707     81.9351    133.8263
   157.5000      0.0000    264.6474     81.9158    129.7722
   157.7500      0.0000    264.6220     81.9392    125.2057
   158.0000      0.0000    264.6005     82.0054    121.7354
   158.2500      0.0000    264.5871     82.0454    119.9370
   158.5000      0.0000    264.5836     81.9787    119.1915
   158.7500      0.0000    264.5887     81.7837    118.3130
   159.0000      0.0000    264.5977     81.5071    116.2716
   159.2500      0.0000    264.6044     81.2252    112.3425
   159.5000      0.0000    264.6053     81.0122    106.1012
   159.7500      0.0000    264.6023     80.9217     98.0099
   160.0000      0.0000    264.5995     80.9572     89.8527
   160.2500      0.0000    264.5977     81.0547     83.7947
   160.5000      0.0000    264.5925     81.1270     80.8872
   160.7500      0.0000    264.5801     81.1298     80.7437
   161.0000      0.0000    264.5621     81.0789     82.3451
   161.2500      0.0000    264.5444     81.0235     84.7333
   161.5000      0.0000    264.5344     81.0178     87.1521
   161.7500      0.0000    264.5383     81.0939     89.0073
   162.0000      0.0000    264.5562     81.2448     89.8216
   162.2500      0.0000    264.5791     81.4376     89.1252
   162.5000      0.0000    264.5945     81.6429     86.4987
   162.7500      0.0000    264.5958     81.8389     82.0162
   163.0000      0.0000    264.5848     81.9983     76.6787
   163.2500      0.0000    264.5682     82.0925     72.1188
   163.5000      0.0000    264.5522     82.1129     69.5260
   163.7500      0.0000    264.5398     82.0872     68.7085
   164.0000      0.0000    264.5297     82.0706     68.3954
   164.2500      0.0000    264.5184     82.1075     67.5254
   164.5000      0.0000    264.5051     82.1942     66.0418
   164.7500      0.0000    264.4934     82.2862     64.5876
   165.0000      0.0000    264.4875     82.3443     63.8653
   165.2500      0.0000    264.4856     82.3591     64.2123
   165.5000      0.0000    264.4787     82.3378     65.2875
   165.7500      0.0000    264.4591     82.2975     66.1413
   166.0000      0.0000    264.4290     82.2759     65.8650
   166.2500      0.0000    264.3996     82.3158     64.1831
   166.5000      0.0000    264.3830     82.4195     61.4876
   166.7500      0.0000    264.3850     82.5341     58.6273
   167.0000      0.0000    264.4024     82.6003     56.6058
   167.2500      0.0000    264.4250     82.6102     56.1078
   167.5000      0.0000    264.4418     82.6077     57.1644
   167.7500      0.0000    264.4474     82.6328     59.1538
   168.0000      0.0000    264.4416     82.6791     60.9697
   168.2500      0.0000    264.4275     82.7098     61.5298
   168.5000      0.0000    264.4100     82.6976     60.6361
   168.7500      0.0000    264.3924     82.6422     59.1607
   169.0000      0.0000    264.3742     82.5672     58.0531
   169.2500      0.0000    264.3524     82.5114     57.4567
   169.5000      0.0000    264.3254     82.5117     57.1141
   169.7500      0.0000    264.2956     82.5747     57.3595
   170.0000      0.0000    264.2681     82.6649     59.1601
   170.2500      0.0000    264.2473     82.7291     63.1356
   170.5000      0.0000    264.2372     82.7371     69.0154
   170.7500      0.0000    264.2497     82.6938     76.1128
   171.0000      0.0000    264.3464     82.5818     83.7590
   171.2500      0.0000    264.7214     82.2468     91.2369
   171.5000      0.0000    265.7842     81.2718     97.9366
   171.7500      0.0000    268.0429     79.0315    103.7749
   172.0000      0.0000    271.5919     75.1201    109.2179
   172.2500      0.0000    275.5499     69.8918    114.8694
   172.5000      0.0000    278.3362     64.4216    120.8462
   172.7500      0.0000    278.9157     59.7764    126.0592
   173.0000      0.0000    277.6745     56.4319    128.3443
   173.2500      0.0000    275.8760     54.3439    126.1462
   173.5000      0.0000    274.5075     53.2365    120.2685
   173.7500      0.0000    273.8500     52.7216    113.5445
   174.0000     -2.0000    273.8367     52.4102    108.6401
   174.2500      0.0000    274.4798     52.0926    106.2210
   174.5000      0.0000    275.8837     51.9266    105.1856
   174.7500      0.0000    277.8179     52.5512    104.5409
   175.0000      0.0000    279.3143     54.8665    104.6732
   175.2500      0.0000    279.0482     59.3270    106.3894
   175.5000      0.0000    276.4966     65.3182    109.0629
   175.7500      0.0000    272.5696     71.4480    110.6049
   176.0000      0.0000    268.8394     76.4977    109.5031
   176.2500      0.0000    266.2979     80.0028    106.3929
   176.5000      0.0000    264.9782     82.1123    103.3780
   176.7500      0.0000    264.4312     83.2067    102.0286
   177.0000      0.0000    264.2431     83.6630    102.2428
   177.2500      0.0000    264.1953     83.7813    102.8632
   177.5000      0.0000    264.2005     83.7735    102.8750
   177.7500      0.0000    264.2235     83.7519    101.8142
   178.0000      0.0000    264.2440     83.7357     99.5223
   178.2500      0.0000    264.2541     83.6965     96.0751
   178.5000      0.0000    264.2560     83.6228     92.0146
   178.7500      0.0000    264.2560     83.5385     88.3983
   179.0000      0.0000    264.2569     83.4777     86.4909
   179.2500      0.0000    264.2563     83.4544     87.2094
   179.5000      0.0000    264.2519     83.4593     90.3583
   179.7500      0.0000    264.2451     83.4782     94.2169
   180.0000      0.0000    264.2383     83.5049     96.4398
   180.2500      0.0000    264.2318     83.5370     95.8756
   180.5000      0.0000    264.2267     83.5716     93.3577
   180.7500      0.0000    264.2276     83.6064     90.5366
   181.0000      0.0000    264.2405     83.6322     88.1942
   181.2500      0.0000    264.2668     83.6246     85.8191
   181.5000      0.0000    264.3018     83.5564     82.5610
   181.7500      0.0000    264.3387     83.4293     78.3796
   182.0000      0.0000    264.3750     83.2832     74.1121
   182.2500      0.0000    264.4134     83.1637     70.2974
   182.5000      0.0000    264.4552     83.0859     66.3806
   182.7500      0.0000    264.4963     83.0448     61.6577
   183.0000      0.0000    264.5311     83.0496     56.6175
   183.2500      0.0000    264.5587     83.1173     52.6073
   183.5000      0.0000    264.5810     83.2372     50.4610
   183.7500      0.0000    264.5986     83.3673     49.9422
   184.0000      0.0000    264.6117     83.4546     50.1341
   184.2500      0.0000    264.6205     83.4473     50.0669
   184.5000      0.0000    264.6234     83.3198     49.4372
   184.7500      0.0000    264.6182     83.1134     48.8419
   185.0000      0.0000    264.6064     82.9298     48.9376
   185.2500      0.0000    264.5925     82.8581     49.5867
   185.5000      0.0000    264.5780     82.9073     50.2821
   185.7500      0.0000    264.5587     83.0136     50.9966
   186.0000      0.0000    264.5285     83.1092     52.0031
   186.2500      0.0000    264.4858     83.1851     53.1927
   186.5000      0.0000    264.4387     83.2826     54.1847
   186.7500      0.0000    264.3996     83.4305     54.9154
   187.0000      0.0000    264.3761     83.6032     55.6639
   187.2500      0.0000    264.3666     83.7421     56.4879
   187.5000      0.0000    264.3637     83.8056     56.8678
   187.7500      0.0000    264.3599     83.7964     56.1309
   188.0000      0.0000    264.3494     83.7469     54.3134
   188.2500      0.0000    264.3279     83.6841     52.3907
   188.5000      0.0000    264.2961     83.6090     51.4193
