~Version Information
VERS.                      2.0: CWLS Log ASCII Standard - VERSION 2.0
WRAP.                       NO: One line per depth step
~Well Information Block
STRT.FT               480.0000: 
STOP.FT              1629.0000: 
STEP.FT                 0.2500: 
NULL.                -999.2500: 
COMP.          Pioneer Natural Resources: COMPANY
WELL.          Dude Canyon 22-32 Tr: WELL
FLD.           Purgatoire River: FIELD
LOC.           1741' FNL & 2331' FWL: LOCATION
PROV.                 Colorado: PROVINCE
CNTY.               Las Animas: COUNTRY
SRVC.                Patterson: SERVICE COMPANY
DATE.          Sat Jul 09 01:36:28 2005: LOG DATE
UWI.           05 071 08421 00: UNIQUE WELL ID
~Curve Information Block
DEPT.FT            0 000 00 00: Depth
SN.Ohm-m                      : IEL Short Normal
SP.mV                         : IEL Spontaneous Potential
DIR.Ohm-m                     : IEL Induction Resistivity
GR.GAPI                       : Gamma Ray
~Parameter Information Block
~A  Depth        SN          SP         DIR          GR     
# ...
   614.0000     71.5714     14.6650     62.3642     64.4959
   614.2500     75.5874     12.9210     63.4058     61.6183
   614.5000     78.7674     11.2127     64.7435     58.5890
   614.7500     80.8272      9.5541     66.2849     57.5206
   615.0000     81.8094      7.9595     67.8972     57.3381
   615.2500     81.9020      6.4682     69.4734     57.9529
   615.5000     81.3117      5.1600     70.8892     59.2700
   615.7500     80.2530      4.1413     71.8914     59.9560
   616.0000     78.9158      3.5101     72.0860     60.0587
   616.2500     77.3996      3.3216     71.1319     59.2163
   616.5000     75.7378      3.5657     69.0338     56.4202
   616.7500     73.9930      4.1580     66.2478     53.9354
   617.0000     72.2802      4.9471     63.4468     50.9708
   617.2500     70.6746      5.7505     61.1635     50.6078
   617.5000     69.1496      6.4160     59.5989     53.2507
   617.7500     67.6333      6.8797     58.6633     56.5686
   618.0000     66.0930      7.1835     58.1382     61.6706
   618.2500     64.5910      7.4359     57.8061     63.8387
   618.5000     63.2810      7.7366     57.4813     64.1533
   618.7500     62.2763      8.0995     57.0033     62.7499
   619.0000     61.5135      8.4056     56.2880     60.1429
   619.2500     60.8018      8.4270     55.4123     59.3284
   619.5000     59.9671      7.9422     54.6213     60.5355
   619.7500     58.9325      6.8874     54.2076     62.6781
   620.0000     57.7603      5.4197     54.3418     66.7037
   620.2500     56.6195      3.8305     54.9473     69.3117
   620.5000     55.6336      2.3801     55.6983     72.1235
   620.7500     54.7913      1.1848     56.1750     72.5804
   621.0000     54.0530      0.2271     56.1195     70.3664
   621.2500     53.4419     -0.5434     55.5663     67.2053
   621.5000     52.9823     -1.1137     54.7187     61.2888
   621.7500     52.6425     -1.3891     53.7460     57.2610
   622.0000     52.3688     -1.2486     52.7156     51.5293
   622.2500     52.1290     -0.6091     51.6514     47.9887
   622.5000     51.9081      0.5520     50.5839     43.5063
   622.7500     51.6884      2.2105     49.5423     41.3679
   623.0000     51.4538      4.3083     48.5291     39.5883
   623.2500     51.1748      6.7435     47.5207     39.2828
   623.5000     50.7653      9.3540     46.4795     40.2714
   623.7500     50.1263     11.9359     45.3532     42.2668
   624.0000     49.2376     14.3121     44.0709     48.1020
   624.2500     48.1163     16.4096     42.5551     54.1537
   624.5000     46.7654     18.2807     40.7590     66.1156
   624.7500     45.2233     20.0391     38.7081     75.3611
   625.0000     43.5467     21.7483     36.5147     89.7077
   625.2500     41.7147     23.3444     34.3407     98.8552
   625.5000     39.5978     24.6618     32.3342    111.2131
   625.7500     37.0589     25.5468     30.5796    118.5328
   626.0000     34.1222     25.9611     29.0901    128.8004
   626.2500     31.0768     25.9853     27.8298    135.6330
   626.5000     28.3632     25.7411     26.7488    145.8258
   626.7500     26.2527     25.3185     25.8106    151.9206
   627.0000     24.7029     24.7636     24.9959    158.6294
   627.2500     23.5167     24.1080     24.2858    161.1069
   627.5000     22.5147     23.4000     23.6429    162.1864
   627.7500     21.6287     22.7104     23.0166    161.6737
   628.0000     20.9039     22.1194     22.3758    160.1227
   628.2500     20.3702     21.6963     21.7408    159.3262
   628.5000     19.9831     21.4809     21.1759    159.7628
   628.7500     19.7315     21.4766     20.7480    161.2139
   629.0000     19.6705     21.6611     20.4873    163.3371
   629.2500     19.7930     22.0059     20.3805    163.3222
   629.5000     19.9818     22.4915     20.3925    160.5609
   629.7500     20.1203     23.1115     20.4944    157.8161
   630.0000     20.2036     23.8706     20.6741    154.1947
   630.2500     20.3379     24.7832     20.9265    152.4392
   630.5000     20.6161     25.8722     21.2394    150.4267
   630.7500     20.9957     27.1679     21.5905    149.5108
   631.0000     21.3400     28.7056     21.9574    149.6500
   631.2500     21.5742     30.5172     22.3297    151.2824
   631.5000     21.7351     32.6133     22.7109    155.8504
   631.7500     21.8809     34.9595     23.1089    159.4122
   632.0000     22.0579     37.4701     23.5236    163.5216
   632.2500     22.3274     40.0392     23.9478    164.6824
   632.5000     22.7260     42.5877     24.3806    164.0076
   632.7500     23.2246     45.0740     24.8391    162.4020
   633.0000     23.7856     47.4385     25.3521    159.1742
   633.2500     24.4140     49.5391     25.9363    156.8774
   633.5000     25.1127     51.1729     26.5803    153.5142
   633.7500     25.8245     52.1935     27.2485    151.3080
   634.0000     26.4701     52.6148     27.9082    147.8887
   634.2500     27.0652     52.5992     28.5589    145.4351
   634.5000     27.7170     52.3515     29.2415    141.4108
   634.7500     28.4620     52.0201     30.0205    138.6490
   635.0000     29.2481     51.6662     30.9501    135.2171
   635.2500     30.0865     51.2892     32.0492    134.0700
   635.5000     31.0633     50.8679     33.2944    134.7592
   635.7500     32.2184     50.3928     34.6312    136.5556
   636.0000     33.5117     49.8820     35.9867    139.5106
   636.2500     34.8849     49.3834     37.2770    140.4161
   636.5000     36.3056     48.9631     38.4038    139.0397
   636.7500     37.7647     48.6866     39.2574    136.4597
   637.0000     39.2579     48.6049     39.7397    131.1069
   637.2500     40.8206     48.7515     39.8068    127.1268
   637.5000     42.5781     49.1538     39.4997    121.2346
   637.7500     44.6409     49.8468     38.9187    117.6477
   638.0000     46.9092     50.8668     38.1518    113.1928
   638.2500     49.0288     52.2145     37.2205    110.9341
   638.5000     50.4784     53.8047     36.0949    108.1790
   638.7500     50.6922     55.4491     34.7652    106.4243
   639.0000     49.2134     56.9021     33.2988    104.5498
   639.2500     45.8799     57.9499     31.8275    105.1228
   639.5000     41.0750     58.4881     30.4809    110.8743
   639.7500     35.7854     58.5413     29.3252    118.0063
   640.0000     31.1115     58.2225     28.3432    131.4257
   640.2500     27.6483     57.6641     27.4513    140.3793
   640.5000     25.3629     56.9686     26.5378    151.2488
   640.7500     23.8403     56.2065     25.5132    155.9226
   641.0000     22.6503     55.4476     24.3553    158.9653
   641.2500     21.6416     54.7887     23.1245    159.0578
   641.5000     20.8602     54.3484     21.9326    157.9646
   641.7500     20.2965     54.2177     20.8868    157.0545
   642.0000     19.8718     54.3913     20.0472    155.6205
   642.2500     19.5674     54.7403     19.4181    154.4683
   642.5000     19.4099     55.0698     18.9623    152.2054
   642.7500     19.3060     55.2245     18.6228    150.3728
   643.0000     19.0284     55.1546     18.3433    147.6824
   643.2500     18.4699     54.9042     18.0831    146.3913
   643.5000     17.7805     54.5598     17.8226    145.5647
   643.7500     17.2286     54.2068     17.5621    145.6070
   644.0000     17.0266     53.9086     17.3157    146.3813
   644.2500     17.1990     53.6984     17.1061    147.5371
   644.5000     17.5480     53.5776     16.9597    150.3187
   644.7500     17.7890     53.5246     16.9003    152.4011
   645.0000     17.7781     53.5115     16.9418    154.7213
   645.2500     17.5628     53.5191     17.0840    155.5738
   645.5000     17.1802     53.5405     17.3142    156.8461
   645.7500     16.5802     53.5716     17.6125    158.4780
   646.0000     15.8180     53.6050     17.9560    162.1864
   646.2500     15.2018     53.6338     18.3201    164.5593
   646.5000     15.1406     53.6628     18.6805    166.1346
   646.7500     15.7926     53.7078     19.0188    165.6849
   647.0000     16.9287     53.7829     19.3287    163.9798
   647.2500     18.1651     53.8892     19.6181    162.7138
