~Version Information
 VERS.                      2.0: CWLS Log ASCII Standard - VERSION 2.0
 WRAP.                       NO: One line per depth step
 ~Well Information Block
 STRT.FT               886.1000: 
 STOP.FT              2599.0000: 
 STEP.FT                 0.1000: 
 NULL.                -999.2500: 
 COMP.          Petrogulf Corporation: COMPANY
 WELL.               YWAM 7-23V: WELL
 FLD.           Purgatorie River: FIELD
 LOC.           230' FSL & 225' FWL: LOCATION
 CNTY.               Las Animas: COUNTY
 SRVC.                         : SERVICE COMPANY
 DATE.          Sat Oct 30 10:42:52 2004: LOG DATE
 UWI.           05 071 08227 00: UNIQUE WELL ID
 STAT.                 Colorado: STATE
 PROV.                         :Province
 ~Curve Information Block
 DEPT.FT            0 000 00 00: Depth
 DCAL.in                       : CDL Caliper
 RHOB.g/cc                     : CDL Bulk Density
 RHOC.g/cc                     : CDL Density Correction
 DPOR.pu                       : CDL Density Porosity
 GR.GAPI                       : Gamma Ray
 NPOR.pu                       : Neutron Porosity
 ~Parameter Information Block
 ~A  Depth       DCAL        RHOB        RHOC        DPOR         GR         NPOR    
# ...
   905.3000   -999.2500   -999.2500   -999.2500   -999.2500     82.4093     49.5302
   905.4000   -999.2500   -999.2500   -999.2500   -999.2500     86.1449     49.9277
   905.5000   -999.2500   -999.2500   -999.2500   -999.2500     88.5210     50.0351
   905.6000   -999.2500   -999.2500   -999.2500   -999.2500     87.7439     49.6189
   905.7000   -999.2500   -999.2500   -999.2500   -999.2500     84.8935     49.0187
   905.8000   -999.2500   -999.2500   -999.2500   -999.2500     81.1686     48.7167
   905.9000   -999.2500   -999.2500   -999.2500   -999.2500     77.8998     48.6675
   906.0000   -999.2500   -999.2500   -999.2500   -999.2500     75.9843     48.6716
   906.1000   -999.2500   -999.2500   -999.2500   -999.2500     74.6920     48.7844
   906.2000   -999.2500   -999.2500   -999.2500   -999.2500     73.1118     49.0335
   906.3000   -999.2500   -999.2500   -999.2500   -999.2500     69.4604     49.2793
   906.4000   -999.2500   -999.2500   -999.2500   -999.2500     62.5809     49.4995
   906.5000   -999.2500   -999.2500   -999.2500   -999.2500     55.0928     49.7599
   906.6000   -999.2500   -999.2500   -999.2500   -999.2500     49.9457     49.9199
   906.7000   -999.2500   -999.2500   -999.2500   -999.2500     47.1852     49.9024
   906.8000   -999.2500   -999.2500   -999.2500   -999.2500     47.3929     49.8249
   906.9000   -999.2500   -999.2500   -999.2500   -999.2500     49.8261     49.8504
   907.0000   -999.2500   -999.2500   -999.2500   -999.2500     50.5782     50.0807
   907.1000   -999.2500   -999.2500   -999.2500   -999.2500     50.1115     50.4287
   907.2000   -999.2500   -999.2500   -999.2500   -999.2500     52.3832     50.6338
   907.3000   -999.2500   -999.2500   -999.2500   -999.2500     58.8588     50.5558
   907.4000   -999.2500   -999.2500   -999.2500   -999.2500     65.4315     50.5068
   907.5000   -999.2500   -999.2500   -999.2500   -999.2500     65.9820     50.6636
   907.6000   -999.2500   -999.2500   -999.2500   -999.2500     62.7497     50.6855
   907.7000   -999.2500   -999.2500   -999.2500   -999.2500     61.9927     50.4967
   907.8000   -999.2500   -999.2500   -999.2500   -999.2500     64.7147     50.3495
   907.9000   -999.2500   -999.2500   -999.2500   -999.2500     67.4887     50.2414
   908.0000   -999.2500   -999.2500   -999.2500   -999.2500     67.0814     50.2050
   908.1000   -999.2500   -999.2500   -999.2500   -999.2500     65.7189     50.1784
   908.2000   -999.2500   -999.2500   -999.2500   -999.2500     69.5828     49.9675
   908.3000   -999.2500   -999.2500   -999.2500   -999.2500     79.0606     49.5429
   908.4000   -999.2500   -999.2500   -999.2500   -999.2500     85.7055     48.9874
   908.5000   -999.2500   -999.2500   -999.2500   -999.2500     83.7878     48.6701
   908.6000   -999.2500   -999.2500   -999.2500   -999.2500     79.9787     48.6956
   908.7000   -999.2500   -999.2500   -999.2500   -999.2500     82.9661     48.6599
   908.8000   -999.2500   -999.2500   -999.2500   -999.2500     89.5876     48.5603
   908.9000   -999.2500   -999.2500   -999.2500   -999.2500     91.9775     48.5958
   909.0000   -999.2500   -999.2500   -999.2500   -999.2500     89.7797     48.5797
   909.1000   -999.2500   -999.2500   -999.2500   -999.2500     87.6188     48.4121
   909.2000   -999.2500   -999.2500   -999.2500   -999.2500     86.0638     48.3108
   909.3000   -999.2500   -999.2500   -999.2500   -999.2500     82.0065     48.2682
   909.4000   -999.2500   -999.2500   -999.2500   -999.2500     76.3370     47.9999
   909.5000   -999.2500   -999.2500   -999.2500   -999.2500     73.0462     47.6637
   909.6000   -999.2500   -999.2500   -999.2500   -999.2500     74.5329     47.8597
   909.7000   -999.2500   -999.2500   -999.2500   -999.2500     79.7996     48.4015
   909.8000   -999.2500   -999.2500   -999.2500   -999.2500     84.5042     48.5366
   909.9000   -999.2500   -999.2500   -999.2500   -999.2500     85.8352     48.4851
   910.0000   -999.2500   -999.2500   -999.2500   -999.2500     84.8376     48.8043
   910.1000   -999.2500   -999.2500   -999.2500   -999.2500     83.1117     49.2985
   910.2000   -999.2500   -999.2500   -999.2500   -999.2500     80.4004     49.6404
   910.3000   -999.2500   -999.2500   -999.2500   -999.2500     77.1303     49.5929
   910.4000   -999.2500   -999.2500   -999.2500   -999.2500     74.8458     49.0469
   910.5000   -999.2500   -999.2500   -999.2500   -999.2500     75.2677     48.4436
   910.6000   -999.2500   -999.2500   -999.2500   -999.2500     78.8786     48.3791
   910.7000   -999.2500   -999.2500   -999.2500   -999.2500     83.0127     48.7385
   910.8000   -999.2500   -999.2500   -999.2500   -999.2500     84.6830     48.8445
   910.9000   -999.2500   -999.2500   -999.2500   -999.2500     83.7800     48.7058
   911.0000   -999.2500   -999.2500   -999.2500   -999.2500     80.5368     48.9372
   911.1000   -999.2500   -999.2500   -999.2500   -999.2500     77.0598     49.3956
   911.2000   -999.2500   -999.2500   -999.2500   -999.2500     76.8146     49.5164
   911.3000   -999.2500   -999.2500   -999.2500   -999.2500     79.0529     49.3043
   911.4000   -999.2500   -999.2500     -0.0529   -999.2500     80.1507     49.0182
   911.5000      4.8019   -999.2500     -0.1139   -999.2500     79.6552     48.8471
   911.6000      4.8019   -999.2500     -0.2234   -999.2500     78.8060     48.8816
   911.7000      4.8019   -999.2500     -0.2570   -999.2500     76.5272     48.8819
   911.8000      4.8138   -999.2500     -0.3545   -999.2500     74.3463     48.4937
   911.9000      4.8138      1.9220     -0.3312     44.1208     76.0020     47.8548
   912.0000      4.8255      1.9719     -0.2030     41.0971     80.0608     47.4388
   912.1000      4.8255      2.0605     -0.0497     35.7294     79.0735     47.4029
   912.2000      4.8255      2.1668      0.0476     29.2872     71.8034     47.4669
   912.3000      4.8362      2.3007      0.1125     21.1707     65.8021     47.4593
   912.4000      4.8362      2.4996      0.2152      9.1136     64.4469     47.4010
   912.5000      6.5539      2.7725      0.3078     -7.4217     65.8420     47.3702
   912.6000      6.5539      3.0460      0.4576    -24.0014     68.6657     47.5348
   912.7000      6.5539      3.2268      0.4835    -34.9603     71.2131     47.9510
   912.8000     17.9547      3.2974      0.5356    -39.2365     72.3697     48.5369
   912.9000     17.9547      3.2697      0.5360    -37.5603     72.2863     48.9697
   913.0000      9.5602      3.1198      0.4927    -28.4703     70.7917     48.8262
   913.1000      9.5602      2.8640      0.0904    -12.9713     69.3556     48.0795
   913.2000      9.5602      2.6247     -0.4003      1.5348     69.9499     47.0827
   913.3000      8.1950      2.4983     -0.4107      9.1915     70.1801     46.2914
   913.4000      8.1950      2.4509     -0.3512     12.0649     67.8445     45.9252
   913.5000      8.1920      2.4189     -0.4724     14.0077     66.2711     46.0545
   913.6000      8.1920      2.3953     -0.5655     15.4367     66.0856     46.5634
   913.7000      8.1920      2.4056     -0.5484     14.8105     65.0347     46.9020
   913.8000      8.1912      2.4580     -0.4938     11.6390     63.4805     46.7026
   913.9000      8.1912      2.5104     -0.3496      8.4602     62.3422     46.2979
   914.0000      8.1917      2.5076     -0.4333      8.6302     62.5217     46.2198
   914.1000      8.1917      2.4574     -0.5057     11.6757     66.1849     46.5273
   914.2000      8.1917      2.4138     -0.5181     14.3146     72.2147     47.0711
   914.3000      8.1928      2.3992     -0.5170     15.2023     74.6897     47.5335
   914.4000      8.1928      2.3927     -0.5274     15.5934     72.1259     47.4577
   914.5000      8.1938      2.3727     -0.5147     16.8083     70.0210     46.9709
   914.6000      8.1938      2.3417     -0.5516     18.6853     72.6700     46.6620
   914.7000      8.1938      2.3116     -0.5105     20.5062     80.3841     46.6849
   914.8000      8.1929      2.2845     -0.5343     22.1510     91.1664     46.9120
