~Version Information
VERS.                      2.0: CWLS Log ASCII Standard - VERSION 2.0
WRAP.                       NO: One line per depth step
~Well Information Block
STRT.FT                -2.2500: 
STOP.FT              1676.7500: 
STEP.FT                 0.2500: 
NULL.                -999.2500: 
COMP.          Pioneer Natural Resources: COMPANY
WELL.              Patten 22-2: WELL
FLD.           Purgatoire River: FIELD
LOC.           2157' FNL & 1528' FWL: LOCATION
PROV.                 Colorado: PROVINCE
CNTY.               Las Animas: COUNTRY
SRVC.                Patterson: SERVICE COMPANY
DATE.          Tue Dec 14 11:45:47 2004: LOG DATE
UWI.           05 071 08168 00: UNIQUE WELL ID
~Curve Information Block
DEPT.FT            0 000 00 00: Depth
GR.GAPI                       : Gamma Ray
CCL.                          : Casing Collar Locator
TT3.usec                      : CBL 3' Travel Time
AMP3.mV                       : CBL 3' Amplitude
~Parameter Information Block
~A  Depth        GR         CCL         TT3         AMP3    
# ...
   768.2500    117.0684      0.0000    692.6273      8.1136
   768.5000    115.3252      0.0000    692.9583      8.1147
   768.7500    112.5287      0.0000    693.5864      8.0952
   769.0000    109.1004      0.0000    694.3090      8.0669
   769.2500    105.8610      0.0000    694.9113      8.0371
   769.5000    103.8120      0.0000    695.3742      8.0029
   769.7500    103.7657      0.0000    696.0521      7.9560
   770.0000    105.9590      0.0000    697.7400      7.8951
   770.2500    109.9444      0.0000    701.3012      7.8307
   770.5000    114.7336      0.0000    706.3314      7.7789
   770.7500    119.0298      0.0000    709.4963      7.7468
   771.0000    121.7061      0.0000    705.0171      7.7263
   771.2500    122.5151      0.0000    688.8079      7.7032
   771.5000    122.2893      0.0000    662.8650      7.6700
   771.7500    122.2317      0.0000    634.5352      7.6285
   772.0000    122.9393      0.0000    611.0341      7.5871
   772.2500    123.9687      0.0000    595.3716      7.5557
   772.5000    124.0743      0.0000    587.0892      7.5413
   772.7500    122.1779      0.0000    584.8790      7.5457
   773.0000    118.7417      0.0000    587.4099      7.5693
   773.2500    115.9608      0.0000    592.7040      7.6117
   773.5000    115.8318      0.0000    598.2955      7.6638
   773.7500    118.0363      0.0000    602.3962      7.7063
   774.0000    120.2380      0.0000    604.5861      7.7207
   774.2500    120.3765      0.0000    605.4050      7.7068
   774.5000    118.2458      0.0000    605.5694      7.6836
   774.7500    114.9896      0.0000    605.5574      7.6720
   775.0000    111.6985      0.0000    605.5602      7.6778
   775.2500    108.8364      0.0000    605.5865      7.6925
   775.5000    106.9058      0.0000    605.5991      7.7064
   775.7500    107.0013      0.0000    605.6750      7.7172
   776.0000    109.8425      0.0000    606.0963      7.7283
   776.2500    114.2981      0.0000    607.3024      7.7447
   776.5000    117.8180      0.0000    609.6412      7.7662
   776.7500    118.7457      0.0000    612.9282      7.7846
   777.0000    117.5484      0.0000    616.1300      7.7912
   777.2500    115.5721      0.0000    617.8118      7.7850
   777.5000    113.4888      0.0000    617.3516      7.7720
   777.7500    111.3929      0.0000    615.6711      7.7596
   778.0000    109.6892      0.0000    614.6007      7.7518
   778.2500    109.1048      0.0000    615.7137      7.7428
   778.5000    109.7512      0.0000    619.8745      7.7147
   778.7500    110.6235      0.0000    627.5052      7.6502
   779.0000    110.3846      0.0000    638.8142      7.5512
   779.2500    108.4512      0.0000    653.5405      7.4427
   779.5000    105.1748      0.0000    670.4864      7.3576
   779.7500    101.4087      0.0000    687.5605      7.3163
   780.0000     98.2294      0.0000    702.3782      7.3189
   780.2500     96.4961      0.0000    712.7640      7.3539
   780.5000     96.0628      0.0000    717.2252      7.4105
   780.7500     95.8076      0.0000    715.8683      7.4810
   781.0000     95.0190      0.0000    710.9438      7.5524
   781.2500     94.4318      0.0000    705.7731      7.6064
   781.5000     95.3302      0.0000    702.6251      7.6309
   781.7500     97.8903      0.0000    701.5471      7.6310
   782.0000    101.1211      0.0000    701.2577      7.6253
   782.2500    104.3634      0.0000    701.1215      7.6296
   782.5000    108.0548      0.0000    702.1555      7.6479
   782.7500    112.7078      0.0000    706.0315      7.6789
   783.0000    117.6836      0.0000    713.2614      7.7279
   783.2500    121.4615      0.0000    722.6291      7.8072
   783.5000    123.0252      0.0000    732.3873      7.9212
   783.7500    122.7032      0.0000    741.6603      8.0514
   784.0000    121.6355      0.0000    750.3433      8.1589
   784.2500    120.6551      0.0000    757.9235      8.2049
   784.5000    119.7388      0.0000    762.9463      8.1710
   784.7500    118.4152      0.0000    763.7612      8.0665
   785.0000    116.6368      0.0000    759.6581      7.9248
   785.2500    115.2237      0.0000    751.2944      7.7887
   785.5000    115.3413      0.0000    740.1380      7.6871
   785.7500    117.5692      0.0000    727.4346      7.6204
   786.0000    121.4524      0.0000    713.9200      7.5728
   786.2500    125.6167      0.0000    700.6791      7.5337
   786.5000    128.2504      0.0000    689.9376      7.5034
   786.7500    128.0607      0.0000    684.0565      7.4837
   787.0000    125.2063      0.0000    682.7770      7.4722
   787.2500    121.1063      0.0000    681.8936      7.4654
   787.5000    117.2327      0.0000    676.3001      7.4589
   787.7500    114.3910      0.0000    665.3677      7.4460
   788.0000    113.1109      0.0000    654.6542      7.4230
   788.2500    114.0055      0.0000    651.3979      7.3946
   788.5000    117.2443      0.0000    658.4076      7.3698
   788.7500    121.9521      0.0000    672.7256      7.3548
   789.0000    126.5373      0.0000    689.1874      7.3525
   789.2500    129.6318      0.0000    703.6062      7.3672
   789.5000    130.6233      0.0000    713.0994      7.3985
   789.7500    129.5314      0.0000    715.9269      7.4335
   790.0000    126.7231      0.0000    712.4052      7.4539
   790.2500    122.7972      0.0000    705.1510      7.4532
   790.5000    118.5564      0.0000    697.5874      7.4409
   790.7500    114.9649      0.0000    692.0104      7.4287
   791.0000    112.9866      0.0000    688.9010      7.4193
   791.2500    113.2420      0.0000    687.6077      7.4097
   791.5000    115.7713      0.0000    687.2994      7.3989
   791.7500    120.1643      0.0000    687.4312      7.3898
   792.0000    125.6584      0.0000    687.7115      7.3841
   792.2500    130.9827      0.0000    687.9870      7.3796
   792.5000    134.5622      0.0000    688.2007      7.3722
   792.7500    135.3474      0.0000    688.3716      7.3623
   793.0000    133.4001      0.0000    688.5457      7.3563
   793.2500    129.6425      0.0000    688.7436      7.3615
   793.5000    125.2456      0.0000    688.9591      7.3764
   793.7500    121.2720      0.0000    689.1974      7.3884
   794.0000    118.5230      0.0000    689.4868      7.3800
   794.2500    117.3163      0.0000    689.8411      7.3383
   794.5000    117.3532      0.0000    690.2187      7.2618
   794.7500    118.1712      0.0000    690.5689      7.1659
   795.0000    119.8704      0.0000    690.9774      7.0818
   795.2500    122.9100      0.0000    691.8017      7.0384
   795.5000    126.8106      0.0000    693.5992      7.0369
   795.7500    129.4067      0.0000    696.6508      7.0476
   796.0000    127.8842      0.0000    700.4588      7.0354
   796.2500    120.7980      0.0000    703.8550      6.9898
   796.5000    109.2746      0.0000    705.8631      6.9306
   796.7500     96.4018      0.0000    706.7135      6.8813
   797.0000     85.4319      0.0000    708.4976      6.8340
   797.2500     78.4464      0.0000    714.6281      6.7485
   797.5000     76.1989      0.0000    727.3157      6.6078
   797.7500     78.2695      0.0000    744.8008      6.4656
   798.0000     82.9293      0.0000    761.6846      6.4098
   798.2500     87.6375     -2.0000    772.4568      6.4746
   798.5000     90.6704     -2.0000    774.9261      6.6090
   798.7500     92.3841      2.0000    771.1606      6.7341
   799.0000     94.5564      0.0000    765.7727      6.8217
   799.2500     98.5413      0.0000    762.6474      6.9110
   799.5000    104.1266      0.0000    762.4562      7.0512
   799.7500    109.9732      0.0000    763.0225      7.2272
   800.0000    114.9158      0.0000    761.6377      7.3618
   800.2500    118.6440      0.0000    756.4291      7.4102
   800.5000    121.2372      0.0000    746.2381      7.4250
   800.7500    122.7172      0.0000    730.9460      7.4944
   801.0000    123.5463      0.0000    712.6418      7.6400
   801.2500    125.0083      0.0000    695.3911      7.8012
   801.5000    128.2420      0.0000    682.9964      7.9007
