~Version Information
VERS.                      2.0: CWLS Log ASCII Standard - VERSION 2.0
WRAP.                       NO: One line per depth step
~Well Information Block
STRT.FT                -4.7500: 
STOP.FT              2809.5000: 
STEP.FT                 0.2500: 
NULL.                -999.2500: 
COMP.          Pioneer Natural Resources: COMPANY
WELL.              Lynch 43-30: WELL
FLD.           Purgatorie River: FIELD
LOC.           1438' FSL & 429' FEL--: LOCATION
PROV.                       CO: PROVINCE
CNTY.               Las Animas: COUNTRY
SRVC.                         : SERVICE COMPANY
DATE.          Sat Oct 30 09:52:34 2004: LOG DATE
UWI.          005 071 08170   : UNIQUE WELL ID
~Curve Information Block
DEPT.FT            0 000 00 00: Depth
GR.GAPI                       : Gamma Ray
CCL.                          : Casing Collar Locator
TT3.usec                      : CBL 3' Travel Time
AMP3.mV                       : CBL 3' Amplitude
~Parameter Information Block
~A  Depth        GR         CCL         TT3         AMP3    
# ...
   933.2500    147.4136      0.0000    767.3766     10.3904
   933.5000    153.4092      0.0000    766.7705     10.3973
   933.7500    157.8480      0.0000    768.1243     10.3687
   934.0000    158.2242      0.0000    770.9926     10.2968
   934.2500    154.5284      0.0000    774.4803     10.1948
   934.5000    148.6924      0.0000    777.7623     10.0970
   934.7500    142.5556      0.0000    781.2828     10.0351
   935.0000    136.5674      0.0000    786.7667     10.0148
   935.2500    130.2840      0.0000    794.7750     10.0227
   935.5000    123.4262      0.0000    802.2650     10.0555
   935.7500    116.0015      0.0000    804.2302     10.1273
   936.0000    107.8566      0.0000    798.7274     10.2475
   936.2500     98.8631      0.0000    789.2026     10.3974
   936.5000     89.6883      0.0000    781.0273     10.5321
   936.7500     81.8815      0.0000    776.7291     10.6017
   937.0000     76.9190      0.0000    775.3226     10.5763
   937.2500     75.3230      0.0000    775.1296     10.4618
   937.5000     76.6290      0.0000    775.8789     10.2967
   937.7500     79.8005      0.0000    778.2177     10.1305
   938.0000     83.6944      0.0000    782.3212      9.9964
   938.2500     87.7559      0.0000    787.4297      9.9014
   938.5000     92.5645      0.0000    792.1378      9.8365
   938.7500     99.2907      0.0000    794.8278      9.7907
   939.0000    108.2876      0.0000    794.4057      9.7529
   939.2500    118.3561      0.0000    791.1584      9.6988
   939.5000    127.2274      0.0000    786.6471      9.5832
   939.7500    132.5877      0.0000    782.3531      9.3606
   940.0000    133.3535      0.0000    778.5936      9.0307
   940.2500    130.8033      0.0000    774.9951      8.6560
   940.5000    128.1834      0.0000    771.5892      8.3197
   940.7500    128.3649      0.0000    768.9003      8.0667
   941.0000    131.7364      0.0000    767.2388      7.8944
   941.2500    136.6445      0.0000    766.4103      7.7893
   941.5000    141.6885      0.0000    766.0610      7.7502
   941.7500    147.0247      0.0000    765.9996      7.7800
   942.0000    153.3137      0.0000    766.1752      7.8732
   942.2500    159.8791      0.0000    766.5209      8.0131
   942.5000    164.4931      0.0000    766.8976      8.1719
   942.7500    165.2101      0.0000    767.1569      8.3132
   943.0000    162.1337      0.0000    767.2289      8.4044
   943.2500    157.1974      0.0000    767.1461      8.4341
   943.5000    152.3782      0.0000    766.9987      8.4195
   943.7500    148.3183      0.0000    766.8665      8.3921
   944.0000    144.6056      0.0000    766.7798      8.3715
   944.2500    141.0497      0.0000    766.7261      8.3548
   944.5000    138.3895      0.0000    766.6785      8.3311
   944.7500    137.7973      0.0000    766.6181      8.2970
   945.0000    139.7977      0.0000    766.5449      8.2516
   945.2500    143.7683      0.0000    766.4855      8.1907
   945.5000    148.4281      0.0000    766.4781      8.1127
   945.7500    152.5439      0.0000    766.5308      8.0275
   946.0000    155.2566      0.0000    766.6017      7.9521
   946.2500    156.3234      0.0000    766.6381      7.8999
   946.5000    156.3312      0.0000    766.6283      7.8709
   946.7500    156.3357      0.0000    766.6135      7.8534
   947.0000    156.9870      0.0000    766.7582      7.8357
   947.2500    157.9286      0.0000    767.6625      7.8124
   947.5000    157.8215      0.0000    770.9417      7.7668
   947.7500    155.0200      0.0000    779.5042      7.6583
   948.0000    148.8420      0.0000    796.4155      7.4467
   948.2500    140.5571      0.0000    822.1642      7.1357
   948.5000    132.7918      0.0000    852.6646      6.7822
   948.7500    127.3504      0.0000    880.9156      6.4661
   949.0000    123.5568      0.0000    901.4442      6.2626
   949.2500    119.2099      0.0000    913.1750      6.2205
   949.5000    113.2679      0.0000    918.4569      6.3384
   949.7500    107.4036     -2.0000    920.3235      6.5619
   950.0000    104.9007      0.0000    920.7834      6.8141
   950.2500    107.9468      2.0000    920.5602      7.0313
   950.5000    115.5299      0.0000    919.2344      7.1996
   950.7500    123.6833      0.0000    915.0859      7.3931
   951.0000    128.2369      0.0000    905.1204      7.7519
   951.2500    127.9241      0.0000    886.4799      8.3562
   951.5000    125.0389      0.0000    859.3181      9.1119
   951.7500    123.0740      0.0000    828.4987      9.8082
   952.0000    123.5185      0.0000    801.3179     10.2937
   952.2500    124.7458      0.0000    782.9296     10.5580
   952.5000    124.0893      0.0000    774.2715     10.6671
   952.7500    120.8733      0.0000    774.1215     10.6808
   953.0000    117.1199      0.0000    781.8776     10.6348
   953.2500    115.5070      0.0000    797.3262     10.5535
   953.5000    117.1990      0.0000    817.7002     10.4554
   953.7500    121.5419      0.0000    836.3376     10.3543
   954.0000    126.9131      0.0000    846.6050     10.2650
   954.2500    131.3810      0.0000    848.2789     10.2025
   954.5000    133.2615      0.0000    848.6971     10.1711
   954.7500    132.0311      0.0000    855.8096     10.1587
   955.0000    128.8330      0.0000    870.2293     10.1471
   955.2500    125.7310      0.0000    885.0798     10.1262
   955.5000    124.3622      0.0000    893.2119     10.1001
   955.7500    125.1580      0.0000    893.5363     10.0817
   956.0000    127.4453      0.0000    890.6758     10.0781
   956.2500    130.1978      0.0000    889.6483     10.0784
   956.5000    133.0027      0.0000    891.5104     10.0584
   956.7500    136.1473      0.0000    894.0722     10.0003
   957.0000    139.4831      0.0000    895.7960      9.9093
   957.2500    141.6741      0.0000    897.6958      9.8120
   957.5000    141.3110      0.0000    901.4698      9.7395
   957.7500    138.5402      0.0000    907.0707      9.7053
   958.0000    134.8665      0.0000    912.6886      9.6976
   958.2500    131.4490      0.0000    916.3663      9.6925
   958.5000    128.0760      0.0000    916.9401      9.6753
   958.7500    123.5089      0.0000    913.8584      9.6504
   959.0000    116.4112      0.0000    907.3101      9.6321
   959.2500    106.3504      0.0000    899.2362      9.6224
   959.5000     94.4352      0.0000    893.4810      9.6024
   959.7500     82.9107      0.0000    893.4572      9.5473
   960.0000     73.8639      0.0000    899.1933      9.4459
   960.2500     68.1874      0.0000    907.3497      9.2998
   960.5000     65.5936      0.0000    914.2474      9.1114
   960.7500     65.2290      0.0000    918.3531      8.8819
   961.0000     66.0994      0.0000    920.1519      8.6199
   961.2500     67.1836      0.0000    920.7119      8.3458
   961.5000     67.6065      0.0000    920.7506      8.0845
   961.7500     66.8999      0.0000    920.4069      7.8528
   962.0000     65.2203      0.0000    919.0884      7.6525
   962.2500     63.4510      0.0000    915.0804      7.4778
   962.5000     62.9111      0.0000    905.5087      7.3285
   962.7500     64.4147      0.0000    887.8927      7.2117
   963.0000     67.3335      0.0000    863.2839      7.1331
   963.2500     69.8260      0.0000    838.1525      7.0957
   963.5000     70.3350      0.0000    821.5471      7.1063
   963.7500     68.8855      0.0000    818.6570      7.1732
   964.0000     66.9379      0.0000    826.5427      7.2935
   964.2500     66.1757      0.0000    836.1071      7.4465
   964.5000     67.4159      0.0000    838.3700      7.5987
   964.7500     70.1229      0.0000    829.8487      7.7123
   965.0000     72.5551      0.0000    813.5990      7.7535
   965.2500     72.8288      0.0000    796.0400      7.7055
   965.5000     70.4945      0.0000    782.3992      7.5821
   965.7500     67.0035      0.0000    774.3275      7.4253
   966.0000     64.3200      0.0000    770.8832      7.2847
   966.2500     63.3263      0.0000    770.8964      7.1914
   966.5000     63.7517      0.0000    774.4269      7.1462
