~Version Information
VERS.                      2.0: CWLS Log ASCII Standard - VERSION 2.0
WRAP.                       NO: One line per depth step
~Well Information Block
STRT.FT               745.2500: 
STOP.FT              2003.5000: 
STEP.FT                 0.2500: 
NULL.                -999.2500: 
COMP.          Petrogulf Corporation: COMPANY
WELL.            Montoya 6-14V: WELL
FLD.           Purgatorie River: FIELD
LOC.           318' FSL & 882' FWL: LOCATION
CNTY.               Las Animas: COUNTY
SRVC.                         : SERVICE COMPANY
DATE.          Fri Aug 13 04:55:06 2004: LOG DATE
UWI.           05 071 08020 00: UNIQUE WELL ID
STAT.                 Colorado: STATE
~Curve Information Block
DEPT.FT            0 000 00 00: Depth
SP.mV                         : DIL Spontaneous Potential
RILD.Ohm-m                    : DIL Deep Resistivity
RILM.Ohm-m                    : DIL Medium Resistivity
RLL3.Ohm-m                    : DIL Shallow Resistivity
GR.GAPI                       : Gamma Ray
~Parameter Information Block
~A  Depth        SP         RILD        RILM        RLL3         GR     
# ...
  1249.2500     -0.0903     75.6358     70.4916     78.2075     76.7549
  1249.5000     -0.0672     76.0292     69.6899     79.3403     75.1028
  1249.7500     -0.0317     75.6798     68.8155     81.9981     73.4695
  1250.0000      0.0212     74.7041     67.8202     85.9475     71.1297
  1250.2500      0.0949     73.2659     66.6572     90.6316     69.8125
  1250.5000      0.1903     71.5542     65.2940     95.1807     67.9733
  1250.7500      0.3057     69.7636     63.7251     98.5593     66.7049
  1251.0000      0.4366     68.0602     61.9752     99.8521     64.9560
  1251.2500      0.5763     66.5445     60.0968     98.5676     64.3010
  1251.5000      0.7167     65.2499     58.1597     94.7955     64.9120
  1251.7500      0.8496     64.1634     56.2375     89.1501     66.7516
  1252.0000      0.9688     63.2705     54.3970     82.5535     72.0655
  1252.2500      1.0705     62.5751     52.6911     75.9636     77.3504
  1252.5000      1.1546     62.0934     51.1569     70.1307     87.0898
  1252.7500      1.2238     61.8268     49.8169     65.4534     93.6312
  1253.0000      1.2835     61.7408     48.6853     61.9821    101.0679
  1253.2500      1.3407     61.7579     47.7706     59.5521    103.5418
  1253.5000      1.4029     61.7674     47.0803     57.9544    103.7208
  1253.7500      1.4780     61.6443     46.6208     57.0561    102.3287
  1254.0000      1.5732     61.2731     46.3964     56.8611     99.5582
  1254.2500      1.6945     60.5845     46.4060     57.5440     97.8538
  1254.5000      1.8460     59.5903     46.6400     59.4340     95.7296
  1254.7500      2.0289     58.3979     47.0776     62.8534     94.3387
  1255.0000      2.2412     57.1849     47.6864     67.8047     91.6779
  1255.2500      2.4776     56.1483     48.4234     73.7052     89.3116
  1255.5000      2.7296     55.4587     49.2382     79.4596     84.8095
  1255.7500      2.9868     55.2374     50.0754     83.9401     81.2227
  1256.0000      3.2376     55.5478     50.8782     86.5757     75.1261
  1256.2500      3.4708     56.3778     51.5881     87.6101     70.7892
  1256.5000      3.6770     57.6023     52.1450     87.8482     64.6338
  1256.7500      3.8498     58.9415     52.4860     88.1329     61.4256
  1257.0000      3.9868     59.9758     52.5471     88.9467     58.9188
  1257.2500      4.0896     60.2703     52.2683     90.3244     58.8968
  1257.5000      4.1639     59.5792     51.6047     91.9602     60.6305
  1257.7500      4.2181     57.9693     50.5387     93.2965     62.3313
  1258.0000      4.2620     55.7486     49.0896     93.5577     65.1924
  1258.2500      4.3059     53.2689     47.3133     91.8747     67.6560
  1258.5000      4.3588     50.7715     45.2924     87.6085     73.4972
  1258.7500      4.4286     48.3482     43.1179     80.7432     79.3874
  1259.0000      4.5214     45.9866     40.8723     72.0562     90.8692
  1259.2500      4.6421     43.6395     38.6191     62.8902     99.2248
  1259.5000      4.7933     41.2801     36.4007     54.6518    110.1525
  1259.7500      4.9756     38.9208     34.2434     48.3226    114.9431
  1260.0000      5.1862     36.6010     32.1646     44.1888    117.2676
  1260.2500      5.4180     34.3603     30.1788     41.8261    115.8975
  1260.5000      5.6598     32.2192     28.2998     40.3180    111.2229
  1260.7500      5.8973     30.1779     26.5404     38.6650    107.6541
  1261.0000      6.1152     28.2284     24.9097     36.2480    103.6730
  1261.2500      6.3003     26.3692     23.4117     33.0869    102.7470
  1261.5000      6.4444     24.6116     22.0449     29.7095    104.3850
  1261.7500      6.5464     22.9780     20.8043     26.7343    107.2477
  1262.0000      6.6123     21.4940     19.6833     24.4850    113.3246
  1262.2500      6.6538     20.1810     18.6759     22.8909    117.9232
  1262.5000      6.6852     19.0509     17.7774     21.6608    124.2873
  1262.7500      6.7205     18.1039     16.9843     20.5328    127.3718
  1263.0000      6.7709     17.3284     16.2928     19.4136    129.7697
  1263.2500      6.8436     16.7016     15.6983     18.3666    130.5086
  1263.5000      6.9415     16.1933     15.1936     17.5135    132.3181
  1263.7500      7.0637     15.7697     14.7691     16.9416    134.6472
  1264.0000      7.2063     15.4005     14.4135     16.6616    138.7426
  1264.2500      7.3623     15.0647     14.1144     16.6118    140.3558
  1264.5000      7.5217     14.7531     13.8596     16.6863    139.2165
  1264.7500      7.6721     14.4663     13.6384     16.7707    136.3679
  1265.0000      7.7991     14.2100     13.4424     16.7776    131.6267
  1265.2500      7.8881     13.9892     13.2649     16.6713    129.8781
  1265.5000      7.9272     13.8043     13.1009     16.4696    130.3532
  1265.7500      7.9098     13.6490     12.9464     16.2197    131.9133
  1266.0000      7.8377     13.5115     12.7973     15.9671    134.0748
  1266.2500      7.7211     13.3773     12.6500     15.7373    134.8741
  1266.5000      7.5778     13.2339     12.5011     15.5388    135.4254
  1266.7500      7.4293     13.0751     12.3484     15.3728    135.5833
  1267.0000      7.2958     12.9030     12.1921     15.2347    135.3727
  1267.2500      7.1917     12.7261     12.0351     15.1050    134.7617
  1267.5000      7.1224     12.5547     11.8830     14.9443    133.0103
  1267.7500      7.0840     12.3965     11.7438     14.7073    131.3796
  1268.0000      7.0654     12.2543     11.6259     14.3749    128.9142
  1268.2500      7.0520     12.1275     11.5375     13.9825    127.8308
  1268.5000      7.0302     12.0137     11.4846     13.6211    127.5062
  1268.7500      6.9896     11.9115     11.4706     13.4038    127.9279
  1269.0000      6.9248     11.8207     11.4952     13.4194    128.9243
  1269.2500      6.8345     11.7423     11.5547     13.7038    129.6773
  1269.5000      6.7204     11.6775     11.6423     14.2394    130.6640
  1269.7500      6.5857     11.6280     11.7484     14.9698    130.7862
  1270.0000      6.4353     11.5952     11.8623     15.8082    129.2932
  1270.2500      6.2748     11.5798     11.9733     16.6391    127.1793
  1270.5000      6.1121     11.5800     12.0723     17.3289    123.7720
  1270.7500      5.9564     11.5911     12.1530     17.7574    122.6099
  1271.0000      5.8176     11.6063     12.2131     17.8609    123.6722
  1271.2500      5.7050     11.6189     12.2541     17.6601    125.7313
  1271.5000      5.6258     11.6250     12.2807     17.2536    128.7628
  1271.7500      5.5833     11.6248     12.3003     16.7742    129.9004
  1272.0000      5.5764     11.6225     12.3214     16.3304    130.5342
  1272.2500      5.6000     11.6243     12.3531     15.9632    130.9971
  1272.5000      5.6461     11.6357     12.4037     15.6461    132.5643
  1272.7500      5.7048     11.6595     12.4804     15.3382    133.9694
  1273.0000      5.7655     11.6954     12.5880     15.0581    135.5984
  1273.2500      5.8187     11.7419     12.7284     14.9192    135.9149
  1273.5000      5.8555     11.7984     12.9011     15.0856    134.9650
  1273.7500      5.8690     11.8674     13.1025     15.6645    133.3748
  1274.0000      5.8541     11.9536     13.3276     16.6138    129.8137
  1274.2500      5.8080     12.0619     13.5703     17.7366    127.1058
  1274.5000      5.7310     12.1942     13.8248     18.7764    123.6273
  1274.7500      5.6263     12.3483     14.0864     19.5487    122.1210
  1275.0000      5.5003     12.5186     14.3512     20.0216    120.9079
  1275.2500      5.3611     12.7001     14.6156     20.2966    120.3379
  1275.5000      5.2175     12.8914     14.8759     20.5160    119.3562
  1275.7500      5.0769     13.0977     15.1288     20.7702    118.7435
  1276.0000      4.9445     13.3301     15.3721     21.0630    118.1763
  1276.2500      4.8225     13.6037     15.6077     21.3344    117.8566
  1276.5000      4.7111     13.9343     15.8439     21.4983    117.0476
  1276.7500      4.6098     14.3349     16.0976     21.4673    116.5638
  1277.0000      4.5181     14.8134     16.3949     21.1813    117.2452
