~Version Information
VERS.                      2.0: CWLS Log ASCII Standard - VERSION 2.0
WRAP.                       NO: One line per depth step
~Well Information Block
STRT.FT               480.0000: 
STOP.FT              1625.5000: 
STEP.FT                 0.1000: 
NULL.                -999.2500: 
COMP.          Pioneer Natural Resources: COMPANY
WELL.          Dude Canyon 22-32 Tr: WELL
FLD.           Purgatoire River: FIELD
LOC.           1741' FNL & 2331' FWL: LOCATION
PROV.                 Colorado: PROVINCE
CNTY.               Las Animas: COUNTRY
SRVC.                Patterson: SERVICE COMPANY
DATE.          Mon Jul 11 10:33:06 2005: LOG DATE
UWI.           05 071 08421 00: UNIQUE WELL ID
~Curve Information Block
DEPT.FT            0 000 00 00: Depth
DCAL.in                       : CDL Caliper
RHOB.g/cc                     : CDL Bulk Density
RHOC.g/cc                     : CDL Density Correction
DPOR.pu                       : CDL Density Porosity
GR.GAPI                       : Gamma Ray
NPOR.pu                       : Neutron Porosity
~Parameter Information Block
~A  Depth       DCAL        RHOB        RHOC        DPOR         GR         NPOR    
# ...
   854.4000      8.0176      2.6391      0.0213      0.6605     57.5690     15.0002
   854.5000      8.0165      2.6646      0.1024     -0.8841     57.0245     15.3834
   854.6000      8.0165      2.6784      0.0621     -1.7214     57.5631     15.3841
   854.7000      8.0165      2.6852      0.0698     -2.1336     59.5369     15.4592
   854.8000      8.0166      2.6927      0.0936     -2.5869     61.5779     15.5501
   854.9000      8.0166      2.6976      0.0305     -2.8819     64.4266     15.7817
   855.0000      7.9980      2.6887      0.0742     -2.3474     68.6795     16.1541
   855.1000      7.9980      2.6625      0.0368     -0.7590     71.1880     16.7186
   855.2000      7.9980      2.6287      0.0138      1.2885     69.1857     17.7478
   855.3000      8.0186      2.5933     -0.0134      3.4394     65.5918     18.4273
   855.4000      8.0186      2.5643      0.0138      5.1909     67.5581     18.3612
   855.5000      8.0351      2.5490      0.0218      6.1231     77.6813     18.8053
   855.6000      8.0351      2.5349      0.0461      6.9752     92.2918     20.1244
   855.7000      8.0351      2.5131      0.0306      8.2969    105.6068     21.2672
   855.8000      8.0623      2.4993     -0.0237      9.1330    113.4328     21.9705
   855.9000      8.0623      2.5041      0.0344      8.8426    113.7849     23.0384
   856.0000      8.1568      2.5078      0.0692      8.6196    109.1260     24.5011
   856.1000      8.1568      2.5003     -0.0026      9.0698    105.5563     25.2973
   856.2000      8.1568      2.4938      0.0345      9.4670    104.2447     24.6837
   856.3000      8.1496      2.4854      0.0440      9.9754    105.3197     23.4295
   856.4000      8.1496      2.4694     -0.0143     10.9479    109.9615     22.5601
   856.5000      8.1555      2.4617     -0.0062     11.4125    114.1727     21.6985
   856.6000      8.1555      2.4760      0.0226     10.5469    115.4450     20.7166
   856.7000      8.1555      2.5002      0.0573      9.0759    114.8259     20.4439
   856.8000      8.1409      2.5168      0.0565      8.0755    109.6526     20.7210
   856.9000      8.1409      2.5237      0.0283      7.6569    100.7293     20.8117
   857.0000      8.0947      2.5248      0.0888      7.5871     95.3313     20.8452
   857.1000      8.0947      2.5213      0.0454      7.7989     94.4609     21.0469
   857.2000      8.0947      2.5199      0.0379      7.8862     95.3095     21.5296
   857.3000      8.0480      2.5187      0.0813      7.9546     99.1987     22.5574
   857.4000      8.0480      2.5135      0.0344      8.2713    103.9554     23.9017
   857.5000      8.0494      2.5162      0.0509      8.1062    103.6669     24.8642
   857.6000      8.0494      2.5272      0.1110      7.4417    101.4565     25.1850
   857.7000      8.0494      2.5351      0.0501      6.9652    104.6503     24.9343
   857.8000      8.0343      2.5400      0.0719      6.6676    108.3591     24.7045
   857.9000      8.0343      2.5422      0.0687      6.5311    106.6514     25.2942
   858.0000      8.0313      2.5410      0.0748      6.6047    104.3837     26.6211
   858.1000      8.0313      2.5358      0.0800      6.9220    106.6158     27.5573
   858.2000      8.0313      2.5268      0.0514      7.4651    111.9932     27.4116
   858.3000      8.0539      2.5193      0.0472      7.9223    117.4471     27.0641
   858.4000      8.0539      2.5115      0.0871      8.3926    123.9099     27.0746
   858.5000      8.0923      2.4982      0.0641      9.2014    128.5882     26.9157
   858.6000      8.0923      2.4851      0.0170      9.9925    124.7067     26.4750
   858.7000      8.0923      2.4789      0.0623     10.3686    116.5887     26.4522
   858.8000      8.1073      2.4799      0.0646     10.3087    115.4158     26.8877
   858.9000      8.1073      2.4904      0.0512      9.6715    119.9240     27.0996
   859.0000      8.1145      2.4993      0.1166      9.1353    121.0471     27.3987
   859.1000      8.1145      2.4938      0.0454      9.4691    120.2709     28.3066
   859.2000      8.1145      2.4845      0.0519     10.0284    123.1732     29.0000
   859.3000      8.1166      2.4742      0.0857     10.6534    127.0744     28.9156
   859.4000      8.1166      2.4599      0.0349     11.5194    126.8582     28.1884
   859.5000      8.1362      2.4583     -0.0088     11.6166    123.4677     27.2048
   859.6000      8.1362      2.4782      0.0390     10.4115    123.1923     26.7669
   859.7000      8.1362      2.5011      0.0829      9.0230    127.9341     26.5443
   859.8000      8.1366      2.5113      0.0893      8.4063    132.0204     25.9088
   859.9000      8.1366      2.5081      0.0690      8.5982    130.7782     25.5840
   860.0000      8.1392      2.4905      0.0599      9.6647    125.3661     26.1339
   860.1000      8.1392      2.4626      0.0439     11.3602    121.0467     26.9573
   860.2000      8.1392      2.4383      0.0340     12.8328    121.6140     27.3661
   860.3000      8.1358      2.4286     -0.0130     13.4186    124.1939     27.3939
   860.4000      8.1358      2.4315      0.0713     13.2400    124.8434     27.5599
   860.5000      8.1513      2.4390      0.0485     12.7905    126.4873     27.9279
   860.6000      8.1513      2.4495      0.0372     12.1510    132.9269     28.1041
   860.7000      8.1513      2.4572      0.0833     11.6859    142.7068     28.1758
   860.8000      8.1533      2.4543      0.0801     11.8599    150.3305     28.3459
   860.9000      8.1533      2.4505      0.0174     12.0881    149.6345     28.1555
   861.0000      8.1566      2.4516      0.0550     12.0237    142.9530     27.6064
   861.1000      8.1566      2.4480      0.0854     12.2444    138.4972     27.5687
   861.2000      8.1566      2.4442      0.0466     12.4751    138.5401     28.3467
   861.3000      8.1374      2.4529      0.0688     11.9433    140.9421     29.4724
   861.4000      8.1374      2.4676      0.0999     11.0546    142.8815     30.0295
   861.5000      8.1063      2.4725      0.0828     10.7565    142.2096     29.6119
   861.6000      8.1063      2.4616      0.1156     11.4162    140.0471     28.9684
   861.7000      8.1063      2.4440      0.0547     12.4860    139.6756     28.7770
   861.8000      8.0765      2.4327      0.0930     13.1677    142.2054     29.2024
   861.9000      8.0765      2.4291      0.0788     13.3851    141.4450     29.6755
   862.0000      8.0605      2.4276      0.1101     13.4780    132.8664     29.6872
   862.1000      8.0605      2.4201      0.1133     13.9317    122.7416     29.5787
   862.2000      8.0605      2.4031      0.0854     14.9653    117.2335     29.4374
   862.3000      8.1446      2.3823      0.1157     16.2244    115.7600     29.3039
   862.4000      8.1446      2.3671      0.0493     17.1477    118.7711     29.6307
   862.5000      8.1774      2.3670      0.0571     17.1512    127.2918     30.2877
   862.6000      8.1774      2.3811      0.1192     16.2950    136.7767     30.7733
   862.7000      8.1774      2.3965      0.1465     15.3635    143.2791     30.7805
   862.8000      8.1803      2.4063      0.0945     14.7696    144.2429     30.2954
   862.9000      8.1803      2.4026      0.1154     14.9967    139.6385     30.2541
   863.0000      8.2133      2.3604      0.1331     17.5538    135.9894     31.2019
   863.1000      8.2133      2.2637      0.0689     23.4138    137.5307     32.1185
   863.2000      8.2133      2.1283     -0.0003     31.6209    141.6095     32.2251
   863.3000      8.2240      1.9781     -0.0599     40.7201    143.8258     31.9432
   863.4000      8.2240      1.8252     -0.0708     49.9881    141.9551     31.6258
   863.5000      8.2559      1.6855     -0.1766     58.4532    138.3494     31.4967
   863.6000      8.2559      1.5799     -0.1785     64.8531    134.3727     31.3950
   863.7000      8.2559      1.5098     -0.1523     69.1014    128.8899     31.2800
   863.8000      8.2844      1.4724     -0.1064     71.3692    119.1485     31.8565
   863.9000      8.2844      1.4873     -0.1520     70.4636    103.6604     32.7678
