~Version Information
VERS.                      2.0: CWLS Log ASCII Standard - VERSION 2.0
WRAP.                       NO: One line per depth step
~Well Information Block
STRT.FT               -10.3000: 
STOP.FT              1936.7000: 
STEP.FT                 0.1000: 
NULL.                -999.2500: 
COMP.          Petrogulf Corporation: COMPANY
WELL.              Graff 9-31R: WELL
FLD.           Purgatorie River: FIELD
LOC.           707' FNL & 1713' FEL------: LOCATION
CNTY.               Las Animas: COUNTY
SRVC.                         : SERVICE COMPANY
DATE.          Wed Nov 17 13:41:51 2004: LOG DATE
UWI.                          : UNIQUE WELL ID
STAT.                       CO: STATE
~Curve Information Block
DEPT.FT            0 000 00 00: Depth
GR.GAPI                       : Gamma Ray
CCL.                          : Casing Collar Locator
TT3.usec                      : CBL 3' Travel Time
AMP3.mV                       : CBL 3' Amplitude
~Parameter Information Block
~A  Depth        GR         CCL         TT3         AMP3    
# ...
   766.9000     91.7952      0.0000    808.6617     13.6544
   767.0000     99.4045      0.0000    808.8441     13.3155
   767.1000     99.4045      0.0000    808.8441     13.3155
   767.2000     99.4045      0.0000    808.8441     13.3155
   767.3000    106.4503      0.0000    809.2310     13.0697
   767.4000    106.4503      0.0000    809.2310     13.0697
   767.5000    110.2227      0.0000    810.1508     12.9487
   767.6000    110.2227      0.0000    810.1508     12.9487
   767.7000    110.2227      0.0000    810.1508     12.9487
   767.8000    110.4126      0.0000    812.3340     12.9291
   767.9000    110.4126      0.0000    812.3340     12.9291
   768.0000    108.7233      0.0000    816.6349     12.9477
   768.1000    108.7233      0.0000    816.6349     12.9477
   768.2000    108.7233      0.0000    816.6349     12.9477
   768.3000    106.6687      0.0000    822.9490     12.9475
   768.4000    106.6687      0.0000    822.9490     12.9475
   768.5000    104.1269      0.0000    829.1403     12.9116
   768.6000    104.1269      0.0000    829.1403     12.9116
   768.7000    104.1269      0.0000    829.1403     12.9116
   768.8000    100.0162      0.0000    831.8805     12.8561
   768.9000    100.0162      0.0000    831.8805     12.8561
   769.0000     93.9238      0.0000    829.5741     12.7968
   769.1000     93.9238      0.0000    829.5741     12.7968
   769.2000     93.9238      0.0000    829.5741     12.7968
   769.3000     86.8288      0.0000    824.2237     12.7299
   769.4000     86.8288      0.0000    824.2237     12.7299
   769.5000     80.4704      0.0000    819.9189     12.6421
   769.6000     80.4704      0.0000    819.9189     12.6421
   769.7000     80.4704      0.0000    819.9189     12.6421
   769.8000     76.0304      0.0000    819.7088     12.5256
   769.9000     76.0304      0.0000    819.7088     12.5256
   770.0000     73.1592      0.0000    823.6243     12.3716
   770.1000     73.1592      0.0000    823.6243     12.3716
   770.2000     73.1592      0.0000    823.6243     12.3716
   770.3000     70.3638      0.0000    828.6252     12.1528
   770.4000     70.3638      0.0000    828.6252     12.1528
   770.5000     66.6219      0.0000    830.5792     11.8302
   770.6000     66.6219      0.0000    830.5792     11.8302
   770.7000     66.6219      0.0000    830.5792     11.8302
   770.8000     62.4414      0.0000    827.6052     11.3914
   770.9000     62.4414      0.0000    827.6052     11.3914
   771.0000     59.1147      0.0000    821.9211     10.8842
   771.1000     59.1147      0.0000    821.9211     10.8842
   771.2000     59.1147      0.0000    821.9211     10.8842
   771.3000     57.3844      0.0000    818.3174     10.4007
   771.4000     57.3844      0.0000    818.3174     10.4007
   771.5000     57.1040      0.0000    821.2180     10.0195
   771.6000     57.1040      0.0000    821.2180     10.0195
   771.7000     57.1040      0.0000    821.2180     10.0195
   771.8000     57.7350      0.0000    832.6819      9.7560
   771.9000     57.7350      0.0000    832.6819      9.7560
   772.0000     58.7875      0.0000    851.1187      9.5638
   772.1000     58.7875      0.0000    851.1187      9.5638
   772.2000     58.7875      0.0000    851.1187      9.5638
   772.3000     60.0965      0.0000    870.7672      9.3866
   772.4000     60.0965      0.0000    870.7672      9.3866
   772.5000     61.9341      0.0000    883.6314      9.2091
   772.6000     61.9341      0.0000    883.6314      9.2091
   772.7000     61.9341      0.0000    883.6314      9.2091
   772.8000     64.6607      0.0000    883.8320      9.0604
   772.9000     64.6607      0.0000    883.8320      9.0604
   773.0000     68.1469      0.0000    871.2361      8.9732
   773.1000     68.1469      0.0000    871.2361      8.9732
   773.2000     68.1469      0.0000    871.2361      8.9732
   773.3000     71.6351      0.0000    851.2813      8.9405
   773.4000     71.6351      0.0000    851.2813      8.9405
   773.5000     74.2208      0.0000    831.1250      8.9086
   773.6000     74.2208      0.0000    831.1250      8.9086
   773.7000     74.2208      0.0000    831.1250      8.9086
   773.8000     75.5414      0.0000    815.5090      8.8062
   773.9000     75.5414      0.0000    815.5090      8.8062
   774.0000     76.1861      0.0000    805.8078      8.5910
   774.1000     76.1861      0.0000    805.8078      8.5910
   774.2000     76.1861      0.0000    805.8078      8.5910
   774.3000     77.5016      0.0000    801.9645      8.2579
   774.4000     77.5016      0.0000    801.9645      8.2579
   774.5000     80.9154      0.0000    803.9552      7.7998
   774.6000     80.9154      0.0000    803.9552      7.7998
   774.7000     80.9154      0.0000    803.9552      7.7998
   774.8000     87.2226      0.0000    811.1890      7.1947
   774.9000     87.2226      0.0000    811.1890      7.1947
   775.0000     96.1462      0.0000    821.3477      6.4722
   775.1000     96.1462      0.0000    821.3477      6.4722
   775.2000     96.1462      0.0000    821.3477      6.4722
   775.3000    106.3322      0.0000    830.5182      5.7655
   775.4000    106.3322      0.0000    830.5182      5.7655
   775.5000    115.8836      0.0000    834.9412      5.2408
   775.6000    115.8836      0.0000    834.9412      5.2408
   775.7000    115.8836      0.0000    834.9412      5.2408
   775.8000    123.2953      0.0000    833.6673      4.9780
   775.9000    123.2953      0.0000    833.6673      4.9780
   776.0000    128.0237      0.0000    830.0302      4.9411
   776.1000    128.0237      0.0000    830.0302      4.9411
   776.2000    128.0237      0.0000    830.0302      4.9411
   776.3000    130.2679      0.0000    829.3568      5.0355
   776.4000    130.2679      0.0000    829.3568      5.0355
   776.5000    130.5420      0.0000    834.3116      5.1679
   776.6000    130.5420      0.0000    834.3116      5.1679
   776.7000    130.5420     -1.9220    834.3116      5.1679
   776.8000    129.5788      0.0000    843.3126      5.2850
   776.9000    129.5788      2.0000    843.3126      5.2850
   777.0000    128.1249      0.0000    853.5005      5.3983
   777.1000    128.1249     -2.0000    853.5005      5.3983
   777.2000    128.1249      1.6565    853.5005      5.3983
   777.3000    126.4568      0.0000    862.9686      5.5825
   777.4000    126.4568      0.0000    862.9686      5.5825
   777.5000    124.4199      0.0000    869.5731      5.9235
   777.6000    124.4199      0.0000    869.5731      5.9235
   777.7000    124.4199      0.0000    869.5731      5.9235
   777.8000    122.1770      0.0000    870.4503      6.4308
   777.9000    122.1770      0.0000    870.4503      6.4308
   778.0000    120.5950      0.0000    864.2634      6.9977
   778.1000    120.5950      0.0000    864.2634      6.9977
   778.2000    120.5950      0.0000    864.2634      6.9977
   778.3000    120.6217      0.0000    852.4047      7.4853
   778.4000    120.6217      0.0000    852.4047      7.4853
   778.5000    122.5304      0.0000    837.3919      7.8512
   778.6000    122.5304      0.0000    837.3919      7.8512
   778.7000    122.5304      0.0000    837.3919      7.8512
   778.8000    125.9059      0.0000    821.5682      8.1570
   778.9000    125.9059      0.0000    821.5682      8.1570
   779.0000    130.1210      0.0000    807.2125      8.4638
   779.1000    130.1210      0.0000    807.2125      8.4638
   779.2000    130.1210      0.0000    807.2125      8.4638
   779.3000    134.8455      0.0000    796.0413      8.7774
   779.4000    134.8455      0.0000    796.0413      8.7774
   779.5000    140.3573      0.0000    788.1292      9.0858
   779.6000    140.3573      0.0000    788.1292      9.0858
   779.7000    140.3573      0.0000    788.1292      9.0858
   779.8000    147.0508      0.0000    782.3048      9.3897
   779.9000    147.0508      0.0000    782.3048      9.3897
   780.0000    153.9611      0.0000    777.8782      9.6894
   780.1000    153.9611      0.0000    777.8782      9.6894
   780.2000    153.9611      0.0000    777.8782      9.6894
