~Version Information
VERS.                      2.0: CWLS Log ASCII Standard - VERSION 2.0
WRAP.                       NO: One line per depth step
~Well Information Block
STRT.FT               675.0000: 
STOP.FT              2373.5000: 
STEP.FT                 0.2500: 
NULL.                -999.2500: 
COMP.          Pioneer Natural Resources: COMPANY
WELL.            Harrier 44-33: WELL
FLD.           Purgatoire River: FIELD
LOC.           456' FSL & 930' FEL: LOCATION
PROV.                 Colorado: PROVINCE
CNTY.               Las Animas: COUNTRY
SRVC.                Patterson: SERVICE COMPANY
DATE.          Mon Jun 20 07:40:56 2005: LOG DATE
UWI.           05 071 08398 00: UNIQUE WELL ID
~Curve Information Block
DEPT.FT            0 000 00 00: Depth
SN.Ohm-m                      : IEL Short Normal
SP.mV                         : IEL Spontaneous Potential
DIR.Ohm-m                     : IEL Induction Resistivity
GR.GAPI                       : Gamma Ray
~Parameter Information Block
~A  Depth        SN          SP         DIR          GR     
# ...
  1345.0000   2000.0000   2000.0000     31.1115     91.7598
  1345.2500   2000.0000   2000.0000     30.7968     85.0756
  1345.5000   2000.0000   2000.0000     30.5353     72.9503
  1345.7500   2000.0000   2000.0000     30.3567     65.0376
  1346.0000   2000.0000   2000.0000     30.2803     55.8507
  1346.2500   2000.0000   2000.0000     30.2992     52.0879
  1346.5000   2000.0000   2000.0000     30.3669     49.5369
  1346.7500   2000.0000   2000.0000     30.4037     49.2732
  1347.0000   2000.0000   2000.0000     30.3273     50.0671
  1347.2500   2000.0000   2000.0000     30.0968     50.9484
  1347.5000   2000.0000   2000.0000     29.7411     52.0276
  1347.7500   2000.0000   2000.0000     29.3535     52.0967
  1348.0000   2000.0000   2000.0000     29.0506     50.6576
  1348.2500   2000.0000   2000.0000     28.9201     48.7270
  1348.5000   2000.0000   2000.0000     28.9850     45.3038
  1348.7500   2000.0000   2000.0000     29.1948     43.4750
  1349.0000   2000.0000   2000.0000     29.4402     42.3577
  1349.2500   2000.0000   2000.0000     29.5900     42.6521
  1349.5000   2000.0000   2000.0000     29.5445     43.8248
  1349.7500   2000.0000   2000.0000     29.2830     44.6136
  1350.0000   2000.0000   2000.0000     28.8656     45.4988
  1350.2500   2000.0000   2000.0000     28.3854     45.9733
  1350.5000   2000.0000   2000.0000     27.9123     46.7108
  1350.7500   2000.0000   2000.0000     27.4771     47.1874
  1351.0000   2000.0000   2000.0000     27.0946     47.6362
  1351.2500   2000.0000   2000.0000     26.7914     47.7294
  1351.5000   2000.0000   2000.0000     26.6067     48.0332
  1351.7500   2000.0000   2000.0000     26.5678     48.9432
  1352.0000   2000.0000   2000.0000     26.6711     52.6433
  1352.2500   2000.0000   2000.0000     26.8811     57.2139
  1352.5000   2000.0000   2000.0000     27.1421     66.9604
  1352.7500   2000.0000   2000.0000     27.3900     74.2631
  1353.0000   2000.0000   2000.0000     27.5635     83.3568
  1353.2500   2000.0000   2000.0000     27.6153     86.4489
  1353.5000   2000.0000   2000.0000     27.5195     84.9514
  1353.7500   2000.0000   2000.0000     27.2623     79.8779
  1354.0000   2000.0000   2000.0000     26.8279     67.8927
  1354.2500   2000.0000   2000.0000     26.1973     58.8219
  1354.5000   2000.0000   2000.0000     25.3668     47.2063
  1354.7500   2000.0000   2000.0000     24.3616     42.4807
  1355.0000   2000.0000   2000.0000     23.2274     41.4020
  1355.2500   2000.0000   2000.0000     22.0074     44.8073
  1355.5000   2000.0000   2000.0000     20.7322     55.4005
  1355.7500   2000.0000   2000.0000     19.4280     65.2452
  1356.0000   2000.0000   2000.0000     18.1275     82.0127
  1356.2500   2000.0000   2000.0000     16.8682     93.1210
  1356.5000     24.8482    205.9657     15.6827    107.7686
  1356.7500     21.4633    206.1277     14.5908    115.6097
  1357.0000     19.0259    206.3015     13.5989    124.3756
  1357.2500     17.1543    206.4785     12.7050    128.4918
  1357.5000     15.5966    206.6380     11.9020    132.7934
  1357.7500     14.2568    206.7683     11.1819    134.8386
  1358.0000     13.0675    206.8790     10.5387    137.0619
  1358.2500     11.9706    206.9990      9.9707    137.9232
  1358.5000     11.0268    207.1621      9.4801    138.1707
  1358.7500     10.3927    207.3872      9.0693    137.9359
  1359.0000     10.1063    207.6661      8.7380    137.9055
  1359.2500     10.0085    207.9673      8.4805    138.3454
  1359.5000      9.9299    208.2514      8.2859    139.1295
  1359.7500      9.8227    208.4896      8.1388    139.0853
  1360.0000      9.7213    208.6742      8.0220    137.3510
  1360.2500      9.6731    208.8191      7.9200    135.1285
  1360.5000      9.6777    208.9507      7.8219    131.2042
  1360.7500      9.6892    209.0936      7.7232    128.9376
  1361.0000      9.6432    209.2577      7.6244    126.8142
  1361.2500      9.4561    209.4337      7.5289    126.3381
  1361.5000      9.0744    209.6004      7.4402    126.9706
  1361.7500      8.5352    209.7362      7.3610    128.1936
  1362.0000      7.9847    209.8302      7.2924    130.7802
  1362.2500      7.6504    209.8837      7.2336    132.5447
  1362.5000      7.6760    209.9039      7.1819    134.3535
  1362.7500      7.9716    209.8959      7.1331    134.6588
  1363.0000      8.2932    209.8683      7.0818    134.0155
  1363.2500      8.4453    209.8455      7.0232    133.5298
  1363.5000      8.4003    209.8657      6.9551    134.0634
  1363.7500      8.2533    209.9576      6.8806    135.6270
  1364.0000      8.0957    210.1171      6.8087    139.3280
  1364.2500      7.9576    210.3079      6.7531    141.9733
  1364.5000      7.8516    210.4807      6.7279    144.7401
  1364.7500      7.8225    210.5952      6.7427    145.1576
  1365.0000      7.9081    210.6341      6.7998    143.3498
  1365.2500      8.0833    210.6116      6.8930    140.5620
  1365.5000      8.3189    210.5778      7.0112    133.7326
  1365.7500      8.6379    210.6067      7.1417    127.2766
  1366.0000      9.0304    210.7625      7.2740    115.6706
  1366.2500      9.3775    211.0608      7.4002    107.9253
  1366.5000      9.5362    211.4565      7.5154     98.4813
  1366.7500      9.4833    211.8718      7.6188     94.3796
  1367.0000      9.3053    212.2396      7.7151     92.0781
  1367.2500      9.0967    212.5293      7.8139     93.2966
  1367.5000      8.9524    212.7448      7.9260     99.1200
  1367.7500      8.9419    212.9097      8.0589    104.9344
  1368.0000      9.0194    213.0537      8.2112    114.1206
  1368.2500      9.0858    213.1993      8.3698    119.0099
  1368.5000      9.1475    213.3510      8.5110    122.8295
  1368.7500      9.3127    213.4913      8.6068    122.9146
  1369.0000      9.6260    213.5891      8.6348    120.5321
  1369.2500      9.9669    213.6145      8.5875    118.5658
  1369.5000     10.1533    213.5513      8.4750    117.4189
  1369.7500     10.1090    213.3999      8.3200    118.6158
  1370.0000      9.8925    213.1729      8.1490    122.8718
  1370.2500      9.6174    212.8888      7.9849    126.3478
  1370.5000      9.3546    212.5673      7.8438    130.7741
  1370.7500      9.0947    212.2253      7.7352    132.5299
  1371.0000      8.8339    211.8726      7.6626    132.9268
  1371.2500      8.6284    211.5093      7.6253    131.8908
  1371.5000      8.5212    211.1283      7.6182    129.3783
  1371.7500      8.4928    210.7204      7.6326    127.6354
  1372.0000      8.5199    210.2828      7.6568    125.1059
  1372.2500      8.6112    209.8266      7.6784    123.2319
  1372.5000      8.7350    209.3819      7.6868    119.9185
  1372.7500      8.8050    208.9895      7.6767    117.4920
  1373.0000      8.8023    208.6777      7.6496    113.7151
  1373.2500      8.8131    208.4402      7.6133    111.0950
  1373.5000      8.8844    208.2351      7.5800    107.1677
  1373.7500      8.9348    208.0111      7.5631    105.0109
  1374.0000      8.8958    207.7418      7.5750    103.9255
  1374.2500      8.8382    207.4428      7.6246    105.4428
  1374.5000      8.8615    207.1600      7.7149    111.0942
  1374.7500      9.0107    206.9383      7.8431    116.0585
  1375.0000      9.2702    206.7963      8.0012    122.8257
  1375.2500      9.5353    206.7224      8.1797    125.9690
  1375.5000      9.6962    206.6892      8.3707    128.4392
  1375.7500      9.7320    206.6706      8.5708    128.8600
  1376.0000      9.7040    206.6495      8.7817    128.1053
  1376.2500      9.6950    206.6177      9.0094    126.9389
  1376.5000      9.7420    206.5729      9.2629    124.6496
  1376.7500      9.8745    206.5187      9.5518    122.9004
  1377.0000     10.2032    206.4654      9.8861    119.8706
  1377.2500     10.8565    206.4311     10.2741    117.4084
  1377.5000     11.8246    206.4382     10.7215    112.6347
  1377.7500     12.9425    206.5024     11.2299    108.6331
  1378.0000     14.0661    206.6188     11.7954    102.0650
  1378.2500     15.2399    206.7638     12.4089     98.1331
