~Version Information
VERS.                      2.0: CWLS Log ASCII Standard - VERSION 2.0
WRAP.                       NO: One line per depth step
~Well Information Block
STRT.FT                -4.2500: 
STOP.FT              2018.7500: 
STEP.FT                 0.2500: 
NULL.                -999.2500: 
COMP.          Petrogulf Corporation: COMPANY
WELL.             State 16-21R: WELL
FLD.           Purgatoire River: FIELD
LOC.           203' FNL & 1560' FWL----: LOCATION
PROV.                 Colorado: PROVINCE
CNTY.               Las Animas: COUNTRY
SRVC.                         : SERVICE COMPANY
DATE.          Thu Sep 29 11:32:19 2005: LOG DATE
API.           05-071-08313 : API Number
~Curve Information Block
DEPT.FT            0 000 00 00: Depth
GR.GAPI                       : Gamma Ray
CCL.                          : Casing Collar Locator
AMP3.mV                       : CBL 3' Amplitude
AMP5.mV                       : CBL 5' Amplitude
~Parameter Information Block
~A  Depth        GR         CCL         AMP3        AMP5    
# ...
  1168.2500    154.2080      0.0000      2.9416      0.0659
  1168.5000    150.5429      0.0000      3.3307      0.0678
  1168.7500    146.4166      0.0000      3.6803      0.0914
  1169.0000    143.9056      0.0000      3.9630      0.1355
  1169.2500    142.6737      0.0000      4.1671      0.1902
  1169.5000    141.3695      0.0000      4.2963      0.2417
  1169.7500    139.4200      0.0000      4.3625      0.2799
  1170.0000    137.7029      0.0000      4.3753      0.3041
  1170.2500    137.4126      0.0000      4.3397      0.3219
  1170.5000    138.0252      0.0000      4.2648      0.3404
  1170.7500    137.0381      0.0000      4.1757      0.3600
  1171.0000    132.5824      0.0000      4.1095      0.3766
  1171.2500    125.8970      0.0000      4.0921      0.3883
  1171.5000    120.4254      0.0000      4.1212      0.3964
  1171.7500    118.8641      0.0000      4.1734      0.4017
  1172.0000    121.6722      0.0000      4.2269      0.4042
  1172.2500    127.5660      0.0000      4.2727      0.4049
  1172.5000    134.2770      0.0000      4.3093      0.4061
  1172.7500    139.2607      0.0000      4.3330      0.4095
  1173.0000    140.9932      0.0000      4.3374      0.4151
  1173.2500    139.9880      0.0000      4.3177      0.4209
  1173.5000    138.0495      0.0000      4.2776      0.4241
  1173.7500    136.4249      0.0000      4.2309      0.4238
  1174.0000    135.1212      0.0000      4.1944      0.4215
  1174.2500    133.8256      0.0000      4.1806      0.4205
  1174.5000    132.4528      0.0000      4.1990      0.4222
  1174.7500    130.5484      0.0000      4.2577      0.4264
  1175.0000    127.2167      0.0000      4.3518      0.4323
  1175.2500    122.3136      0.0000      4.4567      0.4362
  1175.5000    117.1708      0.0000      4.5506      0.4287
  1175.7500    113.7636      0.0000      4.6487      0.4018
  1176.0000    113.3891      0.0000      4.7919      0.3596
  1176.2500    116.0124      0.0000      4.9899      0.3213
  1176.5000    120.4708      0.0000      5.1908      0.3093
  1176.7500    125.2241      0.0000      5.3252      0.3378
  1177.0000    128.9588      0.0000      5.3730      0.4079
  1177.2500    130.6692      0.0000      5.3823      0.5101
  1177.5000    129.6747      0.0000      5.4440      0.6277
  1177.7500    125.9291      0.0000      5.6508      0.7444
  1178.0000    120.2595      0.0000      6.0562      0.8507
  1178.2500    114.2180      0.0000      6.6625      0.9445
  1178.5000    109.6711      1.4758      7.4574      1.0265
  1178.7500    108.1154      0.0000      8.4556      1.0954
  1179.0000    109.7332      0.0000      9.6908      1.1475
  1179.2500    113.1471      0.0000     11.1407      1.1787
  1179.5000    116.5898      0.0000     12.6262      1.1878
  1179.7500    119.3917      0.0000     13.8034      1.1800
  1180.0000    122.0477      0.0000     14.3405      1.1705
  1180.2500    125.0124      0.0000     14.1597      1.1802
  1180.5000    127.8189      0.0000     13.4761      1.2213
  1180.7500    129.2607      0.0000     12.5877      1.2797
  1181.0000    128.2428      0.0000     11.6822      1.3192
  1181.2500    124.7560      0.0000     10.8245      1.3116
  1181.5000    120.2602      0.0000     10.0236      1.2612
  1181.7500    116.9227      0.0000      9.2679      1.1931
  1182.0000    116.1959      0.0000      8.5452      1.1264
  1182.2500    117.9450      0.0000      7.8600      1.0647
  1182.5000    120.8235      0.0000      7.2291      1.0084
  1182.7500    123.4055      0.0000      6.6620      0.9626
  1183.0000    125.0470      0.0000      6.1568      0.9332
  1183.2500    126.0846      0.0000      5.7173      0.9199
  1183.5000    127.5471      0.0000      5.3737      0.9192
  1183.7500    130.4289      0.0000      5.1779      0.9295
  1184.0000    134.7896      0.0000      5.1722      0.9492
  1184.2500    139.4598      0.0000      5.3648      0.9731
  1184.5000    142.5501      0.0000      5.7285      0.9965
  1184.7500    142.2714      0.0000      6.2155      1.0193
  1185.0000    137.8123      0.0000      6.7782      1.0433
  1185.2500    129.9838      0.0000      7.3970      1.0686
  1185.5000    121.0396      0.0000      8.0926      1.0973
  1185.7500    113.5721      0.0000      8.8980      1.1362
  1186.0000    109.1450      0.0000      9.8153      1.1940
  1186.2500    107.5669      0.0000     10.8019      1.2756
  1186.5000    107.4205      0.0000     11.7933      1.3800
  1186.7500    107.4347      0.0000     12.7230      1.5008
  1187.0000    107.3954      0.0000     13.5192      1.6295
  1187.2500    107.8124      0.0000     14.1009      1.7613
  1187.5000    108.8709      0.0000     14.4050      1.8961
  1187.7500    109.7264      0.0000     14.4301      2.0312
  1188.0000    109.0237      0.0000     14.2519      2.1541
  1188.2500    106.3510      0.0000     13.9819      2.2463
  1188.5000    102.9685      0.0000     13.7035      2.2943
  1188.7500    100.8779      0.0000     13.4414      2.2957
  1189.0000    101.3097      0.0000     13.1884      2.2592
  1189.2500    104.0444      0.0000     12.9498      2.1985
  1189.5000    107.9364      0.0000     12.7544      2.1242
  1189.7500    111.9661      0.0000     12.6244      2.0385
  1190.0000    115.7324      0.0000     12.5414      1.9387
  1190.2500    119.0925      0.0000     12.4393      1.8258
  1190.5000    121.9343      0.0000     12.2275      1.7068
  1190.7500    124.4519      0.0000     11.8327      1.5907
  1191.0000    127.0060      0.0000     11.2382      1.4876
  1191.2500    129.4753      0.0000     10.5018      1.4090
  1191.5000    131.3841      0.0000      9.7385      1.3618
  1191.7500    132.8001      0.0000      9.0780      1.3410
  1192.0000    134.3101      0.0000      8.6128      1.3316
  1192.2500    135.7539      0.0000      8.3559      1.3192
  1192.5000    135.7585      0.0000      8.2336      1.2946
  1192.7500    133.0659      0.0000      8.1358      1.2538
  1193.0000    127.8763      0.0000      7.9928      1.1971
  1193.2500    121.7023      0.0000      7.8074      1.1281
  1193.5000    116.5001      0.0000      7.6200      1.0500
  1193.7500    114.0789      0.0000      7.4527      0.9647
  1194.0000    115.5222      0.0000      7.2938      0.8784
  1194.2500    120.4980      0.0000      7.1253      0.8025
  1194.5000    127.3747      0.0000      6.9476      0.7457
  1194.7500    134.4179      0.0000      6.7733      0.7056
  1195.0000    140.7206      0.0000      6.6021      0.6715
  1195.2500    145.7904      0.0000      6.4141      0.6345
  1195.5000    148.8868      0.0000      6.1871      0.5946
  1195.7500    149.5100      0.0000      5.9202      0.5597
  1196.0000    148.2327      0.0000      5.6355      0.5397
  1196.2500    146.3959      0.0000      5.3621      0.5417
  1196.5000    145.1041      0.0000      5.1226      0.5648
  1196.7500    144.8798      0.0000      4.9339      0.5996
  1197.0000    145.9946      0.0000      4.8177      0.6335
  1197.2500    148.6173      0.0000      4.8014      0.6604
  1197.5000    152.5235      0.0000      4.9045      0.6826
  1197.7500    156.8127      0.0000      5.1191      0.7055
  1198.0000    160.0464      0.0000      5.4028      0.7290
  1198.2500    160.9869      0.0000      5.6961      0.7450
  1198.5000    159.6066      0.0000      5.9525      0.7452
  1198.7500    157.3942      0.0000      6.1536      0.7294
  1199.0000    156.3660      0.0000      6.2996      0.7063
  1199.2500    157.6849      0.0000      6.3931      0.6848
  1199.5000    161.1189      0.0000      6.4373      0.6681
  1199.7500    165.3481      0.0000      6.4408      0.6551
  1200.0000    168.5577      0.0000      6.4159      0.6433
  1200.2500    169.3282      0.0000      6.3704      0.6297
  1200.5000    167.6221      0.0000      6.3046      0.6116
  1200.7500    164.8542      0.0000      6.2102      0.5889
  1201.0000    162.6569      0.0000      6.0698      0.5635
  1201.2500    161.5532      0.0000      5.8626      0.5361
  1201.5000    160.6431      0.0000      5.5760      0.5061
