~Version Information
VERS.                      2.0: CWLS Log ASCII Standard - VERSION 2.0
WRAP.                       NO: One line per depth step
~Well Information Block
STRT.FT               555.6000: 
STOP.FT              2132.0000: 
STEP.FT                 0.1000: 
NULL.                -999.2500: 
COMP.          Petrogulf Corporation: COMPANY
WELL.           Montoya 12-41R: WELL
FLD.           Purgatorie River: FIELD
LOC.           1086' FNL & 610' FEL: LOCATION
CNTY.               Las Animas: COUNTY
SRVC.                         : SERVICE COMPANY
DATE.          Thu Nov 18 08:45:51 2004: LOG DATE
UWI.           05 071 08241 00: UNIQUE WELL ID
STAT.                 Colorado: STATE
~Curve Information Block
DEPT.FT            0 000 00 00: Depth
DCAL.in                       : CDL Caliper
RHOB.g/cc                     : CDL Bulk Density
RHOC.g/cc                     : CDL Density Correction
DPOR.pu                       : CDL Density Porosity
GR.GAPI                       : Gamma Ray
NPOR.pu                       : Neutron Porosity
~Parameter Information Block
~A  Depth       DCAL        RHOB        RHOC        DPOR         GR         NPOR    
# ...
   776.4000      8.2705      2.6277      0.0681      1.3518    157.3431     26.9177
   776.5000      8.2322      2.6287      0.0760      1.2928    155.5752     27.0500
   776.6000      8.2322      2.6229      0.0501      1.6435    148.4952     27.3619
   776.7000      8.2322      2.6104      0.0514      2.4014    141.0800     27.6840
   776.8000      8.2134      2.5972      0.0168      3.1985    139.3950     27.6007
   776.9000      8.2134      2.5923      0.0224      3.4962    142.6762     27.1155
   777.0000      8.2060      2.5921      0.0331      3.5110    145.2767     26.7164
   777.1000      8.2060      2.5871      0.0321      3.8129    147.6629     26.6447
   777.2000      8.2060      2.5797      0.0091      4.2627    152.2131     26.7136
   777.3000      8.2123      2.5743     -0.0009      4.5886    155.4497     26.6578
   777.4000      8.2123      2.5681     -0.0147      4.9625    155.5663     26.6213
   777.5000      8.2160      2.5597      0.0115      5.4735    156.6537     26.7053
   777.6000      8.2160      2.5524      0.0057      5.9176    159.5499     26.6202
   777.7000      8.2160      2.5489      0.0203      6.1264    159.8492     26.4185
   777.8000      8.2140      2.5466      0.0221      6.2694    156.6312     26.3950
   777.9000      8.2140      2.5440     -0.0020      6.4214    152.2722     26.5004
   778.0000      8.2153      2.5474      0.0017      6.2212    151.2404     26.5919
   778.1000      8.2153      2.5541      0.0291      5.8142    155.8807     26.5119
   778.2000      8.2153      2.5526      0.0505      5.9046    159.6982     26.2351
   778.3000      8.2110      2.5427      0.0174      6.5003    154.7966     25.9610
   778.4000      8.2110      2.5269      0.0642      7.4620    143.0756     25.6831
   778.5000      8.2054      2.4998      0.0343      9.1059    133.4723     25.3858
   778.6000      8.2054      2.4672      0.0150     11.0804    132.2309     25.2994
   778.7000      8.2054      2.4518     -0.0327     12.0146    138.3441     25.5297
   778.8000      8.2033      2.4656      0.0351     11.1742    145.4222     25.8248
   778.9000      8.2033      2.4848      0.0871     10.0123    147.5925     25.8867
   779.0000      8.2053      2.4805      0.0588     10.2704    144.9158     25.8174
   779.1000      8.2053      2.4585      0.0468     11.6039    140.6989     25.8976
   779.2000      8.2053      2.4474     -0.0026     12.2779    136.2396     26.1028
   779.3000      8.2105      2.4671      0.0099     11.0872    132.2701     26.2134
   779.4000      8.2105      2.5106      0.0480      8.4490    129.7596     26.1761
   779.5000      8.2100      2.5571      0.0885      5.6287    126.4975     25.9288
   779.6000      8.2100      2.5911      0.0880      3.5705    121.7637     25.4766
   779.7000      8.2100      2.6035      0.1238      2.8190    119.3808     24.9570
   779.8000      8.2003      2.5901      0.1302      3.6292    119.8610     24.3797
   779.9000      8.2003      2.5598      0.0776      5.4654    119.4994     23.9457
   780.0000      8.1963      2.5309      0.0686      7.2171    118.3727     23.8898
   780.1000      8.1963      2.5121      0.0325      8.3604    118.4525     24.0272
   780.2000      8.1963      2.5084     -0.0046      8.5803    116.5247     24.0833
   780.3000      8.2060      2.5208      0.0158      7.8322    112.1230     24.1525
   780.4000      8.2060      2.5299      0.0466      7.2776    110.2396     24.2071
   780.5000      8.2295      2.5250      0.0295      7.5756    113.0785     23.9230
   780.6000      8.2295      2.5224      0.0373      7.7321    116.4734     23.5002
   780.7000      8.2295      2.5278      0.1030      7.4047    116.1271     23.3488
   780.8000      8.2569      2.5317      0.0524      7.1705    115.1111     23.3661
   780.9000      8.2569      2.5363      0.0439      6.8929    116.5918     23.3658
   781.0000      8.2657      2.5394      0.0807      6.7008    116.9382     23.3799
   781.1000      8.2657      2.5310      0.0620      7.2094    112.3816     23.3723
   781.2000      8.2657      2.5194      0.0558      7.9170    109.0277     23.3390
   781.3000      8.2655      2.5185      0.0498      7.9700    114.0697     23.4641
   781.4000      8.2655      2.5190      0.0711      7.9421    122.2486     23.9040
   781.5000      8.2797      2.4966      0.0571      9.2942    125.5958     24.4768
   781.6000      8.2797      2.4420      0.0465     12.6070    125.8965     24.6440
   781.7000      8.2797      2.3652      0.0330     17.2589    126.1564     24.2799
   781.8000      8.3003      2.2882     -0.0205     21.9290    126.0994     24.0550
   781.9000      8.3003      2.2333     -0.0441     25.2557    129.1052     24.2869
   782.0000      8.3085      2.2068     -0.0544     26.8610    139.0401     24.5816
   782.1000      8.3085      2.1943     -0.0088     27.6183    149.9614     24.6174
   782.2000      8.3085      2.1793     -0.0027     28.5272    153.2056     24.4283
   782.3000      8.3224      2.1776      0.0742     28.6300    150.5772     24.4268
   782.4000      8.3224      2.2299      0.1775     25.4581    149.0606     24.7507
   782.5000      8.3854      2.3476      0.2871     18.3277    149.6674     24.9407
   782.6000      8.3854      2.4911      0.4922      9.6327    148.1037     24.8253
   782.7000      8.3854      2.6084      0.5334      2.5220    143.0045     24.7306
   782.8000      8.4776      2.6738      0.5579     -1.4396    136.6194     24.6872
   782.9000      8.4776      2.6823      0.5758     -1.9573    130.6103     24.3514
   783.0000      8.4985      2.6460      0.4531      0.2400    126.5488     23.8615
   783.1000      8.4985      2.5931      0.3482      3.4484    126.1709     23.6531
   783.2000      8.4985      2.5439      0.2361      6.4304    128.3256     23.8746
   783.3000      8.4518      2.5017      0.1695      8.9855    130.1847     24.3999
   783.4000      8.4518      2.4676      0.1214     11.0534    131.8793     24.9370
   783.5000      8.4186      2.4487      0.0511     12.1990    137.4848     25.2439
   783.6000      8.4186      2.4409      0.0728     12.6752    148.6288     25.3426
   783.7000      8.4186      2.4260      0.0718     13.5740    158.5744     25.2755
   783.8000      8.4106      2.4045      0.0602     14.8782    159.3994     24.9136
   783.9000      8.4106      2.3940      0.0457     15.5140    151.1918     24.3228
   784.0000      8.4073      2.3941      0.0925     15.5069    141.2889     23.8490
   784.1000      8.4073      2.3924      0.0788     15.6138    135.4599     23.8070
   784.2000      8.4073      2.3932      0.1048     15.5622    134.0531     24.0864
   784.3000      8.4049      2.4073      0.1154     14.7121    137.3278     24.2682
   784.4000      8.4049      2.4257      0.1783     13.5938    145.6846     24.1355
   784.5000      8.4112      2.4264      0.2215     13.5523    154.9352     23.8502
   784.6000      8.4112      2.4088      0.1356     14.6157    157.7581     23.8706
   784.7000      8.4112      2.3899      0.2087     15.7659    152.1762     24.3781
   784.8000      8.4266      2.3746      0.2150     16.6896    144.8544     24.9565
   784.9000      8.4266      2.3711      0.2099     16.9009    141.4598     25.3415
   785.0000      8.4302      2.3894      0.1770     15.7969    140.0004     25.8137
   785.1000      8.4302      2.4294      0.1625     13.3713    137.4724     26.3435
   785.2000      8.4302      2.4882      0.1821      9.8073    135.2205     26.5934
   785.3000      8.4156      2.5516      0.2528      5.9644    135.3702     26.6078
   785.4000      8.4156      2.5949      0.2925      3.3414    136.5307     26.7922
   785.5000      8.4058      2.6116      0.2777      2.3289    137.0505     27.2361
   785.6000      8.4058      2.6218      0.2616      1.7100    137.3514     27.6285
   785.7000      8.4058      2.6367      0.3631      0.8088    135.6645     27.8143
   785.8000      8.4083      2.6404      0.2938      0.5843    130.1665     27.8819
   785.9000      8.4083      2.6285      0.1572      1.3033    124.7676     27.8785
