~Version Information
VERS.                      2.0: CWLS Log ASCII Standard - VERSION 2.0
WRAP.                       NO: One line per depth step
~Well Information Block
STRT.FT              1684.7500: 
STOP.FT              2367.7500: 
STEP.FT                 0.2500: 
NULL.                -999.2500: 
COMP.          Petrogulf Corporation: COMPANY
WELL.             Norton 9-14V: WELL
FLD.           Purgatorie River: FIELD
LOC.           250' FSL & 225' FWL--: LOCATION
CNTY.               Las Animas: COUNTY
SRVC.                         : SERVICE COMPANY
DATE.          Mon Jan 10 10:00:10 2005: LOG DATE
UWI.                          : UNIQUE WELL ID
STAT.                       CO: STATE
~Curve Information Block
DEPT.FT            0 000 00 00: Depth
CCL.                          : Casing Collar Locator
TT3.usec                      : CBL 3' Travel Time
AMP3.mV                       : CBL 3' Amplitude
GR.GAPI                       : Gamma Ray
~Parameter Information Block
~A  Depth       CCL         TT3         AMP3         GR     
# ...
  1785.2500      0.0000    309.0145     16.9758    149.8092
  1785.5000      0.0000    309.0314     17.3284    149.7252
  1785.7500      0.0000    309.1214     17.3920    149.5830
  1786.0000      0.0000    309.2423     17.2351    151.0820
  1786.2500      0.0000    309.3290     16.9808    153.2111
  1786.5000      0.0000    309.3278     16.7460    153.9914
  1786.7500      0.0000    309.2323     16.6094    153.3434
  1787.0000      0.0000    309.0919     16.6080    153.2447
  1787.2500      0.0000    308.9768     16.7468    155.1794
  1787.5000      0.0000    308.9287     16.9986    158.2293
  1787.7500      0.0000    308.9452     17.3005    160.1901
  1788.0000      0.0000    309.0048     17.5670    160.2787
  1788.2500      0.0000    309.0977     17.7215    160.0415
  1788.5000      0.0000    309.2289     17.7226    161.4151
  1788.7500      0.0000    309.3962     17.5735    164.3244
  1789.0000      0.0000    309.5701     17.3173    166.6586
  1789.2500      0.0000    309.7004     17.0173    166.3457
  1789.5000      0.0000    309.7438     16.7308    162.9494
  1789.7500      0.0000    309.6834     16.4946    157.6500
  1790.0000      0.0000    309.5320     16.3234    152.4666
  1790.2500      0.0000    309.3287     16.2054    149.3102
  1790.5000      0.0000    309.1320     16.1037    148.9632
  1790.7500      0.0000    308.9981     15.9821    150.6199
  1791.0000      0.0000    308.9568     15.8350    152.3438
  1791.2500      0.0000    309.0109     15.6867    151.9142
  1791.5000      0.0000    309.1493     15.5813    147.9136
  1791.7500      0.0000    309.3416     15.5895    141.1581
  1792.0000      0.0000    309.5216     15.7968    135.0380
  1792.2500      0.0000    309.6092     16.2323    133.0391
  1792.5000      0.0000    309.5740     16.8033    135.3256
  1792.7500      0.0000    309.4714     17.3226    138.6469
  1793.0000      0.0000    309.4051     17.6160    139.8805
  1793.2500      0.0000    309.4489     17.6257    138.7252
  1793.5000      0.0000    309.6007     17.4356    136.9296
  1793.7500      0.0000    309.8007     17.2038    136.0100
  1794.0000      0.0000    309.9857     17.0496    136.0873
  1794.2500      0.0000    310.1195     16.9958    136.4830
  1794.5000      0.0000    310.1758     17.0065    136.9920
  1794.7500      0.0000    310.1206     17.0529    138.1091
  1795.0000      0.0000    309.9408     17.1144    140.0013
  1795.2500      0.0000    309.6930     17.1389    141.9932
  1795.5000      0.0000    309.4952     17.0607    143.2552
  1795.7500      0.0000    309.4480     16.8950    143.4160
  1796.0000      0.0000    309.5577     16.7840    142.4669
  1796.2500      0.0000    309.7350     16.8881    140.6476
  1796.5000      0.0000    309.8664     17.2108    138.4379
  1796.7500      0.0000    309.9096     17.5573    136.0655
  1797.0000      0.0000    309.9467     17.6867    132.8794
  1797.2500      0.0000    310.3002     17.4769    127.6565
  1797.5000      0.0000    311.7627     16.9361    119.7634
  1797.7500      0.0000    315.8177     16.1235    109.8413
  1798.0000      0.0000    324.0679     15.1212     99.2086
  1798.2500      0.0000    336.1873     14.0689     88.8153
  1798.5000      0.0000    347.9441     13.1653     79.0321
  1798.7500      0.0000    352.8739     12.5932     70.2397
  1799.0000      0.0000    347.7456     12.4266     63.0612
  1799.2500      0.0000    335.7994     12.6092     57.9285
  1799.5000      0.0000    323.5138     13.0256     54.7889
  1799.7500      0.0000    315.1174     13.5855     53.2826
  1800.0000      0.0000    310.9136     14.2415     52.9398
  1800.2500      0.0000    309.2962     14.9670     53.3393
  1800.5000      0.0000    308.8152     15.7627     54.4334
  1800.7500      0.0000    308.7148     16.6737     56.7544
  1801.0000      0.0000    308.6700     17.7455     61.2855
  1801.2500      0.0000    308.5549     18.9266     69.0650
  1801.5000      0.0000    308.3510     20.0242     80.6262
  1801.7500      0.0000    308.1148     20.7802     95.3804
  1802.0000      0.0000    307.8985     21.0183    111.3218
  1802.2500      0.0000    307.7170     20.7581    125.4470
  1802.5000      0.0000    307.5814     20.2026    134.9829
  1802.7500      0.0000    307.5321     19.5931    138.9259
  1803.0000      0.0000    307.6208     19.0483    138.8094
  1803.2500      0.0000    307.8653     18.5163    137.9237
  1803.5000      0.0000    308.2336     17.8572    139.2548
  1803.7500      0.0000    308.6587     16.9776    143.4669
  1804.0000      0.0000    309.0632     15.9356    148.7139
  1804.2500      0.0000    309.3838     14.9475    152.7299
  1804.5000      0.0000    309.5919     14.2697    154.9576
  1804.7500      0.0000    309.6968     14.0338    156.3376
  1805.0000      0.0000    309.7217     14.1731    157.7037
  1805.2500      0.0000    309.6840     14.4959    159.2984
  1805.5000      0.0000    309.6053     14.8287    161.4836
  1805.7500      0.0000    309.5214     15.1022    164.8360
  1806.0000      0.0000    309.4496     15.3430    169.3017
  1806.2500      0.0000    309.3479     15.6291    173.6920
  1806.5000      0.0000    309.1422     16.0573    176.5366
  1806.7500      0.0000    308.8108     16.6970    177.5768
  1807.0000      0.0000    308.4278     17.5222    177.9565
  1807.2500      0.0000    308.1145     18.3788    178.5024
  1807.5000      0.0000    307.9583     19.0570    178.2966
  1807.7500      0.0000    307.9709     19.4346    175.7198
  1808.0000      0.0000    308.1028     19.5697    170.7464
  1808.2500      0.0000    308.2820     19.6527    165.4420
  1808.5000      0.0000    308.4462     19.8557    162.0468
  1808.7500      0.0000    308.5573     20.2090    160.9663
  1809.0000      0.0000    308.5979     20.5995    160.6987
  1809.2500      0.0000    308.5652     20.8643    159.4368
  1809.5000      0.0000    308.4724     20.8890    156.8159
  1809.7500      0.0000    308.3615     20.6509    154.3393
  1810.0000      0.0000    308.3281     20.1907    153.8551
  1810.2500      0.0000    308.6964     19.5498    155.3146
  1810.5000      0.0000    310.5199     18.7475    156.3167
  1810.7500      0.0000    316.2291     17.8055    154.2457
  1811.0000      0.0000    329.6111     16.7470    148.8252
  1811.2500      0.0000    353.5628     15.5790    142.3786
  1811.5000      0.0000    386.4948     14.3343    137.8563
  1811.7500      0.0000    421.6755     13.1275    136.7682
  1812.0000      0.0000    452.2906     12.1031    138.6317
  1812.2500      0.0000    477.3664     11.3168    141.9173
  1812.5000      0.0000    501.7419     10.7149    145.2883
  1812.7500      0.0000    530.6598     10.2213    147.9077
  1813.0000      0.0000    564.8225      9.7914    149.0047
  1813.2500     -2.0000    599.4224      9.3961    147.9670
  1813.5000     -2.0000    626.5206      9.0344    145.1910
  1813.7500      0.0000    637.7465      8.7918    142.3618
  1814.0000      0.0000    625.7711      8.8369    141.5362
  1814.2500      0.0000    586.7084      9.2904    143.7552
  1814.5000      0.0000    524.6565     10.0688    147.9425
  1814.7500      0.0000    453.5778     10.8868    150.9949
  1815.0000      0.0000    391.1417     11.4668    149.6674
  1815.2500      0.0000    348.4206     11.7419    142.8370
  1815.5000      0.0000    325.5452     11.8239    131.7804
  1815.7500      0.0000    315.9283     11.8148    118.5607
  1816.0000      0.0000    312.7373     11.7267    104.7591
  1816.2500      0.0000    311.8715     11.5749     91.4205
  1816.5000      0.0000    311.6309     11.4590     79.4190
  1816.7500      0.0000    311.5194     11.4950     69.6967
  1817.0000      0.0000    311.4685     11.6871     63.0601
  1817.2500      0.0000    311.5004     11.9100     59.4735
  1817.5000      0.0000    311.6190     12.0371     57.6863
  1817.7500      0.0000    311.7672     12.0820     56.0212
  1818.0000      0.0000    311.8574     12.1973     53.7281
  1818.2500      0.0000    311.8329     12.5252     51.3534
  1818.5000      0.0000    311.7032     13.0614     49.6582
