~Version Information
VERS.                      2.0: CWLS Log ASCII Standard - VERSION 2.0
WRAP.                       NO: One line per depth step
~Well Information Block
STRT.FT                -8.0000: 
STOP.FT              1540.2500: 
STEP.FT                 0.2500: 
NULL.                -999.2500: 
COMP.          Pioneer Natural Resources: COMPANY
WELL.           Telna 24-22 Tr: WELL
FLD.           Purgatorie River: FIELD
LOC.           748' FSL & 1931' FWL--: LOCATION
PROV.                       CO: PROVINCE
CNTY.               Las Animas: COUNTRY
SRVC.          Patterson Wireline: SERVICE COMPANY
DATE.          Fri May 06 12:29:21 2005: LOG DATE
UWI.           05 071 08304 00: UNIQUE WELL ID
~Curve Information Block
DEPT.FT            0 000 00 00: Depth
CCL.                          : Casing Collar Locator
TT3.usec                      : CBL 3' Travel Time
AMP3.mV                       : CBL 3' Amplitude
GR.GAPI                       : Gamma Ray
~Parameter Information Block
~A  Depth       CCL         TT3         AMP3         GR     
# ...
  1399.0000      0.0000    819.8763      3.4436     99.6942
  1399.2500      0.0000    828.3788      3.4347    104.9170
  1399.5000      0.0000    834.0296      3.5308    112.1532
  1399.7500      0.0000    837.2732      3.7068    118.6569
  1400.0000      0.0000    838.6768      3.9182    122.2154
  1400.2500      0.0000    837.4306      4.1182    122.4193
  1400.5000      0.0000    831.4481      4.2751    120.6665
  1400.7500      0.0000    819.6078      4.3958    118.5161
  1401.0000      0.0000    804.5218      4.5278    116.3116
  1401.2500      0.0000    792.3660      4.7100    113.6064
  1401.5000      0.0000    788.8173      4.9190    110.5343
  1401.7500      0.0000    795.1327      5.0887    108.2991
  1402.0000      0.0000    808.0359      5.1838    108.3111
  1402.2500      0.0000    822.4317      5.2238    111.1128
  1402.5000      0.0000    834.2188      5.2344    116.1146
  1402.7500      0.0000    841.7717      5.2151    122.0207
  1403.0000      0.0000    845.7305      5.1728    127.4106
  1403.2500      0.0000    847.7201      5.1576    131.0505
  1403.5000      0.0000    849.2391      5.2174    131.9979
  1403.7500      0.0000    851.1841      5.3246    129.9518
  1404.0000      0.0000    853.6609      5.3891    125.6788
  1404.2500      0.0000    855.8831      5.3531    120.5885
  1404.5000      0.0000    856.6201      5.2447    115.4970
  1404.7500      0.0000    855.1286      5.1443    110.1943
  1405.0000      0.0000    851.5779      5.1255    104.5424
  1405.2500      0.0000    846.3417      5.2089     99.4844
  1405.5000      0.0000    838.9012      5.3333     96.5190
  1405.7500      0.0000    828.0045      5.3830     96.3797
  1406.0000      0.0000    813.8430      5.2746     98.5034
  1406.2500      0.0000    800.2883      5.0294    101.5660
  1406.5000      0.0000    793.3937      4.7638    104.1619
  1406.7500      0.0000    796.1042      4.6150    105.0930
  1407.0000      0.0000    805.3064      4.6502    103.6338
  1407.2500      0.0000    815.1886      4.8152     99.9577
  1407.5000      0.0000    822.3347      4.9791     95.1988
  1407.7500      0.0000    826.6921      5.0561     90.8532
  1408.0000      0.0000    829.1397      5.0741     88.0559
  1408.2500      0.0000    829.6828      5.1110     87.3583
  1408.5000      0.0000    827.5390      5.1854     89.0442
  1408.7500      0.0000    822.0648      5.2374     93.4669
  1409.0000      0.0000    813.9368      5.2066    100.9063
  1409.2500      0.0000    806.1971      5.0891    111.0084
  1409.5000      0.0000    802.9955      4.9191    122.3801
  1409.7500      0.0000    805.2837      4.7422    132.9001
  1410.0000      0.0000    807.4556      4.6180    140.8147
  1410.2500      0.0000    799.5826      4.5972    145.9145
  1410.5000      0.0000    774.5331      4.6663    149.5733
  1410.7500      0.0000    734.8053      4.7509    153.1613
  1411.0000      0.0000    693.1461      4.7871    156.4000
  1411.2500      0.0000    664.3693      4.7607    157.8127
  1411.5000      0.0000    654.5329      4.6794    156.7588
  1411.7500      0.0000    658.1282      4.5642    154.3340
  1412.0000      0.0000    665.1702      4.4734    152.2911
  1412.2500      0.0000    669.4188      4.4635    151.7516
  1412.5000      0.0000    670.4149      4.5086    152.9375
  1412.7500      0.0000    670.6340      4.5228    155.2287
  1413.0000      0.0000    672.5073      4.4750    157.1926
  1413.2500      0.0000    677.2867      4.4227    157.4510
  1413.5000      0.0000    684.7856      4.4293    156.0676
  1413.7500      0.0000    693.4055      4.4998    154.5880
  1414.0000      0.0000    700.8024      4.5902    154.4174
  1414.2500      0.0000    705.1024      4.6324    155.4995
  1414.5000      0.0000    705.5637      4.5658    156.5873
  1414.7500      0.0000    702.6388      4.3888    156.2934
  1415.0000      0.0000    698.2999      4.1832    153.8088
  1415.2500      0.0000    696.0388      4.0663    149.3214
  1415.5000      0.0000    698.9818      4.1155    144.3356
  1415.7500      0.0000    707.3138      4.3339    141.2170
  1416.0000      0.0000    718.3091      4.6550    141.6886
  1416.2500      0.0000    728.9250      4.9632    145.6604
  1416.5000      0.0000    737.6786      5.1380    151.7778
  1416.7500      0.0000    744.4998      5.1222    158.8383
  1417.0000      0.0000    749.7618      4.9664    166.1905
  1417.2500      0.0000    753.7759      4.7992    172.8972
  1417.5000      0.0000    757.1855      4.7358    177.2055
  1417.7500      0.0000    761.1635      4.7999    177.4362
  1418.0000      0.0000    766.3854      4.9222    173.4657
  1418.2500      0.0000    772.0812      5.0060    166.9575
  1418.5000      0.0000    776.2740      5.0019    160.0300
  1418.7500      0.0000    776.8909      4.9292    153.9359
  1419.0000      0.0000    773.2092      4.8312    148.7645
  1419.2500      0.0000    767.1930      4.7265    143.8533
  1419.5000      0.0000    763.5464      4.6243    138.5202
  1419.7500      0.0000    767.3304      4.5674    132.5658
  1420.0000      0.0000    779.9789      4.6149    126.0037
  1420.2500      0.0000    797.3942      4.7723    118.5569
  1420.5000      0.0000    812.6000      4.9624    109.9139
  1420.7500      0.0000    820.2990      5.0786    100.4650
  1421.0000      0.0000    819.0435      5.0722     91.5174
  1421.2500      0.0000    810.3939      4.9914     84.7433
  1421.5000      0.0000    797.0096      4.9257     81.1573
  1421.7500      0.0000    780.8220      4.9157     80.2796
  1422.0000      0.0000    762.2960      4.9388     80.5810
  1422.2500      0.0000    742.0165      4.9638     81.1433
  1422.5000      0.0000    722.8083      4.9731     82.6418
  1422.7500      0.0000    708.5723      4.9405     86.3495
  1423.0000      0.0000    700.2535      4.8372     92.3793
  1423.2500      0.0000    693.8661      4.6720     99.1823
  1423.5000      0.0000    683.2996      4.4974    104.5704
  1423.7500      0.0000    665.3338      4.3640    107.0762
  1424.0000      0.0000    642.6902      4.2883    106.6044
  1424.2500      0.0000    622.7178      4.2693    104.1269
  1424.5000      0.0000    612.7640      4.3113    100.9593
  1424.7500      0.0000    616.1265      4.4204     98.3230
  1425.0000      0.0000    631.7172      4.5896     97.1688
  1425.2500      2.0000    656.8364      4.7873     97.8371
  1425.5000      2.0000    689.5110      4.9543     99.9507
  1425.7500      0.0000    727.5363      5.0288    103.1585
  1426.0000      0.0000    766.0273      4.9878    107.8297
  1426.2500      0.0000    797.8994      4.8523    114.3515
  1426.5000      0.0000    817.1872      4.6469    121.8395
  1426.7500      0.0000    820.4897      4.3887    128.3687
  1427.0000      0.0000    805.5116      4.1365    132.6401
  1427.2500      0.0000    771.4244      3.9985    134.8112
  1427.5000      0.0000    723.1606      4.0447    135.5450
  1427.7500      0.0000    673.6009      4.2365    134.9222
  1428.0000      0.0000    637.5878      4.4748    132.6350
  1428.2500      0.0000    622.3187      4.6955    128.7528
  1428.5000      0.0000    624.3552      4.8912    123.8338
  1428.7500      0.0000    634.7178      5.0519    118.6040
  1429.0000      0.0000    645.0600      5.1243    113.8294
  1429.2500      0.0000    650.1406      5.0544    110.1172
  1429.5000      0.0000    647.5459      4.8724    107.5615
  1429.7500      0.0000    636.9665      4.7121    105.8012
  1430.0000      0.0000    620.2319      4.7201    104.4510
  1430.2500      0.0000    601.9069      4.9371    103.2657
  1430.5000      0.0000    589.3380      5.2719    102.0561
  1430.7500      0.0000    590.4567      5.5829    100.8750
  1431.0000      0.0000    608.8670      5.7786    100.2264
  1431.2500      0.0000    640.3409      5.8561    100.6347
  1431.5000      0.0000    675.9811      5.8726    101.8834
  1431.7500      0.0000    709.2618      5.8905    102.9687
  1432.0000      0.0000    738.4738      5.9325    103.0420
  1432.2500      0.0000    763.3319      5.9710    102.3210
