~Version Information
VERS.                      2.0: CWLS Log ASCII Standard - VERSION 2.0
WRAP.                       NO: One line per depth step
~Well Information Block
STRT.FT               806.0000: 
STOP.FT              1812.2000: 
STEP.FT                 0.1000: 
NULL.                -999.2500: 
COMP.          Pioneer Natural Resources: COMPANY
WELL.            Hill 33-22 Tr: WELL
FLD.           Purgatoire River: FIELD
LOC.           1573' FSL & 1585' FEL: LOCATION
PROV.                 Colorado: PROVINCE
CNTY.               Las Animas: COUNTRY
SRVC.                Patterson: SERVICE COMPANY
DATE.          Thu Apr 14 12:25:33 2005: LOG DATE
UWI.           05 071 08316 00: UNIQUE WELL ID
~Curve Information Block
DEPT.FT            0 000 00 00: Depth
DCAL.in                       : CDL Caliper
RHOB.g/cc                     : CDL Bulk Density
RHOC.g/cc                     : CDL Density Correction
DPOR.pu                       : CDL Density Porosity
GR.GAPI                       : Gamma Ray
NPOR.pu                       : Neutron Porosity
~Parameter Information Block
~A  Depth       DCAL        RHOB        RHOC        DPOR         GR         NPOR    
# ...
  1401.2000      8.1322      2.5169      0.1426      8.0672    117.4527     31.3059
  1401.3000      8.0978      2.5273      0.1483      7.4391    117.6555     30.4340
  1401.4000      8.0978      2.5125      0.0489      8.3348    117.6438     29.9223
  1401.5000      8.0955      2.4863      0.0543      9.9221    115.3753     30.0378
  1401.6000      8.0955      2.4508      0.0174     12.0708    111.0325     30.5983
  1401.7000      8.0955      2.4044     -0.0275     14.8827    108.0771     31.4963
  1401.8000      8.0980      2.3629     -0.0156     17.3978    107.7119     31.9883
  1401.9000      8.0980      2.3343     -0.0247     19.1317    108.8860     31.4511
  1402.0000      8.1102      2.3033     -0.0188     21.0136    108.8355     30.5905
  1402.1000      8.1102      2.2670     -0.0321     23.2149    107.2143     30.4123
  1402.2000      8.1102      2.2561     -0.1046     23.8717    106.3156     30.6526
  1402.3000      8.1104      2.2874      0.0010     21.9776    105.7671     30.2355
  1402.4000      8.1104      2.3345      0.0736     19.1242    104.7686     29.6163
  1402.5000      8.1300      2.3689      0.1147     17.0346    104.0891     29.9092
  1402.6000      8.1300      2.3890      0.0888     15.8202    102.1688     30.5130
  1402.7000      8.1300      2.4060      0.0939     14.7851     97.2952     30.2605
  1402.8000      8.1389      2.4134      0.1781     14.3410     92.8490     29.7015
  1402.9000      8.1389      2.3877      0.1220     15.8954     93.3929     29.9568
  1403.0000      8.1596      2.3221      0.0987     19.8721    100.4159     31.1631
  1403.1000      8.1596      2.2336      0.0012     25.2381    108.5914     32.4967
  1403.2000      8.1596      2.1462      0.0051     30.5327    111.4218     32.8786
  1403.3000      8.1821      2.0707     -0.0394     35.1069    109.0169     32.6248
  1403.4000      8.1821      2.0157     -0.0983     38.4427    104.1492     32.6282
  1403.5000      8.1944      2.0024     -0.1021     39.2494    100.9466     32.4391
  1403.6000      8.1944      2.0373     -0.0071     37.1343    101.8781     31.6369
  1403.7000      8.1944      2.0934      0.0818     33.7304    103.5376     30.8195
  1403.8000      8.1489      2.1508      0.0590     30.2539    102.1954     30.9319
  1403.9000      8.1489      2.2167      0.1118     26.2616     98.7151     32.0595
  1404.0000      8.1514      2.2819      0.1849     22.3076     98.4363     32.7600
  1404.1000      8.1514      2.3249      0.1463     19.7020    105.3113     32.2330
  1404.2000      8.1514      2.3539      0.0473     17.9463    115.4046     31.3111
  1404.3000      8.1801      2.3747      0.1199     16.6851    124.6971     30.7784
  1404.4000      8.1801      2.3755      0.0258     16.6382    133.0458     30.9701
  1404.5000      8.1599      2.3722      0.0170     16.8379    138.5932     31.3184
  1404.6000      8.1599      2.3802      0.0716     16.3534    138.5779     30.7538
  1404.7000      8.1599      2.3806      0.0580     16.3287    133.1923     29.3869
  1404.8000      8.2233      2.3657      0.0456     17.2330    125.1529     28.3551
  1404.9000      8.2233      2.3556      0.0649     17.8429    119.2923     28.1661
  1405.0000      8.2935      2.3589      0.0907     17.6442    117.2483     28.3184
  1405.1000      8.2935      2.3645      0.1661     17.3055    118.0189     28.6115
  1405.2000      8.2935      2.3708      0.1661     16.9212    120.1525     29.0364
  1405.3000      8.2211      2.3911      0.2165     15.6926    119.8120     29.4406
  1405.4000      8.2211      2.4254      0.2601     13.6141    117.1958     29.9908
  1405.5000      8.2614      2.4609      0.2265     11.4601    116.9254     30.7674
  1405.6000      8.2614      2.4966      0.2267      9.2977    118.7125     30.9381
  1405.7000      8.2614      2.5329      0.2220      7.0991    121.6061     29.8092
  1405.8000      8.2505      2.5525      0.2465      5.9086    126.7879     28.3732
  1405.9000      8.2505      2.5407      0.2289      6.6261    130.7261     28.1744
  1406.0000      8.2734      2.5146      0.1710      8.2077    131.1543     29.1026
  1406.1000      8.2734      2.4943      0.1810      9.4389    131.8384     30.0233
  1406.2000      8.2734      2.4739      0.1221     10.6753    131.7162     30.7148
  1406.3000      8.2776      2.4523      0.0836     11.9804    125.0706     31.4169
  1406.4000      8.2776      2.4412      0.0718     12.6522    117.1477     31.7628
  1406.5000      8.2091      2.4401      0.1101     12.7222    115.6212     31.4357
  1406.6000      8.2091      2.4476      0.0406     12.2664    118.9220     30.7641
  1406.7000      8.2091      2.4686      0.0667     10.9917    124.0682     30.3341
  1406.8000      8.1985      2.4914      0.1445      9.6127    128.0257     30.4165
  1406.9000      8.1985      2.5091      0.1118      8.5402    128.7238     30.6540
  1407.0000      8.2082      2.5330      0.1694      7.0920    128.0760     30.1903
  1407.1000      8.2082      2.5590      0.1462      5.5178    126.3905     29.1027
  1407.2000      8.2082      2.5758      0.1795      4.4986    123.5881     28.4841
  1407.3000      8.1690      2.5828      0.1970      4.0698    121.4273     28.8029
  1407.4000      8.1690      2.5787      0.1821      4.3190    119.9380     29.8031
  1407.5000      8.1283      2.5632      0.1070      5.2577    118.0039     31.1217
  1407.6000      8.1283      2.5433      0.0851      6.4682    116.6941     31.8909
  1407.7000      8.1283      2.5192      0.0556      7.9271    117.4793     31.5430
  1407.8000      8.1597      2.4900      0.0606      9.6968    118.7642     30.6291
  1407.9000      8.1597      2.4632      0.0620     11.3232    118.0613     29.5618
  1408.0000      8.1505      2.4458      0.0536     12.3768    117.6328     28.5460
  1408.1000      8.1505      2.4405      0.0665     12.6942    119.5250     28.2926
  1408.2000      8.1505      2.4499      0.0563     12.1243    122.8028     28.7277
  1408.3000      8.2032      2.4649      0.1432     11.2158    127.7224     28.9945
  1408.4000      8.2032      2.4693      0.1499     10.9508    131.9597     29.2274
  1408.5000      8.2595      2.4658      0.1677     11.1643    131.8193     29.8414
  1408.6000      8.2595      2.4703      0.1615     10.8914    127.7364     30.2007
  1408.7000      8.2595      2.4797      0.2379     10.3212    123.4342     30.0003
  1408.8000      8.2128      2.4718      0.2246     10.8017    121.3326     30.0242
  1408.9000      8.2128      2.4484      0.1484     12.2195    122.2364     30.6127
  1409.0000      8.2092      2.4375      0.1426     12.8760    127.7997     30.9723
  1409.1000      8.2092      2.4414      0.1731     12.6417    134.7827     30.7310
  1409.2000      8.2092      2.4368      0.1270     12.9231    137.7953     30.6110
  1409.3000      8.2206      2.4217      0.1252     13.8392    134.1766     31.0446
  1409.4000      8.2206      2.4057      0.1704     14.8070    127.3651     31.7145
  1409.5000      8.2625      2.3824      0.1640     16.2176    121.9760     32.1753
  1409.6000      8.2625      2.3551      0.1169     17.8754    118.4777     32.1079
  1409.7000      8.2625      2.3465      0.0845     18.3946    115.3673     31.5042
  1409.8000      8.3598      2.3602      0.1761     17.5666    113.8106     30.7015
  1409.9000      8.3598      2.3848      0.1418     16.0723    116.2414     30.2430
  1410.0000      8.2502      2.4236      0.1693     13.7220    122.1372     30.5570
  1410.1000      8.2502      2.4655      0.2629     11.1793    127.2440     31.6227
  1410.2000      8.2502      2.4888      0.2567      9.7679    125.8151     32.8390
  1410.3000      8.3155      2.4937      0.2779      9.4721    119.5104     33.0270
  1410.4000      8.3155      2.4905      0.2090      9.6674    116.3364     32.0500
  1410.5000      8.3595      2.4896      0.1459      9.7188    117.3005     31.1296
  1410.6000      8.3595      2.4993      0.1582      9.1324    118.4730     30.4255
  1410.7000      8.3595      2.5195      0.1168      7.9078    118.4764     29.2723
