~Version Information
VERS.                      2.0: CWLS Log ASCII Standard - VERSION 2.0
WRAP.                       NO: One line per depth step
~Well Information Block
STRT.FT               430.0000: 
STOP.FT              1910.2000: 
STEP.FT                 0.1000: 
NULL.                -999.2500: 
COMP.          Pioneer Natural Resources: COMPANY
WELL.          Formula 23-11 Tr: WELL
FLD.           Purgatoire River: FIELD
LOC.           1976' FSL & 1935' FWL--: LOCATION
PROV.                 Colorado: PROVINCE
CNTY.               Las Animas: COUNTRY
SRVC.                Patterson: SERVICE COMPANY
DATE.          Mon Jun 13 07:32:15 2005: LOG DATE
UWI.           05 071 08399 00: UNIQUE WELL ID
~Curve Information Block
DEPT.FT            0 000 00 00: Depth
DCAL.in                       : CDL Caliper
RHOB.g/cc                     : CDL Bulk Density
RHOC.g/cc                     : CDL Density Correction
DPOR.pu                       : CDL Density Porosity
NPOR.pu                       : Neutron Porosity
GR.GAPI                       : Gamma Ray
~Parameter Information Block
~A  Depth       DCAL        RHOB        RHOC        DPOR        NPOR         GR     
# ...
  1102.0000      8.0315      2.5553      0.0710      5.7412     27.7794    144.0131
  1102.1000      8.0315      2.5656      0.1083      5.1167     27.1257    149.2898
  1102.2000      8.0315      2.5703      0.0518      4.8316     26.8782    143.5993
  1102.3000      8.0310      2.5754      0.1051      4.5227     26.4369    125.7612
  1102.4000      8.0310      2.5792      0.0769      4.2909     25.9558    109.6148
  1102.5000      8.0302      2.5804      0.0800      4.2210     25.9051    102.9178
  1102.6000      8.0302      2.5781      0.0968      4.3577     26.2548    101.3460
  1102.7000      8.0302      2.5686      0.0577      4.9340     26.6839    102.1688
  1102.8000      8.0308      2.5555      0.0533      5.7272     27.0655    103.2083
  1102.9000      8.0308      2.5467      0.0771      6.2602     27.5948    102.2571
  1103.0000      8.0318      2.5461      0.0673      6.2967     28.0905    101.7798
  1103.1000      8.0318      2.5528      0.0440      5.8887     28.2894    103.8085
  1103.2000      8.0318      2.5632      0.0773      5.2589     28.4447    106.8333
  1103.3000      8.0321      2.5712      0.0926      4.7758     28.8563    109.7522
  1103.4000      8.0321      2.5727      0.0874      4.6820     29.5196    112.1618
  1103.5000      8.0306      2.5673      0.0877      5.0113     30.2251    114.6034
  1103.6000      8.0306      2.5528      0.0834      5.8879     30.7796    119.5587
  1103.7000      8.0306      2.5317      0.0796      7.1689     31.0559    123.1659
  1103.8000      8.0284      2.5163      0.0530      8.1050     31.1511    121.9103
  1103.9000      8.0284      2.5144      0.0675      8.2183     31.3830    122.2819
  1104.0000      8.0282      2.5177      0.0685      8.0157     31.7805    127.5145
  1104.1000      8.0282      2.5133      0.0891      8.2861     32.0443    130.9336
  1104.2000      8.0282      2.5017      0.0376      8.9853     31.8397    131.5840
  1104.3000      8.0292      2.4939      0.0549      9.4600     31.4043    135.7511
  1104.4000      8.0292      2.4923      0.0484      9.5593     31.1938    140.0834
  1104.5000      8.0296      2.4973      0.0314      9.2541     31.0942    137.7425
  1104.6000      8.0296      2.5071      0.1053      8.6587     30.9709    131.0888
  1104.7000      8.0296      2.5132      0.0852      8.2937     30.7092    126.0264
  1104.8000      8.0298      2.5177      0.0533      8.0179     30.4388    127.4570
  1104.9000      8.0298      2.5213      0.1027      7.7983     30.5422    136.1322
  1105.0000      8.0307      2.5123      0.0900      8.3460     30.5878    143.1945
  1105.1000      8.0307      2.4924      0.0445      9.5506     30.1578    138.7314
  1105.2000      8.0307      2.4746      0.0889     10.6321     29.8270    129.2575
  1105.3000      8.0318      2.4650      0.0553     11.2127     30.1657    127.5400
  1105.4000      8.0318      2.4730      0.0279     10.7247     30.8384    131.4806
  1105.5000      8.0323      2.4980      0.0958      9.2124     31.1060    134.4276
  1105.6000      8.0323      2.5134      0.1201      8.2774     30.8206    138.2132
  1105.7000      8.0323      2.5061      0.1061      8.7228     30.3981    145.3066
  1105.8000      8.0323      2.4981      0.0583      9.2048     30.2836    155.1555
  1105.9000      8.0323      2.5067      0.0948      8.6865     30.5712    162.9996
  1106.0000      8.0314      2.5154      0.1566      8.1603     31.0411    163.6953
  1106.1000      8.0314      2.5112      0.1039      8.4092     31.5288    161.7685
  1106.2000      8.0314      2.5142      0.1087      8.2291     31.9779    162.4644
  1106.3000      8.0285      2.5410      0.1355      6.6065     32.3033    160.8901
  1106.4000      8.0285      2.5791      0.1476      4.2942     32.5317    152.6263
  1106.5000      8.0204      2.6011      0.1685      2.9648     32.8589    143.6875
  1106.6000      8.0204      2.5905      0.1251      3.6090     33.3179    140.6909
  1106.7000      8.0204      2.5663      0.0738      5.0707     33.6877    142.5185
  1106.8000      8.0031      2.5567      0.0878      5.6562     33.8377    141.5895
  1106.9000      8.0031      2.5544      0.1080      5.7917     33.6833    134.5278
  1107.0000      7.9835      2.5405      0.0619      6.6371     33.2851    128.6376
  1107.1000      7.9835      2.5249      0.0241      7.5803     32.9691    133.2805
  1107.2000      7.9835      2.5185      0.0586      7.9721     32.6625    145.8422
  1107.3000      7.9717      2.5082      0.0435      8.5922     32.0837    152.9722
  1107.4000      7.9717      2.4911      0.0304      9.6301     31.4819    149.2827
  1107.5000      7.9662      2.4790      0.0565     10.3627     31.1654    144.3625
  1107.6000      7.9662      2.4779      0.0725     10.4275     31.2363    144.5077
  1107.7000      7.9662      2.4857      0.1011      9.9565     31.5075    145.2046
  1107.8000      7.9614      2.4982      0.1144      9.2016     31.8454    144.6268
  1107.9000      7.9614      2.5104      0.1473      8.4579     32.2030    146.6072
  1108.0000      7.9515      2.5111      0.1482      8.4184     32.4391    148.4941
  1108.1000      7.9515      2.4917      0.1477      9.5920     32.3480    146.0322
  1108.2000      7.9515      2.4630      0.0982     11.3310     31.9443    143.7442
  1108.3000      7.9362      2.4462      0.0400     12.3491     31.6055    143.6413
  1108.4000      7.9362      2.4423      0.0902     12.5894     31.6854    143.7145
  1108.5000      7.9262      2.4317      0.0742     13.2328     32.0109    142.3921
  1108.6000      7.9262      2.4147      0.0523     14.2628     32.0415    139.3895
  1108.7000      7.9262      2.4035      0.0417     14.9366     31.7730    137.2374
  1108.8000      7.9238      2.3914      0.0698     15.6710     31.7061    135.7179
  1108.9000      7.9238      2.3755     -0.0002     16.6382     32.0833    133.3521
  1109.0000      7.9237      2.3750      0.0172     16.6653     32.3606    130.2562
  1109.1000      7.9237      2.3996      0.0584     15.1755     31.9383    124.0716
  1109.2000      7.9237      2.4344      0.1145     13.0674     30.9858    115.8651
  1109.3000      7.9232      2.4637      0.1272     11.2929     30.0771    112.7668
  1109.4000      7.9232      2.4853      0.1345      9.9825     29.4945    117.2657
  1109.5000      7.9228      2.5054      0.1126      8.7611     29.1099    123.0440
  1109.6000      7.9228      2.5323      0.1020      7.1332     28.7614    122.3254
  1109.7000      7.9228      2.5635      0.1172      5.2421     28.4427    115.2630
  1109.8000      7.9220      2.5833      0.1089      4.0411     27.9669    110.3875
  1109.9000      7.9220      2.5879      0.0657      3.7642     27.1259    113.8841
  1110.0000      7.9206      2.5951      0.0809      3.3288     26.4091    120.0452
  1110.1000      7.9206      2.6118      0.1090      2.3148     26.6498    121.3158
  1110.2000      7.9206      2.6273      0.1163      1.3740     27.6893    119.7182
  1110.3000      7.9210      2.6388      0.0992      0.6776     28.2689    116.1043
  1110.4000      7.9210      2.6518      0.0811     -0.1096     27.6879    108.4552
  1110.5000      7.9219      2.6627      0.1389     -0.7709     26.7134    101.1191
  1110.6000      7.9219      2.6586      0.0984     -0.5225     26.3141    100.8999
  1110.7000      7.9219      2.6359      0.0693      0.8563     26.5000    104.7527
  1110.8000      7.9217      2.6050      0.0688      2.7249     26.8269    104.9095
  1110.9000      7.9217      2.5827      0.0744      4.0780     27.1792    103.8757
  1111.0000      7.9226      2.5790      0.0620      4.3042     27.4278    106.6854
  1111.1000      7.9226      2.5824      0.0918      4.0973     27.3589    108.1342
  1111.2000      7.9226      2.5680      0.0659      4.9690     27.2445    103.1134
  1111.3000      7.9242      2.5347      0.0326      6.9896     27.1999     99.6272
  1111.4000      7.9242      2.5154     -0.0002      8.1546     26.9671    103.4971
  1111.5000      7.9256      2.5282      0.0256      7.3790     26.6845    106.9838
