~Version Information
VERS.                      2.0: CWLS Log ASCII Standard - VERSION 2.0
WRAP.                       NO: One line per depth step
~Well Information Block
STRT.FT                -7.5000: 
STOP.FT              1877.2500: 
STEP.FT                 0.2500: 
NULL.                -999.2500: 
COMP.          Pioneer Natural Resources: COMPANY
WELL.            Nova 11-14 Tr: WELL
FLD.           Purgatorie River: FIELD
LOC.           706' FNL & 1109' FWL--: LOCATION
PROV.                       CO: PROVINCE
CNTY.               Las Animas: COUNTRY
SRVC.          Patterson Wireline: SERVICE COMPANY
DATE.          Tue Jul 26 15:08:01 2005: LOG DATE
UWI.           05 071 08434 00: UNIQUE WELL ID
~Curve Information Block
DEPT.FT            0 000 00 00: Depth
CCL.                          : Casing Collar Locator
TT3.usec                      : CBL 3' Travel Time
AMP3.mV                       : CBL 3' Amplitude
GR.GAPI                       : Gamma Ray
~Parameter Information Block
~A  Depth       CCL         TT3         AMP3         GR     
# ...
   361.0000      0.0000    990.2437     10.3767     58.5071
   361.2500      0.0000    983.4760     10.3295     56.1208
   361.5000      0.0000    953.8390     10.2656     57.2645
   361.7500      0.0000    905.8914     10.1986     60.8472
   362.0000      0.0000    855.3119     10.1490     63.7024
   362.2500      0.0000    816.9067     10.1295     63.2321
   362.5000      0.0000    795.4968     10.1342     59.2466
   362.7500      0.0000    787.9187     10.1426     53.7017
   363.0000      0.0000    790.0828     10.1367     49.1053
   363.2500      0.0000    800.4604     10.1142     46.9694
   363.5000      0.0000    818.1447     10.0860     47.1577
   363.7500      0.0000    839.7708     10.0688     48.3629
   364.0000      0.0000    859.9650     10.0825     49.1212
   364.2500      0.0000    874.3726     10.1460     48.5136
   364.5000      0.0000    880.1757     10.2615     46.4289
   364.7500      0.0000    874.9815     10.4015     43.7028
   365.0000      0.0000    859.8990     10.5212     41.8975
   365.2500      0.0000    843.4777     10.5892     42.2769
   365.5000      0.0000    838.0234     10.6058     44.5440
   365.7500      0.0000    850.3696     10.5967     46.8561
   366.0000      0.0000    876.3740     10.5961     47.5418
   366.2500      0.0000    902.5763     10.6316     46.7288
   366.5000      0.0000    913.3655     10.7098     46.0436
   366.7500      0.0000    900.7359     10.8122     46.9185
   367.0000      0.0000    869.9773     10.9085     49.4471
   367.2500      0.0000    835.0455     10.9775     52.5297
   367.5000      0.0000    807.8220     11.0147     54.7372
   367.7500      0.0000    791.9562     11.0298     55.2706
   368.0000      0.0000    784.7650     11.0391     54.4067
   368.2500      0.0000    782.1115     11.0578     52.9790
   368.5000      0.0000    781.2632     11.0920     51.5084
   368.7500      0.0000    781.1600     11.1389     50.0562
   369.0000      0.0000    781.7241     11.1940     48.7464
   369.2500      0.0000    783.1414     11.2562     47.9197
   369.5000      0.0000    785.2885     11.3209     47.6052
   369.7500      0.0000    787.3407     11.3739     47.3007
   370.0000      0.0000    788.0897     11.4007     46.7135
   370.2500      0.0000    786.9539     11.4067     46.4390
   370.5000      0.0000    784.5590     11.4215     47.3228
   370.7500      0.0000    782.1017     11.4732     49.2037
   371.0000      0.0000    780.3234     11.5623     50.8312
   371.2500      0.0000    779.2424     11.6649     51.1320
   371.5000      0.0000    778.5783     11.7559     50.1694
   371.7500      0.0000    778.1324     11.8186     48.7866
   372.0000      0.0000    777.8405     11.8409     47.7270
   372.2500      0.0000    777.6900     11.8202     47.3303
   372.5000      0.0000    777.6818     11.7717     47.8457
   372.7500      0.0000    777.8128     11.7227     49.6599
   373.0000      0.0000    778.0507     11.6937     52.9257
   373.2500      0.0000    778.3248     11.6869     56.9995
   373.5000      0.0000    778.5689     11.6888     60.7347
   373.7500      0.0000    778.7621     11.6800     63.8347
   374.0000      0.0000    778.9219     11.6458     67.6778
   374.2500      0.0000    779.0743     11.5828     74.0031
   374.5000      0.0000    779.2333     11.4966     82.4233
   374.7500      0.0000    779.3893     11.3948     89.7800
   375.0000      0.0000    779.5102     11.2851     92.6748
   375.2500      0.0000    779.5748     11.1775     90.6437
   375.5000      0.0000    779.6170     11.0789     86.4673
   375.7500      0.0000    779.7642     10.9742     83.6238
   376.0000      0.0000    780.3165     10.8074     83.9174
   376.2500      0.0000    781.9713     10.4936     87.0339
   376.5000      0.0000    786.0851      9.9884     91.3234
   376.7500      0.0000    794.5463      9.3637     94.9472
   377.0000      0.0000    808.8178      8.7835     97.0730
   377.2500      0.0000    828.5210      8.3814     98.2033
   377.5000      0.0000    851.2796      8.1783     98.9947
   377.7500      0.0000    874.6052      8.1120     98.9493
   378.0000      0.0000    897.2194      8.1066     96.7470
   378.2500      0.0000    917.4003      8.1107     91.8530
   378.5000     -2.0000    931.9874      8.1095     85.5298
   378.7500      2.0000    939.7014      8.1255     80.2328
   379.0000      0.0000    942.8816      8.2152     78.0482
   379.2500      0.0000    941.9025      8.4554     79.5604
   379.5000      0.0000    930.8343      8.9064     83.8877
   379.7500      0.0000    904.1491      9.5551     89.5149
   380.0000      0.0000    866.1431     10.2899     95.1911
   380.2500      0.0000    829.0523     10.9564    100.5186
   380.5000      0.0000    802.6337     11.4422    105.9125
   380.7500      0.0000    788.4225     11.7116    111.6268
   381.0000      0.0000    782.5219     11.7910    116.5316
   381.2500      0.0000    780.5945     11.7448    118.3563
   381.5000      0.0000    780.0943     11.6455    115.8149
   381.7500      0.0000    780.0002     11.5424    110.3127
   382.0000      0.0000    780.0007     11.4547    104.9761
   382.2500      0.0000    780.0071     11.3871    102.0692
   382.5000      0.0000    780.0005     11.3429    101.5355
   382.7500      0.0000    779.9761     11.3250    101.6410
   383.0000      0.0000    779.9200     11.3314    100.4948
   383.2500      0.0000    779.8257     11.3526     97.1348
   383.5000      0.0000    779.7207     11.3747     91.9502
   383.7500      0.0000    779.6658     11.3882     86.5342
   384.0000      0.0000    779.7217     11.3939     82.7901
   384.2500      0.0000    779.9073     11.3948     81.5710
   384.5000      0.0000    780.1914     11.3854     81.9732
   384.7500      0.0000    780.5202     11.3564     82.1433
   385.0000      0.0000    780.8336     11.3101     81.0183
   385.2500      0.0000    781.0502     11.2590     79.3718
   385.5000      0.0000    781.0881     11.2088     79.0352
   385.7500      0.0000    780.9460     11.1493     81.0778
   386.0000      0.0000    780.7347     11.0695     84.8250
   386.2500      0.0000    780.5881     10.9748     88.3639
   386.5000      0.0000    780.5588     10.8878     89.7267
   386.7500      0.0000    780.6085     10.8277     88.0802
   387.0000      0.0000    780.6629     10.7917     84.3536
   387.2500      0.0000    780.6625     10.7581     80.6489
   387.5000      0.0000    780.5932     10.7094     78.8152
   387.7500      0.0000    780.4973     10.6509     79.5368
   388.0000      0.0000    780.4452     10.6043     82.2379
   388.2500      0.0000    780.4809     10.5859     85.1979
   388.5000      0.0000    780.5791     10.5949     86.1988
   388.7500      0.0000    780.6484     10.6186     84.0440
   389.0000      0.0000    780.5870     10.6433     79.5570
   389.2500      0.0000    780.3622     10.6625     74.8040
   389.5000      0.0000    780.0461     10.6761     71.4183
   389.7500      0.0000    779.7668     10.6806     69.6682
   390.0000      0.0000    779.6190     10.6631     68.7493
   390.2500      0.0000    779.6208     10.6121     67.6733
   390.5000      0.0000    779.7358     10.5374     65.8693
   390.7500      0.0000    779.9164     10.4701     63.1960
   391.0000      0.0000    780.1275     10.4392     59.8856
   391.2500      0.0000    780.3494     10.4486     56.5637
   391.5000      0.0000    780.5633     10.4782     53.8189
   391.7500      0.0000    780.7326     10.5005     51.6174
   392.0000      0.0000    780.8069     10.4968     49.5714
   392.2500      0.0000    780.7565     10.4639     47.7954
   392.5000      0.0000    780.6058     10.4144     47.0017
   392.7500      0.0000    780.4301     10.3698     47.5984
   393.0000      0.0000    780.3132     10.3502     49.0340
   393.2500      0.0000    780.2996     10.3638     50.2020
   393.5000      0.0000    780.3772     10.4097     50.3448
   393.7500      0.0000    780.5012     10.4858     49.6054
   394.0000      0.0000    780.6333     10.5878     48.8940
   394.2500      0.0000    780.7615     10.7007     49.2192
