~Version Information
 VERS.                                  2.0 : CWLS LAS VERSION
 WRAP.                                   NO : WRAPING MODE
 SWARE .                 MController 2.5.0N : SOFTWARE VERSION
~Well Information
 WELL.                          Cluck 21-25 : WELL
 COMP.    PIONEER NATURAL RESOURCES USA INC : COMPANY
 FLD.                      PURGATOIRE RIVER : FIELD
 LOC.                  NE/NW Sec 25 32S 67W : LOCATION
 DATE.                           6/5-6/2005 : DATE(S) LOGGED
 SRVC.       BLANCO GEOLOGICAL SERVICES LLC : SERVICE COMPANY
 STAT.                                   CO : STATE
 CNTY.                           LAS ANIMAS : COUNTY
 CTRY.                                  USA : COUNTRY
 API.                       05-071-08397-00 : API NUMBER
 STRT.FT                             296.00 : START DEPTH
 STOP.FT                            2730.00 : STOP DEPTH
 STEP.FT                               1.00 : DEPTH INCREMENT
 NULL.                                -9999 : NULL VALUE
~Curve information
 DEPTH.FT                                   :
 ROP.MIN/FT                                 :
 GAS.UNITS                                  :
~ASCII Log data
# ...
      1496.0         0.57         23.7 
      1497.0         0.37         22.8 
      1498.0         0.17         23.9 
      1499.0         0.20         23.9 
      1500.0         0.20         23.5 
      1501.0         4.73         34.7 
      1502.0         3.18         46.4 
      1503.0         0.57         42.8 
      1504.0         0.67         40.1 
      1505.0         0.53         37.3 
      1506.0         0.63         23.9 
      1507.0         0.65         21.5 
      1508.0         0.47         19.8 
      1509.0         0.67         19.2 
      1510.0         1.10         20.9 
      1511.0         0.87         20.6 
      1512.0         0.78         21.5 
      1513.0         0.67         21.5 
      1514.0         0.67         22.3 
      1515.0         0.70         21.9 
      1516.0         0.63         21.4 
      1517.0         0.25         21.1 
      1518.0         0.17         22.6 
      1519.0         0.17         22.6 
      1520.0         0.23         22.8 
      1521.0         0.27         25.7 
      1522.0         0.20         32.7 
      1523.0         0.60         50.9 
      1524.0         0.33         48.5 
      1525.0         0.33         44.9 
      1526.0         0.28         37.9 
      1527.0         0.40         28.5 
      1528.0         0.40         26.2 
      1529.0         0.27         23.9 
      1530.0         0.23         23.9 
      1531.0         0.30         23.6 
      1532.0        41.28         49.0 
      1533.0         0.10         41.2 
      1534.0         0.20         41.4 
      1535.0         0.33         40.7 
      1536.0         1.40         40.3 
      1537.0         0.67         26.5 
      1538.0         0.52         20.8 
      1539.0         0.47         19.4 
      1540.0         0.40         20.8 
      1541.0         0.33         19.7 
      1542.0         0.33         21.6 
      1543.0         0.23         21.5 
      1544.0         0.23         21.9 
      1545.0         0.25         21.5 
      1546.0         0.27         22.2 
      1547.0         0.43         23.6 
      1548.0         0.23         24.4 
      1549.0         0.23         25.1 
      1550.0         0.17         23.7 
      1551.0         0.17         23.1 
      1552.0         0.17         24.1 
      1553.0         0.20         26.2 
      1554.0         0.43         34.4 
      1555.0         0.47         45.6 
      1556.0         0.48         51.0 
      1557.0         0.37         50.7 
      1558.0         0.40         45.5 
      1559.0         0.47         30.4 
      1560.0         0.37         25.3 
      1561.0         4.28         22.7 
      1562.0         0.20         22.3 
      1563.0         0.13         20.8 
      1564.0         0.10         21.9 
      1565.0         0.13         21.2 
      1566.0         0.12         20.9 
      1567.0         0.23         20.8 
      1568.0         0.10         20.8 
      1569.0         0.13         21.1 
      1570.0         0.10         21.1 
      1571.0         0.47         21.3 
      1572.0         0.23         20.7 
      1573.0         0.07         21.6 
      1574.0         0.10         21.6 
      1575.0         0.07         21.6 
      1576.0         0.13         20.7 
      1577.0         0.40         21.5 
      1578.0         0.07         20.6 
      1579.0         0.07         20.6 
      1580.0         0.10         20.6 
      1581.0         0.07         20.6 
      1582.0         0.13         22.6 
      1583.0         0.10         22.6 
      1584.0         0.07         22.6 
      1585.0         0.10         23.5 
      1586.0         0.30         24.8 
      1587.0         0.17         24.8 
      1588.0         0.22         27.1 
      1589.0         0.23         28.5 
      1590.0         0.67         32.3 
      1591.0         6.77        113.5 
      1592.0         1.50         29.0 
      1593.0         0.33         21.3 
      1594.0         0.55         19.3 
      1595.0         0.57         20.6 
      1596.0         0.70         20.1 
      1597.0         1.13         20.3 
      1598.0         1.22         20.8 
      1599.0         0.87         21.2 
      1600.0         0.47         21.4 
      1601.0         0.67         20.3 
      1602.0         0.73         21.5 
      1603.0         0.68         19.9 
      1604.0         0.93         21.4 
      1605.0         1.13         22.3 
      1606.0         3.48         23.6 
      1607.0         1.18         24.8 
      1608.0         1.17         24.2 
      1609.0         1.27         24.3 
      1610.0         0.25         24.3 
      1611.0         0.30         23.4 
      1612.0         0.23         24.5 
      1613.0         0.40         24.7 
      1614.0         0.37         26.2 
      1615.0         0.93         25.5 
      1616.0         0.67         25.0 
      1617.0         0.27         26.6 
      1618.0         0.28         26.8 
      1619.0         0.57         27.0 
      1620.0         0.40         25.1 
      1621.0         6.53         55.8 
      1622.0         0.10         55.8 
      1623.0         0.30         57.5 
      1624.0         0.57         57.8 
      1625.0         0.77         56.8 
      1626.0         0.65         62.6 
      1627.0         0.57         62.4 
      1628.0         0.70         36.4 
      1629.0         0.43         29.0 
      1630.0         0.27         28.1 
      1631.0         0.30         27.6 
      1632.0         0.27         27.5 
      1633.0         0.20         27.1 
      1634.0         0.27         27.1 
      1635.0         0.42         26.9 
      1636.0         0.43         28.4 
      1637.0         0.37         28.4 
      1638.0         0.37         28.3 
      1639.0         0.40         27.0 
      1640.0         0.37         27.5 
      1641.0         0.37         26.2 
      1642.0         0.37         26.4 
      1643.0         0.37         27.1 
      1644.0         0.42         26.7 
      1645.0         0.33         27.4 
      1646.0         0.40         27.1 
      1647.0         0.67         25.8 
      1648.0         1.47         26.0 
      1649.0         0.88         26.2 
      1650.0         0.87         26.6 
      1651.0        15.00         51.0 
      1652.0         1.25         47.0 
      1653.0         1.13         30.1 
      1654.0         1.10         27.9 
      1655.0         0.95         28.1 
      1656.0         0.80         28.0 
      1657.0         0.87         27.6 
      1658.0         0.63         26.4 
      1659.0         0.42         27.2 
      1660.0         0.43         26.7 
      1661.0         0.27         26.8 
      1662.0         0.17         25.5 
      1663.0         0.17         25.5 
      1664.0         0.27         26.2 
      1665.0         0.23         25.5 
      1666.0         0.20         27.1 
      1667.0         0.27         30.6 
      1668.0         0.20         30.6 
      1669.0         0.23         33.7 
      1670.0         0.23         34.5 
      1671.0         0.23         34.6 
      1672.0         0.17         32.6 
      1673.0         0.22         31.7 
      1674.0         0.40         27.2 
      1675.0         0.43         25.8 
      1676.0         0.43         26.4 
      1677.0         0.47         25.8 
      1678.0         0.63         26.0 
      1679.0         0.53         24.7 
      1680.0         0.13         23.4 
      1681.0         3.52         30.4 
      1682.0         2.78         37.9 
      1683.0         0.98         39.0 
      1684.0         0.37         40.0 
      1685.0         1.23         40.3 
      1686.0         1.10         42.6 
      1687.0         1.02         26.7 
      1688.0         1.07         22.7 
      1689.0         0.83         22.3 
      1690.0         0.72         22.4 
      1691.0         0.90         22.7 
      1692.0         0.67         22.3 
      1693.0         0.60         21.3 
      1694.0         0.80         22.0 
      1695.0         1.25         21.9 
