~Version Information
VERS.                      2.0: CWLS Log ASCII Standard - VERSION 2.0
WRAP.                       NO: One line per depth step
~Well Information Block
STRT.FT               440.0000: 
STOP.FT              1001.5000: 
STEP.FT                 0.1000: 
NULL.                -999.2500: 
COMP.          Pioneer Natural Resources: COMPANY
WELL.              Dylan 42-25: WELL
FLD.           Purgatoire River: FIELD
LOC.           2160' FNL & 855' FEL: LOCATION
PROV.                 Colorado: PROVINCE
CNTY.               Las Animas: COUNTRY
SRVC.                Patterson: SERVICE COMPANY
DATE.          Mon Apr 25 09:31:16 2005: LOG DATE
UWI.           05 071 08229 00: UNIQUE WELL ID
~Curve Information Block
DEPT.FT            0 000 00 00: Depth
DCAL.in                       : CDL Caliper
RHOB.g/cc                     : CDL Bulk Density
RHOC.g/cc                     : CDL Density Correction
DPOR.pu                       : CDL Density Porosity
GR.GAPI                       : Gamma Ray
NPOR.pu                       : Neutron Porosity
~Parameter Information Block
~A  Depth       DCAL        RHOB        RHOC        DPOR         GR         NPOR    
# ...
   987.2000      7.9640      2.5544      0.1199      5.7931   -999.2500     50.5931
   987.3000      7.9362      2.5481      0.0488      6.1756   -999.2500     50.9875
   987.4000      7.9362      2.5410      0.1101      6.6084   -999.2500     51.0297
   987.5000      7.9221      2.5419      0.0988      6.5493   -999.2500     51.0321
   987.6000      7.9221      2.5464      0.0946      6.2793   -999.2500   -999.2500
   987.7000      7.9221      2.5545      0.0608      5.7888   -999.2500   -999.2500
   987.8000      7.9145      2.5628      0.1050      5.2856   -999.2500   -999.2500
   987.9000      7.9145      2.5569      0.0997      5.6419   -999.2500   -999.2500
   988.0000      7.9133      2.5402      0.0139      6.6541   -999.2500   -999.2500
   988.1000      7.9133      2.5352      0.0024      6.9599   -999.2500   -999.2500
   988.2000      7.9133      2.5412      0.0543      6.5946   -999.2500   -999.2500
   988.3000      7.8955      2.5303      0.0666      7.2543   -999.2500   -999.2500
   988.4000      7.8955      2.5047      0.0012      8.8043   -999.2500   -999.2500
   988.5000      7.9007      2.5003      0.0168      9.0713   -999.2500   -999.2500
   988.6000      7.9007      2.5210      0.0363      7.8191   -999.2500   -999.2500
   988.7000      7.9007      2.5382      0.0505      6.7745   -999.2500   -999.2500
   988.8000      7.8963      2.5381      0.0892      6.7829   -999.2500   -999.2500
   988.9000      7.8963      2.5252      0.0492      7.5661   -999.2500   -999.2500
   989.0000      7.8950      2.5073      0.0076      8.6461   -999.2500   -999.2500
   989.1000      7.8950      2.5008     -0.0022      9.0431   -999.2500   -999.2500
   989.2000      7.8950      2.5153      0.0744      8.1629   -999.2500   -999.2500
   989.3000      7.9112      2.5308      0.0885      7.2239   -999.2500   -999.2500
   989.4000      7.9112      2.5276      0.0844      7.4202   -999.2500   -999.2500
   989.5000      7.9148      2.5185     -0.0021      7.9677   -999.2500   -999.2500
   989.6000      7.9148      2.5161      0.0510      8.1154   -999.2500   -999.2500
   989.7000      7.9148      2.5079      0.0654      8.6145   -999.2500   -999.2500
   989.8000      7.9179      2.4894      0.0579      9.7320   -999.2500   -999.2500
   989.9000      7.9179      2.4749      0.0230     10.6095   -999.2500   -999.2500
   990.0000      7.9125      2.4795      0.0271     10.3317   -999.2500   -999.2500
   990.1000      7.9125      2.5002      0.0710      9.0779   -999.2500   -999.2500
   990.2000      7.9125      2.5171      0.0445      8.0565   -999.2500   -999.2500
   990.3000      7.9134      2.5247      0.0481      7.5964   -999.2500   -999.2500
   990.4000      7.9134      2.5392     -0.0130      6.7153   -999.2500   -999.2500
   990.5000      7.9145      2.5673      0.1032      5.0149   -999.2500   -999.2500
   990.6000      7.9145      2.5901      0.0712      3.6279   -999.2500   -999.2500
   990.7000      7.9145      2.5978      0.0606      3.1627   -999.2500   -999.2500
   990.8000      7.9053      2.5976      0.0649      3.1729   -999.2500   -999.2500
   990.9000      7.9053      2.5867      0.0591      3.8356   -999.2500   -999.2500
   991.0000      7.9075      2.5591      0.0766      5.5104   -999.2500   -999.2500
   991.1000      7.9075      2.5282      0.0840      7.3835   -999.2500   -999.2500
   991.2000      7.9075      2.5064      0.0209      8.7020   -999.2500   -999.2500
   991.3000      7.8946      2.4841      0.0671     10.0571   -999.2500   -999.2500
   991.4000      7.8946      2.4590     -0.0349     11.5770   -999.2500   -999.2500
   991.5000      7.9047      2.4588     -0.0375     11.5898   -999.2500   -999.2500
   991.6000      7.9047      2.4923      0.0980      9.5561   -999.2500   -999.2500
   991.7000      7.9047      2.5333      0.0652      7.0708   -999.2500   -999.2500
   991.8000      7.9188      2.5671      0.0584      5.0235   -999.2500   -999.2500
   991.9000      7.9188      2.5886      0.0981      3.7220   -999.2500   -999.2500
   992.0000      7.9162      2.5877      0.1501      3.7762   -999.2500   -999.2500
   992.1000      7.9162      2.5776      0.1134      4.3871   -999.2500   -999.2500
   992.2000      7.9162      2.5896      0.0959      3.6584   -999.2500   -999.2500
   992.3000      7.9001      2.6188      0.1551      1.8939   -999.2500   -999.2500
   992.4000      7.9001      2.6307      0.1649      1.1675   -999.2500   -999.2500
   992.5000      7.8702      2.6194      0.1223      1.8568   -999.2500   -999.2500
   992.6000      7.8702      2.6054      0.1020      2.7054   -999.2500   -999.2500
   992.7000      7.8702      2.5935      0.1120      3.4227   -999.2500   -999.2500
   992.8000      7.8763      2.5731      0.0787      4.6609   -999.2500   -999.2500
   992.9000      7.8763      2.5522      0.0280      5.9253   -999.2500   -999.2500
   993.0000      7.8907      2.5476      0.0986      6.2054   -999.2500   -999.2500
   993.1000      7.8907      2.5542      0.0838      5.8047   -999.2500   -999.2500
   993.2000      7.8907      2.5527      0.0904      5.8973   -999.2500   -999.2500
   993.3000      7.9217      2.5439      0.0208      6.4292   -999.2500   -999.2500
   993.4000      7.9217      2.5488      0.0977      6.1353   -999.2500   -999.2500
   993.5000      7.9102      2.5725      0.0463      4.6958   -999.2500   -999.2500
   993.6000      7.9102      2.6016      0.0959      2.9333   -999.2500   -999.2500
   993.7000      7.9102      2.6138      0.1202      2.1962   -999.2500   -999.2500
   993.8000      7.9087      2.6058      0.0315      2.6804   -999.2500   -999.2500
   993.9000      7.9087      2.5951      0.0690      3.3297   -999.2500   -999.2500
   994.0000      7.9035      2.5812      0.1035      4.1707   -999.2500   -999.2500
   994.1000      7.9035      2.5599      0.0332      5.4598   -999.2500   -999.2500
   994.2000      7.9035      2.5485      0.0577      6.1523   -999.2500   -999.2500
   994.3000      7.9082      2.5591      0.0711      5.5063   -999.2500   -999.2500
   994.4000      7.9082      2.5799      0.1102      4.2497   -999.2500   -999.2500
   994.5000      7.9079      2.5910      0.1388      3.5742   -999.2500   -999.2500
   994.6000      7.9079      2.5831      0.0855      4.0526   -999.2500   -999.2500
   994.7000      7.9079      2.5653      0.0889      5.1351   -999.2500   -999.2500
   994.8000      7.9014      2.5550      0.0609      5.7549   -999.2500   -999.2500
   994.9000      7.9014      2.5556      0.0821      5.7200   -999.2500   -999.2500
   995.0000      7.8901      2.5510      0.1102      5.9990   -999.2500   -999.2500
   995.1000      7.8901      2.5337      0.0483      7.0472   -999.2500   -999.2500
   995.2000      7.8901      2.5118      0.0277      8.3782   -999.2500   -999.2500
   995.3000      7.9062      2.4881      0.0932      9.8117   -999.2500   -999.2500
   995.4000      7.9062      2.4631      0.0323     11.3272   -999.2500   -999.2500
   995.5000      7.9290      2.4431      0.0297     12.5415   -999.2500   -999.2500
   995.6000      7.9290      2.4346      0.0199     13.0561   -999.2500   -999.2500
   995.7000      7.9290      2.4439     -0.0196     12.4914   -999.2500   -999.2500
   995.8000      7.9115      2.4651      0.0370     11.2044   -999.2500   -999.2500
   995.9000      7.9115      2.4806      0.0708     10.2650   -999.2500   -999.2500
   996.0000      7.9241      2.4874      0.0593      9.8522   -999.2500   -999.2500
   996.1000      7.9241      2.4953      0.0712      9.3740   -999.2500   -999.2500
   996.2000      7.9241      2.4972      0.1082      9.2622   -999.2500   -999.2500
   996.3000      7.9480      2.4843      0.0800     10.0405   -999.2500   -999.2500
   996.4000      7.9480      2.4694      0.0549     10.9439   -999.2500   -999.2500
   996.5000      7.9760      2.4661      0.0480     11.1428   -999.2500   -999.2500
   996.6000      7.9760      2.4768      0.0419     10.4996   -999.2500   -999.2500
   996.7000      7.9760      2.4956      0.0586      9.3577   -999.2500   -999.2500
