~Version Information
VERS.                      2.0: CWLS Log ASCII Standard - VERSION 2.0
WRAP.                       NO: One line per depth step
~Well Information Block
STRT.FT               294.0000: 
STOP.FT              1961.5000: 
STEP.FT                 0.2500: 
NULL.                -999.2500: 
COMP.          Pioneer Natural Resources: COMPANY
WELL.          Commander 43-26 Tr: WELL
FLD.           Purgatoire River: FIELD
LOC.           2439' FSL & 446' FEL: LOCATION
PROV.                 Colorado: PROVINCE
CNTY.               Las Animas: COUNTRY
SRVC.                Patterson: SERVICE COMPANY
DATE.          Thu Apr 14 18:26:07 2005: LOG DATE
UWI.           05 071 08341 00: UNIQUE WELL ID
~Curve Information Block
DEPT.FT            0 000 00 00: Depth
SN.Ohm-m                      : IEL Short Normal
SP.mV                         : IEL Spontaneous Potential
DIR.Ohm-m                     : IEL Induction Resistivity
GR.GAPI                       : Gamma Ray
~Parameter Information Block
~A  Depth        SN          SP         DIR          GR     
# ...
   964.0000   2000.0000   2000.0000     50.3856     71.3702
   964.2500   2000.0000   2000.0000     50.5152     71.0313
   964.5000   2000.0000   2000.0000     50.9882     70.6738
   964.7500   2000.0000   2000.0000     51.6332     70.4702
   965.0000   2000.0000   2000.0000     52.1214     70.0527
   965.2500   2000.0000   2000.0000     52.0351     69.5581
   965.5000   2000.0000   2000.0000     51.0939     68.2245
   965.7500   2000.0000   2000.0000     49.3981     66.8206
   966.0000   2000.0000   2000.0000     47.4109     64.1464
   966.2500   2000.0000   2000.0000     45.6667     62.6014
   966.5000   2000.0000   2000.0000     44.5012     62.3202
   966.7500   2000.0000   2000.0000     43.9816     64.1477
   967.0000   2000.0000   2000.0000     43.9813     69.2612
   967.2500   2000.0000   2000.0000     44.2910     72.9340
   967.5000   2000.0000   2000.0000     44.7036     76.5418
   967.7500   2000.0000   2000.0000     45.0533     77.1769
   968.0000   2000.0000   2000.0000     45.2029     76.2098
   968.2500   2000.0000   2000.0000     45.0211     74.9557
   968.5000   2000.0000   2000.0000     44.3979     72.4096
   968.7500   2000.0000   2000.0000     43.3180     69.9327
   969.0000   2000.0000   2000.0000     41.9210     64.8936
   969.2500   2000.0000   2000.0000     40.4633     61.1951
   969.5000   2000.0000   2000.0000     39.1988     56.4441
   969.7500   2000.0000   2000.0000     38.2790     54.2339
   970.0000   2000.0000   2000.0000     37.7344     52.3682
   970.2500   2000.0000   2000.0000     37.5174     51.9275
   970.5000   2000.0000   2000.0000     37.5565     52.2243
   970.7500   2000.0000   2000.0000     37.7894     52.9687
   971.0000   2000.0000   2000.0000     38.1559     54.7371
   971.2500   2000.0000   2000.0000     38.5753     56.0961
   971.5000   2000.0000   2000.0000     38.9403     57.5858
   971.7500   2000.0000   2000.0000     39.1637     57.7299
   972.0000   2000.0000   2000.0000     39.2519     56.4814
   972.2500   2000.0000   2000.0000     39.3255     54.9959
   972.5000   2000.0000   2000.0000     39.5381     52.5008
   972.7500   2000.0000   2000.0000     39.9486     50.8863
   973.0000   2000.0000   2000.0000     40.4455     48.8141
   973.2500   2000.0000   2000.0000     40.7915     48.0280
   973.5000   2000.0000   2000.0000     40.7753     48.5626
   973.7500   2000.0000   2000.0000     40.3516     50.2218
   974.0000   2000.0000   2000.0000     39.6502     54.1185
   974.2500   2000.0000   2000.0000     38.8790     57.2699
   974.5000   2000.0000   2000.0000     38.2358     62.7332
   974.7500   2000.0000   2000.0000     37.8674     66.9622
   975.0000   2000.0000   2000.0000     37.8449     73.8781
   975.2500   2000.0000   2000.0000     38.1384     78.3025
   975.5000   2000.0000   2000.0000     38.6094     83.3117
   975.7500   2000.0000   2000.0000     39.0517     84.8775
   976.0000   2000.0000   2000.0000     39.2815     84.2170
   976.2500   2000.0000   2000.0000     39.2256     82.1646
   976.5000   2000.0000   2000.0000     38.9345     77.8404
   976.7500   2000.0000   2000.0000     38.5269     74.7420
   977.0000   2000.0000   2000.0000     38.1229     70.4922
   977.2500   2000.0000   2000.0000     37.8064     68.1641
   977.5000   2000.0000   2000.0000     37.5990     65.5491
   977.7500   2000.0000   2000.0000     37.4350     64.3439
   978.0000   2000.0000   2000.0000     37.1594     63.1799
   978.2500   2000.0000   2000.0000     36.5862     62.6592
   978.5000   2000.0000   2000.0000     35.6024     61.9188
   978.7500   2000.0000   2000.0000     34.2473     61.4883
   979.0000   2000.0000   2000.0000     32.6944     61.8467
   979.2500   2000.0000   2000.0000     31.1517     63.6499
   979.5000   2000.0000   2000.0000     29.7629     70.0483
   979.7500   2000.0000   2000.0000     28.5666     77.0205
   980.0000   2000.0000   2000.0000     27.5138     90.6322
   980.2500   2000.0000   2000.0000     26.5211    100.6665
   980.5000   2000.0000   2000.0000     25.5287    115.1255
   980.7500   2000.0000   2000.0000     24.5337    123.6668
   981.0000   2000.0000   2000.0000     23.5846    134.4001
   981.2500   2000.0000   2000.0000     22.7481    139.9034
   981.5000   2000.0000   2000.0000     22.0766    144.8669
   981.7500   2000.0000   2000.0000     21.5941    145.7106
   982.0000   2000.0000   2000.0000     21.3050    143.8666
   982.2500   2000.0000   2000.0000     21.2118    141.2599
   982.5000   2000.0000   2000.0000     21.3235    135.9137
   982.7500   2000.0000   2000.0000     21.6472    131.2759
   983.0000   2000.0000   2000.0000     22.1725    122.5803
   983.2500   2000.0000   2000.0000     22.8632    115.9439
   983.5000   2000.0000   2000.0000     23.6629    105.2870
   983.7500   2000.0000   2000.0000     24.5055     97.5653
   984.0000   2000.0000   2000.0000     25.3141     84.3810
   984.2500   2000.0000   2000.0000     25.9927     74.5449
   984.5000   2000.0000   2000.0000     26.4317     59.5152
   984.7500   2000.0000   2000.0000     26.5468     50.4948
   985.0000   2000.0000   2000.0000     26.3304     40.3953
   985.2500   2000.0000   2000.0000     25.8674     36.7881
   985.5000   2000.0000   2000.0000     25.2859     36.9503
   985.7500   2000.0000   2000.0000     24.6815     40.9342
   986.0000   2000.0000   2000.0000     24.0777     52.1868
   986.2500   2000.0000   2000.0000     23.4468     62.3051
   986.5000   2000.0000   2000.0000     22.7680     79.0233
   986.7500   2000.0000   2000.0000     22.0632     89.7224
   987.0000   2000.0000   2000.0000     21.3805    103.2366
   987.2500   2000.0000   2000.0000     20.7507    109.9921
   987.5000   2000.0000   2000.0000     20.1617    116.4632
   987.7500   2000.0000   2000.0000     19.5709    118.4281
   988.0000   2000.0000   2000.0000     18.9397    118.2622
   988.2500   2000.0000   2000.0000     18.2616    116.4832
   988.5000   2000.0000   2000.0000     17.5671    112.6914
   988.7500   2000.0000   2000.0000     16.9076    110.6470
   989.0000   2000.0000   2000.0000     16.3349    110.2033
   989.2500   2000.0000   2000.0000     15.8867    111.9685
   989.5000   2000.0000   2000.0000     15.5800    116.7698
   989.7500   2000.0000   2000.0000     15.4087    120.5498
   990.0000   2000.0000   2000.0000     15.3450    125.9514
   990.2500   2000.0000   2000.0000     15.3477    128.9174
   990.5000   2000.0000   2000.0000     15.3760    131.6780
   990.7500   2000.0000   2000.0000     15.4056    132.0477
   991.0000   2000.0000   2000.0000     15.4319    130.5707
   991.2500   2000.0000   2000.0000     15.4621    128.9305
   991.5000   2000.0000   2000.0000     15.5052    127.0625
   991.7500   2000.0000   2000.0000     15.5723    126.8791
   992.0000   2000.0000   2000.0000     15.6827    128.7368
   992.2500   2000.0000   2000.0000     15.8662    131.4582
   992.5000   2000.0000   2000.0000     16.1551    137.0790
   992.7500   2000.0000   2000.0000     16.5715    140.7259
   993.0000   2000.0000   2000.0000     17.1194    143.4252
   993.2500   2000.0000   2000.0000     17.7843    142.3388
   993.5000   2000.0000   2000.0000     18.5397    136.5770
   993.7500   2000.0000   2000.0000     19.3565    130.9385
   994.0000   2000.0000   2000.0000     20.2140    121.4060
   994.2500   2000.0000   2000.0000     21.1079    114.9016
   994.5000   2000.0000   2000.0000     22.0561    105.6394
   994.7500   2000.0000   2000.0000     23.0982    100.2956
   995.0000   2000.0000   2000.0000     24.2885     94.2834
   995.2500   2000.0000   2000.0000     25.6808     91.6824
   995.5000   2000.0000   2000.0000     27.3059     89.1697
   995.7500   2000.0000   2000.0000     29.1458     87.7869
   996.0000   2000.0000   2000.0000     31.1128     85.4856
   996.2500   2000.0000   2000.0000     33.0498     83.8283
   996.5000   2000.0000   2000.0000     34.7626     81.5633
   996.7500   2000.0000   2000.0000     36.0919     80.3552
   997.0000   2000.0000   2000.0000     36.9899     78.8373
   997.2500   2000.0000   2000.0000     37.5399     77.7601
