~Version Information
VERS.                      2.0: CWLS Log ASCII Standard - VERSION 2.0
WRAP.                       NO: One line per depth step
~Well Information Block
STRT.FT               679.2000: 
STOP.FT              2289.5000: 
STEP.FT                 0.1000: 
NULL.                -999.2500: 
COMP.          Petrogulf Corporation: COMPANY
WELL.          Anderson 18-43V: WELL
FLD.           Purgatorie River: FIELD
LOC.           1782' FSL & 887' FEL: LOCATION
CNTY.               Las Animas: COUNTY
SRVC.                         : SERVICE COMPANY
DATE.          Thu Sep 02 08:33:50 2004: LOG DATE
UWI.           05 071 08156 00: UNIQUE WELL ID
STAT.                 Colorado: STATE
~Curve Information Block
DEPT.FT            0 000 00 00: Depth
GR.GAPI                       : Gamma Ray
DCAL.in                       : CDL Caliper
DPOR.pu                       : CDL Density Porosity
NPOR.pu                       : Neutron Porosity
RHOB.g/cc                     : CDL Bulk Density
RHOC.g/cc                     : CDL Density Correction
~Parameter Information Block
~A  Depth        GR         DCAL        DPOR        NPOR        RHOB        RHOC    
# ...
  1332.0000     53.8781      8.2003     10.9301     15.7372      2.4697      0.0324
  1332.1000     53.7637      8.2003     10.8264     15.7377      2.4714      0.0461
  1332.2000     53.6624      8.2003     10.5181     15.9799      2.4765      0.0610
  1332.3000     53.6039      8.1991     10.1315     16.5606      2.4828      0.0597
  1332.4000     53.6069      8.1991      9.3763     17.0038      2.4953      0.0449
  1332.5000     53.6789      8.1988      8.4077     17.0312      2.5113      0.0880
  1332.6000     53.8139      8.1988      8.1544     17.0144      2.5155      0.0815
  1332.7000     53.9966      8.1988      8.9597     17.1320      2.5022      0.0721
  1332.8000     54.2074      8.1978     10.1252     17.1248      2.4829      0.0553
  1332.9000     54.4299      8.1978     10.9779     16.8318      2.4689      0.0707
  1333.0000     54.6543      8.1955     11.5087     16.5602      2.4601      0.0142
  1333.1000     54.8820      8.1955     11.7486     16.6973      2.4561      0.0085
  1333.2000     55.1277      8.1955     11.8798     16.9916      2.4540      0.0119
  1333.3000     55.4167      8.1984     12.2120     16.9820      2.4485      0.0243
  1333.4000     55.7849      8.1984     12.0978     16.9342      2.4504     -0.0165
  1333.5000     56.2711      8.2006     10.8005     17.1711      2.4718      0.0092
  1333.6000     56.9156      8.2006      9.1501     17.3753      2.4990      0.0588
  1333.7000     57.7540      8.2006      8.4553     17.3860      2.5105      0.0591
  1333.8000     58.8131      8.1976      8.7485     17.4043      2.5057      0.0379
  1333.9000     60.1063      8.1976      9.3020     17.4939      2.4965      0.0617
  1334.0000     61.6309      8.1952      9.7024     17.7391      2.4899      0.0455
  1334.1000     63.3684      8.1952      9.7248     18.2221      2.4895      0.0480
  1334.2000     65.2849      8.1952      9.5922     18.7187      2.4917      0.0671
  1334.3000     67.3360      8.1963      9.6998     18.8550      2.4900      0.0483
  1334.4000     69.4725      8.1963      9.8370     18.6171      2.4877      0.0474
  1334.5000     71.6475      8.1964      9.7992     18.5495      2.4883      0.0561
  1334.6000     73.8240      8.1964      9.5256     18.9449      2.4928      0.0251
  1334.7000     75.9794      8.1964      8.8365     19.1311      2.5042      0.0665
  1334.8000     78.1099      8.1976      7.9970     18.7043      2.5180      0.0575
  1334.9000     80.2279      8.1976      7.5992     18.3880      2.5246      0.0788
  1335.0000     82.3604      8.1960      7.9029     18.5377      2.5196      0.0727
  1335.1000     84.5409      8.1960      9.1298     18.6823      2.4994      0.1164
  1335.2000     86.8057      8.1960     11.3286     18.5644      2.4631      0.0516
  1335.3000     89.1842      8.1966     13.6881     18.5353      2.4241      0.0608
  1335.4000     91.6990      8.1966     15.3324     18.9879      2.3970      0.0248
  1335.5000     94.3581      8.1981     15.6978     19.8109      2.3910      0.0124
  1335.6000     97.1595      8.1981     14.8031     20.8616      2.4057      0.0558
  1335.7000    100.0891      8.1981     13.5531     21.9570      2.4264      0.0837
  1335.8000    103.1231      8.2000     12.6862     22.7516      2.4407      0.1065
  1335.9000    106.2299      8.2000     12.2457     23.5479      2.4479      0.1292
  1336.0000    109.3672      8.1992     11.7266     24.6378      2.4565      0.1439
  1336.1000    112.4867      8.1992     10.9356     25.5946      2.4696      0.1973
  1336.2000    115.5319      8.1992     10.6021     25.9663      2.4751      0.1511
  1336.3000    118.4435      8.2002     10.8842     25.8196      2.4704      0.1098
  1336.4000    121.1609      8.2002     10.9887     25.7573      2.4687      0.0666
  1336.5000    123.6282      8.1995     10.6693     25.9922      2.4740      0.0979
  1336.6000    125.8010      8.1995     10.6500     26.0897      2.4743      0.1091
  1336.7000    127.6466      8.1995     11.2534     26.0354      2.4643      0.0858
  1336.8000    129.1499      8.1967     11.6120     26.0283      2.4584      0.0739
  1336.9000    130.3076      8.1967     11.0568     26.0705      2.4676      0.1190
  1337.0000    131.1289      8.1979      9.8357     26.1352      2.4877      0.1154
  1337.1000    131.6292      8.1979      7.8172     26.1840      2.5210      0.1009
  1337.2000    131.8273      8.1979      4.9628     26.2794      2.5681      0.1524
  1337.3000    131.7443      8.1984      2.2944     26.4815      2.6121      0.1527
  1337.4000    131.4050      8.1984      0.5810     26.6756      2.6404      0.1764
  1337.5000    130.8382      8.1965     -0.3960     26.7423      2.6565      0.1803
  1337.6000    130.0846      8.1965     -1.0465     26.8504      2.6673      0.1822
  1337.7000    129.1942      8.1965     -1.1998     27.2057      2.6698      0.1725
  1337.8000    128.2297      8.1813     -0.9900     27.4232      2.6663      0.1275
  1337.9000    127.2658      8.1813     -1.2571     27.0825      2.6707      0.1373
  1338.0000    126.3833      8.1731     -1.5946     26.4307      2.6763      0.1436
  1338.1000    125.6671      8.1731     -0.9140     25.8530      2.6651      0.1201
  1338.2000    125.1979      8.1731      0.2610     25.3775      2.6457      0.0476
  1338.3000    125.0466      8.1726      1.0192     25.1267      2.6332      0.0616
  1338.4000    125.2663      8.1726      1.5526     25.1460      2.6244      0.0091
  1338.5000    125.8859      8.1933      2.1818     25.1022      2.6140      0.0272
  1338.6000    126.9068      8.1933      3.0934     24.9119      2.5990      0.0004
  1338.7000    128.2976      8.1933      4.6182     24.6713      2.5738      0.0196
  1338.8000    129.9955      8.1961      6.6726     24.4297      2.5399     -0.0295
  1338.9000    131.9065      8.1961      8.2808     24.5550      2.5134     -0.0286
  1339.0000    133.9164      8.1962      8.9943     25.1276      2.5016     -0.0197
  1339.1000    135.8967      8.1962      9.7049     25.4998      2.4899     -0.0328
  1339.2000    137.7136      8.1962     11.1382     25.5781      2.4662     -0.0152
  1339.3000    139.2413      8.1964     12.7608     25.8147      2.4394     -0.0299
  1339.4000    140.3723      8.1964     13.6074     26.0116      2.4255     -0.0087
  1339.5000    141.0223      8.1958     13.7365     25.9235      2.4233     -0.0048
  1339.6000    141.1434      8.1958     13.7964     25.8325      2.4224      0.0178
  1339.7000    140.7237      8.1958     13.6143     25.7430      2.4254      0.0012
  1339.8000    139.7961      8.1989     12.6092     25.5471      2.4419      0.0195
  1339.9000    138.4351      8.1989     10.8657     25.5890      2.4707      0.0840
  1340.0000    136.7525      8.1964      8.8791     25.9554      2.5035      0.1206
  1340.1000    134.8912      8.1964      6.8335     26.2724      2.5372      0.1390
  1340.2000    133.0122      8.1964      4.4275     26.2935      2.5769      0.1627
  1340.3000    131.2771      8.1776      1.3093     25.8457      2.6284      0.2299
  1340.4000    129.8320      8.1776     -2.0500     25.1656      2.6838      0.2536
  1340.5000    128.7943      8.1598     -4.1884     24.8354      2.7191      0.3060
  1340.6000    128.2426      8.1598     -4.1831     24.9484      2.7190      0.2286
  1340.7000    128.2091      8.1598     -3.0883     25.1885      2.7010      0.1844
  1340.8000    128.6857      8.1707     -2.3592     25.1227      2.6889      0.1698
  1340.9000    129.6264      8.1707     -2.0539     24.8165      2.6839      0.1425
  1341.0000    130.9650      8.1609     -0.9794     24.6593      2.6662      0.1247
  1341.1000    132.6166      8.1609      1.4538     24.5862      2.6260      0.0552
  1341.2000    134.4982      8.1609      4.1057     24.5068      2.5823      0.0461
  1341.3000    136.5295      8.1717      5.9724     24.3575      2.5515      0.0155
  1341.4000    138.6397      8.1717      6.8174     24.3116      2.5375      0.0029
  1341.5000    140.7643      8.1935      6.4851     24.6194      2.5430      0.0161
