~Version Information
VERS.                      2.0: CWLS Log ASCII Standard - VERSION 2.0
WRAP.                       NO: One line per depth step
~Well Information Block
STRT.FT               557.0000: 
STOP.FT              2136.0000: 
STEP.FT                 0.2500: 
NULL.                -999.2500: 
COMP.          Petrogulf Corporation: COMPANY
WELL.           Montoya 12-41R: WELL
FLD.           Purgatorie River: FIELD
LOC.           1086' FNL & 610' FEL: LOCATION
CNTY.               Las Animas: COUNTY
SRVC.                         : SERVICE COMPANY
DATE.          Thu Nov 18 06:03:03 2004: LOG DATE
UWI.           05 071 08241 00: UNIQUE WELL ID
STAT.                 Colorado: STATE
~Curve Information Block
DEPT.FT            0 000 00 00: Depth
SP.mV                         : DIL Spontaneous Potential
RILD.Ohm-m                    : DIL Deep Resistivity
RILM.Ohm-m                    : DIL Medium Resistivity
RLL3.Ohm-m                    : DIL Shallow Resistivity
GR.GAPI                       : Gamma Ray
~Parameter Information Block
~A  Depth        SP         RILD        RILM        RLL3         GR     
# ...
   977.0000   2000.0000     12.2067     12.2559   2000.0000    149.1682
   977.2500   2000.0000     12.3153     12.2545   2000.0000    149.8638
   977.5000   2000.0000     12.4735     12.3057   2000.0000    151.7302
   977.7500   2000.0000     12.6836     12.4170   2000.0000    152.4348
   978.0000   2000.0000     12.9467     12.5951   2000.0000    151.1480
   978.2500   2000.0000     13.2628     12.8457   2000.0000    148.8938
   978.5000   2000.0000     13.6308     13.1733   2000.0000    145.2300
   978.7500   2000.0000     14.0485     13.5819   2000.0000    143.5590
   979.0000   2000.0000     14.5118     14.0737   2000.0000    142.0412
   979.2500   2000.0000     15.0161     14.6498   2000.0000    140.6024
   979.5000   2000.0000     15.5561     15.3092   2000.0000    136.2288
   979.7500   2000.0000     16.1270     16.0489   2000.0000    132.1084
   980.0000   2000.0000     16.7259     16.8630   2000.0000    126.3681
   980.2500   2000.0000     17.3517     17.7424   2000.0000    124.0242
   980.5000   2000.0000     18.0055     18.6742   2000.0000    122.8133
   980.7500   2000.0000     18.6887     19.6415   2000.0000    122.6611
   981.0000   2000.0000     19.4010     20.6240   2000.0000    122.2782
   981.2500   2000.0000     20.1375     21.5986   2000.0000    122.1674
   981.5000   2000.0000     20.8874     22.5416   2000.0000    123.3706
   981.7500   2000.0000     21.6341     23.4309   2000.0000    125.2094
   982.0000   2000.0000     22.3575     24.2484   2000.0000    128.1584
   982.2500   2000.0000     23.0387     24.9810   2000.0000    129.1001
   982.5000   2000.0000     23.6647     25.6226   2000.0000    127.8833
   982.7500   2000.0000     24.2313     26.1739   2000.0000    125.4717
   983.0000   2000.0000     24.7442     26.6422   2000.0000    120.4269
   983.2500   2000.0000     25.2141     27.0418   2000.0000    116.6951
   983.5000   2000.0000     25.6539     27.3901   2000.0000    111.5629
   983.7500   2000.0000     26.0727     27.7062   2000.0000    109.1175
   984.0000   2000.0000     26.4741     28.0063   2000.0000    107.6772
   984.2500   2000.0000     26.8559     28.3005   2000.0000    108.0838
   984.5000   2000.0000     27.2135     28.5893   2000.0000    109.6837
   984.7500   2000.0000     27.5424     28.8641   2000.0000    110.7590
   985.0000   2000.0000     27.8417     29.1104   2000.0000    112.0655
   985.2500   2000.0000     28.1149     29.3142   2000.0000    113.0521
   985.5000   2000.0000     28.3700     29.4689   2000.0000    115.4126
   985.7500   2000.0000     28.6150     29.5817   2000.0000    117.6267
   986.0000   2000.0000     28.8578     29.6764   2000.0000    121.1167
   986.2500   2000.0000     29.1010     29.7907   2000.0000    122.8732
   986.5000   2000.0000     29.3428     29.9678   2000.0000    124.1079
   986.7500   2000.0000     29.5756     30.2482   2000.0000    124.3089
   987.0000   2000.0000     29.7864     30.6584   2000.0000    124.5597
   987.2500   2000.0000     29.9565     31.2023   2000.0000    124.8043
   987.5000   2000.0000     30.0619     31.8536   2000.0000    124.6261
   987.7500   2000.0000     30.0761     32.5521   2000.0000    123.6939
   988.0000   2000.0000     29.9709     33.2036   2000.0000    120.8561
   988.2500   2000.0000     29.7248     33.6918   2000.0000    118.1433
   988.5000   2000.0000     29.3262     33.8993   2000.0000    113.0216
   988.7500   2000.0000     28.7795     33.7393   2000.0000    108.9358
   989.0000   2000.0000     28.1066     33.1803   2000.0000    102.4593
   989.2500   2000.0000     27.3409     32.2554   2000.0000     99.0324
   989.5000   2000.0000     26.5231     31.0526   2000.0000     97.8494
   989.7500   2000.0000     25.6922     29.6858   2000.0000    100.7077
   990.0000   2000.0000     24.8809     28.2670   2000.0000    110.0235
   990.2500   2000.0000     24.1127     26.8854   2000.0000    118.1955
   990.5000   2000.0000     23.4008     25.6009   2000.0000    130.3024
   990.7500   2000.0000     22.7507     24.4433   2000.0000    136.7330
   991.0000   2000.0000     22.1614     23.4189   2000.0000    142.6018
   991.2500   2000.0000     21.6287     22.5175   2000.0000    144.1793
   991.5000   2000.0000     21.1472     21.7196   2000.0000    144.4436
   991.7500   2000.0000     20.7117     21.0026   2000.0000    144.0558
   992.0000   2000.0000     20.3187     20.3468   2000.0000    143.3831
   992.2500   2000.0000     19.9665     19.7376   2000.0000    142.9996
   992.5000   2000.0000     19.6559     19.1681   2000.0000    142.5685
   992.7500   2000.0000     19.3882     18.6387   2000.0000    142.2504
   993.0000   2000.0000     19.1652     18.1548   2000.0000    141.1257
   993.2500   2000.0000     18.9878     17.7250   2000.0000    139.7087
   993.5000   2000.0000     18.8545     17.3583   2000.0000    137.2356
   993.7500   2000.0000     18.7611     17.0625   2000.0000    136.2527
   994.0000   2000.0000     18.7009     16.8429   2000.0000    137.0172
   994.2500   2000.0000     18.6644     16.7019   2000.0000    139.0195
   994.5000   2000.0000     18.6409     16.6384   2000.0000    142.9336
   994.7500   2000.0000     18.6194     16.6487   2000.0000    145.0530
   995.0000   2000.0000     18.5905     16.7254   2000.0000    146.4209
   995.2500   2000.0000     18.5475     16.8582   2000.0000    146.3516
   995.5000   2000.0000     18.4882     17.0340   2000.0000    145.8796
   995.7500   2000.0000     18.4151     17.2376   2000.0000    145.7082
   996.0000   2000.0000     18.3349     17.4521   2000.0000    145.5814
   996.2500   2000.0000     18.2573     17.6608   2000.0000    145.3502
   996.5000   2000.0000     18.1941     17.8476   2000.0000    144.4835
   996.7500   2000.0000     18.1567     17.9990   2000.0000    143.5087
   997.0000   2000.0000     18.1556     18.1051   2000.0000    141.5054
   997.2500   2000.0000     18.1992     18.1615   2000.0000    139.7917
   997.5000   2000.0000     18.2930     18.1701   2000.0000    136.4660
   997.7500   2000.0000     18.4397     18.1396   2000.0000    133.8006
   998.0000   2000.0000     18.6393     18.0859   2000.0000    130.1600
   998.2500   2000.0000     18.8902     18.0304   2000.0000    129.0788
   998.5000   2000.0000     19.1900     17.9982   2000.0000    131.0779
   998.7500   2000.0000     19.5368     18.0157   2000.0000    134.8278
   999.0000   2000.0000     19.9305     18.1082   2000.0000    142.0791
   999.2500   2000.0000     20.3736     18.2995   2000.0000    146.1055
   999.5000   2000.0000     20.8712     18.6110   2000.0000    148.0465
   999.7500   2000.0000     21.4316     19.0624   2000.0000    146.1049
  1000.0000   2000.0000     22.0646     19.6730   2000.0000    140.3014
  1000.2500   2000.0000     22.7814     20.4635   2000.0000    136.5546
  1000.5000   2000.0000     23.5926     21.4560   2000.0000    133.5087
  1000.7500   2000.0000     24.5071     22.6744   2000.0000    133.1614
  1001.0000   2000.0000     25.5313     24.1427   2000.0000    133.4521
  1001.2500   2000.0000     26.6664     25.8791   2000.0000    133.0274
  1001.5000   2000.0000     27.9071     27.8896   2000.0000    129.9036
  1001.7500   2000.0000     29.2381     30.1579   2000.0000    125.5698
  1002.0000   2000.0000     30.6316     32.6326   2000.0000    115.5510
  1002.2500   2000.0000     32.0456     35.2234   2000.0000    107.2128
  1002.5000   2000.0000     33.4248     37.8003   2000.0000     94.5565
  1002.7500   2000.0000     34.7072     40.2108   2000.0000     87.4518
  1003.0000   2000.0000     35.8336     42.3050   2000.0000     80.1995
  1003.2500   2000.0000     36.7609     43.9652   2000.0000     77.7779
  1003.5000   2000.0000     37.4704     45.1228   2000.0000     77.5728
  1003.7500   2000.0000     37.9705     45.7630   2000.0000     79.6036
  1004.0000   2000.0000     38.2871     45.9136   2000.0000     85.5839
  1004.2500   2000.0000     38.4552     45.6349   2000.0000     91.2328
  1004.5000   2000.0000     38.5046     45.0057   2000.0000    101.6008
  1004.7500   2000.0000     38.4564     44.1164   2000.0000    109.2861
