~Version Information
VERS.                      2.0: CWLS Log ASCII Standard - VERSION 2.0
WRAP.                       NO: One line per depth step
~Well Information Block
STRT.FT               546.0000: 
STOP.FT              1771.5000: 
STEP.FT                 0.1000: 
NULL.                -999.2500: 
COMP.          Petrogulf Corporation: COMPANY
WELL.             McLeod 9-42R: WELL
FLD.           Purgatorie River: FIELD
LOC.           1748' FNL & 372' FEL: LOCATION
PROV.                 Colorado: PROVINCE
CNTY.               Las Animas: COUNTRY
SRVC.                Patterson: SERVICE COMPANY
DATE.          Tue Aug 16 11:11:38 2005: LOG DATE
UWI.                071 08092 : UNIQUE WELL ID
~Curve Information Block
DEPT.FT            0 000 00 00: Depth
DCAL.in                       : CDL Caliper
RHOB.g/cc                     : CDL Bulk Density
RHOC.g/cc                     : CDL Density Correction
DPOR.pu                       : CDL Density Porosity
GR.GAPI                       : Gamma Ray
NPOR.pu                       : Neutron Porosity
~Parameter Information Block
~A  Depth       DCAL        RHOB        RHOC        DPOR         GR         NPOR    
# ...
  1486.8000      7.9831      2.5983      0.0905      3.1306    101.0689     25.6197
  1486.9000      7.9831      2.6087      0.0860      2.5033    100.9021     25.5907
  1487.0000      8.0103      2.6003      0.1203      3.0125     98.6358     25.2962
  1487.1000      8.0103      2.5804      0.0853      4.2168     97.8775     24.6209
  1487.2000      8.0103      2.5635      0.0543      5.2409     99.5323     23.9613
  1487.3000      8.0270      2.5594      0.0444      5.4908    102.0262     23.5559
  1487.4000      8.0270      2.5719      0.0456      4.7346    101.5476     23.3722
  1487.5000      8.0517      2.5944      0.0931      3.3715     96.7290     23.4351
  1487.6000      8.0517      2.6154      0.0860      2.0947     90.2031     23.7768
  1487.7000      8.0517      2.6295      0.0954      1.2428     86.6404     24.2528
  1487.8000      8.0524      2.6352      0.0789      0.8951     88.6227     24.5638
  1487.9000      8.0524      2.6338      0.1001      0.9840     93.7670     24.5260
  1488.0000      8.0506      2.6273      0.0994      1.3743     98.3558     24.4516
  1488.1000      8.0506      2.6190      0.0627      1.8774    100.7335     24.8314
  1488.2000      8.0506      2.6125      0.0612      2.2738    100.1718     25.5500
  1488.3000      8.0269      2.6087      0.0711      2.5046     96.8997     26.0809
  1488.4000      8.0269      2.6054      0.0787      2.7040     93.8398     25.9682
  1488.5000      7.9919      2.6016      0.0764      2.9323     94.2720     25.2635
  1488.6000      7.9919      2.5968      0.0961      3.2243     98.9410     24.5451
  1488.7000      7.9919      2.5879      0.1170      3.7647    105.0202     24.0971
  1488.8000      7.9070      2.5772      0.0583      4.4119    108.2269     23.7137
  1488.9000      7.9070      2.5707      0.0923      4.8034    107.7851     23.4724
  1489.0000      7.8997      2.5718      0.0458      4.7391    106.7128     23.7181
  1489.1000      7.8997      2.5802      0.1033      4.2281    107.3100     24.0009
  1489.2000      7.8997      2.5858      0.1057      3.8904    109.2749     23.8937
  1489.3000      7.9020      2.5821      0.0998      4.1128    110.9211     23.9774
  1489.4000      7.9020      2.5778      0.0921      4.3734    110.9871     24.5218
  1489.5000      7.9169      2.5791      0.1160      4.2948    110.5671     25.0369
  1489.6000      7.9169      2.5812      0.1198      4.1725    111.3935     25.2107
  1489.7000      7.9169      2.5848      0.0869      3.9517    112.2194     25.2255
  1489.8000      7.9361      2.6015      0.0779      2.9424    112.1811     25.2439
  1489.9000      7.9361      2.6270      0.1380      1.3937    113.4360     25.3721
  1490.0000      7.9737      2.6376      0.1530      0.7500    115.9384     25.6787
  1490.1000      7.9737      2.6246      0.1010      1.5377    117.2051     25.9141
  1490.2000      7.9737      2.6033      0.0568      2.8332    115.8467     25.8480
  1490.3000      8.0104      2.5852      0.0729      3.9248    112.4864     25.4345
  1490.4000      8.0104      2.5758      0.0336      4.4983    110.0007     24.9399
  1490.5000      8.0124      2.5757      0.0617      4.5016    111.7089     24.5606
  1490.6000      8.0124      2.5715      0.0522      4.7585    116.4922     24.3177
  1490.7000      8.0124      2.5592      0.0202      5.5009    117.6819     24.5518
  1490.8000      8.0129      2.5525      0.0413      5.9102    113.1704     25.1317
  1490.9000      8.0129      2.5541      0.0718      5.8109    109.4606     25.4445
  1491.0000      8.0105      2.5550      0.0439      5.7601    110.5014     25.4351
  1491.1000      8.0105      2.5492      0.0339      6.1083    114.9466     25.2367
  1491.2000      8.0105      2.5411      0.0407      6.6006    119.4224     25.0181
  1491.3000      8.0207      2.5409      0.0377      6.6143    119.7149     25.0516
  1491.4000      8.0207      2.5478      0.0879      6.1933    115.3824     25.3355
  1491.5000      8.0254      2.5511      0.0251      5.9964    110.4775     25.6188
  1491.6000      8.0254      2.5488      0.0793      6.1342    108.7961     25.6709
  1491.7000      8.0254      2.5460      0.0264      6.3009    111.0678     25.7914
  1491.8000      8.0405      2.5459      0.0961      6.3119    115.8722     26.4262
  1491.9000      8.0405      2.5453      0.0345      6.3450    119.9036     27.1065
  1492.0000      8.0475      2.5411      0.0319      6.6011    120.5032     27.0244
  1492.1000      8.0475      2.5339      0.0549      7.0351    120.6222     26.4624
  1492.2000      8.0475      2.5357     -0.0037      6.9297    123.2156     26.2622
  1492.3000      8.0596      2.5571      0.0516      5.6328    125.1598     26.2669
  1492.4000      8.0596      2.5769      0.1322      4.4277    124.5571     25.9837
  1492.5000      8.0894      2.5686      0.0732      4.9358    123.0095     25.6726
  1492.6000      8.0894      2.5413      0.0340      6.5856    121.7252     25.3133
  1492.7000      8.0894      2.5168      0.0394      8.0714    120.0863     24.6565
  1492.8000      8.1015      2.5018      0.0090      8.9845    117.3497     24.3666
  1492.9000      8.1015      2.4875      0.0529      9.8457    113.4242     24.9262
  1493.0000      8.0970      2.4516      0.0238     12.0249    108.2327     25.9048
  1493.1000      8.0970      2.3745      0.0360     16.6949    103.0955     26.8239
  1493.2000      8.0970      2.2610     -0.0006     23.5738     99.3496     27.3891
  1493.3000      8.0985      2.1440     -0.0616     30.6688     95.0814     27.5008
  1493.4000      8.0985      2.0656     -0.1193     35.4209     90.3742     27.5021
  1493.5000      8.0711      2.0485     -0.0608     36.4545     88.4243     28.1302
  1493.6000      8.0711      2.0781      0.0131     34.6585     89.1134     29.5158
  1493.7000      8.0711      2.1270      0.0690     31.6941     89.7903     30.6314
  1493.8000      8.0908      2.1847      0.1118     28.1970     90.1180     30.9339
  1493.9000      8.0908      2.2468      0.1939     24.4334     91.2366     31.0599
  1494.0000      8.1074      2.3026      0.2807     21.0566     92.0433     31.2081
  1494.1000      8.1074      2.3463      0.2075     18.4081     92.4763     30.8682
  1494.2000      8.1074      2.3846      0.1199     16.0841     95.3959     30.0944
  1494.3000      8.1718      2.4248      0.0448     13.6487    102.4133     29.2431
  1494.4000      8.1718      2.4680      0.0562     11.0330    109.8208     28.3626
  1494.5000      8.0630      2.5063      0.0378      8.7104    113.7448     27.4294
  1494.6000      8.0630      2.5286      0.0574      7.3581    115.0738     26.4233
  1494.7000      8.0630      2.5374      0.0108      6.8259    116.1124     25.3180
  1494.8000      8.0374      2.5412      0.0727      6.5961    118.1040     24.4253
  1494.9000      8.0374      2.5373      0.0436      6.8282    120.1531     23.9150
  1495.0000      8.0523      2.5281      0.0363      7.3883    121.8299     23.6845
  1495.1000      8.0523      2.5243      0.0631      7.6212    124.1507     23.6742
  1495.2000      8.0523      2.5285      0.0427      7.3608    125.6018     23.5105
  1495.3000      8.0566      2.5358      0.0429      6.9220    125.0829     23.1232
  1495.4000      8.0566      2.5401      0.0574      6.6612    123.1275     23.0064
  1495.5000      8.0261      2.5431      0.0279      6.4764    118.6332     23.1265
  1495.6000      8.0261      2.5546      0.0430      5.7836    113.7187     23.0310
  1495.7000      8.0261      2.5778      0.0730      4.3780    112.0180     22.5858
  1495.8000      8.0309      2.6058      0.0999      2.6778    112.4536     22.0883
  1495.9000      8.0309      2.6275      0.1010      1.3615    111.8979     21.9278
  1496.0000      8.0080      2.6334      0.1400      1.0061    109.4186     21.9799
  1496.1000      8.0080      2.6211      0.1138      1.7525    108.4780     22.1906
  1496.2000      8.0080      2.5994      0.0786      3.0674    111.9032     22.4618
  1496.3000      7.8955      2.5810      0.0363      4.1828    115.5297     22.3405
