~Version Information
VERS.                      2.0: CWLS Log ASCII Standard - VERSION 2.0
WRAP.                       NO: One line per depth step
~Well Information Block
STRT.FT               590.0000: 
STOP.FT              1563.5000: 
STEP.FT                 0.2500: 
NULL.                -999.2500: 
COMP.          Petrogulf Corporation: COMPANY
WELL.             State 16-43R: WELL
FLD.           Purgatorie River: FIELD
LOC.           2538' FSL & 716' FEL: LOCATION
PROV.                 Colorado: PROVINCE
CNTY.               Las Animas: COUNTRY
SRVC.                Patterson: SERVICE COMPANY
DATE.          Tue Aug 09 14:21:37 2005: LOG DATE
UWI.                          : UNIQUE WELL ID
~Curve Information Block
DEPT.FT            0 000 00 00: Depth
RILD.Ohm-m                    : DIL Deep Resistivity
RILM.Ohm-m                    : DIL Medium Resistivity
GR.GAPI                       : Gamma Ray
~Parameter Information Block
~A  Depth       RILD        RILM         GR     
# ...
  1341.5000     17.1522     19.7368    113.7036
  1341.7500     18.3737     21.5891    111.3970
  1342.0000     18.7919     21.9538    105.2061
  1342.2500     18.7947     23.1987    111.4445
  1342.5000     17.3756     23.6411    118.8623
  1342.7500     17.3925     23.0820    114.7350
  1343.0000     16.9661     22.6811    119.1781
  1343.2500     16.2839     21.5983    121.3006
  1343.5000     16.4339     19.8785    132.2384
  1343.7500     16.0159     19.2287    138.3925
  1344.0000     15.3386     16.8353    137.3437
  1344.2500     15.0843     16.3648    132.2850
  1344.5000     14.5726     15.8458    128.7971
  1344.7500     14.1536     15.4312    128.5001
  1345.0000     14.1912     14.6677    137.5179
  1345.2500     13.6690     14.5071    141.3587
  1345.5000     12.3186     13.6788    136.1394
  1345.7500     12.0047     13.2181    139.5043
  1346.0000     12.0603     12.6446    147.3319
  1346.2500     11.8275     12.5549    149.9980
  1346.5000     11.3281     11.8086    150.8178
  1346.7500     11.5267     11.5388    155.6948
  1347.0000     11.3757     11.4173    162.3824
  1347.2500     11.1770     11.0054    155.0128
  1347.5000     11.2038     10.9391    152.0481
  1347.7500     10.7472     11.0060    146.4292
  1348.0000     10.9822     10.9525    133.5357
  1348.2500     10.8775     10.9401    126.0008
  1348.5000     10.3015     10.8574    127.5032
  1348.7500     10.3305     10.5963    135.1232
  1349.0000     10.1763     10.5851    142.2874
  1349.2500     10.0838     10.4973    149.4290
  1349.5000     10.1261     10.4428    151.1856
  1349.7500     10.0121     10.4637    148.3209
  1350.0000      9.9119     10.0128    149.1783
  1350.2500      9.8323     10.1384    148.0405
  1350.5000      9.4378      9.7110    154.9508
  1350.7500      9.1742      9.8633    153.8472
  1351.0000      9.2341      9.6013    152.4607
  1351.2500      9.1062      9.4139    150.9645
  1351.5000      8.7995      9.1554    155.4392
  1351.7500      8.5234      8.8434    156.7912
  1352.0000      8.5950      8.5395    172.5831
  1352.2500      8.5641      8.3787    160.9090
  1352.5000      8.2667      8.1215    157.8721
  1352.7500      8.2255      8.0376    163.2068
  1353.0000      8.1487      7.9857    161.5966
  1353.2500      8.0409      7.8400    171.2039
  1353.5000      8.1889      7.7610    179.1682
  1353.7500      8.2777      7.7325    176.2397
  1354.0000      8.1268      7.7328    167.4842
  1354.2500      8.0672      7.9274    161.2370
  1354.5000      8.1003      8.1815    156.9661
  1354.7500      8.1098      8.1033    160.3626
  1355.0000      8.1309      8.1590    150.1022
  1355.2500      8.2346      8.3288    149.4588
  1355.5000      8.2208      8.5188    152.9588
  1355.7500      8.3754      8.4033    145.1494
  1356.0000      8.5194      8.3916    147.9696
  1356.2500      8.7358      8.7137    152.5341
  1356.5000      8.9377      8.7542    147.7561
  1356.7500      9.2133      8.9603    139.1404
  1357.0000      9.2591      9.2900    140.0835
  1357.2500      9.2325      9.5309    143.7512
  1357.5000      9.0019      9.8086    129.7925
  1357.7500      9.2294     10.1368    121.0057
  1358.0000      9.2027     10.3762    117.8606
  1358.2500      9.1744     10.2073    114.6373
  1358.5000      9.1733      9.9325    123.8290
  1358.7500      9.2050      9.7285    128.0626
  1359.0000      9.0781      9.4793    148.5041
  1359.2500      9.2355      9.5050    152.2369
  1359.5000      9.3969      9.4994    175.2586
  1359.7500      9.7902      9.5678    175.9920
  1360.0000      9.8349      9.6311    175.1890
  1360.2500      9.4746      9.7434    175.9187
  1360.5000      9.2789      9.8812    165.1554
  1360.7500      9.2612      9.8407    154.2694
  1361.0000      9.1274      9.9895    154.5932
  1361.2500      9.0672     10.2897    145.6541
  1361.5000      8.9291      9.9642    151.5018
  1361.7500      8.9676      9.7609    162.1713
  1362.0000      9.1168      9.5253    154.6466
  1362.2500      9.2189      9.4951    152.7234
  1362.5000      9.2597      9.4663    154.4586
  1362.7500      9.3929      9.5314    154.4199
  1363.0000      9.6246      9.6304    157.4606
  1363.2500      9.3246      9.7648    155.4303
  1363.5000      9.3886      9.6846    156.8658
  1363.7500      9.5285      9.7781    146.6047
  1364.0000      9.7190     10.1683    145.9534
  1364.2500      9.5796     10.1947    144.6891
  1364.5000      9.5801     10.1295    151.5010
  1364.7500      9.7838     10.2071    146.3216
  1365.0000      9.9573     10.3066    138.9636
  1365.2500     10.1986     10.5241    134.7771
  1365.5000     10.6553     10.6637    126.1218
  1365.7500     10.9511     10.9006    124.8728
  1366.0000     11.0939     11.2752    129.0935
  1366.2500     11.3890     12.0111    125.6538
  1366.5000     11.6874     12.2389    120.0818
  1366.7500     12.0379     12.5546    119.8949
  1367.0000     12.4593     13.3542    125.4929
  1367.2500     13.0208     13.4787    129.9323
  1367.5000     13.2425     13.6117    133.6433
  1367.7500     13.6025     14.1052    122.3079
  1368.0000     14.3236     14.9036    115.2783
  1368.2500     15.7315     15.9861    116.9948
  1368.5000     17.4776     17.2603    112.9115
  1368.7500     15.9988     18.4238    115.6921
  1369.0000     16.8061     19.0087    111.6655
  1369.2500     17.8402     19.3726    111.2991
  1369.5000     18.6008     19.3089    119.5250
  1369.7500     19.2365     19.9869    125.0402
  1370.0000     20.1532     20.3702    124.4794
  1370.2500     20.6335     21.0042    120.7592
  1370.5000     21.0407     22.2343    105.4468
  1370.7500     22.2556     23.3619     98.6043
  1371.0000     23.2885     24.4210     95.5971
  1371.2500     22.7671     25.6778     98.8101
  1371.5000     24.2586     27.1574    103.3528
  1371.7500     23.7039     27.5112    106.3108
  1372.0000     23.9071     27.6971    105.2492
  1372.2500     25.1248     32.3270    106.6311
  1372.5000     24.2572     30.1060     99.8674
  1372.7500     25.0372     31.4963    100.8328
  1373.0000     23.3791     31.9558     89.2952
  1373.2500     20.9599     31.7604     87.1066
  1373.5000     19.2796     31.2137     76.3306
  1373.7500     17.7332     28.2190     81.8607
  1374.0000     17.0951     26.9245     84.7380
  1374.2500     17.4017     22.3739     88.6594
  1374.5000     16.0391     19.4521    118.5471
  1374.7500     13.5392     15.5432    128.6193
  1375.0000     12.9484     14.4213    144.4081
  1375.2500     12.1690     12.1829    140.4447
  1375.5000     11.3613     11.5433    138.3897
  1375.7500     10.3685     10.8061    136.5638
  1376.0000     10.0131     10.0039    132.2398
  1376.2500      9.0179      9.2595    139.5585
  1376.5000      8.7926      8.5377    153.2638
  1376.7500      8.1395      8.0845    157.4437
  1377.0000      7.9081      7.5588    151.8867
  1377.2500      7.6069      7.4876    151.4835
  1377.5000      7.5170      6.9979    153.9019
  1377.7500      7.4087      6.9628    160.1324
  1378.0000      7.3701      7.9107    151.3377
  1378.2500      7.5240      7.5249    146.6712
  1378.5000      7.5730      7.1062    149.9180
  1378.7500      7.7480      7.1174    153.4967
  1379.0000      7.9524      7.3367    152.1508
  1379.2500      8.6610      7.6719    132.6808
  1379.5000      8.0760      8.2021    119.6115
  1379.7500      7.9605      8.4579    110.0962
  1380.0000      8.3261      9.2426    106.1294
  1380.2500      8.4784      9.2477    104.5622
  1380.5000      8.7204      9.5403    116.5874
  1380.7500      9.0353      9.5764    122.4401
  1381.0000      9.1170      9.7266    129.9212
  1381.2500      9.0874      9.8320    130.6896
  1381.5000      9.0540     10.0728    129.0982
  1381.7500      9.1465     10.1373    126.8873
  1382.0000      9.3505      9.8584    134.1037
  1382.2500      9.0884      9.6035    140.9772
  1382.5000      9.0890      9.1754    140.2659
  1382.7500      9.4974      8.9815    146.0796
  1383.0000      9.2705     10.0515    145.0308
