~Version Information
VERS.                      2.0: CWLS Log ASCII Standard - VERSION 2.0
WRAP.                       NO: One line per depth step
~Well Information Block
STRT.FT                -9.2500: 
STOP.FT              2353.7500: 
STEP.FT                 0.2500: 
NULL.                -999.2500: 
COMP.          Petrogulf Corporation: COMPANY
WELL.             Kraft 17-23V: WELL
FLD.           Purgatorie River: FIELD
LOC.           1500' FSL & 1773' FWL--: LOCATION
PROV.                       CO: PROVINCE
CNTY.               Las Animas: COUNTRY
SRVC.          Patterson Wireline: SERVICE COMPANY
DATE.          Wed Dec 10 19:09:59 2003: LOG DATE
UWI.                          : UNIQUE WELL ID
~Curve Information Block
DEPT.FT            0 000 00 00: Depth
CCL.                          : Casing Collar Locator
TT3.usec                      : CBL 3' Travel Time
AMP3.mV                       : CBL 3' Amplitude
GR.GAPI                       : Gamma Ray
~Parameter Information Block
~A  Depth       CCL         TT3         AMP3         GR     
# ...
  2034.2500      0.0000    768.7096      4.7888     79.0318
  2034.5000      0.0000    777.5165      4.8359     81.6465
  2034.7500      0.0000    790.3524      4.8503     81.7078
  2035.0000      0.0000    802.4698      4.8915     78.3721
  2035.2500      0.0000    810.4995      4.9914     72.1262
  2035.5000      0.0000    812.2749      5.1420     64.6300
  2035.7500      0.0000    805.6328      5.3525     57.4704
  2036.0000      0.0000    789.4365      5.6649     51.0896
  2036.2500      0.0000    766.0992      6.1038     45.1089
  2036.5000      0.0000    741.4955      6.6518     39.4974
  2036.7500      0.0000    720.9708      7.2781     35.0165
  2037.0000      0.0000    704.8717      7.9477     32.4775
  2037.2500      0.0000    688.6561      8.5907     31.8985
  2037.5000      0.0000    668.6367      9.1154     32.4862
  2037.7500      0.0000    648.1855      9.4885     33.2099
  2038.0000      0.0000    636.7560      9.7667     33.3609
  2038.2500      0.0000    641.0677     10.0145     32.7787
  2038.5000      0.0000    658.3354     10.2235     31.7229
  2038.7500      0.0000    679.5513     10.3497     30.6025
  2039.0000      0.0000    696.9138     10.4022     29.8287
  2039.2500      0.0000    705.9838     10.4542     29.7377
  2039.5000      0.0000    703.0089     10.5880     30.4931
  2039.7500      0.0000    683.8630     10.8530     31.9722
  2040.0000      0.0000    646.8483     11.2425     33.6775
  2040.2500      0.0000    595.8897     11.6818     34.8777
  2040.5000      0.0000    539.7675     12.0547     35.1068
  2040.7500      0.0000    489.2999     12.2473     34.5951
  2041.0000      0.0000    456.7083     12.1669     34.1198
  2041.2500      0.0000    453.6225     11.7674     34.4677
  2041.5000      0.0000    482.9819     11.1123     36.0257
  2041.7500      0.0000    533.6464     10.3891     38.6165
  2042.0000      0.0000    588.6354      9.8069     41.5648
  2042.2500      0.0000    638.4789      9.4689     44.0902
  2042.5000      0.0000    682.6611      9.3369     45.9325
  2042.7500      0.0000    720.5780      9.2787     47.7275
  2043.0000      0.0000    747.4049      9.1486     50.7297
  2043.2500      0.0000    759.5154      8.8722     55.9646
  2043.5000      0.0000    759.7156      8.4831     63.3689
  2043.7500      0.0000    755.2778      8.0697     71.5061
  2044.0000      0.0000    752.2369      7.7049     78.1874
  2044.2500      0.0000    752.6524      7.4359     81.7566
  2044.5000      0.0000    755.5880      7.2827     82.1232
  2044.7500      0.0000    758.5071      7.1888     80.5669
  2045.0000      0.0000    758.3417      7.0147     78.4981
  2045.2500      0.0000    753.8087      6.6489     76.4837
  2045.5000      0.0000    747.2041      6.1154     74.3971
  2045.7500      0.0000    742.0786      5.5353     72.2487
  2046.0000      0.0000    738.9619      5.0065     70.7269
  2046.2500      0.0000    735.2719      4.5520     70.8576
  2046.5000      0.0000    729.5242      4.1474     73.0202
  2046.7500      0.0000    723.6224      3.7503     76.4049
  2047.0000      0.0000    720.7334      3.3254     79.7762
  2047.2500      0.0000    722.5732      2.8829     82.6682
  2047.5000      0.0000    728.6440      2.4848     85.5106
  2047.7500      0.0000    736.2563      2.1887     88.8338
  2048.0000      0.0000    741.4572      1.9920     92.6813
  2048.2500      0.0000    741.8791      1.8470     96.4112
  2048.5000      0.0000    738.9527      1.7170     98.7866
  2048.7500      0.0000    736.2832      1.6002     98.7363
  2049.0000      0.0000    735.9349      1.5075     96.4051
  2049.2500      0.0000    736.9142      1.4441     93.3672
  2049.5000      0.0000    736.6767      1.4149     91.7389
  2049.7500      0.0000    733.7031      1.4230     92.8408
  2050.0000      0.0000    729.0825      1.4529     96.2377
  2050.2500      0.0000    725.3616      1.4785     99.9844
  2050.5000      0.0000    723.1647      1.4914    102.0679
  2050.7500      0.0000    719.9109      1.5023    101.7752
  2051.0000      0.0000    713.1772      1.5133     99.9377
  2051.2500      0.0000    704.6302      1.5138     98.3049
  2051.5000      0.0000    699.2832      1.5003     98.5552
  2051.7500      0.0000    701.1542      1.4792    101.1384
  2052.0000      0.0000    710.1211      1.4576    104.6352
  2052.2500      0.0000    722.3303      1.4477    106.7139
  2052.5000      0.0000    732.9609      1.4689    106.3569
  2052.7500      0.0000    739.0212      1.5295    105.1048
  2053.0000      0.0000    740.3253      1.6118    105.5506
  2053.2500      0.0000    738.1113      1.6765    108.5662
  2053.5000      0.0000    732.6943      1.6821    112.4493
  2053.7500      0.0000    723.2046      1.6128    114.7220
  2054.0000      0.0000    710.0093      1.4970    114.2774
  2054.2500      0.0000    696.1616      1.3911    111.7371
  2054.5000      0.0000    685.4661      1.3384    108.0887
  2054.7500      0.0000    679.9445      1.3421    103.3218
  2055.0000      0.0000    679.6674      1.3687     96.7535
  2055.2500      0.0000    683.8035      1.3747     88.7012
  2055.5000      0.0000    690.5806      1.3447     81.2376
  2055.7500      0.0000    696.7351      1.3102     76.9175
  2056.0000      0.0000    698.4648      1.3165     76.9397
  2056.2500      0.0000    693.8726      1.3748     80.5091
  2056.5000      0.0000    684.4532      1.4525     85.5718
  2056.7500      0.0000    673.9009      1.5076     90.0039
  2057.0000      0.0000    665.4136      1.5193     92.3192
  2057.2500      0.0000    660.0782      1.4901     91.7964
  2057.5000      0.0000    657.2836      1.4345     88.6286
  2057.7500      0.0000    656.0187      1.3696     84.1484
  2058.0000      0.0000    655.7365      1.3077     80.3228
  2058.2500      0.0000    656.5530      1.2489     78.4088
  2058.5000      0.0000    658.9861      1.1883     78.1449
  2058.7500      0.0000    663.2197      1.1353     78.4395
  2059.0000      0.0000    668.2264      1.1179     78.5454
  2059.2500      0.0000    671.8468      1.1577     78.3013
  2059.5000      0.0000    672.2546      1.2391     77.6569
  2059.7500      0.0000    669.3793      1.3128     76.5536
  2060.0000      0.0000    664.7209      1.3371     75.1908
  2060.2500      0.0000    660.0250      1.3111     73.8799
  2060.5000      0.0000    656.3315      1.2682     72.4924
  2060.7500      0.0000    653.9094      1.2445     70.3609
  2061.0000      0.0000    652.6029      1.2552     67.0714
  2061.2500      0.0000    652.1677      1.2900     63.3768
  2061.5000      0.0000    652.4868      1.3248     61.0798
  2061.7500      0.0000    653.7170      1.3408     61.8536
  2062.0000      0.0000    656.3060      1.3333     66.1756
  2062.2500      0.0000    660.8749      1.3040     73.1741
  2062.5000      0.0000    667.9104      1.2557     81.1206
  2062.7500      0.0000    677.2236      1.1992     88.0952
  2063.0000      0.0000    687.5178      1.1568     92.6329
  2063.2500      0.0000    696.6699      1.1501     94.1880
  2063.5000      0.0000    702.6063      1.1825     93.2651
  2063.7500      0.0000    703.9342      1.2340     91.2102
  2064.0000     -2.0000    700.7005      1.2723     89.5296
  2064.2500      0.0000    695.5411      1.2753     88.8832
  2064.5000      0.0000    693.1081      1.2447     88.6627
  2064.7500      0.0000    696.7392      1.1989     87.8650
  2065.0000      0.0000    705.6810      1.1529     86.5024
  2065.2500      0.0000    715.6320      1.1105     85.8231
  2065.5000      0.0000    721.1681      1.0760     86.8026
  2065.7500      0.0000    718.3464      1.0638     88.6368
  2066.0000      0.0000    707.1193      1.0914     89.2748
  2066.2500      0.0000    691.8264      1.1612     87.4043
  2066.5000      0.0000    678.3574      1.2517     83.4898
  2066.7500      0.0000    670.4387      1.3269     79.0586
  2067.0000      0.0000    668.5335      1.3641     75.5396
  2067.2500      0.0000    671.3447      1.3683     73.7686
  2067.5000      0.0000    677.3433      1.3571     74.1122
