~Version Information
VERS.                      2.0: CWLS Log ASCII Standard - VERSION 2.0
WRAP.                       NO: One line per depth step
~Well Information Block
STRT.FT                -8.2500: 
STOP.FT              2209.7500: 
STEP.FT                 0.2500: 
NULL.                -999.2500: 
COMP.          Petrogulf Corporation: COMPANY
WELL.          Alexander 9-43V: WELL
FLD.           Purgatorie River: FIELD
LOC.                          : LOCATION
CNTY.               Las Animas: COUNTY
SRVC.                         : SERVICE COMPANY
DATE.          Wed May 28 09:25:28 2003: LOG DATE
UWI.           05 071 07727 00: UNIQUE WELL ID
STAT.                 Colorado: STATE
~Curve Information Block
DEPT.FT            0 000 00 00: Depth
CCL.                          : Casing Collar Locator
TT3.usec                      : CBL 3' Travel Time
AMP3.mV                       : CBL 3' Amplitude
GR.GAPI                       : Gamma Ray
~Parameter Information Block
~A  Depth       CCL         TT3         AMP3         GR     
# ...
   561.2500      0.0000    582.7858      5.4384    112.8615
   561.5000      0.0000    580.5768      5.8945    111.9305
   561.7500      0.0000    573.5486      6.3669    108.2383
   562.0000      0.0000    568.0001      6.8115    102.4952
   562.2500      0.0000    565.3544      7.1888     96.7339
   562.5000      0.0000    558.8755      7.4416     93.3412
   562.7500      0.0000    541.0153      7.4971     93.3704
   563.0000      0.0000    512.1429      7.3018     95.9933
   563.2500      0.0000    480.7773      6.8684     99.7124
   563.5000      0.0000    456.2815      6.2983    103.6406
   563.7500      0.0000    442.2857      5.7482    107.3405
   564.0000      0.0000    436.3900      5.3545    109.9568
   564.2500      0.0000    434.2944      5.1674    110.1624
   564.5000      0.0000    433.3174      5.1544    106.9784
   564.7500      0.0000    433.8990      5.2601    100.5432
   565.0000      0.0000    439.6810      5.4520     92.3183
   565.2500      0.0000    455.6369      5.7127     84.7550
   565.5000      0.0000    484.3885      6.0169     80.3861
   565.7500      0.0000    523.5792      6.3319     80.4847
   566.0000      0.0000    565.7230      6.6298     84.3218
   566.2500      0.0000    599.8798      6.8827     89.9159
   566.5000      0.0000    616.6414      7.0473     95.5956
   566.7500      0.0000    615.5450      7.0752    100.8336
   567.0000      0.0000    606.1597      6.9563    105.8166
   567.2500      0.0000    598.5345      6.7479    110.5168
   567.5000      0.0000    594.1322      6.5434    114.3907
   567.7500      0.0000    587.9839      6.4009    116.9417
   568.0000      2.9724    576.5774      6.3045    118.2939
   568.2500      0.0000    560.7892      6.1905    119.0644
   568.5000      5.0000    543.0870      6.0002    119.9116
   568.7500      0.0000    525.0125      5.7143    121.3628
   569.0000      0.0000    508.2649      5.3635    123.6727
   569.2500      0.0000    497.9163      5.0230    126.4222
   569.5000      0.0000    502.9037      4.7919    128.4929
   569.7500      0.0000    530.3033      4.7538    128.8278
   570.0000      0.0000    576.9570      4.9364    127.1317
   570.2500      0.0000    628.1320      5.2987    123.7103
   570.5000      0.0000    666.7476      5.7513    118.9982
   570.7500      0.0000    683.7751      6.1922    113.6851
   571.0000      0.0000    679.5208      6.5372    109.2081
   571.2500      0.0000    659.2579      6.7344    107.5354
   571.5000      0.0000    632.0714      6.7630    109.9154
   571.7500      0.0000    610.7720      6.6239    115.5669
   572.0000      0.0000    605.7087      6.3348    121.7348
   572.2500      0.0000    616.6679      5.9400    125.2944
   572.5000      0.0000    633.2834      5.5209    124.5872
   572.7500      0.0000    643.4966      5.1779    120.0138
   573.0000      0.0000    640.6174      4.9819    113.2610
   573.2500      0.0000    624.7676      4.9454    106.2496
   573.5000      0.0000    601.1729      5.0525    100.5236
   573.7500      0.0000    578.0689      5.2955     97.0220
   574.0000      0.0000    564.3234      5.6600     96.1587
   574.2500      0.0000    566.2979      6.0926     97.9473
   574.5000      0.0000    584.8795      6.5090    101.8655
   574.7500      0.0000    614.2586      6.8287    106.8114
   575.0000      0.0000    643.9810      6.9948    111.5686
   575.2500      0.0000    664.7723      6.9776    115.3984
   575.5000      0.0000    674.1342      6.7770    118.2407
   575.7500      0.0000    676.0000      6.4290    120.5950
   576.0000      0.0000    674.9026      6.0079    123.2820
   576.2500      0.0000    671.3580      5.6167    126.8994
   576.5000      0.0000    662.5932      5.3530    131.1233
   576.7500      0.0000    646.9593      5.2677    134.7884
   577.0000      0.0000    628.1069      5.3496    137.1115
   577.2500      0.0000    615.2908      5.5385    138.7459
   577.5000      0.0000    617.8867      5.7421    141.1946
   577.7500      0.0000    638.0567      5.8455    145.0047
   578.0000      0.0000    668.4370      5.7365    148.5908
   578.2500      0.0000    697.1239      5.3590    148.9368
   578.5000      0.0000    715.7668      4.7652    143.5309
   578.7500      0.0000    724.0755      4.1181    131.9396
   579.0000      0.0000    726.9937      3.6193    116.0349
   579.2500      0.0000    728.1840      3.3966     99.0012
   579.5000      0.0000    727.2162      3.4342     83.8439
   579.7500      0.0000    722.4272      3.6029     72.2271
   580.0000      0.0000    714.4859      3.7524     64.2198
   580.2500      0.0000    706.2939      3.7860     58.8854
   580.5000      0.0000    700.3324      3.6855     55.0687
   580.7500      0.0000    696.9975      3.5065     52.0100
   581.0000      0.0000    694.9572      3.3532     49.6817
   581.2500      0.0000    692.4630      3.3171     48.6925
   581.5000      0.0000    688.5080      3.4035     49.8021
   581.7500      0.0000    683.3698      3.5244     53.4427
   582.0000      0.0000    678.3800      3.5823     59.4184
   582.2500      0.0000    675.4371      3.5672     66.6986
   582.5000      0.0000    676.6726      3.5670     73.5383
   582.7500      0.0000    683.5566      3.6980     78.3953
   583.0000      0.0000    695.6097      4.0199     81.2576
   583.2500      0.0000    710.5837      4.4826     83.9911
   583.5000      0.0000    726.1363      4.9338     88.9896
   583.7500      0.0000    740.1556      5.2051     97.2970
   584.0000      0.0000    749.3527      5.2349    107.9997
   584.2500      0.0000    749.8039      5.1274    119.2695
   584.5000      0.0000    740.5884      5.0780    129.6968
   584.7500      0.0000    726.2751      5.2081    138.6547
   585.0000      0.0000    714.5430      5.4569    145.8483
   585.2500      0.0000    710.6772      5.6425    150.9404
   585.5000      0.0000    714.0992      5.6387    153.4082
   585.7500      0.0000    720.1519      5.4948    152.5304
   586.0000      0.0000    724.8920      5.3813    148.0329
   586.2500      0.0000    727.6169      5.4168    141.1962
   586.5000      0.0000    729.2764      5.5490    134.7572
   586.7500      0.0000    729.9425      5.6085    131.2203
   587.0000      0.0000    728.4566      5.4807    131.5614
   587.2500      0.0000    723.7872      5.2303    135.5174
   587.5000      0.0000    716.2557      5.0521    142.2383
   587.7500      0.0000    707.3467      5.0845    150.2809
   588.0000      0.0000    697.6802      5.2726    157.7810
   588.2500      0.0000    684.5788      5.4318    163.3268
   588.5000      0.0000    662.6061      5.4480    166.4731
   588.7500      0.0000    628.3970      5.3884    167.3471
   589.0000      0.0000    585.4510      5.4108    166.1796
   589.2500      0.0000    543.1282      5.5874    163.2862
   589.5000      0.0000    510.3365      5.8336    158.9989
   589.7500      0.0000    490.4834      5.9942    153.4747
   590.0000      0.0000    482.1205      5.9804    147.1197
   590.2500      0.0000    483.1545      5.8334    141.3191
   590.5000      0.0000    493.6899      5.6787    137.9340
   590.7500      0.0000    514.7269      5.6162    137.5588
   591.0000      0.0000    544.2532      5.6344    138.6589
   591.2500      0.0000    575.5712      5.6317    138.7594
   591.5000      0.0000    600.3855      5.5346    136.2964
   591.7500      0.0000    612.5606      5.3856    131.5070
   592.0000      0.0000    608.5589      5.2915    126.1478
   592.2500      0.0000    587.8315      5.2922    122.4563
   592.5000      0.0000    555.6665      5.3157    121.8032
   592.7500      0.0000    523.0519      5.2781    124.0282
   593.0000      0.0000    500.7631      5.2009    128.0804
   593.2500      0.0000    494.2873      5.1881    133.1185
   593.5000      0.0000    504.3608      5.2872    138.7099
   593.7500      0.0000    528.9093      5.4130    144.1222
   594.0000      0.0000    562.6354      5.4439    148.0950
   594.2500      0.0000    597.6068      5.3689    149.5839
   594.5000      0.0000    627.6912      5.2900    148.3675
