~Version Information
 VERS.                      2.0: CWLS Log ASCII Standard - VERSION 2.0
 WRAP.                       NO: One line per depth step
 ~Well Information Block
 STRT.FT               465.6000: 
 STOP.FT              1777.2000: 
 STEP.FT                 0.1000: 
 NULL.                -999.2500: 
 COMP.          Petrogulf Corporation: COMPANY
 WELL.          Alexander 9-43R: WELL
 FLD.           Purgatorie River: FIELD
 LOC.           1652' FSL & 1049' FEL: LOCATION
 CNTY.               Las Animas: COUNTY
 SRVC.                         : SERVICE COMPANY
 DATE.          Fri Sep 03 15:08:45 2004: LOG DATE
 UWI.           05 071 08036 00: UNIQUE WELL ID
 STAT.                 Colorado: STATE
 PROV.                         :Province
 ~Curve Information Block
 DEPT.FT            0 000 00 00: Depth
 DCAL.in                       : CDL Caliper
 RHOB.g/cc                     : CDL Bulk Density
 RHOC.g/cc                     : CDL Density Correction
 DPOR.pu                       : CDL Density Porosity
 GR.GAPI                       : Gamma Ray
 NPOR.pu                       : Neutron Porosity
 ~Parameter Information Block
 ~A  Depth       DCAL        RHOB        RHOC        DPOR         GR         NPOR    
# ...
   667.2000      8.0601      2.4816      0.0327     10.2062     41.4370     16.4400
   667.3000      8.0653      2.4736      0.0087     10.6932     43.1878     16.4400
   667.4000      8.0653      2.4634      0.0219     11.3083     43.4985     16.8155
   667.5000      8.0638      2.4601     -0.0024     11.5061     44.0159     17.5519
   667.6000      8.0638      2.4657     -0.0352     11.1680     45.7068     18.4342
   667.7000      8.0638      2.4788      0.0105     10.3740     47.2644     19.3153
   667.8000      8.0610      2.4954      0.0061      9.3704     47.8251     20.0311
   667.9000      8.0610      2.5122      0.0518      8.3539     48.6576     20.3750
   668.0000      8.0546      2.5304      0.0203      7.2490     50.7046     20.4654
   668.1000      8.0546      2.5492      0.0506      6.1074     53.3572     20.5846
   668.2000      8.0546      2.5586      0.0848      5.5420     55.3583     20.8720
   668.3000      8.0448      2.5555      0.0478      5.7283     55.1474     21.0817
   668.4000      8.0448      2.5520      0.0420      5.9399     52.8034     21.1020
   668.5000      8.0473      2.5528      0.0679      5.8937     52.9488     21.2728
   668.6000      8.0473      2.5512      0.0513      5.9867     57.5568     21.7571
   668.7000      8.0473      2.5471      0.0360      6.2369     60.8102     22.4200
   668.8000      8.0486      2.5480      0.0536      6.1802     57.9721     23.1003
   668.9000      8.0486      2.5615      0.0606      5.3664     53.4558     23.3823
   669.0000      8.0302      2.5846      0.0988      3.9628     52.9583     23.0855
   669.1000      8.0302      2.6015      0.1401      2.9398     55.9810     22.5571
   669.2000      8.0302      2.6008      0.1203      2.9815     61.1505     22.3019
   669.3000      8.0307      2.5941      0.1262      3.3857     67.7914     22.6473
   669.4000      8.0307      2.5967      0.1015      3.2309     73.5636     23.2079
   669.5000      8.0326      2.6045      0.1128      2.7578     78.5852     23.3432
   669.6000      8.0326      2.6054      0.0855      2.7014     82.6918     23.0888
   669.7000      8.0326      2.5984      0.0605      3.1292     81.1146     23.0219
   669.8000      8.0353      2.5895      0.0896      3.6683     77.3799     23.5122
   669.9000      8.0353      2.5739      0.1120      4.6115     79.8670     24.2528
   670.0000      8.0508      2.5463      0.0587      6.2850     88.5934     24.7467
   670.1000      8.0508      2.5240      0.0448      7.6393     98.6893     25.0487
   670.2000      8.0508      2.5268      0.0154      7.4677    102.2725     25.3978
   670.3000      8.0537      2.5448      0.0982      6.3777     99.1293     25.7965
   670.4000      8.0537      2.5544      0.0709      5.7955     98.2546     25.9457
   670.5000      8.0609      2.5563      0.0429      5.6807    100.9887     25.7923
   670.6000      8.0609      2.5645      0.0583      5.1792    102.8413     25.7723
   670.7000      8.0609      2.5733      0.0961      4.6497    102.1954     26.2528
   670.8000      8.0674      2.5642      0.1224      5.2029     99.8561     27.0619
   670.9000      8.0674      2.5406      0.0179      6.6300     96.3593     27.6337
   671.0000      8.0569      2.5231      0.0903      7.6925     93.3838     27.8291
   671.1000      8.0569      2.5255      0.0498      7.5477     90.1413     27.7403
   671.2000      8.0569      2.5602      0.0556      5.4439     86.6954     27.4464
   671.3000      8.0556      2.6170      0.1091      2.0017     88.9975     27.1349
   671.4000      8.0556      2.6588      0.1187     -0.5316     95.6062     26.9691
   671.5000      8.0529      2.6660      0.1302     -0.9715     97.5035     27.2674
   671.6000      8.0529      2.6445      0.1508      0.3356     92.7971     27.8527
   671.7000      8.0529      2.6120      0.0772      2.3020     87.1688     28.0018
   671.8000      8.0462      2.5940      0.0816      3.3963     87.0044     27.9637
   671.9000      8.0462      2.5976      0.0898      3.1774     94.5259     28.4294
   672.0000      8.0400      2.6093      0.0657      2.4681    103.5348     29.0249
   672.1000      8.0400      2.6132      0.0802      2.2327    106.6580     29.2151
   672.2000      8.0400      2.6077      0.0402      2.5642    106.0878     29.0562
   672.3000      8.0396      2.6089      0.0300      2.4915    106.9050     28.8393
   672.4000      8.0396      2.6161      0.1037      2.0538    109.0042     28.6446
   672.5000      8.0512      2.6118      0.0665      2.3166    109.8004     28.4337
   672.6000      8.0512      2.6023      0.0545      2.8910    108.4932     28.2233
   672.7000      8.0512      2.6015      0.0579      2.9384    107.6612     27.8353
   672.8000      8.0417      2.6046      0.0637      2.7534    109.7962     27.3399
   672.9000      8.0417      2.5997      0.0940      3.0501    115.0515     27.0829
   673.0000      8.0485      2.5843      0.0451      3.9790    121.2707     27.0661
   673.1000      8.0485      2.5674      0.0100      5.0070    123.9690     27.2107
   673.2000      8.0485      2.5534      0.0278      5.8516    122.0635     27.4067
   673.3000      8.0446      2.5420      0.0281      6.5432    119.8989     27.2543
   673.4000      8.0446      2.5417      0.0235      6.5620    121.5121     26.8653
   673.5000      8.0411      2.5608      0.0493      5.4042    125.9300     26.8965
   673.6000      8.0411      2.5864      0.0958      3.8576    129.6457     27.3880
   673.7000      8.0411      2.5955      0.0911      3.3013    130.2574     28.0481
   673.8000      8.0387      2.5836      0.0811      4.0265    126.5500     28.8050
   673.9000      8.0387      2.5674      0.0238      5.0054    120.8753     29.3500
   674.0000      8.0473      2.5688      0.0510      4.9210    117.5989     29.5164
   674.1000      8.0473      2.5840      0.0346      3.9970    117.0121     29.5781
   674.2000      8.0473      2.5925      0.0195      3.4853    116.4999     29.7026
   674.3000      8.0494      2.5859      0.0425      3.8844    113.0543     29.7104
   674.4000      8.0494      2.5673      0.0446      5.0105    108.6773     29.5498
   674.5000      8.0598      2.5518     -0.0087      5.9500    110.4322     29.5224
   674.6000      8.0598      2.5544      0.0060      5.7923    117.4965     29.6933
   674.7000      8.0598      2.5583      0.0417      5.5583    122.5658     29.9904
   674.8000      8.0658      2.5411     -0.0260      6.6029    121.5189     30.3766
   674.9000      8.0658      2.5165     -0.0661      8.0938    115.6684     30.5985
   675.0000      8.0790      2.5052     -0.0241      8.7747    110.8325     30.6908
   675.1000      8.0790      2.5004     -0.0222      9.0643    109.6748     31.0494
   675.2000      8.0790      2.4880     -0.0317      9.8189    107.5626     31.5391
   675.3000      8.0802      2.4689     -0.0225     10.9752    100.6625     31.6146
   675.4000      8.0802      2.4571     -0.0675     11.6914     91.9671     31.2887
   675.5000      8.0812      2.4646     -0.0416     11.2376     84.9439     31.0374
   675.6000      8.0812      2.4840     -0.0053     10.0579     81.8235     30.9561
   675.7000      8.0812      2.5000      0.0248      9.0902     83.4146     30.7791
   675.8000      8.0681      2.5094      0.1015      8.5226     82.4872     30.5139
   675.9000      8.0681      2.5231      0.0456      7.6897     75.3334     30.3988
   676.0000      8.0460      2.5527      0.1672      5.8963     72.1418     30.2167
   676.1000      8.0460      2.5918      0.2096      3.5281     75.8250     29.5772
   676.2000      8.0460      2.6282      0.2319      1.3232     76.2695     28.5758
   676.3000      7.9438      2.6618      0.2182     -0.7135     72.5980     27.4774
   676.4000      7.9438      2.7026      0.2330     -3.1894     74.1651     26.3596
   676.5000      7.9055      2.7461      0.3062     -5.8258     82.6918     25.6257
   676.6000      7.9055      2.7668      0.2559     -7.0767     90.6388     25.6996
   676.7000      7.9055      2.7515      0.2512     -6.1504     93.0374     26.2655
