~Version Information
VERS.                      2.0: CWLS Log ASCII Standard - VERSION 2.0
WRAP.                       NO: One line per depth step
~Well Information Block
STRT.FT               483.5000: 
STOP.FT              2348.7500: 
STEP.FT                 0.2500: 
NULL.                -999.2500: 
COMP.          Pioneer Natural Resources: COMPANY
WELL.          Hill Climb 22-2: WELL
FLD.           Purgatoire River: FIELD
LOC.           1820' FNL & 2193' FWL: LOCATION
PROV.                 Colorado: PROVINCE
CNTY.               Las Animas: COUNTRY
SRVC.                Patterson: SERVICE COMPANY
DATE.          Wed Oct 20 08:57:51 2004: LOG DATE
UWI.           05 071 08175 00: UNIQUE WELL ID
~Curve Information Block
DEPT.FT            0 000 00 00: Depth
DIR.Ohm-m                     : IEL Induction Resistivity
SN.Ohm-m                      : IEL Short Normal
SP.mV                         : IEL Spontaneous Potential
GR.GAPI                       : Gamma Ray
~Parameter Information Block
~A  Depth       DIR          SN          SP          GR     
# ...
   986.0000      0.0000      0.0000      0.0000    127.9412
   986.2500      0.0000      0.0000      0.0000    129.2585
   986.5000      0.0000      0.0000      0.0000    129.9620
   986.7500      0.0000      0.0000      0.0000    129.1921
   987.0000      0.0000      0.0000      0.0000    126.9664
   987.2500      0.0000      0.0000      0.0000    125.6702
   987.5000      0.0000      0.0000      0.0000    125.2960
   987.7500      0.0000      0.0000      0.0000    126.5513
   988.0000      0.0000      0.0000      0.0000    131.0779
   988.2500      0.0000      0.0000      0.0000    135.7628
   988.5000      0.0000      0.0000      0.0000    144.3257
   988.7500      0.0000      0.0000      0.0000    149.9607
   989.0000      0.0000      0.0000      0.0000    155.5424
   989.2500      0.0000      0.0000      0.0000    155.6638
   989.5000      0.0000      0.0000      0.0000    149.4356
   989.7500      0.0000      0.0000      0.0000    142.3601
   990.0000      0.0000      0.0000      0.0000    132.0223
   990.2500      0.0000      0.0000      0.0000    127.7771
   990.5000      0.0000      0.0000      0.0000    126.8787
   990.7500      0.0000      0.0000      0.0000    129.0213
   991.0000      0.0000      0.0000      0.0000    132.5664
   991.2500      0.0000      0.0000      0.0000    132.5287
   991.5000      0.0000      0.0000      0.0000    125.9889
   991.7500      0.0000      0.0000      0.0000    117.5798
   992.0000      0.0000      0.0000      0.0000    102.5361
   992.2500      0.0000      0.0000      0.0000     93.6454
   992.5000      0.0000      0.0000      0.0000     85.2551
   992.7500      0.0000      0.0000      0.0000     83.4205
   993.0000      0.0000      0.0000      0.0000     85.5503
   993.2500      0.0000      0.0000      0.0000     89.6420
   993.5000      0.0000      0.0000      0.0000     98.7329
   993.7500      0.0000      0.0000      0.0000    105.5735
   994.0000      0.0000      0.0000      0.0000    113.6131
   994.2500      0.0000      0.0000      0.0000    115.5091
   994.5000      0.0000      0.0000      0.0000    111.9231
   994.7500      0.0000      0.0000      0.0000    106.2309
   995.0000      0.0000      0.0000      0.0000     96.3221
   995.2500      0.0000      0.0000      0.0000     91.1428
   995.5000      0.0000      0.0000      0.0000     88.5684
   995.7500      0.0000      0.0000      0.0000     90.6375
   996.0000      0.0000      0.0000      0.0000     96.6081
   996.2500      0.0000      0.0000      0.0000    100.0132
   996.5000      0.0000      0.0000      0.0000    102.4182
   996.7500      0.0000      0.0000      0.0000    103.3220
   997.0000      0.0000      0.0000      0.0000    106.2401
   997.2500      0.0000      0.0000      0.0000    109.1697
   997.5000      0.0000      0.0000      0.0000    112.2674
   997.7500      0.0000      0.0000      0.0000    112.2067
   998.0000      0.0000      0.0000      0.0000    109.9478
   998.2500      0.0000      0.0000      0.0000    108.6995
   998.5000      0.0000      0.0000      0.0000    108.6256
   998.7500      0.0000      0.0000      0.0000    109.1434
   999.0000      0.0000      0.0000      0.0000    109.5049
   999.2500      0.0000      0.0000      0.0000    109.8263
   999.5000      0.0000      0.0000      0.0000    111.9344
   999.7500      0.0000      0.0000      0.0000    114.3962
  1000.0000      0.0000      0.0000      0.0000    117.4741
  1000.2500      0.0000      0.0000      0.0000    117.8059
  1000.5000      0.0000      0.0000      0.0000    115.8114
  1000.7500      0.0000      0.0000      0.0000    114.0014
  1001.0000      0.0000      0.0000      0.0000    111.7825
  1001.2500      0.0000      0.0000      0.0000    110.0931
  1001.5000      0.0000      0.0000      0.0000    106.0420
  1001.7500      0.0000      0.0000      0.0000    102.6774
  1002.0000      0.0000      0.0000      0.0000     98.3723
  1002.2500      0.0000      0.0000      0.0000     96.7158
  1002.5000      0.0000      0.0000      0.0000     97.0425
  1002.7500      0.0000      0.0000      0.0000    100.1045
  1003.0000      0.0000      0.0000      0.0000    109.7219
  1003.2500      0.0000      0.0000      0.0000    117.9443
  1003.5000      0.0000      0.0000      0.0000    127.6650
  1003.7500      0.0000      0.0000      0.0000    130.0593
  1004.0000      0.0000      0.0000      0.0000    127.8217
  1004.2500      0.0000      0.0000      0.0000    124.3864
  1004.5000      0.0000      0.0000      0.0000    118.9898
  1004.7500      0.0000      0.0000      0.0000    115.2699
  1005.0000      0.0000      0.0000      0.0000    108.1713
  1005.2500      0.0000      0.0000      0.0000    102.2231
  1005.5000      0.0000      0.0000      0.0000     92.7315
  1005.7500      0.0000      0.0000      0.0000     86.7434
  1006.0000      0.0000      0.0000      0.0000     78.1886
  1006.2500      0.0000      0.0000      0.0000     51.7217
  1006.5000      0.0000      0.0000      0.0000     45.5167
  1006.7500      0.0000      0.0000      0.0000     41.6144
  1007.0000      0.0000      0.0000      0.0000     36.3175
  1007.2500      0.0000      0.0000      0.0000     33.2360
  1007.5000      0.0000      0.0000      0.0000     29.8770
  1007.7500      0.0000      0.0000      0.0000     29.0420
  1008.0000      0.0000      0.0000      0.0000     30.7382
  1008.2500      0.0000      0.0000      0.0000     34.1819
  1008.5000      0.0000      0.0000      0.0000     43.0783
  1008.7500      0.0000      0.0000      0.0000     51.0972
  1009.0000      0.0000      0.0000      0.0000     63.9378
  1009.2500      0.0000      0.0000      0.0000     70.8891
  1009.5000      0.0000      0.0000      0.0000     75.3605
  1009.7500      0.0000      0.0000      0.0000     73.4470
  1010.0000      0.0000      0.0000      0.0000     64.7720
  1010.2500      0.0000      0.0000      0.0000     57.5479
  1010.5000      0.0000      0.0000      0.0000     49.1707
  1010.7500      0.0000      0.0000      0.0000     46.8304
  1011.0000      0.0000      0.0000      0.0000     47.9292
  1011.2500      0.0000      0.0000      0.0000     50.4233
  1011.5000      0.0000      0.0000      0.0000     54.9970
  1011.7500      0.0000      0.0000      0.0000     58.5547
  1012.0000      0.0000      0.0000      0.0000     65.1722
  1012.2500      0.0000      0.0000      0.0000     69.8168
  1012.5000      0.0000      0.0000      0.0000     73.9002
  1012.7500      0.0000      0.0000      0.0000     72.8953
  1013.0000      0.0000      0.0000      0.0000     65.9852
  1013.2500      0.0000      0.0000      0.0000     59.8826
  1013.5000      0.0000      0.0000      0.0000     52.2526
  1013.7500      0.0000      0.0000      0.0000     48.8644
  1014.0000      0.0000      0.0000      0.0000     45.1429
  1014.2500      0.0000      0.0000      0.0000     42.6103
  1014.5000      0.0000      0.0000      0.0000     37.9942
  1014.7500      0.0000      0.0000      0.0000     34.5506
  1015.0000      0.0000      0.0000      0.0000     29.8062
  1015.2500      0.0000      0.0000      0.0000     27.5198
  1015.5000      0.0000      0.0000      0.0000     25.7381
  1015.7500      0.0000      0.0000      0.0000     25.3614
  1016.0000      0.0000      0.0000      0.0000     25.3757
  1016.2500      0.0000      0.0000      0.0000     25.7158
  1016.5000      0.0000      0.0000      0.0000     26.9135
  1016.7500      0.0000      0.0000      0.0000     27.9267
  1017.0000      0.0000      0.0000      0.0000     28.6514
  1017.2500      0.0000      0.0000      0.0000     28.0990
  1017.5000      0.0000      0.0000      0.0000     25.9131
  1017.7500      0.0000      0.0000      0.0000     24.1460
  1018.0000      0.0000      0.0000      0.0000     22.2488
  1018.2500      0.0000      0.0000      0.0000     22.1637
  1018.5000      0.0000      0.0000      0.0000     24.7087
  1018.7500      0.0000      0.0000      0.0000     28.3489
  1019.0000      0.0000      0.0000      0.0000     36.1037
  1019.2500      0.0000      0.0000      0.0000     42.1206
