~Version Information
VERS.                      2.0: CWLS Log ASCII Standard - VERSION 2.0
WRAP.                       NO: One line per depth step
~Well Information Block
STRT.FT               488.0000: 
STOP.FT              1824.7000: 
STEP.FT                 0.1000: 
NULL.                -999.2500: 
COMP.          Pioneer Natural Resources: COMPANY
WELL.            Buckeye 11-13: WELL
FLD.           Purgatoire River: FIELD
LOC.           211' FNL & 1054' FWL: LOCATION
STAT.                 Colorado: State
CNTY.               Las Animas: COUNTY
CTRY. USA : Country
SECT. 13 : Section
TOWN. 33S : Township
RANG. 67W : Range
SRVC.                Patterson: SERVICE COMPANY
DATE.          Mon Mar 07 02:06:39 2005: LOG DATE
API.           05 071 08317 00: UNIQUE WELL ID
~Curve Information Block
DEPT.FT            0 000 00 00: Depth
DCAL.in                       : CDL Caliper
RHOB.g/cc                     : CDL Bulk Density
RHOC.g/cc                     : CDL Density Correction
DPOR.pu                       : CDL Density Porosity
GR.GAPI                       : Gamma Ray
NPOR.pu                       : Neutron Porosity
~Parameter Information Block
~A  Depth       DCAL        RHOB        RHOC        DPOR         GR         NPOR    
# ...
   843.2000      7.8118      2.6137     -0.0353      2.1989    109.8851     33.4917
   843.3000      7.8112      2.6622      0.0100     -0.7367    112.8703     34.1584
   843.4000      7.8112      2.6821     -0.0405     -1.9470    115.3877     33.4986
   843.5000      7.8112      2.6727     -0.0009     -1.3761    115.8946     31.6953
   843.6000      7.8112      2.6465     -0.0499      0.2116    112.7231     30.0297
   843.7000      7.8112      2.6149     -0.0232      2.1245    105.8917     29.4979
   843.8000      7.8113      2.5838     -0.0683      4.0128     98.9647     30.0346
   843.9000      7.8113      2.5590     -0.0830      5.5125     95.4036     30.9698
   844.0000      7.8105      2.5457     -0.1098      6.3222     97.3039     31.6185
   844.1000      7.8105      2.5409     -0.1027      6.6106    105.6886     31.8468
   844.2000      7.8105      2.5423     -0.1063      6.5258    115.3298     32.0042
   844.3000      7.8106      2.5537     -0.0983      5.8362    122.4294     32.2520
   844.4000      7.8106      2.5684      0.0123      4.9426    129.7982     32.4851
   844.5000      7.8106      2.5729     -0.0110      4.6737    137.0704     32.6305
   844.6000      7.8106      2.5664      0.0254      5.0685    141.8508     32.6471
   844.7000      7.8106      2.5497      0.0008      6.0811    141.9651     32.4664
   844.8000      7.8124      2.5256     -0.0041      7.5405    136.7927     31.9685
   844.9000      7.8124      2.5057     -0.0202      8.7453    131.2700     31.1939
   845.0000      7.8123      2.4970     -0.0103      9.2733    128.7526     30.4277
   845.1000      7.8123      2.5001     -0.0453      9.0870    128.7849     29.9622
   845.2000      7.8123      2.5137     -0.0266      8.2604    128.5831     29.4329
   845.3000      7.8116      2.5252      0.0359      7.5662    130.3797     28.5348
   845.4000      7.8116      2.5214     -0.0195      7.7964    139.5112     27.9794
   845.5000      7.8118      2.5135     -0.0367      8.2711    149.0820     28.1796
   845.6000      7.8118      2.5155      0.0243      8.1487    149.3329     28.5823
   845.7000      7.8118      2.5205      0.0139      7.8498    147.4905     28.5868
   845.8000      7.8112      2.5223     -0.0048      7.7412    151.8398     28.4863
   845.9000      7.8112      2.5265     -0.0055      7.4873    155.6837     28.8347
   846.0000      7.8115      2.5319      0.0063      7.1596    152.9457     29.1511
   846.1000      7.8115      2.5330     -0.0237      7.0899    145.9966     28.8975
   846.2000      7.8115      2.5288      0.0245      7.3478    137.4669     28.3590
   846.3000      7.8118      2.5246     -0.0073      7.5987    129.9173     27.9527
   846.4000      7.8118      2.5281      0.0258      7.3854    127.4212     27.9897
   846.5000      7.8116      2.5327      0.0270      7.1110    132.7947     28.2001
   846.6000      7.8116      2.5365      0.0035      6.8791    143.8090     27.9805
   846.7000      7.8116      2.5434      0.0436      6.4586    152.9730     27.5604
   846.8000      7.8119      2.5396      0.0334      6.6938    158.4975     27.6202
   846.9000      7.8119      2.5198     -0.0398      7.8923    163.1912     28.2930
   847.0000      7.8120      2.5006     -0.0299      9.0526    166.0566     29.1680
   847.1000      7.8120      2.4979     -0.0398      9.2186    166.9699     29.8718
   847.2000      7.8120      2.5154     -0.0291      8.1605    164.9675     30.5093
   847.3000      7.8122      2.5379      0.0174      6.7918    158.3663     30.9904
   847.4000      7.8122      2.5459      0.0053      6.3106    152.6533     30.4708
   847.5000      7.8127      2.5363      0.0342      6.8881    153.0196     28.9084
   847.6000      7.8127      2.5214     -0.0257      7.7944    156.8521     27.8945
   847.7000      7.8127      2.5165     -0.0774      8.0905    162.9279     28.5740
   847.8000      7.8196      2.5235     -0.0217      7.6670    169.8535     29.9090
   847.9000      7.8196      2.5338     -0.0451      7.0402    171.7653     30.1975
   848.0000      7.8119      2.5456     -0.0221      6.3268    170.5763     29.3645
   848.1000      7.8119      2.5543      0.0096      5.7976    169.9646     28.5190
   848.2000      7.8119      2.5550     -0.0130      5.7563    167.0213     28.1834
   848.3000      7.8109      2.5470      0.0282      6.2439    161.6249     27.8520
   848.4000      7.8109      2.5307     -0.0170      7.2307    157.5705     27.4851
   848.5000      7.8119      2.5178     -0.0449      8.0134    156.3310     27.7589
   848.6000      7.8119      2.5159     -0.0580      8.1272    157.9815     28.6000
   848.7000      7.8119      2.5219     -0.0778      7.7665    159.5965     29.1863
   848.8000      7.8079      2.5349     -0.0196      6.9768    158.4102     29.2364
   848.9000      7.8079      2.5481     -0.0287      6.1783    159.8100     29.2880
   849.0000      7.8112      2.5504     -0.0291      6.0362    165.7955     29.7250
   849.1000      7.8112      2.5427     -0.0199      6.5052    166.1369     30.4634
   849.2000      7.8112      2.5329     -0.0521      7.0985    157.3537     31.2179
   849.3000      7.8102      2.5242     -0.0145      7.6226    150.4786     31.5275
   849.4000      7.8102      2.5246     -0.0729      7.6015    150.7173     31.1198
   849.5000      7.8060      2.5427     -0.0048      6.5002    151.1335     30.1420
   849.6000      7.8060      2.5620      0.0763      5.3325    150.4638     29.2067
   849.7000      7.8060      2.5603      0.0190      5.4364    156.1003     28.8080
   849.8000      7.8122      2.5361      0.0342      6.9012    166.5200     28.7909
   849.9000      7.8122      2.4977      0.0257      9.2324    170.9352     28.7278
   850.0000      7.8103      2.4646     -0.0502     11.2345    166.5333     28.7357
   850.1000      7.8103      2.4616     -0.0382     11.4193    161.1166     29.0882
   850.2000      7.8103      2.4845      0.0217     10.0275    160.0873     29.8103
   850.3000      7.8104      2.5097     -0.0007      8.5047    160.6926     30.7303
   850.4000      7.8104      2.5348     -0.0298      6.9839    159.3928     31.3686
   850.5000      7.8108      2.5681      0.0660      4.9665    159.6377     31.4097
   850.6000      7.8108      2.5885      0.1378      3.7262    165.7492     30.8515
   850.7000      7.8108      2.5714      0.0914      4.7645    173.4667     30.1076
   850.8000      7.8073      2.5356      0.0503      6.9332    174.3572     29.7736
   850.9000      7.8073      2.5178     -0.0179      8.0144    168.3750     29.5429
   851.0000      7.8103      2.5185      0.0630      7.9727    163.9962     28.9061
   851.1000      7.8103      2.5160      0.0624      8.1229    164.9642     28.4585
   851.2000      7.8103      2.5166     -0.0107      8.0854    166.4392     28.7714
   851.3000      7.8111      2.5348      0.0236      6.9811    164.5135     29.5527
   851.4000      7.8111      2.5545      0.0638      5.7907    160.3043     30.5468
   851.5000      7.8109      2.5612     -0.0073      5.3838    155.9759     31.6553
   851.6000      7.8109      2.5626      0.0294      5.2959    158.7355     32.4647
   851.7000      7.8109      2.5632      0.0155      5.2611    171.0939     32.3313
   851.8000      7.8098      2.5625      0.0531      5.3048    178.3781     31.6986
   851.9000      7.8098      2.5628      0.0210      5.2850    171.7562     31.4221
   852.0000      7.8106      2.5692      0.0163      4.8965    162.7317     31.3824
   852.1000      7.8106      2.5775      0.0308      4.3948    158.7330     31.3345
   852.2000      7.8106      2.5705      0.0535      4.8200    154.7980     31.1249
   852.3000      7.8107      2.5465     -0.0575      6.2700    150.9358     30.6506
   852.4000      7.8107      2.5276     -0.0353      7.4201    151.0137     30.3843
   852.5000      7.8103      2.5246     -0.0250      7.5989    154.3401     30.5949
   852.6000      7.8103      2.5314     -0.0165      7.1896    157.0817     31.0201
   852.7000      7.8103      2.5458     -0.0202      6.3140    153.4491     31.5829
