~Version Information
VERS.                      2.0: CWLS Log ASCII Standard - VERSION 2.0
WRAP.                       NO: One line per depth step
~Well Information Block
STRT.FT               -11.2500: 
STOP.FT              1767.0000: 
STEP.FT                 0.2500: 
NULL.                -999.2500: 
COMP.          Petrogulf Corporation: COMPANY
WELL.             McLeod 9-42R: WELL
FLD.           Purgatoire River: FIELD
LOC.           1748' FNL & 372' FEL--: LOCATION
PROV.                 Colorado: PROVINCE
CNTY.               Las Animas: COUNTRY
SRVC.                         : SERVICE COMPANY
DATE.          Thu Sep 29 13:28:07 2005: LOG DATE
UWI.                          : UNIQUE WELL ID
~Curve Information Block
DEPT.FT            0 000 00 00: Depth
GR.GAPI                       : Gamma Ray
CCL.                          : Casing Collar Locator
AMP3.mV                       : CBL 3' Amplitude
AMP5.mV                       : CBL 5' Amplitude
~Parameter Information Block
~A  Depth        GR         CCL         AMP3        AMP5    
# ...
  1161.2500     71.6422      0.0000      4.8683      0.6453
  1161.5000     72.4737      0.0000      5.0263      0.6349
  1161.7500     73.0646      0.0000      5.2215      0.6158
  1162.0000     72.0140      0.0000      5.4030      0.5986
  1162.2500     69.4736      0.0000      5.5404      0.5921
  1162.5000     66.7922      0.0000      5.6312      0.5954
  1162.7500     65.3978      0.0000      5.6851      0.6014
  1163.0000     65.9315      0.0000      5.7037      0.6051
  1163.2500     67.9972      0.0000      5.6760      0.6046
  1163.5000     70.3801      0.0000      5.5947      0.5959
  1163.7500     71.6300      0.0000      5.4706      0.5734
  1164.0000     70.9973      0.0000      5.3204      0.5348
  1164.2500     69.1194      0.0000      5.1381      0.4849
  1164.5000     67.5906      0.0000      4.8882      0.4306
  1164.7500     67.7145      0.0000      4.5336      0.3741
  1165.0000     69.7462      0.0000      4.0685      0.3115
  1165.2500     73.1318      0.0000      3.5257      0.2396
  1165.5000     77.0631      0.0000      2.9560      0.1644
  1165.7500     80.8333      0.0000      2.3998      0.1013
  1166.0000     84.0088      0.0000      1.8747      0.0658
  1166.2500     86.3851      0.0000      1.3883      0.0628
  1166.5000     87.7393      0.0000      0.9585      0.0829
  1166.7500     87.7784      0.0000      0.6134      0.1092
  1167.0000     86.5103      0.0000      0.3728      0.1297
  1167.2500     84.7525      0.0000      0.2357      0.1433
  1167.5000     84.2721      0.0000      0.1877      0.1547
  1167.7500     87.2146      0.0000      0.2169      0.1657
  1168.0000     95.0434      0.0000      0.3232      0.1729
  1168.2500    107.5997      0.0000      0.5202      0.1731
  1168.5000    122.6297      0.0000      0.8287      0.1664
  1168.7500    136.3140      0.0000      1.2641      0.1544
  1169.0000    145.3278      0.0000      1.8202      0.1416
  1169.2500    149.1956      0.0000      2.4583      0.1384
  1169.5000    150.2656      0.0000      3.1091      0.1584
  1169.7500    151.0632      0.0000      3.6945      0.2094
  1170.0000    152.2158      0.0000      4.1605      0.2860
  1170.2500    152.9270      0.0000      4.4949      0.3740
  1170.5000    152.1722      0.0000      4.7177      0.4567
  1170.7500    148.8930      0.0000      4.8599      0.5196
  1171.0000    142.2324      0.0000      4.9533      0.5552
  1171.2500    132.7538      0.0000      5.0297      0.5677
  1171.5000    123.1115      0.0000      5.1122      0.5705
  1171.7500    116.5566      0.0000      5.2016      0.5777
  1172.0000    114.4718      0.0000      5.2757      0.5983
  1172.2500    115.5912      0.0000      5.3052      0.6331
  1172.5000    117.4076      0.0000      5.2780      0.6718
  1172.7500    117.9043      0.0000      5.2182      0.6972
  1173.0000    116.3217      0.0000      5.1816      0.6982
  1173.2500    113.3012      0.0000      5.2163      0.6794
  1173.5000    110.5698      0.0000      5.3202      0.6555
  1173.7500    109.7367      0.0000      5.4416      0.6395
  1174.0000    110.8463      0.0000      5.5239      0.6360
  1174.2500    112.2726      0.0000      5.5417      0.6417
  1174.5000    112.3170      0.0000      5.5002      0.6500
  1174.7500    110.9848      0.0000      5.4166      0.6561
  1175.0000    110.1370      0.0000      5.3115      0.6592
  1175.2500    111.7395      0.0000      5.2056      0.6598
  1175.5000    115.7775      0.0000      5.1157      0.6599
  1175.7500    119.9859      0.0000      5.0530      0.6649
  1176.0000    121.8522      0.0000      5.0231      0.6826
  1176.2500    120.8799      0.0000      5.0245      0.7134
  1176.5000    118.8438      0.0000      5.0550      0.7439
  1176.7500    117.9733      0.0000      5.1282      0.7521
  1177.0000    119.0964      0.0000      5.2755      0.7237
  1177.2500    121.4598      0.0000      5.5102      0.6638
  1177.5000    123.8145      0.0000      5.7820      0.5945
  1177.7500    125.3637      0.0000      5.9712      0.5390
  1178.0000    126.1487      0.0000      5.9564      0.5077
  1178.2500    127.1292      0.0000      5.7148      0.4950
  1178.5000    129.6396      0.0000      5.3574      0.4892
  1178.7500    134.0206      0.0000      5.0415      0.4855
  1179.0000    138.8104      0.0000      4.8474      0.4889
  1179.2500    141.8764      0.0000      4.7505      0.5057
  1179.5000    142.3916      0.0000      4.6878      0.5349
  1179.7500    141.2832     -1.7892      4.6241      0.5664
  1180.0000    139.8387      0.0000      4.5615      0.5860
  1180.2500    138.3909      0.0000      4.5098      0.5814
  1180.5000    136.5194      0.0000      4.4627      0.5507
  1180.7500    134.2294      0.0000      4.4079      0.5045
  1181.0000    132.4952      0.0000      4.3608      0.4580
  1181.2500    132.3489      0.0000      4.3562      0.4197
  1181.5000    133.7226      0.0000      4.3905      0.3899
  1181.7500    135.7316      0.0000      4.3946      0.3657
  1182.0000    137.9390      0.0000      4.2870      0.3463
  1182.2500    140.4861      0.0000      4.0387      0.3346
  1182.5000    142.8485      0.0000      3.6816      0.3328
  1182.7500    143.4252      0.0000      3.2751      0.3375
  1183.0000    140.7633      0.0000      2.8789      0.3426
  1183.2500    134.6582      0.0000      2.5421      0.3460
  1183.5000    126.1041      0.0000      2.2941      0.3515
  1183.7500    116.8766      0.0000      2.1387      0.3628
  1184.0000    109.1393      0.0000      2.0628      0.3793
  1184.2500    104.5573      0.0000      2.0570      0.3960
  1184.5000    103.2997      0.0000      2.1280      0.4055
  1184.7500    104.1454      0.0000      2.2939      0.4019
  1185.0000    105.7410      0.0000      2.5695      0.3880
  1185.2500    107.5894      0.0000      2.9477      0.3776
  1185.5000    109.7610      0.0000      3.3897      0.3853
  1185.7500    112.0997      0.0000      3.8346      0.4162
  1186.0000    114.1903      0.0000      4.2219      0.4638
  1186.2500    115.8999      0.0000      4.5121      0.5156
  1186.5000    117.5768      0.0000      4.6988      0.5570
  1186.7500    119.6920      0.0000      4.8104      0.5806
  1187.0000    122.3267      0.0000      4.8944      0.5932
  1187.2500    124.8622      0.0000      4.9859      0.6110
  1187.5000    126.0727      0.0000      5.0875      0.6427
  1187.7500    124.7036      0.0000      5.1829      0.6803
  1188.0000    120.3936      0.0000      5.2612      0.7085
  1188.2500    114.3172      0.0000      5.3214      0.7182
  1188.5000    108.6784      0.0000      5.3627      0.7102
  1188.7500    105.0796      0.0000      5.3871      0.6910
  1189.0000    103.2307      0.0000      5.4069      0.6707
  1189.2500    101.3620      0.0000      5.4376      0.6585
  1189.5000     97.9086      0.0000      5.4862      0.6556
  1189.7500     92.8837      0.0000      5.5468      0.6526
  1190.0000     87.8241      0.0000      5.5981      0.6390
  1190.2500     84.5918      0.0000      5.6043      0.6160
  1190.5000     84.4341      0.0000      5.5409      0.5979
  1190.7500     88.1248      0.0000      5.4231      0.6003
  1191.0000     96.0925      0.0000      5.2975      0.6257
  1191.2500    107.4125      0.0000      5.2022      0.6606
  1191.5000    118.9465      0.0000      5.1440      0.6868
  1191.7500    126.5946      0.0000      5.1141      0.6941
  1192.0000    128.0122      0.0000      5.1081      0.6830
  1192.2500    124.1220      0.0000      5.1283      0.6588
  1192.5000    117.9925      0.0000      5.1756      0.6277
  1192.7500    112.4344      0.0000      5.2426      0.5983
  1193.0000    108.6321      0.0000      5.3091      0.5784
  1193.2500    106.5878      0.0000      5.3482      0.5701
  1193.5000    106.1763      0.0000      5.3461      0.5710
  1193.7500    107.3877      0.0000      5.3158      0.5794
  1194.0000    109.7179      0.0000      5.2840      0.5946
  1194.2500    112.0675      0.0000      5.2718      0.6133
  1194.5000    113.6754      0.0000      5.2859      0.6312
