~Version Information
VERS.                      2.0: CWLS Log ASCII Standard - VERSION 2.0
WRAP.                       NO: One line per depth step
~Well Information Block
STRT.FT               -13.5000: 
STOP.FT              2474.2500: 
STEP.FT                 0.2500: 
NULL.                -999.2500: 
COMP.          Pioneer Natural Resources: COMPANY
WELL.              Tiaga 23-14: WELL
FLD.           Purgatorie River: FIELD
LOC.           2168' FSL & 2030' FWL--: LOCATION
PROV.                       CO: PROVINCE
CNTY.               Las Animas: COUNTRY
SRVC.                         : SERVICE COMPANY
DATE.          Thu May 12 17:01:37 2005: LOG DATE
UWI.                          : UNIQUE WELL ID
~Curve Information Block
DEPT.FT            0 000 00 00: Depth
TT3.usec                      : CBL 3' Travel Time
AMP3.mV                       : CBL 3' Amplitude
GR.GAPI                       : Gamma Ray
CCL.                          : Casing Collar Locator
~Parameter Information Block
~A  Depth       TT3         AMP3         GR         CCL     
# ...
  1460.5000    701.3291      9.0006     60.8583      0.0000
  1460.7500    693.0386      9.7612     58.8030      0.0000
  1461.0000    651.8772     10.5989     59.2302      0.0000
  1461.2500    576.6970     11.5938     62.4943      0.0000
  1461.5000    487.4765     12.7247     68.2551      0.0000
  1461.7500    416.5904     13.8149     75.8739      0.0000
  1462.0000    383.4867     14.5928     84.4344      0.0000
  1462.2500    384.3197     14.8898     92.5723      0.0000
  1462.5000    407.9656     14.7871     98.8188      0.0000
  1462.7500    455.5465     14.5085    102.3563      0.0000
  1463.0000    531.5203     14.2061    103.3154      0.0000
  1463.2500    618.7698     13.8954    102.2896      0.0000
  1463.5000    687.2439     13.5290     99.8409      0.0000
  1463.7500    727.1761     13.0547     96.6534      0.0000
  1464.0000    747.9405     12.4533     93.8041      0.0000
  1464.2500    751.8441     11.7878     92.2807      0.0000
  1464.5000    731.5047     11.2133     92.0354      0.0000
  1464.7500    691.0244     10.8881     91.8006      0.0000
  1465.0000    657.1000     10.8302     90.0120      0.0000
  1465.2500    656.9280     10.8944     85.7962      0.0000
  1465.5000    687.1491     10.8917     79.2069      0.0000
  1465.7500    717.4948     10.7185     71.0424      0.0000
  1466.0000    723.6201     10.4102     62.7696      0.0000
  1466.2500    708.6465     10.0823     56.3788      0.0000
  1466.5000    691.7865      9.8165     53.7340      0.0000
  1466.7500    684.3029      9.5984     55.5982      0.0000
  1467.0000    685.2217      9.3559     61.2479      0.0000
  1467.2500    691.3801      9.0465     69.2512      0.0000
  1467.5000    701.2811      8.6956     78.5918      0.0000
  1467.7500    714.0660      8.3723     88.7324      0.0000
  1468.0000    728.4441      8.1404     98.7931      0.0000
  1468.2500    742.9338      8.0134    107.3341      0.0000
  1468.5000    757.9818      7.9689    113.0597      0.0000
  1468.7500    772.4047      7.9921    115.2652      0.0000
  1469.0000    778.0555      8.0715    113.7099      0.0000
  1469.2500    765.9578      8.1786    108.6837      0.0000
  1469.5000    734.9740      8.2657    101.2174      0.0000
  1469.7500    690.3460      8.2763     92.7677      0.0000
  1470.0000    638.0795      8.1893     84.6762      0.0000
  1470.2500    582.7687      8.0536     78.0077      0.0000
  1470.5000    527.9679      7.9435     73.6282      0.0000
  1470.7500    481.9145      7.8998     72.1038      0.0000
  1471.0000    460.4576      7.9314     73.4358      0.0000
  1471.2500    471.7845      8.0128     76.8865      0.0000
  1471.5000    505.2537      8.0762     81.1409      0.0000
  1471.7500    550.9736      8.0686     84.7999      0.0000
  1472.0000    610.2285      7.9979     86.9279      0.0000
  1472.2500    671.5222      7.8842     87.2452      0.0000
  1472.5000    711.0162      7.7225     85.8475      0.0000
  1472.7500    723.4836      7.5320     82.9210      0.0000
  1473.0000    724.1191      7.3645     78.9139      0.0000
  1473.2500    726.0074      7.2360     74.7084      0.0000
  1473.5000    730.0178      7.1063     71.2262      0.0000
  1473.7500    727.8923      6.9416     69.0022      0.0000
  1474.0000    711.5344      6.7439     68.4747      0.0000
  1474.2500    684.5189      6.5197     70.2970      0.0000
  1474.5000    662.6380      6.2845     74.7088      0.0000
  1474.7500    657.2836      6.0915     80.7140      0.0000
  1475.0000    662.6364      5.9927     86.4959      0.0000
  1475.2500    665.7935      5.9902     90.7518      0.0000
  1475.5000    660.5829      6.0536     93.2995      0.0000
  1475.7500    650.3408      6.1476     94.3305      0.0000
  1476.0000    645.3364      6.2328     93.6572      0.0000
  1476.2500    651.8258      6.2703     91.2675      0.0000
  1476.5000    663.6348      6.2517     88.2993      0.0000
  1476.7500    671.9025      6.2016     86.6557      0.0000
  1477.0000    675.1062      6.1356     87.7029      0.0000
  1477.2500    675.7872      6.0406     91.8206      0.0000
  1477.5000    675.7200      5.9050     98.5792      0.0000
  1477.7500    675.7338      5.7480    106.2848      0.0000
  1478.0000    676.7250      5.6023    111.9613      0.0000
  1478.2500    679.8196      5.4975    113.3447      0.0000
  1478.5000    685.0187      5.4461    111.0893      0.0000
  1478.7500    690.0096      5.4137    108.1883      0.0000
  1479.0000    692.2667      5.3615    107.2702      0.0000
  1479.2500    691.7396      5.3245    108.8907      0.0000
  1479.5000    691.3148      5.3709    111.8230      0.0000
  1479.7500    695.0540      5.5067    114.1750      0.0000
  1480.0000    703.1535      5.6824    114.5595      0.0000
  1480.2500    711.0713      5.8624    112.9462      0.0000
  1480.5000    715.5474      6.0414    110.5128      0.0000
  1480.7500    717.1428      6.2199    108.5285      0.0000
  1481.0000    717.4201      6.4037    107.5066      0.0000
  1481.2500    716.7564      6.6142    107.2516      0.0000
  1481.5000    713.6843      6.8757    107.2261      0.0000
  1481.7500    705.4765      7.1923    106.8001      0.0000
  1482.0000    691.5789      7.5513    105.6198      0.0000
  1482.2500    675.1255      7.9388    103.8678      0.0000
  1482.5000    659.0730      8.3186    101.9060      0.0000
  1482.7500    646.8869      8.6348     99.7390      0.0000
  1483.0000    642.0771      8.8649     97.1608      0.0000
  1483.2500    640.1265      9.0248     94.2762      0.0000
  1483.5000    632.9872      9.1067     91.4944      0.0000
  1483.7500    620.2071      9.0591     89.1813      0.0000
  1484.0000    611.0952      8.8477     87.6746      0.0000
  1484.2500    618.9932      8.5163     87.4578      0.0000
  1484.5000    647.8450      8.1890     88.8396      0.0000
  1484.7500    685.9997      7.9868     91.2846      0.0000
  1485.0000    714.5180      7.9370     93.2805      0.0000
  1485.2500    720.7054      7.9992     93.2286      0.0000
  1485.5000    710.4846      8.1235     90.7102      0.0000
  1485.7500    703.4277      8.2345     86.9043      0.0000
  1486.0000    710.6838      8.2459     83.7338      0.0000
  1486.2500    727.8861      8.1335     82.4815      0.0000
  1486.5000    745.9848      7.9570     83.0461      0.0000
  1486.7500    756.3598      7.8136     84.4911      0.0000
  1487.0000    753.8684      7.7787     86.3104      0.0000
  1487.2500    741.1866      7.8408     88.9395      0.0000
  1487.5000    726.8976      7.8727     92.9811      0.0000
  1487.7500    714.5187      7.7348     98.2706      0.0000
  1488.0000    695.0311      7.4180    103.7950      0.0000
  1488.2500    663.6203      7.0381    108.1547      0.0000
  1488.5000    637.3701      6.7210    110.0401      0.0000
  1488.7500    640.8822      6.5255    108.6902      0.0000
  1489.0000    677.6536      6.4240    104.3069      0.0000
  1489.2500    721.9330      6.3591     98.1764      0.0000
  1489.5000    746.4225      6.3181     92.2578      0.0000
  1489.7500    753.1002      6.3136     88.3704      0.0000
  1490.0000    759.8386      6.3282     87.3972     -2.0000
  1490.2500    770.1573      6.3247     88.9885      2.0000
  1490.5000    773.1844      6.3013     91.9563      2.0000
  1490.7500    762.5507      6.3210     94.9579      0.0000
  1491.0000    746.7217      6.4655     96.9762      0.0000
  1491.2500    737.2199      6.7332     97.7044      0.0000
  1491.5000    733.6970      7.0391     97.9050      0.0000
  1491.7500    730.7978      7.2942     98.9878      0.0000
  1492.0000    729.7457      7.4159    101.5810      0.0000
  1492.2500    732.7754      7.3797    104.6275      0.0000
  1492.5000    735.5093      7.2736    106.3445      0.0000
  1492.7500    734.5892      7.1934    105.8712      0.0000
  1493.0000    735.4513      7.1590    103.6127      0.0000
  1493.2500    743.1407      7.1656    100.4366      0.0000
  1493.5000    752.9680      7.2072     97.2103      0.0000
  1493.7500    758.2207      7.2570     94.7687      0.0000
