~Version Information
 VERS.                                  2.0 : CWLS LAS VERSION
 WRAP.                                   NO : WRAPING MODE
 SWARE .                 MController 2.5.0N : SOFTWARE VERSION
~Well Information
 WELL.                           Zink 44-10 : WELL
 COMP.    Pioneer Natural Resources USA Inc : COMPANY
 FLD.                      Purgatoire River : FIELD
 LOC.                SE/SE Sec 10 T32S R66W : LOCATION
 DATE.                              5/29/05 : DATE(S) LOGGED
 SRVC.       Blanco Geological Services LLC : SERVICE COMPANY
 STAT.                                   CO : STATE
 CNTY.                           Las Animas : COUNTY
 CTRY.                                  USA : COUNTRY
 API.                       05-071-08380-00 : API NUMBER
 STRT.FT                             620.00 : START DEPTH
 STOP.FT                            2635.00 : STOP DEPTH
 STEP.FT                               1.00 : DEPTH INCREMENT
 NULL.                                -9999 : NULL VALUE
~Curve information
 DEPTH.FT                                   :
 ROP.MIN/FT                                 :
 GAS.UNITS                                  :
~ASCII Log data
# ...
       820.0         0.13          3.6 
       821.0         0.17          3.9 
       822.0         0.20          3.6 
       823.0         0.17          3.9 
       824.0         0.17          3.6 
       825.0         0.20          3.6 
       826.0         0.17          3.4 
       827.0         0.20          3.6 
       828.0         0.17          3.5 
       829.0         0.18          3.6 
       830.0         0.13          4.0 
       831.0         0.17          3.5 
       832.0         0.17          4.5 
       833.0         0.17          4.1 
       834.0         0.20          4.4 
       835.0         0.33          4.3 
       836.0         0.93          4.5 
       837.0         0.23          3.7 
       838.0         0.37          3.4 
       839.0         0.27          3.7 
       840.0         0.23          4.0 
       841.0         0.18          4.2 
       842.0         0.23          4.3 
       843.0         0.20          4.2 
       844.0         0.17          4.5 
       845.0         0.20          4.4 
       846.0         0.20          3.7 
       847.0         0.17          3.8 
       848.0         0.20          4.9 
       849.0         0.17          4.2 
       850.0         0.17          4.1 
       851.0         0.17          4.4 
       852.0         0.20          4.2 
       853.0         0.20          4.2 
       854.0         0.17          4.0 
       855.0         0.20          3.5 
       856.0         0.17          4.1 
       857.0         0.20          4.4 
       858.0         0.20          4.5 
       859.0         0.18          3.9 
       860.0         0.20          4.1 
       861.0         0.17          4.4 
       862.0         0.20          3.7 
       863.0         0.20          4.2 
       864.0         0.17          4.0 
       865.0         0.20          4.2 
       866.0         1.30          4.6 
       867.0         0.33          4.1 
       868.0         0.40          4.9 
       869.0         0.28          4.9 
       870.0         0.27          5.0 
       871.0         0.20          4.0 
       872.0         0.23          3.7 
       873.0         0.20          4.2 
       874.0         0.20          4.9 
       875.0         0.17          4.9 
       876.0         0.17          4.3 
       877.0         0.20          4.2 
       878.0         0.17          4.8 
       879.0         0.13          4.1 
       880.0         0.17          4.2 
       881.0         0.13          4.8 
       882.0         0.17          4.3 
       883.0         0.17          3.6 
       884.0         0.17          2.3 
       885.0         0.17          2.5 
       886.0         0.18          2.6 
       887.0         0.17          2.5 
       888.0         0.13          2.2 
       889.0         0.20          2.0 
       890.0         0.17          2.5 
       891.0         0.17          2.0 
       892.0         0.17          1.8 
       893.0         0.13          2.1 
       894.0         0.17          2.8 
       895.0         0.20          2.6 
       896.0         1.92          4.7 
       897.0         0.33          5.1 
       898.0         0.27          3.0 
       899.0         0.20          2.9 
       900.0         0.27          4.7 
       901.0         0.27          5.0 
       902.0         0.20          4.9 
       903.0         0.23          4.2 
       904.0         0.20          4.8 
       905.0         0.20          3.6 
       906.0         0.23          4.0 
       907.0         0.33          3.5 
       908.0         0.20          3.9 
       909.0         0.20          4.4 
       910.0         0.22          4.9 
       911.0         0.17          3.8 
       912.0         0.20          3.2 
       913.0         0.27          2.8 
       914.0         0.30          2.8 
       915.0         0.23          1.5 
       916.0         0.20          2.0 
       917.0         0.17          2.8 
       918.0         0.23          2.7 
       919.0         0.23          2.7 
       920.0         0.20          3.4 
       921.0         0.20          3.5 
       922.0         0.17          4.3 
       923.0         0.17          4.5 
       924.0         0.13          4.4 
       925.0         0.17          4.3 
       926.0         2.25          4.3 
       927.0         0.30          2.4 
       928.0         0.27          1.6 
       929.0         0.20          0.5 
       930.0         0.17          0.6 
       931.0         0.20          0.2 
       932.0         0.18          0.7 
       933.0         0.20          1.0 
       934.0         0.20          1.6 
       935.0         0.23          2.2 
       936.0         0.20          1.6 
       937.0         0.27          1.5 
       938.0         0.20          1.5 
       939.0         0.20          0.7 
       940.0         0.23          1.4 
       941.0         0.27          2.1 
       942.0         0.17          1.8 
       943.0         0.20          2.0 
       944.0         0.20          0.4 
       945.0         0.17          0.4 
       946.0         0.17          0.4 
       947.0         0.17          1.1 
       948.0         0.17          1.2 
       949.0         0.22          2.9 
       950.0         0.13          3.0 
       951.0         0.13          3.2 
       952.0         0.20          3.6 
       953.0         0.20          5.1 
       954.0         0.27          3.5 
       955.0         0.23          2.8 
       956.0         2.25         13.9 
       957.0         0.27          8.7 
       958.0         0.23          9.9 
       959.0         0.30         12.0 
       960.0         0.23         12.3 
       961.0         0.17         11.5 
       962.0         0.20         11.3 
       963.0         0.10         10.9 
       964.0         0.17         11.5 
       965.0         0.20         10.6 
       966.0         0.23         10.5 
       967.0         0.17         11.0 
       968.0         0.20         11.1 
       969.0         0.20         11.3 
       970.0         0.17         10.7 
       971.0         0.17         11.3 
       972.0         0.18         14.1 
       973.0         0.17         14.2 
       974.0         0.20         13.8 
       975.0         0.17         10.9 
       976.0         0.17          9.7 
       977.0         0.20          8.9 
       978.0         0.17          8.5 
       979.0         0.17          7.9 
       980.0         0.27          6.8 
       981.0         0.23          7.8 
       982.0         0.20          8.8 
       983.0         0.17         14.8 
       984.0         0.23         25.8 
       985.0         0.27         50.3 
       986.0         1.48         72.5 
       987.0         0.37         16.9 
       988.0         0.40         14.8 
       989.0         0.23          8.7 
       990.0         0.27          8.3 
       991.0         0.23          8.0 
       992.0         0.13          8.4 
       993.0         0.17          8.9 
       994.0         0.20         10.4 
       995.0         0.17         15.4 
       996.0         0.17         24.0 
       997.0         0.13         32.3 
       998.0         0.15         48.8 
       999.0         0.10         61.4 
      1000.0         0.10         75.3 
      1001.0         0.17        111.9 
      1002.0         0.10        122.9 
      1003.0         0.10        124.6 
      1004.0         0.13        120.8 
      1005.0         0.20        114.3 
      1006.0         0.20        112.0 
      1007.0         0.20        113.7 
      1008.0         0.20        113.7 
      1009.0         0.27        113.3 
      1010.0         0.20        109.4 
      1011.0         0.17        103.8 
      1012.0         0.13        102.6 
      1013.0         0.13        113.7 
      1014.0         0.17        138.6 
      1015.0         0.20        203.0 
      1016.0         1.58       1220.4 
      1017.0         0.33        614.5 
      1018.0         0.27        576.3 
      1019.0         0.23        554.0 
