~Version Information
VERS.                      2.0: CWLS Log ASCII Standard - VERSION 2.0
WRAP.                       NO: One line per depth step
~Well Information Block
STRT.FT               -16.5000: 
STOP.FT              1244.7500: 
STEP.FT                 0.2500: 
NULL.                -999.2500: 
COMP.          Pioneer Natural Resources: COMPANY
WELL.          Bouncer41-27 Tr: WELL
FLD.           Purgatorie River: FIELD
LOC.           292' FNL & 222' FEL--------: LOCATION
PROV.                       CO: PROVINCE
CNTY.               Las Animas: COUNTRY
SRVC.                         : SERVICE COMPANY
DATE.          Fri Feb 11 15:34:51 2005: LOG DATE
UWI.                071-08291 : UNIQUE WELL ID
~Curve Information Block
DEPT.FT            0 000 00 00: Depth
CCL.                          : Casing Collar Locator
TT3.usec                      : CBL 3' Travel Time
AMP3.mV                       : CBL 3' Amplitude
GR.GAPI                       : Gamma Ray
~Parameter Information Block
~A  Depth       CCL         TT3         AMP3         GR     
# ...
   653.5000      0.0000    733.1809      5.6395     89.5083
   653.7500      0.0000    733.4218      5.5932     89.6328
   654.0000      0.0000    733.3804      5.5480     89.9586
   654.2500      0.0000    733.0659      5.4984     90.3468
   654.5000      0.0000    732.5746      5.4436     90.6086
   654.7500      0.0000    732.0374      5.3925     90.8830
   655.0000      0.0000    731.6017      5.3618     91.2917
   655.2500      0.0000    731.4459      5.3627     91.2906
   655.5000      0.0000    731.7194      5.3862     89.8523
   655.7500      0.0000    732.4088      5.4068     86.3914
   656.0000      0.0000    733.3113      5.4049     81.2415
   656.2500      0.0000    734.2587      5.3786     75.2808
   656.5000      0.0000    735.4924      5.3301     69.4274
   656.7500      0.0000    737.7891      5.2535     64.5230
   657.0000      0.0000    741.9312      5.1447     61.3499
   657.2500      0.0000    747.6516      5.0209     60.4908
   657.5000      0.0000    753.0463      4.9217     62.1465
   657.7500      0.0000    755.5070      4.8864     65.8065
   658.0000      0.0000    753.6860      4.9269     69.8196
   658.2500      0.0000    748.5102      5.0189     71.8632
   658.5000      0.0000    742.0803      5.1228     70.8243
   658.7500      0.0000    735.7780      5.2147     68.1914
   659.0000      0.0000    729.6552      5.2951     66.8042
   659.2500      0.0000    723.3419      5.3659     68.0976
   659.5000      0.0000    717.0180      5.4086     71.0727
   659.7500      0.0000    711.5527      5.3918     73.8006
   660.0000      0.0000    708.1737      5.3052     75.2405
   660.2500      0.0000    707.8680      5.1767     75.5709
   660.5000      0.0000    710.4938      5.0542     75.4284
   660.7500      0.0000    714.4474      4.9738     75.2268
   661.0000      0.0000    717.7616      4.9441     75.0418
   661.2500      0.0000    719.6178      4.9496     74.8095
   661.5000      0.0000    720.4346      4.9688     74.4863
   661.7500      0.0000    720.5591      4.9993     74.0128
   662.0000      0.0000    719.3852      5.0574     73.2334
   662.2500      0.0000    716.0500      5.1414     71.9882
   662.5000      0.0000    710.7677      5.2117     70.3014
   662.7500      0.0000    705.0289      5.2293     68.4334
   663.0000      0.0000    700.4001      5.2026     66.9304
   663.2500      0.0000    697.4423      5.1693     66.5769
   663.5000      0.0000    695.7928      5.1407     67.8770
   663.7500      0.0000    694.8845      5.0926     70.4808
   664.0000      0.0000    694.3947      5.0065     73.4983
   664.2500      0.0000    694.2236      4.9013     76.2962
   664.5000      0.0000    694.3215      4.8274     78.6503
   664.7500      0.0000    694.5912      4.8387     80.2651
   665.0000      0.0000    694.9086      4.9609     80.5641
   665.2500      0.0000    695.1857      5.1721     78.9833
   665.5000      0.0000    695.3945      5.4135     75.5542
   665.7500      0.0000    695.5309      5.6165     71.3580
   666.0000      0.0000    695.5704      5.7228     68.1624
   666.2500      0.0000    695.4872      5.6980     67.1922
   666.5000      0.0000    695.3189      5.5437     68.2115
   666.7500      0.0000    695.1854      5.3027     69.8969
   667.0000      0.0000    695.2258      5.0418     71.0466
   667.2500      0.0000    695.5263      4.8257     71.4248
   667.5000      0.0000    696.0989      4.6977     71.6646
   667.7500      0.0000    696.8815      4.6734     72.6081
   668.0000      0.0000    697.7672      4.7428     74.7531
   668.2500      0.0000    698.7088      4.8739     78.0107
   668.5000      0.0000    699.8670      5.0143     81.8287
   668.7500      0.0000    701.5885      5.0983     85.6262
   669.0000      0.0000    704.0629      5.0771     89.1472
   669.2500      0.0000    707.0234      4.9538     92.3662
   669.5000      0.0000    710.0746      4.7891     95.0806
   669.7500      0.0000    713.2853      4.6633     96.6964
   670.0000      0.0000    716.8136      4.6313     96.6888
   670.2500      0.0000    719.7161      4.7017     95.5872
   670.5000      0.0000    719.9775      4.8466     95.4184
   670.7500      0.0000    716.4406      5.0197     98.8016
   671.0000      0.0000    710.4278      5.1731    107.3472
   671.2500      0.0000    705.0940      5.2718    120.7592
   671.5000      0.0000    703.5167      5.3010    136.8742
   671.7500      0.0000    707.5231      5.2621    152.1333
   672.0000      0.0000    717.2781      5.1649    162.7286
   672.2500      0.0000    730.6857      5.0251    166.6276
   672.5000      0.0000    743.4226      4.8719    165.0869
   672.7500      0.0000    751.0424      4.7495    161.6263
   673.0000      0.0000    751.7031      4.7002    159.0094
   673.2500      0.0000    746.4134      4.7352    157.4158
   673.5000      0.0000    736.8403      4.8234    155.6409
   673.7500      0.0000    723.8668      4.9102    153.4659
   674.0000      0.0000    708.3080      4.9527    152.2404
   674.2500      0.0000    692.0659      4.9383    153.3189
   674.5000      0.0000    678.0182      4.8802    156.5766
   674.7500      0.0000    668.9728      4.8069    160.5594
   675.0000      0.0000    666.6701      4.7481    163.6645
   675.2500      0.0000    671.0454      4.7170    165.1228
   675.5000      0.0000    679.7719      4.7063    165.0521
   675.7500      0.0000    688.8994      4.7082    163.6544
   676.0000      0.0000    695.0218      4.7291    160.4725
   676.2500      0.0000    697.2462      4.7735    154.5859
   676.5000      0.0000    696.9564      4.8317    145.3419
   676.7500      0.0000    696.1053      4.9002    132.7641
   677.0000      0.0000    696.1691      4.9982    117.6921
   677.2500      0.0000    698.1806      5.1426    101.8081
   677.5000      0.0000    702.6694      5.3138     87.1612
   677.7500      0.0000    709.1347      5.4580     75.2774
   678.0000      0.0000    716.0453      5.5163     66.6739
   678.2500      0.0000    721.9638      5.4581     61.0675
   678.5000      0.0000    726.5928      5.3031     57.7972
   678.7500      0.0000    730.4092      5.1145     56.0808
   679.0000      0.0000    733.6015      4.9557     55.2203
   679.2500      0.0000    735.8738      4.8561     54.7400
   679.5000      0.0000    737.0189      4.8211     54.3138
   679.7500      0.0000    737.1690      4.8509     53.8213
   680.0000      0.0000    736.5416      4.9310     53.7373
   680.2500      0.0000    735.1952      5.0239     55.0090
   680.5000      0.0000    733.1012      5.0884     57.9777
   680.7500      0.0000    730.5041      5.1038     61.7128
   681.0000      0.0000    728.2150      5.0708     64.8405
   681.2500      0.0000    727.2444      5.0020     66.7144
   681.5000      0.0000    727.7913      4.9204     67.6939
   681.7500      0.0000    728.8351      4.8578     69.0402
   682.0000      0.0000    729.2082      4.8389     72.5950
   682.2500      0.0000    729.0082      4.8623     79.5956
   682.5000      0.0000    729.4824      4.9022     89.3940
   682.7500      0.0000    731.4720      4.9292     99.6842
   683.0000      0.0000    734.3947      4.9308    108.0787
   683.2500      0.0000    736.8621      4.9192    113.5356
   683.5000      0.0000    737.7699      4.9240    116.8307
   683.7500      0.0000    736.6003      4.9682    119.9264
   684.0000      0.0000    733.2407      5.0475    124.3327
   684.2500      0.0000    727.9770      5.1327    129.5504
   684.5000      0.0000    721.4682      5.1898    133.1951
   684.7500      0.0000    714.4548      5.1928    132.8720
   685.0000      0.0000    707.5679      5.1294    128.0695
   685.2500      0.0000    701.3442      5.0160    120.4843
   685.5000      0.0000    696.0198      4.9004    112.7812
   685.7500      0.0000    691.2718      4.8244    107.0177
   686.0000      0.0000    686.6337      4.7836    103.8885
   686.2500      0.0000    682.4724      4.7469    103.1559
   686.5000      0.0000    680.2525      4.7127    104.7388
   686.7500      0.0000    681.3440      4.7189    109.3161
