~Version Information
 VERS.                                  2.0 : CWLS LAS VERSION
 WRAP.                                   NO : WRAPING MODE
 SWARE .                 MController 2.5.0J : SOFTWARE VERSION
~Well Information
 WELL.                          Graff 9-31R : WELL
 COMP.                       Petrogulf Corp : COMPANY
 FLD.                      Purgatorie River : FIELD
 LOC.                 NW/NE Sec 9 T32S R67W : LOCATION
 DATE.                           10/24/2004 : DATE(S) LOGGED
 SRVC.       Blanco Geological Services LLC : SERVICE COMPANY
 STAT.                                   CO : STATE
 CNTY.                           Las Animas : COUNTY
 CTRY.                                  USA : COUNTRY
 API.                       05-071-080370-00 : API NUMBER
 STRT.FT                             712.0 : START DEPTH
 STOP.FT                            1940.00 : STOP DEPTH
 STEP.FT                               1.00 : DEPTH INCREMENT
 NULL.                                -9999 : NULL VALUE
~Curve information
 DEPTH.FT                                   :
 ROP.MIN/FT                                 :
 GAS.UNITS                                  :
~ASCII Log data
# ...
      1313.0         0.30         13.5 
      1314.0         0.27         12.0 
      1315.0         0.27          9.9 
      1316.0         0.27          9.9 
      1317.0         0.23          9.2 
      1318.0         0.27          9.1 
      1319.0         0.27          7.7 
      1320.0         0.27          7.5 
      1321.0         0.32          6.9 
      1322.0         0.23          6.5 
      1323.0         0.27          4.4 
      1324.0         0.33          2.8 
      1325.0         0.37          1.5 
      1326.0         0.50          0.5 
      1327.0         9.25          0.0 
      1328.0         0.40          5.2 
      1329.0         0.27         17.6 
      1330.0         0.27         18.1 
      1331.0         0.27         16.8 
      1332.0         0.27         15.0 
      1333.0         0.43         11.1 
      1334.0         0.40          8.6 
      1335.0         0.33          7.7 
      1336.0         0.45          1.7 
      1337.0         0.37          3.5 
      1338.0         0.33          3.4 
      1339.0         0.27          7.1 
      1340.0         0.27         12.2 
      1341.0         0.27         12.4 
      1342.0         0.27         14.4 
      1343.0         0.33         14.9 
      1344.0         0.33         14.5 
      1345.0         0.37         15.2 
      1346.0         0.37         14.8 
      1347.0         0.45         13.4 
      1348.0         0.47         13.1 
      1349.0         0.43         12.9 
      1350.0         0.33         11.9 
      1351.0         0.43         12.9 
      1352.0         0.50         15.4 
      1353.0         0.47         14.7 
      1354.0         0.33         14.3 
      1355.0         0.45         15.0 
      1356.0         0.37         15.3 
      1357.0         0.37         15.8 
      1358.0         0.37         18.0 
      1359.0         0.47         22.0 
      1360.0         0.43         23.9 
      1361.0         0.50         25.8 
      1362.0         0.45         36.0 
      1363.0         0.23         38.9 
      1364.0         0.27         39.6 
      1365.0         0.27         37.2 
      1366.0         0.27         35.8 
      1367.0         0.20         33.4 
      1368.0         0.27         40.4 
      1369.0         0.27         60.6 
      1370.0         0.27        107.9 
      1371.0         0.30        106.2 
      1372.0         0.23         81.5 
      1373.0         0.23         57.4 
      1374.0         0.33         34.4 
      1375.0         0.38         21.7 
      1376.0         0.30         16.8 
      1377.0         0.27         15.4 
      1378.0         0.27         15.3 
      1379.0         0.23         14.7 
      1380.0         0.20         13.3 
      1381.0         0.23         12.9 
      1382.0         0.13         13.2 
      1383.0         0.33         12.2 
      1384.0         0.40          9.0 
      1385.0         0.37          7.8 
      1386.0         0.33          8.4 
      1387.0         0.35         11.9 
      1388.0         0.23         13.4 
      1389.0         0.23         13.7 
      1390.0         0.27         14.5 
      1391.0         0.23         12.9 
      1392.0         0.33         11.0 
      1393.0         0.20         10.5 
      1394.0         0.20          9.2 
      1395.0         0.20          8.8 
      1396.0         0.20          8.5 
      1397.0         0.20          7.7 
      1398.0         0.23          7.4 
      1399.0         0.20          7.4 
      1400.0         0.17          6.6 
      1401.0         0.22          7.0 
      1402.0         0.20          6.3 
      1403.0         0.17          6.4 
      1404.0         0.17          6.6 
      1405.0         0.23          6.2 
      1406.0         0.27          9.0 
      1407.0         0.27          8.1 
      1408.0         0.30          7.0 
      1409.0         0.28          6.7 
      1410.0         0.43          8.9 
      1411.0         0.37         11.8 
      1412.0         0.23         13.8 
      1413.0         0.30         15.1 
      1414.0         0.27         15.2 
      1415.0         0.27         14.3 
      1416.0         0.37         13.5 
      1417.0         0.23         13.0 
      1418.0         0.33         10.2 
      1419.0         0.23          9.3 
      1420.0         0.35          8.0 
      1421.0         0.30          9.5 
      1422.0         0.37         10.6 
      1423.0         0.33          9.8 
      1424.0         0.33          8.6 
      1425.0         0.23          7.9 
      1426.0         0.27          6.7 
      1427.0         0.27          6.2 
      1428.0         0.27          5.4 
      1429.0         0.33          5.9 
      1430.0         0.27          5.8 
      1431.0         0.32          5.3 
      1432.0         0.27          6.1 
      1433.0         0.33          7.0 
      1434.0         0.40          7.0 
      1435.0         0.37          7.5 
      1436.0         0.27          9.1 
      1437.0         0.27          9.2 
      1438.0         0.43          8.8 
      1439.0         0.27         10.6 
      1440.0         0.30         12.6 
      1441.0         0.27         15.0 
      1442.0         0.27         16.4 
      1443.0         0.37         18.0 
      1444.0         0.58         14.3 
      1445.0         0.43         13.3 
      1446.0         0.47          9.7 
      1447.0         0.27          9.6 
      1448.0         0.30          8.2 
      1449.0         0.27          8.1 
      1450.0         0.17          8.7 
      1451.0         0.30          9.1 
      1452.0         0.23          9.0 
      1453.0         0.23          8.5 
      1454.0         0.20          8.5 
      1455.0         0.20          8.0 
      1456.0         0.22          7.3 
      1457.0         0.23          7.2 
      1458.0         0.20          6.5 
      1459.0         0.23          5.9 
      1460.0         0.23          5.9 
      1461.0         0.20          6.1 
      1462.0         0.23          5.6 
      1463.0         0.23          5.4 
      1464.0         0.20          5.1 
      1465.0         0.20          4.7 
      1466.0         0.17         10.8 
      1467.0         0.23         10.3 
      1468.0         0.33          9.1 
      1469.0         0.50          9.1 
      1470.0         0.50         11.7 
      1471.0         0.37         14.5 
      1472.0         0.42         16.9 
      1473.0         0.33         16.6 
      1474.0         0.33         16.7 
      1475.0         0.23         15.0 
      1476.0         0.20         14.2 
      1477.0         0.17         13.3 
      1478.0         0.30         11.6 
      1479.0         0.40          9.8 
      1480.0         0.30         10.8 
      1481.0         0.23         11.3 
      1482.0         0.33         10.5 
      1483.0         0.37         10.5 
      1484.0         0.38         10.5 
      1485.0         0.23         10.0 
      1486.0         0.23          8.7 
      1487.0         0.23          8.2 
      1488.0         0.33          7.7 
      1489.0         0.27          7.3 
      1490.0         0.20          6.4 
      1491.0         0.43          6.1 
      1492.0         0.37          5.9 
      1493.0         0.40          6.2 
      1494.0         0.38          5.7 
      1495.0         0.33          5.9 
      1496.0         0.27          4.9 
      1497.0         0.27          4.5 
      1498.0         0.28          4.4 
      1499.0         0.23          5.1 
      1500.0         0.37          8.9 
      1501.0         0.30         12.5 
      1502.0         0.30         16.3 
      1503.0         0.40         17.2 
      1504.0         0.37         16.1 
      1505.0         0.30         16.0 
      1506.0         0.27         13.9 
      1507.0         0.30         11.6 
      1508.0         0.30          8.9 
      1509.0         0.28          8.1 
      1510.0         0.30          7.0 
      1511.0         0.30          7.1 
      1512.0         0.30          7.8 
