~Version Information
VERS.                      2.0: CWLS Log ASCII Standard - VERSION 2.0
WRAP.                       NO: One line per depth step
~Well Information Block
STRT.FT                -5.2500: 
STOP.FT               769.5000: 
STEP.FT                 0.2500: 
NULL.                -999.2500: 
COMP.          Pioneer Natural Resources: COMPANY
WELL.          HG Duran 34-27 Tr: WELL
FLD.           Purgatorie River: FIELD
LOC.           1076' FSL & 1465' FEL: LOCATION
PROV.                 Colorado: PROVINCE
CNTY.               Las Animas: COUNTRY
SRVC.          Patterson Wireline: SERVICE COMPANY
DATE.          Mon Apr 18 09:19:17 2005: LOG DATE
UWI.           05-071-08218-00: UNIQUE WELL ID
~Curve Information Block
DEPT.FT            0 000 00 00: Depth
CCL.                          : Casing Collar Locator
TT3.usec                      : CBL 3' Travel Time
AMP3.mV                       : CBL 3' Amplitude
GR.GAPI                       : Gamma Ray
~Parameter Information Block
~A  Depth       CCL         TT3         AMP3         GR     
# ...
   497.2500      0.0000    800.6188      8.8199     56.1598
   497.5000      0.0000    798.0237      8.5590     55.2119
   497.7500      0.0000    796.1504      8.3865     55.1122
   498.0000      0.0000    793.4975      8.3292     56.0454
   498.2500      0.0000    789.4280      8.3643     58.0290
   498.5000      0.0000    784.6727      8.4250     60.4438
   498.7500      0.0000    781.1245      8.4500     62.2993
   499.0000      0.0000    780.2351      8.4277     63.1476
   499.2500      0.0000    781.3353      8.3861     63.4400
   499.5000      0.0000    782.1690      8.3487     63.9324
   499.7500      0.0000    781.4752      8.3191     65.0231
   500.0000      0.0000    780.4861      8.3050     66.7046
   500.2500      0.0000    781.3395      8.3292     68.8167
   500.5000      0.0000    784.3696      8.4072     71.0794
   500.7500      0.0000    787.6674      8.5187     73.0635
   501.0000      0.0000    789.2893      8.6045     74.4602
   501.2500      0.0000    789.3032      8.6005     75.3781
   501.5000      0.0000    789.4246      8.4960     76.1781
   501.7500      0.0000    791.0717      8.3617     77.0723
   502.0000      0.0000    794.3360      8.2962     78.1677
   502.2500      0.0000    798.9164      8.3356     79.7646
   502.5000      0.0000    805.3918      8.4326     82.0257
   502.7500      0.0000    814.7357      8.5252     84.3916
   503.0000      0.0000    826.1452      8.5997     86.0420
   503.2500      0.0000    835.6802      8.6689     86.9617
   503.5000      0.0000    838.1523      8.7129     87.8922
   503.7500      0.0000    831.3933      8.6814     89.3313
   504.0000      0.0000    818.6912      8.5648     91.1557
   504.2500      0.0000    806.4252      8.4316     92.9493
   504.5000      0.0000    799.1254      8.3687     94.0650
   504.7500      0.0000    796.9791      8.3996     93.5004
   505.0000      0.0000    797.4780      8.4736     90.2711
   505.2500      0.0000    798.3213      8.5223     84.2844
   505.5000      0.0000    798.6324      8.5080     76.8465
   505.7500      0.0000    798.4955      8.4261     69.9763
   506.0000      0.0000    798.2054      8.2844     65.0064
   506.2500      0.0000    797.9542      8.0990     61.9548
   506.5000      0.0000    797.8268      7.9013     60.1911
   506.7500      0.0000    797.8466      7.7348     59.3559
   507.0000      0.0000    797.9836      7.6343     59.5288
   507.2500      0.0000    798.1758      7.6087     60.7705
   507.5000      0.0000    798.4457      7.6398     62.7271
   507.7500      0.0000    799.0604      7.6944     64.6908
   508.0000      0.0000    800.6132      7.7419     65.9706
   508.2500      0.0000    803.7451      7.7655     66.1441
   508.5000      0.0000    808.3750      7.7665     65.1013
   508.7500      0.0000    813.1293      7.7608     63.1488
   509.0000      0.0000    816.2133      7.7701     61.0035
   509.2500      0.0000    817.5182      7.8125     59.2612
   509.5000      0.0000    819.4067      7.8958     57.7415
   509.7500      0.0000    824.6052      8.0158     55.6311
   510.0000      0.0000    833.5144      8.1573     52.4888
   510.2500      0.0000    844.0777      8.2962     48.9858
   510.5000      0.0000    853.7556      8.4085     46.4097
   510.7500      0.0000    860.8047      8.4818     45.5054
   511.0000      0.0000    864.0646      8.5224     46.0164
   511.2500      0.0000    862.8593      8.5507     47.1911
   511.5000      0.0000    857.7669      8.5865     48.4113
   511.7500      0.0000    851.0377      8.6342     49.4158
   512.0000      0.0000    845.5516      8.6761     50.2287
   512.2500      0.0000    842.9205      8.6825     50.9293
   512.5000      0.0000    842.4873      8.6403     51.5210
   512.7500      0.0000    842.2256      8.5802     52.2134
   513.0000      0.0000    840.6746      8.5649     53.6490
   513.2500      0.0000    837.9707      8.6354     56.3340
   513.5000      0.0000    835.1236      8.7670     59.7792
   513.7500      0.0000    832.7133      8.8898     62.5427
   514.0000      0.0000    830.4943      8.9571     63.3102
   514.2500      0.0000    828.0385      8.9877     61.9118
   514.5000      0.0000    825.4523      9.0367     59.3123
   514.7500      0.0000    823.3438      9.1306     56.7000
   515.0000      0.0000    822.2241      9.2306     54.7313
   515.2500      0.0000    822.2406      9.2564     53.6165
   515.5000      0.0000    823.3995      9.1469     53.4527
   515.7500      0.0000    825.5640      8.9130     54.0306
   516.0000      0.0000    828.1899      8.6344     54.7128
   516.2500      0.0000    830.5127      8.3971     55.0080
   516.5000      0.0000    832.0868      8.2355     54.9861
   516.7500      0.0000    832.9602      8.1351     54.8570
   517.0000      0.0000    833.4074      8.0751     54.6508
   517.2500      0.0000    833.6603      8.0519     54.6328
   517.5000      0.0000    833.8304      8.0670     55.4001
   517.7500      0.0000    833.9244      8.1042     57.0074
   518.0000      0.0000    833.8984      8.1200     58.4986
   518.2500      0.0000    833.7341      8.0614     58.8436
   518.5000      0.0000    833.4752      7.9052     58.0269
   518.7500      0.0000    833.2001      7.6828     56.8276
   519.0000      0.0000    832.9750      7.4624     55.7242
   519.2500      0.0000    832.8380      7.3047     54.4056
   519.5000      0.0000    832.8029      7.2308     52.5299
   519.7500      0.0000    832.8627      7.2163     50.5833
   520.0000      0.0000    832.9969      7.2045     49.4395
   520.2500      0.0000    833.2115      7.1357     49.1512
   520.5000      0.0000    833.5902      6.9827     48.8021
   520.7500      0.0000    834.3466      6.7678     47.7252
   521.0000      0.0000    835.7745      6.5517     46.3603
   521.2500      0.0000    838.0876      6.4057     45.5888
   521.5000      0.0000    841.4023      6.3779     45.6873
   521.7500      0.0000    846.1297      6.4646     46.3823
   522.0000      0.0000    853.3677      6.6044     47.4941
   522.2500      0.0000    864.6951      6.7129     48.8568
   522.5000      0.0000    881.4355      6.7438     49.8855
   522.7500      0.0000    903.2162      6.7242     49.9454
   523.0000      0.0000    925.7828      6.7207     49.1469
   523.2500      0.0000    940.8956      6.7722     48.3103
   523.5000      0.0000    941.4486      6.8619     48.1629
   523.7500      0.0000    927.9565      6.9562     48.7433
   524.0000      0.0000    908.3669      7.0551     49.4213
   524.2500      0.0000    890.9218      7.1921     49.4140
   524.5000      0.0000    878.3926      7.3879     48.5560
   524.7500      0.0000    868.8412      7.6107     47.6372
   525.0000      0.0000    859.7985      7.7793     47.7551
   525.2500      0.0000    850.8629      7.8101     49.2781
   525.5000      0.0000    843.2185      7.6840     51.5305
   525.7500      0.0000    837.8208      7.4828     53.3621
   526.0000      0.0000    834.3787      7.3555     53.8853
   526.2500      0.0000    831.7912      7.4381     52.8330
   526.5000      0.0000    829.2976      7.7987     50.5394
   526.7500      0.0000    827.3000      8.4344     47.7926
   527.0000      0.0000    827.5364      9.2794     45.7268
   527.2500      0.0000    833.0615     10.1732     45.5507
   527.5000      0.0000    849.0988     10.8521     47.9187
   527.7500      0.0000    883.4524     11.0709     52.3267
   528.0000      0.0000    942.7120     10.7923     57.2244
   528.2500      0.0000   1023.8510     10.1966     60.9029
   528.5000      0.0000   1108.9777      9.4764     62.4091
   528.7500      0.0000   1171.8833      8.7011     61.7585
   529.0000      0.0000   1193.7478      7.8885     59.4957
   529.2500      0.0000   1175.3325      7.1072     56.2176
   529.5000      0.0000   1135.2898      6.4707     52.4537
   529.7500      0.0000   1097.0194      6.0782     48.7315
   530.0000     -5.0000   1075.5043      5.9653     45.5651
   530.2500      0.0000   1071.8827      6.1164     43.4924
   530.5000      0.0000   1074.7736      6.5338     43.1418
