~Version Information
VERS.                      2.0: CWLS Log ASCII Standard - VERSION 2.0
WRAP.                       NO: One line per depth step
~Well Information Block
STRT.FT                 0.5000: 
STOP.FT              2744.2500: 
STEP.FT                 0.2500: 
NULL.                -999.2500: 
COMP.          Petrogulf Corporation: COMPANY
WELL.              Silva 1-43V: WELL
FLD.           Purgatoire River: FIELD
LOC.           2010' FSL & 614' FEL--: LOCATION
PROV.                 Colorado: PROVINCE
CNTY.               Las Animas: COUNTRY
SRVC.                Patterson: SERVICE COMPANY
DATE.          Mon Sep 12 10:37:12 2005: LOG DATE
UWI.           05 071 08371 00: UNIQUE WELL ID
~Curve Information Block
DEPT.FT            0 000 00 00: Depth
CCL.                          : Casing Collar Locator
TT3.usec                      : CBL 3' Travel Time
AMP3.mV                       : CBL 3' Amplitude
GR.GAPI                       : Gamma Ray
~Parameter Information Block
~A  Depth       CCL         TT3         AMP3         GR     
# ...
  2178.0000      0.0000    679.9721      1.9809     39.6986
  2178.2500      0.0000    675.8026      2.0656     40.9047
  2178.5000      0.0000    676.2499      2.1446     41.2807
  2178.7500      0.0000    681.0374      2.2098     40.4623
  2179.0000      0.0000    687.8083      2.2614     39.0464
  2179.2500      0.0000    693.7224      2.3028     38.2175
  2179.5000      0.0000    697.4975      2.3378     38.9825
  2179.7500      0.0000    700.2383      2.3721     41.4707
  2180.0000      0.0000    704.0977      2.4137     44.8562
  2180.2500      0.0000    709.6494      2.4718     48.0821
  2180.5000      0.0000    714.6696      2.5550     50.7698
  2180.7500      0.0000    716.2023      2.6707     53.4855
  2181.0000      0.0000    713.7189      2.8229     57.2475
  2181.2500      0.0000    709.2113      3.0117     62.7530
  2181.5000      0.0000    704.3082      3.2323     69.8241
  2181.7500      0.0000    699.1047      3.4802     77.4739
  2182.0000      0.0000    694.3873      3.7573     84.6290
  2182.2500      0.0000    693.1409      4.0661     90.9310
  2182.5000      0.0000    698.2738      4.3958     96.8788
  2182.7500      0.0000    709.0510      4.7207    103.0652
  2183.0000      0.0000    720.2953      5.0216    109.3644
  2183.2500      0.0000    725.3676      5.3044    115.2611
  2183.5000      0.0000    720.9265      5.5912    120.9508
  2183.7500      0.0000    710.0699      5.8904    127.4633
  2184.0000      0.0000    700.8512      6.1782    135.4652
  2184.2500      0.0000    701.2645      6.4083    144.4212
  2184.5000      0.0000    714.7712      6.5410    152.9644
  2184.7500      0.0000    738.2376      6.5681    159.6792
  2185.0000      0.0000    762.2210      6.5167    163.5786
  2185.2500      0.0000    775.3461      6.4317    164.4509
  2185.5000      0.0000    772.3308      6.3502    163.2174
  2185.7500      0.0000    758.3609      6.2871    161.7399
  2186.0000      0.0000    744.1893      6.2382    161.6208
  2186.2500      0.0000    737.4118      6.1868    162.9027
  2186.5000      0.0000    738.5397      6.1024    164.1591
  2186.7500      0.0000    742.7236      5.9434    163.8967
  2187.0000      0.0000    743.5085      5.6803    161.6672
  2187.2500      0.0000    737.1112      5.3245    157.8749
  2187.5000      0.0000    725.5236      4.9269    152.6831
  2187.7500      0.0000    714.8570      4.5443    145.1135
  2188.0000      0.0000    709.4616      4.2052    133.5274
  2188.2500      0.0000    708.1705      3.9029    117.4809
  2188.5000      0.0000    706.2816      3.6153     98.8691
  2188.7500      0.0000    700.0912      3.3274     80.8659
  2189.0000      0.0000    689.3582      3.0427     65.9652
  2189.2500      0.0000    676.6470      2.7775     55.1534
  2189.5000      0.0000    665.2671      2.5440     48.3134
  2189.7500      0.0000    657.6648      2.3418     44.9343
  2190.0000      0.0000    654.9111      2.1670     44.5642
  2190.2500      0.0000    656.9232      2.0253     46.7175
  2190.5000      0.0000    662.8912      1.9300     50.3546
  2190.7500      0.0000    671.6222      1.8885     53.7322
  2191.0000      0.0000    681.4106      1.8959     55.2377
  2191.2500      0.0000    689.4872      1.9406     54.6194
  2191.5000      0.0000    692.3724      2.0085     53.3254
  2191.7500      0.0000    688.0644      2.0872     53.5747
  2192.0000      0.0000    678.3115      2.1728     57.1156
  2192.2500      0.0000    668.3326      2.2727     64.6128
  2192.5000      0.0000    663.7797      2.3959     75.6438
  2192.7500      0.0000    667.1953      2.5378     89.0186
  2193.0000      0.0000    676.6378      2.6804    103.3335
  2193.2500      0.0000    687.7726      2.8095    117.3278
  2193.5000      0.0000    697.5268      2.9304    129.7864
  2193.7500      0.0000    705.4895      3.0639    139.5133
  2194.0000      0.0000    711.8682      3.2284    145.7811
  2194.2500      0.0000    715.2602      3.4229    148.7677
  2194.5000      0.0000    713.5931      3.6279    149.3586
  2194.7500      0.0000    707.0535      3.8191    148.4947
  2195.0000      0.0000    699.2816      3.9837    146.6780
  2195.2500      0.0000    695.6390      4.1212    143.9737
  2195.5000      0.0000    700.1010      4.2331    140.4998
  2195.7500      0.0000    712.4329      4.3165    136.9951
  2196.0000      0.0000    727.4531      4.3720    134.7145
  2196.2500      0.0000    737.8623      4.4158    134.4372
  2196.5000      0.0000    739.1362      4.4819    135.6022
  2196.7500      0.0000    732.5047      4.6039    136.6833
  2197.0000      0.0000    723.6182      4.7891    136.4728
  2197.2500      0.0000    718.2375      5.0128    134.9439
  2197.5000      0.0000    718.3652      5.2424    133.0995
  2197.7500      0.0000    721.5710      5.4609    132.0727
  2198.0000      0.0000    723.6150      5.6621    132.0850
  2198.2500      0.0000    721.9146      5.8338    132.2551
  2198.5000      0.0000    717.0105      5.9573    131.7352
  2198.7500      0.0000    711.3303      6.0261    130.8118
  2199.0000      0.0000    707.0536      6.0542    130.4318
  2199.2500      0.0000    705.1715      6.0658    130.9372
  2199.5000      0.0000    705.9094      6.0838    131.7533
  2199.7500      0.0000    709.1093      6.1278    132.0969
  2200.0000      0.0000    713.7817      6.2162    131.6408
  2200.2500      0.0000    717.6439      6.3642    130.7228
  2200.5000      0.0000    717.8899      6.5821    130.1125
  2200.7500      0.0000    713.0812      6.8744    130.2065
  2201.0000      0.0000    704.4655      7.2274    130.2838
  2201.2500      0.0000    695.4255      7.5963    128.9640
  2201.5000      0.0000    689.6524      7.9174    125.4910
  2201.7500      0.0000    689.3988      8.1485    120.1752
  2202.0000      0.0000    694.1694      8.3037    113.7162
  2202.2500      0.0000    700.1044      8.4546    106.8021
  2202.5000      0.0000    701.4748      8.6936    100.2801
  2202.7500      0.0000    694.5641      9.0766     94.7671
  2203.0000      0.0000    681.1170      9.5641     89.7766
  2203.2500      0.0000    667.9617     10.0000     83.8226
  2203.5000      0.0000    662.5748     10.1725     75.8009
  2203.7500      0.0000    668.1127      9.9497     66.2252
  2204.0000      0.0000    681.7051      9.3906     57.1063
  2204.2500      0.0000    696.6923      8.7109     50.6521
  2204.5000      0.0000    706.8856      8.1126     47.8499
  2204.7500      0.0000    710.3289      7.6492     47.9666
  2205.0000      2.0000    710.2151      7.2602     49.2842
  2205.2500      0.0000    711.9685      6.8950     50.3963
  2205.5000      0.0000    719.2267      6.5632     50.9787
  2205.7500      0.0000    732.5182      6.2864     51.5472
  2206.0000      0.0000    750.4780      6.0470     52.6456
  2206.2500      0.0000    770.5636      5.7943     54.2617
  2206.5000      0.0000    788.4905      5.4841     55.7777
  2206.7500      0.0000    798.3858      5.1082     56.2916
  2207.0000      0.0000    795.4409      4.7023     55.1139
  2207.2500      0.0000    779.7539      4.3287     52.3109
  2207.5000      0.0000    757.3038      4.0395     48.9824
  2207.7500      0.0000    736.0220      3.8519     46.9305
  2208.0000      0.0000    720.7684      3.7567     47.8227
  2208.2500      0.0000    712.4648      3.7393     52.4355
  2208.5000      0.0000    710.8911      3.7863     60.4391
  2208.7500      0.0000    716.0965      3.8849     70.5750
  2209.0000      0.0000    726.4798      4.0239     80.8167
  2209.2500      0.0000    737.1811      4.1920     88.7124
  2209.5000      0.0000    742.4630      4.3732     92.3946
  2209.7500      0.0000    740.1343      4.5483     91.6167
  2210.0000      0.0000    733.2404      4.6983     87.7443
  2210.2500      0.0000    727.3670      4.8019     82.9688
  2210.5000      0.0000    726.2390      4.8338     79.5116
  2210.7500      0.0000    729.0215      4.7765     78.7334
  2211.0000      0.0000    731.3976      4.6364     80.2923
  2211.2500      0.0000    729.6870      4.4465     82.5755
