~Version Information
VERS.                      2.0: CWLS Log ASCII Standard - VERSION 2.0
WRAP.                       NO: One line per depth step
~Well Information Block
STRT.FT                 8.7500: 
STOP.FT              2723.0000: 
STEP.FT                 0.2500: 
NULL.                -999.2500: 
COMP.          Pioneer Natural Resources: COMPANY
WELL.           Desoto 13-7 Tr: WELL
FLD.           Purgatoire River: FIELD
LOC.           1404' FSL & 1115' FWL: LOCATION
PROV.                 Colorado: PROVINCE
CNTY.               Las Animas: COUNTRY
SRVC.                Patterson: SERVICE COMPANY
DATE.          Wed Mar 16 18:00:51 2005: LOG DATE
UWI.           05 071 08216 00: UNIQUE WELL ID
~Curve Information Block
DEPT.FT            0 000 00 00: Depth
GR.GAPI                       : Gamma Ray
CCL.                          : Casing Collar Locator
TT3.usec                      : CBL 3' Travel Time
AMP3.mV                       : CBL 3' Amplitude
AMP5.mV                       : CBL 5' Amplitude
~Parameter Information Block
~A  Depth        GR         CCL         TT3         AMP3        AMP5    
# ...
   540.7500     74.7699      0.0000   1350.0000      7.9315      1.1454
   541.0000     75.0607      0.0000   1350.0000      7.9858      1.1598
   541.2500     75.1616      0.0000   1350.0000      8.1060      1.1727
   541.5000     75.3446      0.0000   1350.0000      8.3067      1.1857
   541.7500     76.6917      0.0000   1349.9758      8.5762      1.2001
   542.0000     79.9667      0.0000   1349.8179      8.8848      1.2155
   542.2500     84.5410      0.0000   1349.0164      9.1965      1.2308
   542.5000     88.7660      0.0000   1345.8461      9.4731      1.2456
   542.7500     91.2057      0.0000   1336.1067      9.6807      1.2597
   543.0000     91.3122      0.0000   1312.8477      9.8054      1.2728
   543.2500     89.3047      0.0000   1269.9147      9.8636      1.2845
   543.5000     85.9214      0.0000   1209.4810      9.8903      1.2931
   543.7500     82.2851      0.0000   1147.2192      9.9151      1.2957
   544.0000     79.5183      0.0000   1107.1261      9.9438      1.2894
   544.2500     78.0929      0.0000   1107.2445      9.9564      1.2732
   544.5000     77.5692      0.0000   1147.5065      9.9220      1.2489
   544.7500     77.0973      0.0000   1209.7936      9.8207      1.2208
   545.0000     76.1021      0.0000   1270.1450      9.6547      1.1933
   545.2500     74.4362      0.0000   1312.9730      9.4433      1.1699
   545.5000     72.0573      0.0000   1336.1586      9.2078      1.1514
   545.7500     68.8091      0.0000   1345.8627      8.9633      1.1364
   546.0000     64.6545      0.0000   1349.0204      8.7223      1.1227
   546.2500     60.1353      0.0000   1349.8187      8.4996      1.1083
   546.5000     56.3691      0.0000   1349.9760      8.3059      1.0917
   546.7500     54.3408      0.0000   1350.0000      8.1405      1.0722
   547.0000     54.1694      0.0000   1350.0000      7.9904      1.0501
   547.2500     55.0566      0.0000   1350.0000      7.8393      1.0275
   547.5000     55.8470      0.0000   1350.0000      7.6767      1.0074
   547.7500     55.7414      0.0000   1350.0000      7.5022      0.9915
   548.0000     54.7808      0.0000   1350.0000      7.3246      0.9785
   548.2500     53.7166      0.0000   1350.0000      7.1561      0.9660
   548.5000     53.2863      0.0000   1350.0000      7.0085      0.9538
   548.7500     53.6236      0.0000   1350.0000      6.8917      0.9437
   549.0000     54.3323      0.0000   1350.0000      6.8133      0.9365
   549.2500     54.9281      0.0000   1350.0000      6.7772      0.9291
   549.5000     55.1605      0.0000   1350.0000      6.7794      0.9177
   549.7500     55.1773      0.0000   1350.0000      6.8036      0.9026
   550.0000     55.4903      0.0000   1350.0000      6.8250      0.8893
   550.2500     56.4506      0.0000   1350.0000      6.8238      0.8837
   550.5000     57.5330      0.0000   1350.0000      6.7986      0.8873
   550.7500     57.5750      0.0000   1350.0000      6.7667      0.8961
   551.0000     56.1024      0.0000   1350.0000      6.7506      0.9048
   551.2500     54.0694      0.0000   1350.0000      6.7639      0.9115
   551.5000     52.8586      0.0000   1350.0000      6.8038      0.9174
   551.7500     52.7599      0.0000   1350.0000      6.8562      0.9244
   552.0000     52.7753      0.0000   1350.0000      6.9071      0.9334
   552.2500     51.7732      0.0000   1350.0000      6.9524      0.9442
   552.5000     49.5464      0.0000   1350.0000      6.9950      0.9559
   552.7500     46.8464      0.0000   1350.0000      7.0355      0.9670
   553.0000     44.7950      0.0000   1350.0000      7.0715      0.9771
   553.2500     44.3903      0.0000   1350.0000      7.1071      0.9873
   553.5000     46.1232      0.0000   1350.0000      7.1596      0.9998
   553.7500     49.5736      0.0000   1350.0000      7.2503      1.0151
   554.0000     53.4028      0.0000   1350.0000      7.3877      1.0309
   554.2500     56.0650      0.0000   1349.9773      7.5571      1.0417
   554.5000     56.7679      0.0000   1349.8079      7.7288      1.0402
   554.7500     55.9504      0.0000   1348.9603      7.8761      1.0221
   555.0000     54.8991      0.0000   1345.5646      7.9804      0.9889
   555.2500     54.6936      0.0000   1335.0580      8.0114      0.9450
   555.5000     55.2289      0.0000   1310.2133      7.9077      0.8894
   555.7500     55.3258      0.0000   1266.2109      7.6047      0.8176
   556.0000     54.0702      0.0000   1210.4182      7.1137      0.7345
   556.2500     52.0025      0.0000   1166.1243      6.5527      0.6592
   556.5000     50.6473      0.0000   1158.5983      6.0567      0.6116
   556.7500     50.8169      0.0000   1192.7428      5.6642      0.5956
   557.0000     51.7196      0.0000   1248.1569      5.3408      0.5997
   557.2500     51.8400      0.0000   1298.0876      5.0795      0.6098
   557.5000     50.3167      0.0000   1329.2040      4.9119      0.6178
   557.7500     47.4081      0.0000   1343.4619      4.8421      0.6215
   558.0000     44.2195     -3.0000   1348.3889      4.8390      0.6216
   558.2500     42.2416      0.0000   1349.6892      4.8952      0.6201
   558.5000     42.5471      0.0000   1349.9558      5.0795      0.6190
   558.7500     44.8593      0.0000   1350.0000      5.5291      0.6198
   559.0000     47.6700      0.0000   1350.0000      6.3467      0.6240
   559.2500     49.7546      0.0000   1350.0000      7.4459      0.6374
   559.5000     51.2910      0.0000   1350.0000      8.5207      0.6749
   559.7500     53.0248      0.0000   1350.0000      9.2489      0.7575
   560.0000     54.7721      0.0000   1350.0000      9.5309      0.8936
   560.2500     55.5229      0.0000   1350.0000      9.5042      1.0583
   560.5000     54.7957      0.0000   1349.9777      9.3733      1.2002
   560.7500     53.1055      0.0000   1349.8545      9.2735      1.2790
   561.0000     51.1511      0.0000   1349.2609      9.2493      1.2958
   561.2500     49.1594      0.0000   1347.0767      9.2890      1.2807
   561.5000     47.1268      0.0000   1340.9956      9.3625      1.2611
   561.7500     45.2555      0.0000   1328.3997      9.4482      1.2470
   562.0000     43.9124      0.0000   1309.6451      9.5400      1.2373
   562.2500     43.2873      0.0000   1291.2841      9.6345      1.2304
   562.5000     43.3113      0.0000   1283.4662      9.7222      1.2260
   562.7500     43.9578      0.0000   1291.2841      9.7937      1.2244
   563.0000     45.4620      0.0000   1309.6180      9.8530      1.2260
   563.2500     48.1432      0.0000   1328.1957      9.9182      1.2300
   563.5000     52.2326      0.0000   1339.9208     10.0052      1.2344
   563.7500     57.9295      0.0000   1342.6270     10.1116      1.2365
   564.0000     65.2154      0.0000   1334.7695     10.2149      1.2367
   564.2500     73.5077      0.0000   1312.6460     10.2864      1.2383
   564.5000     81.9206      0.0000   1274.5085     10.3064      1.2442
   564.7500     89.8648      0.0000   1228.5529     10.2726      1.2533
   565.0000     96.9046      0.0000   1193.2212     10.1995      1.2613
   565.2500    102.1195      0.0000   1182.3259     10.1100      1.2643
   565.5000    104.2094      0.0000   1187.9519     10.0240      1.2613
   565.7500    102.4572      0.0000   1184.0813      9.9530      1.2542
   566.0000     97.6514      0.0000   1151.1383      9.9058      1.2462
   566.2500     92.0222      0.0000   1095.0764      9.8922      1.2389
   566.5000     87.9013      0.0000   1042.3990      9.9197      1.2314
   566.7500     86.1959      0.0000   1020.6813      9.9858      1.2231
   567.0000     86.3182      0.0000   1043.3257     10.0732      1.2156
   567.2500     87.5230      0.0000   1104.6523     10.1504      1.2115
   567.5000     89.7659      0.0000   1183.1915     10.1830      1.2117
   567.7500     92.9997      0.0000   1252.0758     10.1520      1.2147
   568.0000     96.2254      0.0000   1291.2352     10.0628      1.2184
   568.2500     98.0270      0.0000   1292.9806      9.9377      1.2215
   568.5000     98.1290      0.0000   1261.8508      9.7993      1.2226
