~Version Information
 VERS.                                  2.0 : CWLS LAS VERSION
 WRAP.                                   NO : WRAPING MODE
 SWARE .                 MController 2.5.0J : SOFTWARE VERSION
~Well Information
 WELL.                       Rancher 12-35 Tr : WELL
 COMP.    Pioneer Natural Resources USA Inc : COMPANY
 FLD.                      Purgatoire River : FIELD
 LOC.                2242' FNL & 308' FWL SWNW 35 32S 67W : LOCATION
 DATE.                            7/02/2005 : DATE(S) LOGGED
 SRVC.       BLANCO Geological Services LLC : SERVICE COMPANY
 STAT.                                   CO : STATE
 CNTY.                           Las Animas : COUNTY
 CTRY.                                  USA : COUNTRY
 API.                       05-071-08430-00 : API NUMBER
 STRT.FT                             369.00 : START DEPTH
 STOP.FT                            1735.00 : STOP DEPTH
 STEP.FT                               1.00 : DEPTH INCREMENT
 NULL.                                -9999 : NULL VALUE
~Curve information
 DEPTH.FT                                   :
 ROP.MIN/FT                                 :
 GAS.UNITS                                  :
~ASCII Log data
# ...
      1169.0         0.13       1687.8 
      1170.0         0.27       1654.1 
      1171.0         0.27       1557.7 
      1172.0         0.30       1483.9 
      1173.0         0.30       1395.0 
      1174.0         0.27       1373.1 
      1175.0         0.20       1371.4 
      1176.0         0.20       1375.1 
      1177.0         0.30       1370.7 
      1178.0         0.33       1347.8 
      1179.0         0.37       1327.6 
      1180.0         0.23       1263.3 
      1181.0         0.22       1248.8 
      1182.0         0.23       1212.7 
      1183.0         0.17       1091.1 
      1184.0         0.17       1102.9 
      1185.0         0.13       1104.6 
      1186.0         0.10       1086.0 
      1187.0         0.10       1065.5 
      1188.0         0.10       1056.4 
      1189.0         0.13       1061.1 
      1190.0         0.13       1101.5 
      1191.0         0.13       1130.5 
      1192.0         0.10       1157.8 
      1193.0         0.13       1182.7 
      1194.0         0.10       1208.3 
      1195.0         0.10       1231.9 
      1196.0         2.78       3256.8 
      1197.0         0.37       2416.2 
      1198.0         0.33       2274.3 
      1199.0         0.37       2194.1 
      1200.0         0.30       2184.7 
      1201.0         0.30       2103.2 
      1202.0         0.27       1909.5 
      1203.0         0.35       1760.9 
      1204.0         0.23       1657.1 
      1205.0         0.27       1612.6 
      1206.0         0.23       1592.8 
      1207.0         0.27       1537.8 
      1208.0         0.27       1438.8 
      1209.0         0.20       1355.9 
      1210.0         0.17       1351.5 
      1211.0         0.13       1369.7 
      1212.0         0.13       1389.9 
      1213.0         0.17       1426.7 
      1214.0         0.13       1450.9 
      1215.0         0.17       1453.6 
      1216.0         0.17       1442.8 
      1217.0         0.20       1417.6 
      1218.0         0.17       1370.7 
      1219.0         0.45       1478.2 
      1220.0         0.13       1491.3 
      1221.0         0.13       1480.9 
      1222.0         0.23       1439.5 
      1223.0         0.13       1206.0 
      1224.0         0.10       1070.2 
      1225.0         0.60       1458.0 
      1226.0         1.40       2941.4 
      1227.0         0.30       2576.2 
      1228.0         0.18       2578.6 
      1229.0         0.20       2567.8 
      1230.0         0.23       2391.6 
      1231.0         0.23       2224.8 
      1232.0         0.23       2072.9 
      1233.0         0.30       2028.0 
      1234.0         0.27       1994.0 
      1235.0         0.27       1911.1 
      1236.0         0.27       1864.0 
      1237.0         0.27       1800.3 
      1238.0         0.20       1618.7 
      1239.0         0.17       1532.4 
      1240.0         0.33       1501.1 
      1241.0         0.28       1484.9 
      1242.0         0.23       1474.8 
      1243.0         0.20       1465.4 
      1244.0         0.20       1464.4 
      1245.0         0.27       1458.0 
      1246.0         0.30       1425.0 
      1247.0         0.17       1381.2 
      1248.0         0.20       1377.8 
      1249.0         0.20       1363.7 
      1250.0         0.13       1368.4 
      1251.0         0.20       1375.8 
      1252.0         0.23       1375.4 
      1253.0         0.23       1303.3 
      1254.0         0.23       1026.1 
      1255.0         0.23        924.3 
      1256.0         8.08       3882.8 
      1257.0         0.37       2487.3 
      1258.0         0.33       2302.6 
      1259.0         0.30       2134.8 
      1260.0         0.23       1913.5 
      1261.0         0.20       1848.8 
      1262.0         0.20       1791.2 
      1263.0         0.20       1687.4 
      1264.0         0.17       1644.6 
      1265.0         0.18       1607.6 
      1266.0         0.20       1594.4 
      1267.0         0.27       1560.7 
      1268.0         0.23       1496.1 
      1269.0         0.27       1450.2 
      1270.0         0.23       1412.2 
      1271.0         0.27       1352.9 
      1272.0         0.17       1346.8 
      1273.0         0.23       1339.4 
      1274.0         0.23       1319.5 
      1275.0         0.20       1300.0 
      1276.0         0.27       1276.7 
      1277.0         0.23       1268.6 
      1278.0         0.23       1281.4 
      1279.0         0.20       1286.8 
      1280.0         0.22       1336.7 
      1281.0         0.17       1370.7 
      1282.0         0.13       1348.8 
      1283.0         0.27       1281.8 
      1284.0         0.23        965.8 
      1285.0         0.23        950.6 
      1286.0         2.95       4012.8 
      1287.0         0.43       2871.3 
      1288.0         0.33       2706.6 
      1289.0         0.27       2295.9 
      1290.0         0.27       2143.9 
      1291.0         0.20       2024.7 
      1292.0         0.23       1993.0 
      1293.0         0.30       1942.1 
      1294.0         0.30       1872.1 
      1295.0         0.28       1785.5 
      1296.0         0.23       1691.5 
      1297.0         0.27       1610.3 
      1298.0         0.30       1545.6 
      1299.0         0.37       1458.3 
      1300.0         0.40       1369.7 
      1301.0         0.20       1336.7 
      1302.0         0.17       1312.8 
      1303.0         0.17       1255.2 
      1304.0         0.17       1222.5 
      1305.0         0.13       1194.2 
      1306.0         0.13       1210.7 
      1307.0         0.17       1279.4 
      1308.0         0.13       1384.5 
      1309.0         0.13       1519.6 
      1310.0         0.13       1553.0 
      1311.0         0.17       1589.0 
      1312.0         0.22       1572.2 
      1313.0         0.13       1366.3 
      1314.0         0.13       1218.4 
      1315.0         0.17       1052.7 
      1316.0         5.65       3305.0 
      1317.0         0.65       2165.8 
      1318.0         0.23       2266.2 
      1319.0         0.20       2270.6 
      1320.0         0.20       2230.9 
      1321.0         0.20       2143.9 
      1322.0         0.13       2033.4 
      1323.0         0.20       1999.7 
      1324.0         0.20       1994.7 
      1325.0         0.20       2022.0 
      1326.0         0.30       2030.1 
      1327.0         0.33       1973.1 
      1328.0         0.37       1839.7 
      1329.0         0.20       1711.3 
      1330.0         0.20       1669.2 
      1331.0         0.28       1641.6 
      1332.0         0.23       1597.1 
      1333.0         0.27       1568.2 
      1334.0         0.23       1525.4 
      1335.0         0.17       1478.2 
      1336.0         0.23       1428.3 
      1337.0         0.20       1335.0 
      1338.0         0.13       1334.0 
      1339.0         0.10       1350.2 
      1340.0         0.13       1375.1 
      1341.0         0.37       1428.3 
      1342.0         0.23       1414.5 
      1343.0         0.20       1154.4 
      1344.0         0.23       1041.6 
      1345.0         0.55       1387.6 
      1346.0         1.50       3061.4 
      1347.0         0.30       3033.4 
      1348.0         0.33       2775.7 
      1349.0         0.27       2316.1 
      1350.0         0.27       2090.7 
      1351.0         0.20       1979.2 
      1352.0         0.17       1934.4 
      1353.0         0.17       1952.6 
      1354.0         0.28       1959.0 
      1355.0         0.23       1937.8 
      1356.0         0.23       1870.0 
      1357.0         0.20       1801.6 
      1358.0         0.23       1725.5 
      1359.0         0.27       1666.9 
      1360.0         0.23       1589.4 
      1361.0         0.23       1548.6 
      1362.0         0.23       1515.3 
      1363.0         0.23       1487.3 
      1364.0         0.20       1465.1 
      1365.0         0.20       1451.3 
      1366.0         0.20       1440.5 
      1367.0         0.23       1424.6 
      1368.0         0.25       1414.5 
