~Version Information
VERS.                      2.0: CWLS Log ASCII Standard - VERSION 2.0
WRAP.                       NO: One line per depth step
~Well Information Block
STRT.FT               460.0000: 
STOP.FT               961.2000: 
STEP.FT                 0.1000: 
NULL.                -999.2500: 
COMP.          Pioneer Natural Resources: COMPANY
WELL.                Pug 33-19: WELL
FLD.           Purgatoire River: FIELD
LOC.           1381' FSL & 2140' FEL: LOCATION
PROV.                 Colorado: PROVINCE
CNTY.               Las Animas: COUNTRY
SRVC.                Patterson: SERVICE COMPANY
DATE.          Wed Dec 15 07:19:20 2004: LOG DATE
UWI.           05 071 08193 00: UNIQUE WELL ID
~Curve Information Block
DEPT.FT            0 000 00 00: Depth
DCAL.in                       : CDL Caliper
RHOB.g/cc                     : CDL Bulk Density
RHOC.g/cc                     : CDL Density Correction
DPOR.pu                       : CDL Density Porosity
NPOR.pu                       : Neutron Porosity
GR.GAPI                       : Gamma Ray
~Parameter Information Block
~A  Depth       DCAL        RHOB        RHOC        DPOR        NPOR         GR     
# ...
   488.8000      8.0014      2.6027      0.0570      2.8684     17.5506    130.7563
   488.9000      8.0014      2.5816      0.0344      4.1442     18.0727    130.1393
   489.0000      8.0000      2.5833      0.0309      4.0435     17.9955    124.6029
   489.1000      8.0000      2.5967      0.0628      3.2316     17.7236    116.4775
   489.2000      8.0000      2.6028      0.0475      2.8611     17.7371    111.5112
   489.3000      7.9996      2.6012      0.0338      2.9565     18.0814    111.0236
   489.4000      7.9996      2.5981      0.0781      3.1471     18.8544    116.4024
   489.5000      8.0008      2.5988      0.0405      3.1033     19.5902    126.0055
   489.6000      8.0008      2.6077      0.0554      2.5646     19.8070    130.5460
   489.7000      8.0008      2.6155      0.0780      2.0917     20.0661    126.1071
   489.8000      8.0019      2.6114      0.0691      2.3384     20.3792    121.7419
   489.9000      8.0019      2.5983      0.0404      3.1357     20.2589    124.2136
   490.0000      8.0013      2.5799      0.1063      4.2485     20.2365    128.4031
   490.1000      8.0013      2.5614      0.0211      5.3697     20.7775    130.2922
   490.2000      8.0013      2.5564      0.0441      5.6720     21.4458    134.8643
   490.3000      8.0001      2.5656      0.0415      5.1169     22.1533    146.0572
   490.4000      8.0001      2.5743      0.0813      4.5884     22.7667    160.4985
   490.5000      7.9990      2.5752      0.0761      4.5305     22.8195    170.2958
   490.6000      7.9990      2.5785      0.0753      4.3326     22.3784    171.4867
   490.7000      7.9990      2.5904      0.1091      3.6134     21.4185    165.6148
   490.8000      7.9985      2.6030      0.1140      2.8484     19.9553    157.4249
   490.9000      7.9985      2.6188      0.0851      1.8884     18.5724    152.2530
   491.0000      8.0016      2.6407      0.1221      0.5655     17.8146    148.4883
   491.1000      8.0016      2.6530      0.1399     -0.1789     17.9334    142.8575
   491.2000      8.0016      2.6456      0.1232      0.2668     18.6929    138.2068
   491.3000      8.0113      2.6336      0.0920      0.9949     19.3177    134.5128
   491.4000      8.0113      2.6386      0.0525      0.6886     19.5514    131.3016
   491.5000      8.0208      2.6549      0.1282     -0.2943     19.7929    131.6950
   491.6000      8.0208      2.6503      0.0781     -0.0163     20.1962    136.1309
   491.7000      8.0208      2.6174      0.0448      1.9730     20.8003    142.6996
   491.8000      8.0237      2.5872     -0.0006      3.8083     21.5592    146.2022
   491.9000      8.0237      2.5818      0.0353      4.1341     22.2810    147.4444
   492.0000      8.0251      2.5923      0.0416      3.4996     22.8920    154.4288
   492.1000      8.0251      2.5972      0.0943      3.2030     23.4465    164.6822
   492.2000      8.0251      2.5887      0.0187      3.7163     24.0753    168.6167
   492.3000      8.0275      2.5792      0.0597      4.2895     24.6217    168.4673
   492.4000      8.0275      2.5665      0.1013      5.0591     24.8482    169.7167
   492.5000      8.0287      2.5434      0.0321      6.4597     25.3363    168.7543
   492.6000      8.0287      2.5285      0.0325      7.3628     25.7908    162.6507
   492.7000      8.0287      2.5266      0.0625      7.4790     24.9934    155.6589
   492.8000      8.0279      2.5185      0.0455      7.9672     23.8323    153.5647
   492.9000      8.0279      2.5072      0.0253      8.6571     23.6302    159.8212
   493.0000      8.0264      2.5143      0.0117      8.2263     23.7311    171.6833
   493.1000      8.0264      2.5400      0.0671      6.6667     23.6686    183.7721
   493.2000      8.0264      2.5596      0.0849      5.4787     23.8559    189.7286
   493.3000      8.0277      2.5620      0.0540      5.3309     24.1764    183.8595
   493.4000      8.0277      2.5609      0.0459      5.3974     24.2449    171.0070
   493.5000      8.0302      2.5665      0.0416      5.0629     24.2795    159.7638
   493.6000      8.0302      2.5707      0.0798      4.8088     24.4993    153.0447
   493.7000      8.0302      2.5638      0.0707      5.2241     24.5778    155.1183
   493.8000      8.0298      2.5553      0.0331      5.7388     24.4308    164.5593
   493.9000      8.0298      2.5528      0.0823      5.8935     24.5774    171.6608
   494.0000      8.0279      2.5445      0.0721      6.3963     25.0658    170.0065
   494.1000      8.0279      2.5266      0.0508      7.4767     25.3391    163.1899
   494.2000      8.0279      2.5122      0.0381      8.3509     25.4344    158.4496
   494.3000      8.0266      2.5099      0.0143      8.4887     25.6926    155.6850
   494.4000      8.0266      2.5147      0.0650      8.2004     25.8109    152.8695
   494.5000      8.0267      2.5214      0.0232      7.7960     25.3751    150.7672
   494.6000      8.0267      2.5343      0.0543      7.0115     24.6122    152.1857
   494.7000      8.0267      2.5529      0.0434      5.8834     23.8860    158.5480
   494.8000      8.0274      2.5704      0.0768      4.8257     23.3481    164.6598
   494.9000      8.0274      2.5813      0.0824      4.1665     23.1734    166.3505
   495.0000      8.0278      2.5769      0.1468      4.4289     23.2199    168.9191
   495.1000      8.0278      2.5531      0.0672      5.8699     22.9127    173.9073
   495.2000      8.0278      2.5317      0.0523      7.1719     22.1112    170.2202
   495.3000      8.0326      2.5306      0.0773      7.2375     21.6758    157.2073
   495.4000      8.0326      2.5396      0.0797      6.6901     22.1609    146.4069
   495.5000      8.0460      2.5409      0.0605      6.6130     22.9893    138.8667
   495.6000      8.0460      2.5295      0.0622      7.3055     23.6154    133.5831
   495.7000      8.0460      2.5193      0.0363      7.9242     23.8683    133.5669
   495.8000      8.0569      2.5234      0.0175      7.6752     23.7698    135.7242
   495.9000      8.0569      2.5369      0.0230      6.8559     23.7035    139.6319
   496.0000      8.0618      2.5534      0.0233      5.8523     23.6386    145.2370
   496.1000      8.0618      2.5694      0.0714      4.8871     23.4133    145.1764
   496.2000      8.0618      2.5749      0.0921      4.5508     23.4504    140.3449
   496.3000      8.0695      2.5720      0.0403      4.7282     24.0914    139.4486
   496.4000      8.0695      2.5723      0.0695      4.7112     24.7510    143.4604
   496.5000      8.0788      2.5791      0.0726      4.2965     24.9474    149.7546
   496.6000      8.0788      2.5924      0.1013      3.4930     25.1414    155.6442
   496.7000      8.0788      2.6049      0.1197      2.7343     25.4470    159.6326
   496.8000      8.0849      2.6031      0.0944      2.8440     25.5055    163.4902
   496.9000      8.0849      2.5868      0.0637      3.8310     25.4760    165.1564
   497.0000      8.0877      2.5690      0.0132      4.9119     25.5896    163.1066
   497.1000      8.0877      2.5557      0.0350      5.7135     25.5908    162.1470
   497.2000      8.0877      2.5437      0.0239      6.4418     25.1810    162.3112
   497.3000      8.0878      2.5317     -0.0039      7.1668     24.6330    162.6273
   497.4000      8.0878      2.5109      0.0458      8.4276     24.6443    166.0054
   497.5000      8.0871      2.4717     -0.0080     10.8084     25.2149    171.2493
   497.6000      8.0871      2.4327     -0.0456     13.1672     25.7454    171.8050
   497.7000      8.0871      2.4182     -0.0322     14.0500     26.1433    169.2545
   497.8000      8.0903      2.4266      0.0180     13.5367     26.8549    171.9815
   497.9000      8.0903      2.4443      0.0122     12.4664     28.0716    176.0479
   498.0000      8.0956      2.4538      0.0625     11.8887     29.1178    173.2753
   498.1000      8.0956      2.4341      0.0822     13.0866     29.2735    167.9296
   498.2000      8.0956      2.3847      0.0073     16.0793     28.9698    166.4771
   498.3000      8.0984      2.3312     -0.0035     19.3185     29.0790    168.3409
