~Version Information
VERS.                      2.0: CWLS Log ASCII Standard - VERSION 2.0
WRAP.                       NO: One line per depth step
~Well Information Block
STRT.FT               583.0000: 
STOP.FT              1700.0000: 
STEP.FT                 0.1000: 
NULL.                -999.2500: 
COMP.          Pioneer Natural Resources: COMPANY
WELL.          Scott Canyon 11-18 Tr: WELL
FLD.           Purgatoire River: FIELD
LOC.           411' FNL & 580' FWL: LOCATION
PROV.                 Colorado: PROVINCE
CNTY.               Las Animas: COUNTRY
SRVC.                Patterson: SERVICE COMPANY
DATE.          Thu Feb 17 15:41:32 2005: LOG DATE
UWI.           05 071 08286 00: UNIQUE WELL ID
~Curve Information Block
DEPT.FT            0 000 00 00: Depth
DCAL.in                       : CDL Caliper
RHOB.g/cc                     : CDL Bulk Density
RHOC.g/cc                     : CDL Density Correction
DPOR.pu                       : CDL Density Porosity
GR.GAPI                       : Gamma Ray
NPOR.pu                       : Neutron Porosity
~Parameter Information Block
~A  Depth       DCAL        RHOB        RHOC        DPOR         GR         NPOR    
# ...
  1168.6000      7.8980      2.4724      0.0022     10.7645    114.5043     30.2681
  1168.7000      7.8980      2.4657      0.0405     11.1670    116.0580     29.3931
  1168.8000      7.9441      2.4636      0.0281     11.2955    116.5325     28.3043
  1168.9000      7.9441      2.4634      0.0797     11.3094    115.8082     27.3095
  1169.0000      7.9638      2.4698      0.0935     10.9240    115.4063     27.1118
  1169.1000      7.9638      2.4900      0.0439      9.6976    114.7019     28.0561
  1169.2000      7.9638      2.5173      0.1413      8.0444    110.5153     29.3328
  1169.3000      7.9515      2.5424      0.0740      6.5204    105.2135     29.9681
  1169.4000      7.9515      2.5748      0.1136      4.5557    104.2441     29.5904
  1169.5000      7.9661      2.6099      0.1750      2.4287    107.5019     28.6175
  1169.6000      7.9661      2.6267      0.2561      1.4106    109.7547     27.6412
  1169.7000      7.9661      2.6250      0.2301      1.5148    110.2453     26.9973
  1169.8000      7.8416      2.6173      0.2547      1.9791    111.2628     27.0493
  1169.9000      7.8416      2.6051      0.1900      2.7186    111.5911     28.0573
  1170.0000      7.8441      2.5834      0.1905      4.0364    111.8121     29.4348
  1170.1000      7.8441      2.5546      0.0829      5.7790    113.1084     30.1656
  1170.2000      7.8441      2.5345      0.1014      6.9988    112.9423     29.6990
  1170.3000      7.8481      2.5345      0.0897      6.9978    109.7503     28.3723
  1170.4000      7.8481      2.5484      0.1131      6.1582    105.9641     27.2692
  1170.5000      7.9193      2.5671      0.0987      5.0253    105.3265     26.6030
  1170.6000      7.9193      2.5896      0.0886      3.6633    106.8528     26.0533
  1170.7000      7.9193      2.6069      0.1334      2.6121    107.7690     26.0412
  1170.8000      7.9269      2.6057      0.1231      2.6844    107.9989     26.5723
  1170.9000      7.9269      2.5941      0.0398      3.3886    105.6239     26.8658
  1171.0000      7.9341      2.5902      0.0662      3.6263    100.2541     26.7250
  1171.1000      7.9341      2.5875      0.0577      3.7903     96.2874     26.7080
  1171.2000      7.9341      2.5669      0.0450      5.0361     95.5811     27.3228
  1171.3000      7.9302      2.5371     -0.0119      6.8416     97.2234     28.0949
  1171.4000      7.9302      2.5291      0.0252      7.3256     99.8575     27.9317
  1171.5000      7.9421      2.5430      0.0798      6.4870    102.4344     27.0124
  1171.6000      7.9421      2.5533      0.0349      5.8581    106.1509     26.2376
  1171.7000      7.9421      2.5527      0.0332      5.8949    110.4967     25.9794
  1171.8000      7.9589      2.5485      0.0718      6.1498    111.9019     26.2744
  1171.9000      7.9589      2.5479      0.0744      6.1850    110.7354     26.7150
  1172.0000      7.9656      2.5498      0.0850      6.0722    110.0475     26.5844
  1172.1000      7.9656      2.5496      0.0722      6.0856    109.8007     25.8761
  1172.2000      7.9656      2.5530      0.0643      5.8762    108.4943     25.3459
  1172.3000      7.9568      2.5599      0.1067      5.4604    107.4210     25.2144
  1172.4000      7.9568      2.5576      0.0786      5.6000    109.8999     25.1020
  1172.5000      7.9345      2.5461      0.0574      6.2988    114.0512     25.0775
  1172.6000      7.9345      2.5335      0.0999      7.0581    115.4847     25.2455
  1172.7000      7.9345      2.5229      0.0571      7.7032    114.8512     25.2807
  1172.8000      7.9079      2.5139      0.0754      8.2465    113.7413     25.1621
  1172.9000      7.9079      2.5082      0.0685      8.5936    111.6829     25.2756
  1173.0000      7.8860      2.5106      0.0248      8.4496    109.5695     25.8418
  1173.1000      7.8860      2.5162      0.1029      8.1108    106.8801     26.2422
  1173.2000      7.8860      2.5152      0.0428      8.1684    101.7341     25.8019
  1173.3000      7.9339      2.5132      0.0280      8.2931     97.9757     24.9835
  1173.4000      7.9339      2.5159      0.0619      8.1259    100.9667     24.4854
  1173.5000      7.9423      2.5271      0.0257      7.4477    106.3914     24.5334
  1173.6000      7.9423      2.5456      0.0676      6.3252    107.7083     25.0548
  1173.7000      7.9423      2.5540      0.0575      5.8205    107.2729     25.3904
  1173.8000      7.9285      2.5471      0.0527      6.2353    109.4126     24.8251
  1173.9000      7.9285      2.5424      0.0669      6.5236    113.3823     23.9124
  1174.0000      7.9031      2.5536      0.0839      5.8437    116.4309     23.6835
  1174.1000      7.9031      2.5713      0.1095      4.7676    115.8729     24.0827
  1174.2000      7.9031      2.5717      0.1335      4.7473    108.7060     24.4621
  1174.3000      7.8923      2.5442      0.1367      6.4099     99.3862     24.8428
  1174.4000      7.8923      2.5032      0.0613      8.8948     98.4051     25.5038
  1174.5000      7.9115      2.4747      0.0497     10.6245    106.3758     26.1737
  1174.6000      7.9115      2.4724      0.0490     10.7644    114.0854     26.3510
  1174.7000      7.9115      2.4873      0.0357      9.8604    114.3824     25.9987
  1174.8000      7.9555      2.5051      0.0450      8.7793    109.8884     25.6226
  1174.9000      7.9555      2.5155      0.1010      8.1515    108.0137     25.3954
  1175.0000      7.9599      2.5176      0.0285      8.0218    110.6484     25.2953
  1175.1000      7.9599      2.5257      0.0312      7.5309    113.6973     25.6208
  1175.2000      7.9599      2.5438      0.1296      6.4359    113.5394     26.2406
  1175.3000      7.9662      2.5600      0.1593      5.4515    109.8757     26.4384
  1175.4000      7.9662      2.5741      0.1320      4.6008    104.5182     26.1993
  1175.5000      7.8906      2.5951      0.1743      3.3277    100.8252     26.0940
  1175.6000      7.8906      2.6137      0.1745      2.2020     99.7602     26.1109
  1175.7000      7.8906      2.6123      0.1387      2.2833     99.5059     25.8824
  1175.8000      7.8921      2.5963      0.0828      3.2538    100.3859     25.4349
  1175.9000      7.8921      2.5800      0.0889      4.2401    102.5269     25.1013
  1176.0000      7.9021      2.5582      0.1045      5.5636    101.7064     24.9189
  1176.1000      7.9021      2.5294      0.0522      7.3074     96.8380     24.5555
  1176.2000      7.9021      2.5196      0.0391      7.9044     92.3037     23.8681
  1176.3000      7.8015      2.5488      0.0653      6.1306     88.3653     23.3780
  1176.4000      7.8015      2.5956      0.1209      3.2977     82.9669     23.6393
  1176.5000      7.8303      2.6199      0.1397      1.8247     78.2167     24.1766
  1176.6000      7.8303      2.6167      0.0940      2.0211     76.7899     24.0314
  1176.7000      7.8303      2.6146      0.0515      2.1447     78.6504     23.4004
  1176.8000      7.8369      2.6296      0.0830      1.2386     79.8121     23.2774
  1176.9000      7.8369      2.6489      0.1113      0.0673     77.2408     23.8871
  1177.0000      7.7820      2.6586      0.0809     -0.5242     73.6096     24.2922
  1177.1000      7.7820      2.6543      0.1337     -0.2586     72.2762     23.9272
  1177.2000      7.7820      2.6265      0.1401      1.4253     73.2396     23.5237
  1177.3000      7.7963      2.5855      0.0615      3.9063     72.8727     23.6909
  1177.4000      7.7963      2.5660      0.0504      5.0902     68.2293     23.9704
  1177.5000      7.8219      2.5769      0.0532      4.4333     62.6882     23.7333
  1177.6000      7.8219      2.5932      0.0689      3.4404     61.2616     23.5017
  1177.7000      7.8219      2.6030      0.0534      2.8472     63.6910     23.7550
  1177.8000      7.8344      2.6103      0.0980      2.4073     65.9417     23.5442
  1177.9000      7.8344      2.6037      0.0893      2.8050     64.6842     22.5729
  1178.0000      7.8385      2.5739      0.0669      4.6105     59.9697     22.0049
  1178.1000      7.8385      2.5366      0.0732      6.8734     57.1092     22.1802
