~Version Information
VERS.                      2.0: CWLS Log ASCII Standard - VERSION 2.0
WRAP.                       NO: One line per depth step
~Well Information Block
STRT.FT                -3.0000: 
STOP.FT              2043.2500: 
STEP.FT                 0.2500: 
NULL.                -999.2500: 
COMP.          Pioneer Natural Resources: COMPANY
WELL.           Galloway 32-13: WELL
FLD.           Purgatorie River: FIELD
LOC.           1809' FNL & 2004' FEL--: LOCATION
PROV.                       CO: PROVINCE
CNTY.               Las Animas: COUNTRY
SRVC.          Patterson Wireline: SERVICE COMPANY
DATE.          Thu Jul 14 13:02:15 2005: LOG DATE
UWI.           05 071 08423 00: UNIQUE WELL ID
~Curve Information Block
DEPT.FT            0 000 00 00: Depth
CCL.                          : Casing Collar Locator
TT3.usec                      : CBL 3' Travel Time
AMP3.mV                       : CBL 3' Amplitude
GR.GAPI                       : Gamma Ray
~Parameter Information Block
~A  Depth       CCL         TT3         AMP3         GR     
    -3.0000   -999.2500   -999.2500   -999.2500    105.3237
    -2.7500   -999.2500   -999.2500   -999.2500    107.3610
    -2.5000   -999.2500   -999.2500   -999.2500    109.9608
    -2.2500   -999.2500   -999.2500   -999.2500    112.0024
    -2.0000   -999.2500   -999.2500   -999.2500    112.1452
    -1.7500   -999.2500   -999.2500   -999.2500    110.3461
    -1.5000   -999.2500   -999.2500   -999.2500    107.9314
    -1.2500   -999.2500   -999.2500   -999.2500    105.8268
    -1.0000   -999.2500   -999.2500   -999.2500    103.4011
    -0.7500   -999.2500   -999.2500   -999.2500     99.6172
    -0.5000   -999.2500   -999.2500   -999.2500     94.8862
    -0.2500   -999.2500   -999.2500   -999.2500     90.9715
     0.0000   -999.2500   -999.2500   -999.2500     89.0832
     0.2500   -999.2500   -999.2500   -999.2500     88.8554
     0.5000   -999.2500   -999.2500   -999.2500     89.3517
     0.7500   -999.2500   -999.2500   -999.2500     91.5552
     1.0000   -999.2500   -999.2500   -999.2500     96.6487
     1.2500   -999.2500   -999.2500   -999.2500    104.0718
     1.5000   -999.2500   -999.2500   -999.2500    111.4677
     1.7500   -999.2500   1170.0000      0.6864    116.2295
     2.0000   -999.2500   1170.0000      0.6846    117.2036
     2.2500   -999.2500   1170.0000      0.6958    115.0845
     2.5000   -999.2500   1170.0000      0.7158    111.2901
     2.7500   -999.2500   1170.0000      0.7324    106.5256
     3.0000   -999.2500   1170.0000      0.7384    100.4445
     3.2500   -999.2500   1170.0000      0.7376     92.7437
     3.5000   -999.2500   1170.0000      0.7362     84.3884
     3.7500   -999.2500   1170.0000      0.7336     77.2454
     4.0000   -999.2500   1170.0000      0.7255     72.2695
     4.2500   -999.2500   1170.0000      0.7111     68.4508
     4.5000   -999.2500   1170.0000      0.6964     63.8866
     4.7500   -999.2500   1170.0000      0.6897     57.7185
     5.0000   -999.2500   1170.0000      0.6964     50.7508
     5.2500   -999.2500   1170.0000      0.7153     44.4975
     5.5000   -999.2500   1170.0000      0.7387     40.1058
     5.7500   -999.2500   1170.0000      0.7558     38.0612
     6.0000   -999.2500   1170.0000      0.7594     38.3827
     6.2500   -999.2500   1170.0000      0.7495     40.8588
     6.5000   -999.2500   1170.0000      0.7312     45.2028
     6.7500   -999.2500   1170.0000      0.7119     50.9889
     7.0000   -999.2500   1170.0000      0.6990     57.2992
     7.2500      0.0000   1170.0000      0.6968     62.5289
     7.5000      0.0000   1170.0000      0.7025     65.0091
     7.7500      0.0000   1170.0000      0.7092     64.2232
     8.0000      0.0000   1170.0000      0.7128     61.3842
     8.2500      0.0000   1170.0000      0.7134     58.7457
     8.5000      0.0000   1170.0000      0.7103     58.2102
     8.7500      0.0000   1170.0000      0.7005     60.0516
     9.0000      0.0000   1170.0000      0.6825     62.5954
     9.2500      0.0000   1170.0000      0.6615     63.6069
     9.5000      0.0000   1170.0000      0.6481     62.4642
     9.7500      0.0000   1170.0000      0.6524     60.5934
    10.0000      0.0000   1170.0000      0.6779     59.4659
    10.2500      0.0000   1170.0000      0.7195     58.8195
    10.5000      0.0000   1170.0000      0.7640     57.4394
    10.7500      0.0000   1170.0000      0.7969     55.0700
    11.0000      0.0000   1170.0000      0.8095     52.6603
    11.2500      0.0000   1170.0000      0.8017     51.0057
    11.5000      0.0000   1170.0000      0.7793     50.0506
    11.7500      0.0000   1170.0000      0.7506     49.4688
    12.0000      0.0000   1170.0000      0.7232     49.1659
    12.2500      0.0000   1170.0000      0.7039     49.1082
    12.5000      0.0000   1170.0000      0.7111     49.0659
    12.7500      0.0000   1170.0000      0.8017     48.7709
    13.0000      0.0000   1170.0000      1.1050     48.4836
    13.2500      0.0000   1170.0000      1.8149     49.2316
    13.5000      0.0000   1170.0000      3.0711     51.8191
    13.7500      0.0000   1169.9816      4.7589     55.5266
    14.0000      0.0000   1169.8618      6.4364     58.5854
    14.2500      0.0000   1169.2533      7.5635     60.1100
    14.5000      0.0000   1166.8473      7.8600     60.8649
    14.7500      0.0000   1159.4354      7.4336     62.0148
    15.0000      0.0000   1141.6495      6.6023     63.8369
    15.2500      0.0000   1108.3812      5.6608     65.8387
    15.5000      0.0000   1059.7897      4.7838     67.5233
    15.7500      0.0000   1004.1279      4.0465     68.6600
    16.0000      0.0000    953.6243      3.4706     69.1062
    16.2500      0.0000    916.6256      3.0529     68.8324
    16.5000      0.0000    894.4338      2.7749     68.2084
    16.7500      0.0000    884.7087      2.6079     68.0569
    17.0000      0.0000    885.5918      2.5222     69.2184
    17.2500      0.0000    895.9921      2.4938     71.8772
    17.5000      0.0000    913.0899      2.5020     75.1953
    17.7500      0.0000    930.5754      2.5274     77.7063
    18.0000      0.0000    941.5792      2.5591     78.1947
    18.2500      0.0000    945.2794      2.5982     76.2355
    18.5000      0.0000    948.8759      2.6466     72.1712
    18.7500      0.0000    960.0315      2.6965     66.9266
    19.0000      0.0000    979.1527      2.7333     61.7419
    19.2500      0.0000   1001.5185      2.7453     57.8129
    19.5000      0.0000   1024.1731      2.7336     56.1093
    19.7500      0.0000   1046.6776      2.7160     57.1278
    20.0000      0.0000   1066.6842      2.7196     60.2899
    20.2500      0.0000   1079.7653      2.7592     63.8935
    20.5000      0.0000   1085.1797      2.8240     66.3133
    20.7500      0.0000   1087.6539      2.8863     67.1546
    21.0000      0.0000   1090.9519      2.9208     67.0300
    21.2500      0.0000   1093.7366      2.9179     66.7458
    21.5000      0.0000   1095.1404      2.8848     67.0114
    21.7500      0.0000   1099.7725      2.8391     68.3189
    22.0000      0.0000   1112.3215      2.7993     70.5507
    22.2500      0.0000   1129.8875      2.7798     72.8991
    22.5000      0.0000   1143.6665      2.7893     74.4358
    22.7500      0.0000   1146.8344      2.8256     74.6596
    23.0000      0.0000   1139.6472      2.8710     73.4913
    23.2500      0.0000   1129.0873      2.9001     71.1769
    23.5000      0.0000   1124.2356      2.8945     68.4418
    23.7500      0.0000   1129.5253      2.8538     66.3537
    24.0000      0.0000   1141.5870      2.7950     65.5972
    24.2500      0.0000   1153.1849      2.7453     65.9511
    24.5000      0.0000   1159.4292      2.7289     66.5519
    24.7500      0.0000   1159.6346      2.7534     66.5720
    25.0000      0.0000   1155.0293      2.8082     65.8381
    25.2500      0.0000   1146.6473      2.8731     65.0363
    25.5000      0.0000   1135.7330      2.9244     65.1684
    25.7500      0.0000   1124.8674      2.9401     66.6965
    26.0000      0.0000   1116.9784      2.9106     69.4252
    26.2500      0.0000   1113.1200      2.8483     73.1732
    26.5000      0.0000   1112.6775      2.7834     78.1538
    26.7500      0.0000   1115.6815      2.7478     84.4621
    27.0000      0.0000   1122.7510      2.7631     91.2842
    27.2500      0.0000   1132.6759      2.8368     96.7161
    27.5000      0.0000   1142.1971      2.9593     98.6245
    27.7500      0.0000   1148.5966      3.1019     96.2961
    28.0000      0.0000   1151.3839      3.2246     91.4537
    28.2500      0.0000   1151.5139      3.2957     87.2446
    28.5000      0.0000   1149.9642      3.3051     85.9563
    28.7500      0.0000   1147.2426      3.2651     87.7552
    29.0000      0.0000   1143.2242      3.1998     91.3104
    29.2500      0.0000   1136.4900      3.1366     95.1324
    29.5000      0.0000   1124.0894      3.1011     98.3000
    29.7500      0.0000   1103.5916      3.1114    100.3813
    30.0000      0.0000   1076.4530      3.1718    101.1552
    30.2500      0.0000   1047.9663      3.2702    100.5227
