~Version Information
VERS.                      2.0: CWLS Log ASCII Standard - VERSION 2.0
WRAP.                       NO: One line per depth step
~Well Information Block
STRT.FT                -7.5000: 
STOP.FT              1545.0000: 
STEP.FT                 0.2500: 
NULL.                -999.2500: 
COMP.          Pioneer Natural Resources: COMPANY
WELL.          Kristin 22-23 Tr: WELL
FLD.           Purgatorie River: FIELD
LOC.           2273' FNL & 2029' FWL--: LOCATION
PROV.                       CO: PROVINCE
CNTY.               Las Animas: COUNTRY
SRVC.                         : SERVICE COMPANY
DATE.          Tue Jan 25 11:16:36 2005: LOG DATE
UWI.           071-08259      : UNIQUE WELL ID
~Curve Information Block
DEPT.FT            0 000 00 00: Depth
CCL.                          : Casing Collar Locator
TT3.usec                      : CBL 3' Travel Time
AMP3.mV                       : CBL 3' Amplitude
GR.GAPI                       : Gamma Ray
~Parameter Information Block
~A  Depth       CCL         TT3         AMP3         GR     
# ...
   897.0000      0.0000    635.2985      5.1616    166.0756
   897.2500      0.0000    616.4938      5.2552    169.6815
   897.5000      0.0000    603.0558      5.3006    172.9743
   897.7500      0.0000    590.7596      5.3060    173.8659
   898.0000      0.0000    573.0541      5.3017    172.0440
   898.2500      0.0000    546.2668      5.3143    169.3092
   898.5000      0.0000    513.1306      5.3518    167.9852
   898.7500      0.0000    480.9489      5.4047    168.8856
   899.0000      0.0000    456.7921      5.4508    170.7753
   899.2500      0.0000    443.9234      5.4616    171.4212
   899.5000      0.0000    441.0587      5.4183    169.0727
   899.7500      0.0000    443.9195      5.3333    163.5372
   900.0000      0.0000    447.8007      5.2498    156.3294
   900.2500      0.0000    449.4490      5.2131    149.6474
   900.5000      0.0000    447.4035      5.2394    144.6901
   900.7500      0.0000    441.4509      5.3111    140.8617
   901.0000      0.0000    432.4777      5.3948    136.8883
   901.2500      0.0000    422.6248      5.4627    132.7266
   901.5000      0.0000    414.8265      5.5016    130.0133
   901.7500      0.0000    411.5461      5.5086    130.4594
   902.0000      0.0000    413.6067      5.4852    134.2091
   902.2500      0.0000    419.8294      5.4381    140.0478
   902.5000      0.0000    427.7444      5.3796    146.6271
   902.7500      0.0000    435.2700      5.3224    152.9783
   903.0000      0.0000    442.0898      5.2726    158.2202
   903.2500      0.0000    449.4536      5.2314    161.2655
   903.5000      0.0000    458.8481      5.2086    161.1003
   903.7500      0.0000    470.9066      5.2270    157.8180
   904.0000      0.0000    484.9289      5.3018    153.5136
   904.2500      0.0000    498.9859      5.4167    151.4509
   904.5000      0.0000    510.5361      5.5317    153.5478
   904.7500      0.0000    516.9578      5.6149    158.5515
   905.0000      0.0000    516.0582      5.6590    162.7452
   905.2500      0.0000    507.3938      5.6721    162.4811
   905.5000      0.0000    493.5345      5.6621    156.6646
   905.7500      0.0000    479.0495      5.6343    147.6759
   906.0000      0.0000    467.4891      5.5955    139.7628
   906.2500      0.0000    459.3508      5.5489    135.8086
   906.5000      0.0000    452.6793      5.4862    135.3640
   906.7500      0.0000    445.2522      5.4027    135.8780
   907.0000      0.0000    436.5999      5.3228    135.7966
   907.2500      0.0000    428.8239      5.2894    136.2393
   907.5000      0.0000    425.3080      5.3133    139.4659
   907.7500      0.0000    427.5793      5.3514    146.0372
   908.0000      0.0000    432.8296      5.3489    154.1011
   908.2500      0.0000    435.3766      5.2964    161.3419
   908.5000      0.0000    431.5166      5.2361    166.7553
   908.7500      0.0000    422.5847      5.2181    170.3413
   909.0000      0.0000    412.8693      5.2527    171.9245
   909.2500      0.0000    405.5331      5.2989    170.9732
   909.5000      0.0000    401.1024      5.2961    167.3345
   909.7500      0.0000    398.6396      5.2106    161.6268
   910.0000      0.0000    397.1451      5.0575    154.8604
   910.2500      0.0000    396.0608      4.8824    148.0170
   910.5000      0.0000    395.2519      4.7279    142.1046
   910.7500      0.0000    395.0001      4.6175    138.3271
   911.0000      0.0000    396.1995      4.5556    137.7420
   911.2500      0.0000    400.8348      4.5266    140.4961
   911.5000      0.0000    412.3057      4.4902    145.4765
   911.7500      0.0000    434.4898      4.3928    150.8878
   912.0000      0.0000    469.1260      4.2061    155.2178
   912.2500      0.0000    513.0299      3.9664    157.5172
   912.5000      0.0000    557.5258      3.7638    157.1337
   912.7500      0.0000    591.1577      3.6687    154.0312
   913.0000      0.0000    605.2596      3.6726    149.3000
   913.2500      0.0000    599.6591      3.7175    144.5379
   913.5000      0.0000    583.1485      3.7717    140.7197
   913.7500      0.0000    567.1207      3.8449    138.1389
   914.0000      0.0000    558.8817      3.9397    137.0981
   914.2500     -2.0000    561.2941      4.0184    137.9461
   914.5000     -2.0000    576.3889      4.0268    140.5200
   914.7500      0.0000    605.9637      3.9467    143.9005
   915.0000      0.0000    647.6680      3.8250    146.7205
   915.2500      0.0000    692.1932      3.7416    147.8356
   915.5000      0.0000    726.0970      3.7386    146.9707
   915.7500      0.0000    738.0265      3.7979    144.5904
   916.0000      0.0000    723.5174      3.8919    141.1391
   916.2500      0.0000    686.6082      4.0253    136.8297
   916.5000      0.0000    638.3313      4.2093    132.1795
   916.7500      0.0000    591.8530      4.4225    128.1428
   917.0000      0.0000    556.6067      4.6177    125.5335
   917.2500      0.0000    535.8732      4.7584    124.7403
   917.5000      0.0000    528.8961      4.8386    125.9431
   917.7500      0.0000    534.3323      4.8712    128.9483
   918.0000      0.0000    551.6696      4.8670    132.7250
   918.2500      0.0000    580.0321      4.8293    135.6472
   918.5000      0.0000    616.2829      4.7645    136.5125
   918.7500      0.0000    655.0587      4.6886    135.3194
   919.0000      0.0000    691.0832      4.6179    133.2003
   919.2500      0.0000    720.9689      4.5571    131.6173
   919.5000      0.0000    742.6864      4.5016    131.3843
   919.7500      0.0000    754.8654      4.4503    132.3100
   920.0000      0.0000    757.8141      4.4136    133.6906
   920.2500      0.0000    754.3828      4.4018    135.0176
   920.5000      0.0000    748.6433      4.4122    136.3896
   920.7500      0.0000    743.6382      4.4334    138.4951
   921.0000      0.0000    740.4374      4.4598    141.8392
   921.2500      0.0000    738.7665      4.4910    145.6528
   921.5000      0.0000    737.9821      4.5234    148.0367
   921.7500      0.0000    737.6039      4.5499    147.6115
   922.0000      0.0000    737.4146      4.5648    144.9141
   922.2500      0.0000    737.3708      4.5653    142.1395
   922.5000      0.0000    737.5181      4.5507    141.4038
   922.7500      0.0000    738.0016      4.5253    142.9343
   923.0000      0.0000    739.2193      4.4985    144.9824
   923.2500      0.0000    741.7876      4.4794    145.6670
   923.5000      0.0000    745.8269      4.4720    144.5143
   923.7500      0.0000    749.5123      4.4755    141.9771
   924.0000      0.0000    748.2520      4.4854    138.3727
   924.2500      0.0000    736.7749      4.4969    134.2110
   924.5000      0.0000    713.9886      4.5082    130.9944
   924.7500      0.0000    686.1970      4.5176    130.4707
   925.0000      0.0000    664.0360      4.5220    132.8176
   925.2500      0.0000    654.8561      4.5237    136.0398
   925.5000      0.0000    658.1120      4.5320    137.4596
   925.7500      0.0000    668.4221      4.5516    135.8285
   926.0000      0.0000    681.7856      4.5699    132.1453
   926.2500      0.0000    696.7792      4.5686    128.5803
   926.5000      0.0000    710.8086      4.5476    126.4482
   926.7500      0.0000    719.6597      4.5316    124.9304
   927.0000      0.0000    722.4337      4.5498    121.9054
   927.2500      0.0000    723.8366      4.6114    116.4225
   927.5000      0.0000    729.3928      4.6956    110.2490
   927.7500      0.0000    739.4796      4.7641    106.5969
   928.0000      0.0000    749.1053      4.7870    107.3866
   928.2500      0.0000    752.7560      4.7628    111.8881
   928.5000      0.0000    748.3720      4.7111    117.7065
   928.7500      0.0000    736.8314      4.6522    122.6227
   929.0000      0.0000    719.2579      4.5953    125.5147
   929.2500      0.0000    696.8311      4.5458    126.0609
   929.5000      0.0000    673.2911      4.5108    124.3055
   929.7500      0.0000    655.2203      4.4950    120.9581
   930.0000      0.0000    647.2250      4.4919    117.9608
   930.2500      0.0000    646.7046      4.4856    117.9469
