~Version Information
VERS.                      2.0: CWLS Log ASCII Standard - VERSION 2.0
WRAP.                       NO: One line per depth step
~Well Information Block
STRT.FT               350.0000: 
STOP.FT              2264.0000: 
STEP.FT                 0.1000: 
NULL.                -999.2500: 
COMP.          Pioneer Natural Resources: COMPANY
WELL.             Warrior 32-1: WELL
FLD.           Purgatoire River: FIELD
LOC.           2624' FNL & 2392' FEL: LOCATION
PROV.                 Colorado: PROVINCE
CNTY.               Las Animas: COUNTRY
SRVC.                Patterson: SERVICE COMPANY
DATE.          Tue Oct 05 06:54:20 2004: LOG DATE
UWI.           05 071 08176 00: UNIQUE WELL ID
~Curve Information Block
DEPT.FT            0 000 00 00: Depth
DCAL.in                       : CDL Caliper
RHOB.g/cc                     : CDL Bulk Density
RHOC.g/cc                     : CDL Density Correction
DPOR.pu                       : CDL Density Porosity
NPOR.pu                       : Neutron Porosity
GR.GAPI                       : Gamma Ray
~Parameter Information Block
~A  Depth       DCAL        RHOB        RHOC        DPOR        NPOR         GR     
# ...
  2116.4000      8.1544      2.4216      0.0637     13.8417     16.8563    108.5024
  2116.5000      8.1593      2.4172      0.0354     14.1092     16.0548    102.3597
  2116.6000      8.1593      2.4274      0.0617     13.4902     15.4477     94.5453
  2116.7000      8.1593      2.4398      0.0857     12.7402     15.6208     90.6214
  2116.8000      8.1636      2.4367      0.0768     12.9267     16.2165     89.6961
  2116.9000      8.1636      2.4162      0.0482     14.1700     16.5170     92.3744
  2117.0000      8.1648      2.3919      0.0307     15.6400     16.3615     95.4596
  2117.1000      8.1648      2.3806      0.0316     16.3287     16.0524     96.1981
  2117.2000      8.1648      2.3861      0.0265     15.9952     15.7094    100.0540
  2117.3000      8.1657      2.3886      0.0818     15.8395     15.4171    108.1668
  2117.4000      8.1657      2.3729      0.0284     16.7926     15.4145    113.5815
  2117.5000      8.1650      2.3557      0.0147     17.8390     15.5959    114.5186
  2117.6000      8.1650      2.3547      0.0156     17.8959     15.7453    110.2276
  2117.7000      8.1650      2.3629      0.0422     17.4012     15.7738     99.3033
  2117.8000      8.1641      2.3707      0.0177     16.9275     15.7410     87.6396
  2117.9000      8.1641      2.3783      0.0839     16.4678     16.0525     84.1596
  2118.0000      8.1654      2.3840      0.0564     16.1182     16.5823     89.9576
  2118.1000      8.1654      2.3877      0.0780     15.8960     16.8336     98.2393
  2118.2000      8.1654      2.3923      0.0763     15.6205     17.0159    102.4806
  2118.3000      8.1675      2.4055      0.0590     14.8186     17.2378    100.1988
  2118.4000      8.1675      2.4325      0.0791     13.1846     16.9989     96.3000
  2118.5000      8.1680      2.4619      0.1382     11.4007     16.1556     96.9008
  2118.6000      8.1680      2.4761      0.1251     10.5393     15.4614    101.2874
  2118.7000      8.1680      2.4757      0.0841     10.5641     15.5881    106.3804
  2118.8000      8.1674      2.4723      0.1371     10.7710     16.2802    109.4168
  2118.9000      8.1674      2.4642      0.1308     11.2580     17.0115    107.2937
  2119.0000      8.1668      2.4510      0.1130     12.0582     17.3047    101.6938
  2119.1000      8.1668      2.4414      0.0667     12.6426     16.8406     97.8275
  2119.2000      8.1668      2.4378      0.0691     12.8590     15.9718     94.6399
  2119.3000      8.1669      2.4380      0.0419     12.8456     15.2211     89.9892
  2119.4000      8.1669      2.4454      0.0488     12.4023     14.8846     88.9985
  2119.5000      8.1681      2.4616      0.0761     11.4161     15.1282     93.3647
  2119.6000      8.1681      2.4825      0.0507     10.1521     15.7527     99.1730
  2119.7000      8.1681      2.5020      0.0709      8.9668     16.3513    101.8906
  2119.8000      8.1685      2.5170      0.0465      8.0589     16.6920    100.5407
  2119.9000      8.1685      2.5288      0.0753      7.3461     16.6855     99.9439
  2120.0000      8.1676      2.5366      0.0516      6.8735     16.6235    105.0340
  2120.1000      8.1676      2.5371      0.0763      6.8402     16.7463    113.9051
  2120.2000      8.1676      2.5255      0.0492      7.5451     17.1132    119.4269
  2120.3000      8.1670      2.5005      0.0443      9.0617     17.7991    117.0524
  2120.4000      8.1670      2.4697      0.0139     10.9267     18.7084    111.6661
  2120.5000      8.1662      2.4491     -0.0462     12.1732     19.4828    108.5066
  2120.6000      8.1662      2.4473      0.0381     12.2878     19.6008    107.6737
  2120.7000      8.1662      2.4564      0.0250     11.7356     18.8816    106.9760
  2120.8000      8.1649      2.4715      0.0346     10.8204     17.7220    103.5958
  2120.9000      8.1649      2.4947      0.0040      9.4148     16.6587     99.5285
  2121.0000      8.1650      2.5170      0.0876      8.0582     15.8170     99.6878
  2121.1000      8.1650      2.5220      0.0777      7.7552     15.2677     98.3194
  2121.2000      8.1650      2.5152      0.0593      8.1715     15.0884     87.8638
  2121.3000      8.1668      2.5114      0.0450      8.3995     15.2518     74.9822
  2121.4000      8.1668      2.5069      0.0739      8.6741     15.6228     70.3297
  2121.5000      8.1687      2.4972      0.0358      9.2636     15.6598     76.4363
  2121.6000      8.1687      2.4935      0.0333      9.4875     15.3043     87.5184
  2121.7000      8.1687      2.4972      0.0530      9.2632     15.1762     94.2265
  2121.8000      8.1670      2.4977      0.0502      9.2278     15.2874     94.2827
  2121.9000      8.1670      2.4933      0.0525      9.4941     15.1986     91.5885
  2122.0000      8.1651      2.4897      0.0369      9.7175     15.1017     87.0894
  2122.1000      8.1651      2.4922      0.0513      9.5611     15.2611     80.3444
  2122.2000      8.1651      2.5021      0.0808      8.9618     15.2985     74.1075
  2122.3000      8.1644      2.5135      0.0621      8.2709     15.1413     72.9904
  2122.4000      8.1644      2.5132      0.0692      8.2915     15.0813     80.2369
  2122.5000      8.1638      2.4935      0.0472      9.4824     15.0641     92.6932
  2122.6000      8.1638      2.4706      0.0199     10.8726     15.0863    101.6982
  2122.7000      8.1638      2.4660      0.0243     11.1494     15.1845    104.1955
  2122.8000      8.1597      2.4752      0.0610     10.5956     15.2222    104.8410
  2122.9000      8.1597      2.4801      0.0141     10.2960     15.1074    105.4924
  2123.0000      8.1503      2.4706      0.0668     10.8748     14.9465    106.2597
  2123.1000      8.1503      2.4431      0.0090     12.5374     14.8425    107.9385
  2123.2000      8.1503      2.4199     -0.0284     13.9447     14.6407    110.5081
  2123.3000      8.1426      2.4299     -0.0115     13.3418     14.4292    112.4662
  2123.4000      8.1426      2.4657      0.0669     11.1667     14.6643    111.0175
  2123.5000      8.1398      2.4951      0.0820      9.3907     15.5222    104.6282
  2123.6000      8.1398      2.5008      0.1141      9.0415     16.1776     95.7829
  2123.7000      8.1398      2.4940      0.0697      9.4553     15.8952     92.2206
  2123.8000      8.1394      2.4914      0.0685      9.6110     15.4169     96.8266
  2123.9000      8.1394      2.4920      0.0721      9.5744     15.5874    103.6662
  2124.0000      8.1382      2.4890      0.0485      9.7591     16.1615    113.0614
  2124.1000      8.1382      2.4838      0.0618     10.0715     16.5298    125.3089
  2124.2000      8.1382      2.4798      0.0414     10.3139     16.4674    128.8091
  2124.3000      8.1331      2.4787      0.0419     10.3839     16.1616    121.8480
  2124.4000      8.1331      2.4808      0.0280     10.2558     15.8571    118.7434
  2124.5000      8.1265      2.4860      0.0414      9.9424     15.4074    124.2141
  2124.6000      8.1265      2.4939      0.0559      9.4577     14.7322    128.5612
  2124.7000      8.1265      2.4978      0.0729      9.2257     14.2885    125.3631
  2124.8000      8.1216      2.4830      0.0557     10.1191     14.4089    117.1768
  2124.9000      8.1216      2.4481      0.0038     12.2367     14.4940    105.6014
  2125.0000      8.1181      2.4133     -0.0071     14.3426     13.8962     92.2813
  2125.1000      8.1181      2.3985     -0.0271     15.2412     12.7550     83.8540
  2125.2000      8.1181      2.4050      0.0156     14.8504     11.6642     84.9543
  2125.3000      8.1173      2.4275     -0.0046     13.4856     11.4437     87.7902
  2125.4000      8.1173      2.4596      0.0299     11.5370     12.2053     84.2450
  2125.5000      8.1173      2.4792      0.0865     10.3488     13.3149     81.1381
  2125.6000      8.1173      2.4721      0.0607     10.7847     14.1398     83.2813
  2125.7000      8.1173      2.4515      0.0724     12.0333     14.3585     85.0446
  2125.8000      8.1078      2.4330      0.0468     13.1496     14.1094     84.9287
  2125.9000      8.1078      2.4221      0.0385     13.8148     13.5758     88.2797
