~Version Information
VERS.                      2.0: CWLS Log ASCII Standard - VERSION 2.0
WRAP.                       NO: One line per depth step
~Well Information Block
STRT.FT               375.0000: 
STOP.FT              2795.7000: 
STEP.FT                 0.1000: 
NULL.                -999.2500: 
COMP.          Pioneer Natural Resources: COMPANY
WELL.              Getem 21-23: WELL
FLD.           Purgatoire River: FIELD
LOC.           2623' FWL & 790' FNL--: LOCATION
PROV.                 Colorado: PROVINCE
CNTY.               Las Animas: COUNTRY
SRVC.                Patterson: SERVICE COMPANY
DATE.          Mon Jun 20 07:26:21 2005: LOG DATE
UWI.           05 071 08411 00: UNIQUE WELL ID
~Curve Information Block
DEPT.FT            0 000 00 00: Depth
DCAL.in                       : CDL Caliper
RHOB.g/cc                     : CDL Bulk Density
RHOC.g/cc                     : CDL Density Correction
DPOR.pu                       : CDL Density Porosity
NPOR.pu                       : Neutron Porosity
GR.GAPI                       : Gamma Ray
~Parameter Information Block
~A  Depth       DCAL        RHOB        RHOC        DPOR        NPOR         GR     
# ...
  1335.0000      7.8491      2.6944      0.0385     -2.6927     29.3989    104.1792
  1335.1000      7.8491      2.6827      0.0858     -1.9846     28.8367    107.6254
  1335.2000      7.8491      2.6532      0.0740     -0.1918     29.0996    113.0754
  1335.3000      7.8489      2.6289      0.0771      1.2812     29.5791    114.5329
  1335.4000      7.8489      2.6146      0.0585      2.1464     29.2706    110.1455
  1335.5000      7.8478      2.5890      0.0685      3.6945     28.0103    103.8477
  1335.6000      7.8478      2.5501      0.0276      6.0572     26.6629    101.3600
  1335.7000      7.8478      2.5227      0.0444      7.7124     25.8495    104.1682
  1335.8000      7.8470      2.5187      0.0473      7.9586     25.3399    108.3748
  1335.9000      7.8470      2.5287      0.0388      7.3488     24.7990    111.1768
  1336.0000      7.8477      2.5408      0.1054      6.6174     24.3577    114.8457
  1336.1000      7.8477      2.5527      0.0565      5.8947     24.5012    117.8870
  1336.2000      7.8477      2.5744      0.0878      4.5799     25.2876    114.1087
  1336.3000      7.8468      2.6060      0.0909      2.6674     26.0131    106.3783
  1336.4000      7.8468      2.6308      0.1061      1.1613     26.2654    102.4738
  1336.5000      7.8434      2.6331      0.1478      1.0245     26.2789    102.5015
  1336.6000      7.8434      2.6133      0.0919      2.2243     26.1256    102.7257
  1336.7000      7.8434      2.5857      0.0693      3.8966     25.8213    101.0523
  1336.8000      7.8421      2.5587      0.0753      5.5356     25.5504     97.0186
  1336.9000      7.8421      2.5331      0.0545      7.0850     25.4719     93.0421
  1337.0000      7.8442      2.5122      0.0705      8.3497     25.9240     92.3099
  1337.1000      7.8442      2.5058      0.0034      8.7402     26.9203     95.1980
  1337.2000      7.8442      2.5210      0.0407      7.8190     27.8462     97.5257
  1337.3000      7.8464      2.5463      0.0518      6.2873     27.9286     97.6956
  1337.4000      7.8464      2.5655      0.1064      5.1217     27.1707     98.0033
  1337.5000      7.8468      2.5754      0.1041      4.5237     26.3079     98.0422
  1337.6000      7.8468      2.5828      0.0964      4.0751     25.7249     97.8148
  1337.7000      7.8468      2.5906      0.1375      3.5994     25.4145     99.4351
  1337.8000      7.8464      2.5936      0.1182      3.4166     25.2850    101.8438
  1337.9000      7.8464      2.5926      0.1316      3.4763     25.1111    101.9548
  1338.0000      7.8463      2.5987      0.0845      3.1102     24.8652    100.1733
  1338.1000      7.8463      2.6108      0.1611      2.3728     24.7768     99.1102
  1338.2000      7.8463      2.6162      0.1155      2.0492     24.6745     98.7025
  1338.3000      7.8459      2.6239      0.0794      1.5796     24.2612     97.6031
  1338.4000      7.8459      2.6434      0.1145      0.4023     23.7294     96.7082
  1338.5000      7.8447      2.6573      0.0995     -0.4449     23.5423     96.7644
  1338.6000      7.8447      2.6570      0.0846     -0.4227     24.0049     96.1686
  1338.7000      7.8447      2.6508      0.1048     -0.0481     24.8504     94.4155
  1338.8000      7.8453      2.6445      0.0530      0.3327     25.3861     92.0488
  1338.9000      7.8453      2.6391      0.0785      0.6619     25.4237     90.0851
  1339.0000      7.8472      2.6389      0.0351      0.6727     25.3210     89.3096
  1339.1000      7.8472      2.6545      0.0471     -0.2748     25.3662     87.8030
  1339.2000      7.8472      2.6764      0.0827     -1.6016     25.6997     83.8791
  1339.3000      7.8470      2.6811      0.0830     -1.8842     26.2754     79.4372
  1339.4000      7.8470      2.6723      0.0321     -1.3538     26.9235     77.4916
  1339.5000      7.8448      2.6647      0.0307     -0.8898     27.5124     79.2797
  1339.6000      7.8448      2.6572      0.0411     -0.4335     28.0288     81.9671
  1339.7000      7.8448      2.6436      0.0540      0.3867     28.7177     81.6768
  1339.8000      7.8441      2.6220      0.0324      1.6944     29.4021     79.7283
  1339.9000      7.8441      2.6013     -0.0390      2.9502     29.3633     78.6511
  1340.0000      7.8447      2.5872      0.0127      3.8032     28.6347     78.5486
  1340.1000      7.8447      2.5709     -0.0151      4.7959     28.2023     80.9436
  1340.2000      7.8447      2.5529     -0.0354      5.8862     28.4750     87.3500
  1340.3000      7.8442      2.5469     -0.0266      6.2479     28.9465     92.2993
  1340.4000      7.8442      2.5521     -0.0012      5.9326     29.2661     90.9827
  1340.5000      7.8430      2.5518      0.0399      5.9536     29.2187     86.9765
  1340.6000      7.8430      2.5394      0.0169      6.7051     28.4364     85.5576
  1340.7000      7.8430      2.5281      0.0183      7.3885     27.0363     86.3468
  1340.8000      7.8422      2.5319      0.0553      7.1557     25.8870     87.1555
  1340.9000      7.8422      2.5510      0.0534      6.0030     25.5393     89.0433
  1341.0000      7.8424      2.5750      0.1049      4.5468     25.4386     93.9076
  1341.1000      7.8424      2.5901      0.1287      3.6325     24.7512    100.2296
  1341.2000      7.8424      2.5876      0.0995      3.7809     23.7894    102.4061
  1341.3000      7.8431      2.5693      0.1046      4.8889     23.2938     99.7717
  1341.4000      7.8431      2.5464      0.0682      6.2761     23.2393     97.4593
  1341.5000      7.8434      2.5358      0.0818      6.9235     23.4052     95.6791
  1341.6000      7.8434      2.5470      0.0601      6.2416     23.7847     90.9697
  1341.7000      7.8434      2.5781      0.1091      4.3603     24.3593     83.5325
  1341.8000      7.8430      2.6185      0.1493      1.9070     24.8729     78.1235
  1341.9000      7.8430      2.6599      0.1509     -0.6002     25.0695     78.6647
  1342.0000      7.8435      2.6935      0.1694     -2.6383     25.1704     82.4024
  1342.1000      7.8435      2.7107      0.1293     -3.6792     25.6507     84.6151
  1342.2000      7.8435      2.7187      0.0851     -4.1649     26.0974     86.0241
  1342.3000      7.8448      2.7247      0.1310     -4.5249     26.0640     88.9183
  1342.4000      7.8448      2.7129      0.1416     -3.8130     25.9038     88.9119
  1342.5000      7.8487      2.6773      0.0732     -1.6547     25.7513     81.1380
  1342.6000      7.8487      2.6400      0.0565      0.6071     25.4604     68.6559
  1342.7000      7.8487      2.6208      0.0538      1.7683     25.1069     61.0343
  1342.8000      7.8556      2.6227      0.0692      1.6574     25.0797     66.3528
  1342.9000      7.8556      2.6348      0.0726      0.9201     25.1281     79.6277
  1343.0000      7.8617      2.6392      0.0986      0.6553     24.7426     89.0128
  1343.1000      7.8617      2.6311      0.0666      1.1434     24.3760     90.4470
  1343.2000      7.8617      2.6249      0.0722      1.5213     24.5627     87.5194
  1343.3000      7.8656      2.6292      0.0945      1.2586     24.9392     86.9096
  1343.4000      7.8656      2.6396      0.1180      0.6318     25.1419     92.6539
  1343.5000      7.8689      2.6478      0.1044      0.1309     25.3823    100.4968
  1343.6000      7.8689      2.6533      0.0710     -0.2007     25.4896    103.6530
  1343.7000      7.8689      2.6603      0.1023     -0.6221     25.1868    101.4785
  1343.8000      7.8696      2.6657      0.0748     -0.9504     24.9301     96.5201
  1343.9000      7.8696      2.6668      0.1008     -1.0168     25.1224     91.4231
  1344.0000      7.8670      2.6652      0.0745     -0.9198     25.3824     90.4415
  1344.1000      7.8670      2.6564      0.0904     -0.3886     25.4053     92.3562
  1344.2000      7.8670      2.6288      0.0728      1.2849     25.6947     91.2557
  1344.3000      7.8648      2.5919      0.0096      3.5202     26.4047     89.7872
  1344.4000      7.8648      2.5776      0.0027      4.3849     26.9896     94.0225
  1344.5000      7.8647      2.5894      0.0559      3.6725     27.0797    100.9923
