~Version Information
VERS.                      2.0: CWLS Log ASCII Standard - VERSION 2.0
WRAP.                       NO: One line per depth step
~Well Information Block
STRT.FT               780.0000: 
STOP.FT              3152.2500: 
STEP.FT                 0.2500: 
NULL.                -999.2500: 
COMP.          Pioneer Natural Resources: COMPANY
WELL.            Paradise 13-8: WELL
FLD.           Purgatoire River: FIELD
LOC.           1896' FSL & 1120' FWL: LOCATION
PROV.                 Colorado: PROVINCE
CNTY.               Las Animas: COUNTRY
SRVC.                Patterson: SERVICE COMPANY
DATE.          Sat Jan 22 20:39:47 2005: LOG DATE
UWI.           05 071 07946 00: UNIQUE WELL ID
~Curve Information Block
DEPT.FT            0 000 00 00: Depth
SN.Ohm-m                      : IEL Short Normal
SP.mV                         : IEL Spontaneous Potential
DIR.Ohm-m                     : IEL Induction Resistivity
GR.GAPI                       : Gamma Ray
~Parameter Information Block
~A  Depth        SN          SP         DIR          GR     
# ...
  1249.0000   2000.0000   2000.0000     33.9248     72.9987
  1249.2500   2000.0000   2000.0000     33.6469     73.3927
  1249.5000   2000.0000   2000.0000     33.3798     74.9776
  1249.7500   2000.0000   2000.0000     33.1766     76.8057
  1250.0000   2000.0000   2000.0000     33.0878     80.1217
  1250.2500   2000.0000   2000.0000     33.1328     81.9148
  1250.5000   2000.0000   2000.0000     33.2682     82.7048
  1250.7500   2000.0000   2000.0000     33.3845     81.7890
  1251.0000   2000.0000   2000.0000     33.3472     79.1514
  1251.2500   2000.0000   2000.0000     33.0647     77.4581
  1251.5000   2000.0000   2000.0000     32.5289     76.4709
  1251.7500   2000.0000   2000.0000     31.7970     77.4720
  1252.0000   2000.0000   2000.0000     30.9400     82.0609
  1252.2500   2000.0000   2000.0000     30.0081     87.0097
  1252.5000   2000.0000   2000.0000     29.0333     95.5818
  1252.7500   2000.0000   2000.0000     28.0458    100.5722
  1253.0000   2000.0000   2000.0000     27.0765    105.2785
  1253.2500   2000.0000   2000.0000     26.1491    106.7415
  1253.5000   2000.0000   2000.0000     25.2736    108.1707
  1253.7500   2000.0000   2000.0000     24.4538    109.6154
  1254.0000   2000.0000   2000.0000     23.7003    113.1292
  1254.2500   2000.0000   2000.0000     23.0341    116.0123
  1254.5000   2000.0000   2000.0000     22.4750    119.7486
  1254.7500   2000.0000   2000.0000     22.0216    121.0128
  1255.0000   2000.0000   2000.0000     21.6420    120.5485
  1255.2500   2000.0000   2000.0000     21.2822    119.1655
  1255.5000   2000.0000   2000.0000     20.8906    117.2145
  1255.7500   2000.0000   2000.0000     20.4381    116.8636
  1256.0000   2000.0000   2000.0000     19.9221    118.1736
  1256.2500   2000.0000   2000.0000     19.3559    119.9715
  1256.5000   2000.0000   2000.0000     18.7565    123.2941
  1256.7500   2000.0000   2000.0000     18.1404    125.5802
  1257.0000   2000.0000   2000.0000     17.5260    128.8447
  1257.2500   2000.0000   2000.0000     16.9344    130.9306
  1257.5000   2000.0000   2000.0000     16.3839    134.0302
  1257.7500   2000.0000   2000.0000     15.8846    136.0492
  1258.0000   2000.0000   2000.0000     15.4352    138.7638
  1258.2500   2000.0000   2000.0000     15.0289    140.1807
  1258.5000   2000.0000   2000.0000     14.6615    141.4684
  1258.7500   2000.0000   2000.0000     14.3369    141.7012
  1259.0000   2000.0000   2000.0000     14.0635    141.2316
  1259.2500   2000.0000   2000.0000     13.8464    140.6612
  1259.5000   2000.0000   2000.0000     13.6796    140.2751
  1259.7500   2000.0000   2000.0000     13.5463    140.7217
  1260.0000   2000.0000   2000.0000     13.4275    142.2259
  1260.2500   2000.0000   2000.0000     13.3130    143.2243
  1260.5000   2000.0000   2000.0000     13.2066    143.8434
  1260.7500   2000.0000   2000.0000     13.1211    143.4324
  1261.0000   2000.0000   2000.0000     13.0695    141.4764
  1261.2500   2000.0000   2000.0000     13.0592    139.4275
  1261.5000   2000.0000   2000.0000     13.0923    135.9602
  1261.7500   2000.0000   2000.0000     13.1683    133.8029
  1262.0000   2000.0000   2000.0000     13.2843    130.8652
  1262.2500   2000.0000   2000.0000     13.4341    128.8565
  1262.5000   2000.0000   2000.0000     13.6094    125.4921
  1262.7500   2000.0000   2000.0000     13.8044    123.0544
  1263.0000   2000.0000   2000.0000     14.0242    119.2931
  1263.2500   2000.0000   2000.0000     14.2881    116.8274
  1263.5000   2000.0000   2000.0000     14.6241    113.3250
  1263.7500   2000.0000   2000.0000     15.0573    111.1073
  1264.0000   2000.0000   2000.0000     15.5964    107.8736
  1264.2500   2000.0000   2000.0000     16.2289    105.8162
  1264.5000   2000.0000   2000.0000     16.9259    102.8543
  1264.7500   2000.0000   2000.0000     17.6560    100.6914
  1265.0000   2000.0000   2000.0000     18.4032     96.6320
  1265.2500   2000.0000   2000.0000     19.1761     93.4804
  1265.5000   2000.0000   2000.0000     20.0039     88.9186
  1265.7500   2000.0000   2000.0000     20.9208     86.3216
  1266.0000   2000.0000   2000.0000     21.9492     82.8128
  1266.2500   2000.0000   2000.0000     23.0930     80.3655
  1266.5000   2000.0000   2000.0000     24.3377     76.4201
  1266.7500   2000.0000   2000.0000     25.6482     73.9437
  1267.0000   2000.0000   2000.0000     26.9633     71.1688
  1267.2500   2000.0000   2000.0000     28.2031     70.0385
  1267.5000   2000.0000   2000.0000     29.2962     68.8326
  1267.7500   2000.0000   2000.0000     30.2111     67.8777
  1268.0000   2000.0000   2000.0000     30.9586     65.9304
  1268.2500   2000.0000   2000.0000     31.5656     64.5230
  1268.5000   2000.0000   2000.0000     32.0449     62.8681
  1268.7500   2000.0000   2000.0000     32.3841     62.2349
  1269.0000   2000.0000   2000.0000     32.5574     61.8238
  1269.2500   2000.0000   2000.0000     32.5514     61.7585
  1269.5000   2000.0000   2000.0000     32.3880     61.9211
  1269.7500   2000.0000   2000.0000     32.1241     62.1869
  1270.0000   2000.0000   2000.0000     31.8268     62.5878
  1270.2500   2000.0000   2000.0000     31.5462     62.6722
  1270.5000   2000.0000   2000.0000     31.3004     62.3149
  1270.7500   2000.0000   2000.0000     31.0769     61.7195
  1271.0000   2000.0000   2000.0000     30.8386     60.4925
  1271.2500   2000.0000   2000.0000     30.5332     59.7625
  1271.5000   2000.0000   2000.0000     30.1086     59.4395
  1271.7500   2000.0000   2000.0000     29.5367     60.0413
  1272.0000   2000.0000   2000.0000     28.8310     62.5993
  1272.2500   2000.0000   2000.0000     28.0406     65.6165
  1272.5000   2000.0000   2000.0000     27.2187     72.1154
  1272.7500   2000.0000   2000.0000     26.3929     77.4242
  1273.0000   2000.0000   2000.0000     25.5660     85.7608
  1273.2500   2000.0000   2000.0000     24.7438     90.7895
  1273.5000   2000.0000   2000.0000     23.9612     96.3649
  1273.7500   2000.0000   2000.0000     23.2761     98.5156
  1274.0000   2000.0000   2000.0000     22.7404    100.0618
  1274.2500   2000.0000   2000.0000     22.3724    100.6276
  1274.5000   2000.0000   2000.0000     22.1516    101.0521
  1274.7500   2000.0000   2000.0000     22.0349    100.5469
  1275.0000   2000.0000   2000.0000     21.9819     97.7465
  1275.2500   2000.0000   2000.0000     21.9734     94.6817
  1275.5000   2000.0000   2000.0000     22.0124     89.6858
  1275.7500   2000.0000   2000.0000     22.1107     87.0432
  1276.0000   2000.0000   2000.0000     22.2724     85.1302
  1276.2500   2000.0000   2000.0000     22.4868     85.3293
  1276.5000   2000.0000   2000.0000     22.7314     87.3362
  1276.7500   2000.0000   2000.0000     22.9727     89.1922
  1277.0000   2000.0000   2000.0000     23.1686     91.3265
  1277.2500   2000.0000   2000.0000     23.2826     91.5823
  1277.5000   2000.0000   2000.0000     23.3125     89.8353
  1277.7500   2000.0000   2000.0000     23.3082     87.6335
  1278.0000   2000.0000   2000.0000     23.3488     83.9590
  1278.2500   2000.0000   2000.0000     23.4921     81.9534
  1278.5000   2000.0000   2000.0000     23.7371     80.6090
  1278.7500   2000.0000   2000.0000     24.0249     81.2429
  1279.0000   2000.0000   2000.0000     24.2698     84.5239
  1279.2500   2000.0000   2000.0000     24.3991     87.6968
  1279.5000   2000.0000   2000.0000     24.3760     92.3838
  1279.7500   2000.0000   2000.0000     24.2034     94.7643
  1280.0000   2000.0000   2000.0000     23.9142     97.0329
  1280.2500   2000.0000   2000.0000     23.5595     98.1011
  1280.5000   2000.0000   2000.0000     23.1959    100.0432
  1280.7500   2000.0000   2000.0000     22.8720    101.8180
  1281.0000   2000.0000   2000.0000     22.6137    104.4803
  1281.2500   2000.0000   2000.0000     22.4147    105.4233
  1281.5000   2000.0000   2000.0000     22.2409    104.7721
  1281.7500   2000.0000   2000.0000     22.0503    103.2673
  1282.0000   2000.0000   2000.0000     21.8206    100.8639
  1282.2500   2000.0000   2000.0000     21.5657     99.9928
