~Version Information
 VERS.                                  2.0 : CWLS LAS VERSION
 WRAP.                                   NO : WRAPING MODE
 SWARE .                 MController 2.5.0J : SOFTWARE VERSION
~Well Information
 WELL.                     Pacheco 33-27 Tr : WELL
 COMP.    PIONEER NATURAL RESOURCES USA INC : COMPANY
 FLD.                      PURGATOIRE RIVER : FIELD
 LOC.                    NW/SE  27 33S  67W : LOCATION
 DATE.                              6/10/05 : DATE(S) LOGGED
 SRVC.       Blanco Geological Sdrvices LLC : SERVICE COMPANY
 STAT.                                   CO : STATE
 CNTY.                           LAS ANIMAS : COUNTY
 CTRY.                                  USA : COUNTRY
 API.                           05-071-08384: API NUMBER
 STRT.FT                             206.00 : START DEPTH
 STOP.FT                            1210.00 : STOP DEPTH
 STEP.FT                               1.00 : DEPTH INCREMENT
 NULL.                                -9999 : NULL VALUE
~Curve information
 DEPTH.FT                                   :
 ROP.MIN/FT                                 :
 GAS.UNITS                                  :
~ASCII Log data
       206.0     -9999.00          4.5 
       207.0         0.40          4.7 
       208.0         0.47          4.6 
       209.0         0.53          4.3 
       210.0         0.30          4.3 
       211.0         0.30          5.8 
       212.0         0.37          6.0 
       213.0         0.13          5.4 
       214.0         0.32          5.0 
       215.0         0.63          5.4 
       216.0         0.13          4.5 
       217.0         0.10          4.3 
       218.0         0.33          4.0 
       219.0         0.27          4.5 
       220.0         0.73          4.7 
       221.0         0.13          3.6 
       222.0         0.30          4.2 
       223.0         0.55          4.7 
       224.0         0.17          4.4 
       225.0         0.30          4.0 
       226.0         0.30          3.8 
       227.0         0.63          4.5 
       228.0         0.13          4.4 
       229.0         0.30          4.4 
       230.0         0.57          4.3 
       231.0         0.13          4.1 
       232.0         0.13          4.2 
       233.0         0.10          4.1 
       234.0         7.88          4.3 
       235.0         0.07          3.9 
       236.0         0.10          4.2 
       237.0         0.10          4.1 
       238.0         0.07          4.2 
       239.0         0.10          4.3 
       240.0         0.10          4.1 
       241.0         0.07          4.0 
       242.0         0.10          4.2 
       243.0         0.10          4.1 
       244.0         0.07          4.1 
       245.0         0.13          4.1 
       246.0         0.10          3.9 
       247.0         0.17          4.2 
       248.0         0.10          3.9 
       249.0         0.27          4.1 
       250.0         0.07          4.2 
       251.0         0.13          4.2 
       252.0         0.13          4.2 
       253.0         0.13          4.3 
       254.0         0.13          4.2 
       255.0         0.13          4.0 
       256.0         0.27          3.9 
       257.0         0.15          3.8 
       258.0         0.17          4.0 
       259.0         0.13          4.0 
       260.0         0.13          4.0 
       261.0         0.10          3.9 
       262.0         0.13          4.0 
       263.0         0.20          3.9 
       264.0         0.17          4.0 
       265.0         0.30          4.2 
       266.0         1.10          4.5 
       267.0         0.23          4.5 
       268.0         0.20          4.2 
       269.0         0.10          4.2 
       270.0         0.10          3.9 
       271.0         0.25          3.9 
       272.0         0.17          3.6 
       273.0         0.13          3.8 
       274.0         0.13          3.5 
       275.0         0.13          3.7 
       276.0         0.17          3.6 
       277.0         0.13          3.5 
       278.0         0.13          3.5 
       279.0         0.13          3.5 
       280.0         0.13          3.5 
       281.0         0.10          3.5 
       282.0         0.13          3.5 
       283.0         0.13          3.4 
       284.0         0.13          3.6 
       285.0         0.27         27.8 
       286.0         0.13         74.3 
       287.0         0.17         88.7 
       288.0         0.13         82.5 
       289.0         0.17         65.6 
       290.0         0.17         41.0 
       291.0         0.17         23.4 
       292.0         0.17         13.0 
       293.0         0.15          7.1 
       294.0         0.13          4.1 
       295.0         0.20          2.7 
       296.0         2.27          1.7 
       297.0         0.20          1.6 
       298.0         0.30          1.8 
       299.0         0.25          1.9 
       300.0         0.30          2.2 
       301.0         0.17          2.5 
       302.0         0.10          2.8 
       303.0         0.10          4.0 
       304.0         0.10          4.7 
       305.0         0.13          6.5 
       306.0         0.10          7.5 
       307.0         0.30          8.5 
       308.0         0.27          7.7 
       309.0         0.27          6.6 
       310.0         0.30          4.9 
       311.0         0.30          3.9 
       312.0         0.30          3.5 
       313.0         0.30          3.1 
       314.0         0.28          3.1 
       315.0         0.27          3.1 
       316.0         0.27          3.0 
       317.0         0.30          2.9 
       318.0         0.27          2.9 
       319.0         0.13          3.9 
       320.0         0.10          5.7 
       321.0         0.10          9.1 
       322.0         0.20         19.4 
       323.0         0.13         25.3 
       324.0         0.27         29.6 
       325.0         0.17         29.8 
       326.0         2.68         75.7 
       327.0         0.30         20.6 
       328.0         0.47         23.8 
       329.0         0.33         22.9 
       330.0         0.43         21.4 
       331.0         0.38         19.0 
       332.0         0.40         17.2 
       333.0         0.37         16.4 
       334.0         0.33         15.8 
       335.0         0.37         15.6 
       336.0         0.33         16.0 
       337.0         0.30         15.5 
       338.0         0.33         15.6 
       339.0         0.37         14.8 
       340.0         0.42         14.7 
       341.0         0.40         14.4 
       342.0         0.33         14.7 
       343.0         0.40         14.2 
       344.0         0.37         14.7 
       345.0         0.37         14.5 
       346.0         0.37         14.2 
       347.0         0.33         13.6 
       348.0         0.38         13.1 
       349.0         0.37         13.1 
       350.0         0.37         13.2 
       351.0         0.37         13.6 
       352.0         0.33         13.2 
       353.0         0.17         13.1 
       354.0         0.27         15.8 
       355.0         0.17         17.9 
       356.0         2.67         41.7 
       357.0         0.43         59.4 
       358.0         0.52         49.4 
       359.0         0.43         31.0 
       360.0         0.43         20.1 
       361.0         0.47         15.1 
       362.0         0.33         13.0 
       363.0         0.37         12.9 
       364.0         0.40         13.2 
       365.0         0.37         13.1 
       366.0         0.35         12.8 
       367.0         0.30         12.6 
       368.0         0.33         12.2 
       369.0         0.33         12.0 
       370.0         0.37         12.3 
       371.0         0.33         11.8 
       372.0         0.30         12.1 
       373.0         0.30         11.8 
       374.0         0.27         11.9 
       375.0         0.30         12.4 
       376.0         0.38         11.9 
       377.0         0.37         12.0 
       378.0         0.37         11.7 
       379.0         0.33         11.8 
       380.0         0.23         11.8 
       381.0         0.23         13.5 
       382.0         0.40         14.5 
       383.0         0.40         14.5 
       384.0         0.37         13.3 
       385.0         0.47         12.7 
       386.0         2.98         51.7 
       387.0         0.52         18.7 
       388.0         0.37         19.1 
       389.0         0.33         16.4 
       390.0         0.37         14.3 
       391.0         0.33         12.8 
       392.0         0.37         12.2 
       393.0         0.37         11.6 
       394.0         0.33         11.3 
       395.0         0.30         11.7 
       396.0         0.33         11.6 
       397.0         0.35         11.9 
       398.0         0.30         12.2 
       399.0         0.37         12.3 
       400.0         0.27         12.7 
       401.0         0.27         13.0 
       402.0         0.23         12.7 
       403.0         0.37         12.7 
       404.0         0.37         12.3 
       405.0         0.30         11.8 
