~Version Information
 VERS.                                  2.0 : CWLS LAS VERSION
 WRAP.                                   NO : WRAPING MODE
 SWARE .                 MController 2.5.0J : SOFTWARE VERSION
~Well Information
 WELL.                  Great Plains 22-21R : WELL
 COMP.                Petrogulf Corporation : COMPANY
 FLD.                      Purgatoire River : FIELD
 LOC.                NE/NW Sec 22 T33S R67W : LOCATION
 DATE.                               9/7/05 : DATE(S) LOGGED
 SRVC.       BLANCO Geological Services LLC : SERVICE COMPANY
 STAT.                                   CO : STATE
 CNTY.                           Las Animas : COUNTY
 CTRY.                                  USA : COUNTRY
 API.                       05-071-08343-00 : API NUMBER
 STRT.FT                             554.00 : START DEPTH
 STOP.FT                            1620.00 : STOP DEPTH
 STEP.FT                               1.00 : DEPTH INCREMENT
 NULL.                                -9999 : NULL VALUE
~Curve information
 DEPTH.FT                                   :
 ROP.MIN/FT                                 :
 GAS.UNITS                                  :
~ASCII Log data
# ...
       954.0         0.13         45.7 
       955.0         0.18         44.2 
       956.0         0.17         37.5 
       957.0         0.20         43.6 
       958.0         1.70       1141.8 
       959.0         0.33        660.3 
       960.0         0.17        471.5 
       961.0         0.17        440.0 
       962.0         0.13         90.9 
       963.0         0.10         79.1 
       964.0         0.35         67.8 
       965.0         0.20         46.0 
       966.0         0.23         40.7 
       967.0         0.27         34.8 
       968.0         0.27         27.8 
       969.0         0.20         23.0 
       970.0         0.17         20.1 
       971.0         0.10         19.6 
       972.0         0.13         19.6 
       973.0         0.10         20.3 
       974.0         0.10         21.0 
       975.0         0.10         21.7 
       976.0         0.10         22.5 
       977.0         0.17         24.0 
       978.0         0.17         23.8 
       979.0         0.23         23.1 
       980.0         0.17         21.1 
       981.0         0.10         19.9 
       982.0         0.10         19.0 
       983.0         0.17         17.6 
       984.0         0.13         16.1 
       985.0         0.12         15.0 
       986.0         0.07         15.7 
       987.0         0.20         31.2 
       988.0         1.90        458.4 
       989.0         0.27        181.1 
       990.0         0.37        112.4 
       991.0         0.30         59.7 
       992.0         0.25         38.2 
       993.0         0.17         27.4 
       994.0         0.20         24.2 
       995.0         0.20         19.8 
       996.0         0.23         15.6 
       997.0         0.40         13.2 
       998.0         0.20         10.4 
       999.0         0.23          9.5 
      1000.0         0.23         10.7 
      1001.0         0.27         16.4 
      1002.0         0.30         24.7 
      1003.0         0.27         31.4 
      1004.0         0.30         35.5 
      1005.0         0.17         37.0 
      1006.0         0.22         37.2 
      1007.0         0.20         35.5 
      1008.0         0.17         34.0 
      1009.0         0.20         33.1 
      1010.0         0.13         34.8 
      1011.0         0.13         36.7 
      1012.0         0.13         40.4 
      1013.0         0.17         42.9 
      1014.0         0.17         42.9 
      1015.0         0.17         42.0 
      1016.0         0.17         37.4 
      1017.0         0.17         30.7 
      1018.0         2.02       1335.4 
      1019.0         0.30        763.1 
      1020.0         0.20        550.2 
      1021.0         0.27        454.6 
      1022.0         0.23        440.0 
      1023.0         0.37         66.2 
      1024.0         0.37         39.7 
      1025.0         0.27         27.1 
      1026.0         0.30         21.7 
      1027.0         0.23         16.9 
      1028.0         0.25         12.5 
      1029.0         0.23          9.9 
      1030.0         0.20          9.7 
      1031.0         0.13         10.0 
      1032.0         0.17         10.6 
      1033.0         0.13         10.7 
      1034.0         0.13         11.2 
      1035.0         0.13         10.7 
      1036.0         0.17         11.2 
      1037.0         0.17         10.2 
      1038.0         0.17         10.2 
      1039.0         0.20          9.6 
      1040.0         0.17          9.2 
      1041.0         0.23          8.9 
      1042.0         0.23         10.0 
      1043.0         0.23         10.7 
      1044.0         0.17          9.5 
      1045.0         0.17          8.3 
      1046.0         0.13          7.4 
      1047.0         0.25          7.0 
      1048.0         1.77       1169.4 
      1049.0         0.20        965.0 
      1050.0         0.20        792.3 
      1051.0         0.17        645.4 
      1052.0         0.27        544.1 
      1053.0         0.40        440.0 
      1054.0         0.25         71.2 
      1055.0         0.23         48.8 
      1056.0         0.23         36.5 
      1057.0         0.30         31.3 
      1058.0         0.30         27.2 
      1059.0         0.27         23.3 
      1060.0         0.23         18.1 
      1061.0         0.27         15.2 
      1062.0         0.20         12.8 
      1063.0         0.20         11.6 
      1064.0         0.17          9.8 
      1065.0         0.20          9.2 
      1066.0         0.17          9.1 
      1067.0         0.20          8.7 
      1068.0         0.20          9.0 
      1069.0         0.25         11.9 
      1070.0         0.20         15.5 
      1071.0         0.23         19.3 
      1072.0         0.27         20.2 
      1073.0         0.17         20.1 
      1074.0         0.20         18.5 
      1075.0         0.23         14.5 
      1076.0         0.20         12.4 
      1077.0         0.17         10.0 
      1078.0         2.62        416.1 
      1079.0         0.37        104.6 
      1080.0         0.33         57.3 
      1081.0         0.33         41.8 
      1082.0         0.23         46.6 
      1083.0         0.33         46.4 
      1084.0         0.30         40.7 
      1085.0         0.27         33.5 
      1086.0         0.28         28.0 
      1087.0         0.23         19.9 
      1088.0         0.23         15.7 
      1089.0         0.20         11.7 
      1090.0         0.17         14.3 
      1091.0         0.17         22.9 
      1092.0         0.13         32.8 
      1093.0         0.10         42.5 
      1094.0         0.13         51.7 
      1095.0         0.23         72.9 
      1096.0         0.20         84.8 
      1097.0         0.27         90.2 
      1098.0         0.20         90.3 
      1099.0         0.30         89.6 
      1100.0         0.30         89.0 
      1101.0         0.20         87.2 
      1102.0         0.18         86.1 
      1103.0         0.17         84.8 
      1104.0         0.20         84.5 
      1105.0         0.20         83.3 
      1106.0         0.23         76.4 
      1107.0         0.23         69.0 
      1108.0         2.03       1877.5 
      1109.0         0.22       1046.9 
      1110.0         0.10        838.4 
      1111.0         0.13        780.0 
      1112.0         0.13        719.0 
      1113.0         0.27        666.0 
      1114.0         0.63        574.9 
      1115.0         0.30        470.5 
      1116.0         0.23        472.7 
      1117.0         0.20        468.6 
      1118.0         0.20        449.2 
      1119.0         0.23        440.0 
      1120.0         4.63        137.3 
      1121.0         0.30        145.1 
      1122.0         0.30        199.3 
      1123.0         0.40        234.9 
      1124.0         0.30        233.5 
      1125.0         0.20        210.3 
      1126.0         0.37        186.5 
      1127.0         0.30        151.8 
      1128.0         0.30        133.3 
      1129.0         0.23        122.0 
      1130.0         0.28        116.0 
      1131.0         0.20        109.5 
      1132.0         0.17        105.0 
      1133.0         0.17        100.7 
      1134.0         0.13         96.9 
      1135.0         0.17         94.5 
      1136.0         0.13         90.0 
      1137.0         0.20         84.2 
      1138.0         0.17         72.6 
      1139.0         0.17         72.5 
      1140.0         2.02       2160.3 
      1141.0         0.30       1341.1 
      1142.0         0.23        988.8 
      1143.0         0.33        802.2 
      1144.0         0.37        640.6 
      1145.0         0.30        548.0 
      1146.0         0.30        504.2 
      1147.0         0.33        483.5 
      1148.0         0.33        453.7 
      1149.0         0.27        440.0 
      1150.0         0.27         86.4 
      1151.0         0.32         85.9 
      1152.0         0.33         87.3 
      1153.0         0.33         95.5 
