~Version Information
VERS.                      2.0: CWLS Log ASCII Standard - VERSION 2.0
WRAP.                       NO: One line per depth step
~Well Information Block
STRT.FT               510.0000: 
STOP.FT              1845.5000: 
STEP.FT                 0.1000: 
NULL.                -999.2500: 
COMP.          Pioneer Natural Resources: COMPANY
WELL.           Stampede 42-18: WELL
FLD.           Purgatoire River: FIELD
LOC.           2479' FNL & 160' FEL--: LOCATION
CNTY.               Las Animas: COUNTY
SRVC.          Superior Well Services: SERVICE COMPANY
DATE.          Sat Jun 09 02:39:23 2007: LOG DATE
UWI.           05 071 08237 00: UNIQUE WELL ID
STAT.                 Colorado: STATE
~Curve Information Block
DEPT.FT            0 000 00 00: Depth
DCAL.in                       : CDL Caliper
RHOB.g/cc                     : CDL Bulk Density
RHOC.g/cc                     : CDL Density Correction
DPOR.pu                       : CDL Density Porosity
GR.GAPI                       : Gamma Ray
~Parameter Information Block
~A  Depth       DCAL        RHOB        RHOC        DPOR         GR     
# ...
  1215.6000      7.8311      2.5667      0.0836      5.0497     92.9625
  1215.7000      7.8311      2.5788      0.0871      4.3178     91.7237
  1215.8000      7.8334      2.5822      0.0854      4.1095     97.1281
  1215.9000      7.8334      2.5778      0.0566      4.3783    107.1555
  1216.0000      7.8366      2.5820      0.0819      4.1234    112.7088
  1216.1000      7.8366      2.5968      0.1016      3.2251    111.8381
  1216.2000      7.8366      2.6039      0.0759      2.7947    112.3389
  1216.3000      7.8404      2.5894      0.0768      3.6757    119.3444
  1216.4000      7.8404      2.5610      0.0185      5.3931    125.9911
  1216.5000      7.8438      2.5422      0.0000      6.5339    125.1372
  1216.6000      7.8438      2.5446      0.0208      6.3855    121.8709
  1216.7000      7.8438      2.5563      0.0870      5.6772    120.1056
  1216.8000      7.8474      2.5657      0.0004      5.1071    120.5394
  1216.9000      7.8474      2.5742      0.0585      4.5945    123.4044
  1217.0000      7.8515      2.5742      0.0592      4.5927    123.6189
  1217.1000      7.8515      2.5571      0.0363      5.6305    119.1687
  1217.2000      7.8515      2.5308     -0.0011      7.2225    114.1557
  1217.3000      7.8546      2.5096      0.0182      8.5073    111.8589
  1217.4000      7.8546      2.4991      0.0149      9.1472    112.1187
  1217.5000      7.8529      2.4990     -0.0045      9.1514    114.0109
  1217.6000      7.8529      2.5045      0.0380      8.8207    115.9969
  1217.7000      7.8529      2.5064      0.0404      8.7010    118.2114
  1217.8000      7.8453      2.5060      0.0268      8.7249    121.4157
  1217.9000      7.8453      2.5171     -0.0306      8.0564    122.7317
  1218.0000      7.8365      2.5385      0.0495      6.7578    120.1714
  1218.1000      7.8365      2.5449      0.0672      6.3675    116.3974
  1218.2000      7.8365      2.5342      0.0083      7.0186    115.6663
  1218.3000      7.8302      2.5340      0.0491      7.0274    117.5415
  1218.4000      7.8302      2.5481      0.0655      6.1778    116.3336
  1218.5000      7.8272      2.5565      0.0578      5.6667    113.6125
  1218.6000      7.8272      2.5540      0.0579      5.8199    116.5781
  1218.7000      7.8272      2.5475      0.0650      6.2151    124.6763
  1218.8000      7.8265      2.5381      0.0629      6.7825    131.2548
  1218.9000      7.8265      2.5274      0.0499      7.4306    132.1295
  1219.0000      7.8263      2.5249      0.0621      7.5836    132.4601
  1219.1000      7.8263      2.5357      0.0565      6.9271    135.1043
  1219.2000      7.8263      2.5510      0.1002      5.9999    132.6648
  1219.3000      7.8262      2.5527      0.1176      5.8988    129.3222
  1219.4000      7.8262      2.5382      0.0452      6.7744    136.5044
  1219.5000      7.8264      2.5252      0.0488      7.5617    145.9720
  1219.6000      7.8264      2.5249      0.0439      7.5830    143.6677
  1219.7000      7.8264      2.5309      0.0766      7.2157    133.5683
  1219.8000      7.8273      2.5310      0.0491      7.2137    126.6647
  1219.9000      7.8273      2.5243      0.0477      7.6198    126.9908
  1220.0000      7.8289      2.5211      0.0596      7.8140    130.7417
  1220.1000      7.8289      2.5252      0.0319      7.5651    133.4389
  1220.2000      7.8289      2.5292      0.0846      7.3228    135.2459
  1220.3000      7.8312      2.5279      0.0269      7.4026    138.3483
  1220.4000      7.8312      2.5225      0.0571      7.7273    141.6845
  1220.5000      7.8330      2.5148      0.0265      8.1911    143.3746
  1220.6000      7.8330      2.5160      0.0335      8.1239    144.1291
  1220.7000      7.8330      2.5365      0.0587      6.8789    146.6707
  1220.8000      7.8321      2.5661      0.0825      5.0829    152.2245
  1220.9000      7.8321      2.5850      0.0458      3.9368    157.0241
  1221.0000      7.8299      2.5889      0.0524      3.7032    152.8311
  1221.1000      7.8299      2.5839      0.0643      4.0055    138.6875
  1221.2000      7.8299      2.5765      0.0632      4.4543    126.0172
  1221.3000      7.8296      2.5722      0.0447      4.7145    119.9169
  1221.4000      7.8296      2.5756      0.0376      4.5080    117.3089
  1221.5000      7.8327      2.5848      0.0660      3.9509    116.6569
  1221.6000      7.8327      2.5862      0.0718      3.8664    118.1605
  1221.7000      7.8327      2.5749      0.0423      4.5494    122.5830
  1221.8000      7.8385      2.5664      0.0470      5.0643    127.8300
  1221.9000      7.8385      2.5758      0.0524      4.4968    128.0552
  1222.0000      7.8445      2.5961      0.0915      3.2685    122.9128
  1222.1000      7.8445      2.6059      0.0837      2.6730    122.2050
  1222.2000      7.8445      2.5975      0.0662      3.1809    128.7912
  1222.3000      7.8458      2.5843      0.0362      3.9829    131.9157
  1222.4000      7.8458      2.5804      0.0650      4.2195    130.4779
  1222.5000      7.8409      2.5827      0.0479      4.0770    131.5466
  1222.6000      7.8409      2.5794      0.0757      4.2782    132.8936
  1222.7000      7.8409      2.5694      0.0140      4.8877    127.2677
  1222.8000      7.8349      2.5651      0.0282      5.1447    117.8831
  1222.9000      7.8349      2.5773      0.0224      4.4080    112.5832
  1223.0000      7.8312      2.6000      0.0673      3.0308    108.8619
  1223.1000      7.8312      2.6093      0.1187      2.4639    106.3460
  1223.2000      7.8312      2.5985      0.0543      3.1187    109.9945
  1223.3000      7.8268      2.5943      0.0611      3.3771    117.3954
  1223.4000      7.8268      2.6105      0.1246      2.3912    122.7971
  1223.5000      7.8172      2.6303      0.0973      1.1927    123.6299
  1223.6000      7.8172      2.6402      0.1041      0.5912    119.4840
  1223.7000      7.8172      2.6457      0.1096      0.2615    110.7740
  1223.8000      7.8037      2.6565      0.1323     -0.3936    102.7755
  1223.9000      7.8037      2.6685      0.1382     -1.1240    103.9250
  1224.0000      7.7978      2.6728      0.1137     -1.3832    112.7455
  1224.1000      7.7978      2.6749      0.0858     -1.5119    119.6377
  1224.2000      7.7978      2.6761      0.1504     -1.5819    124.7359
  1224.3000      7.8032      2.6626      0.1004     -0.7629    130.2564
  1224.4000      7.8032      2.6345      0.0665      0.9384    129.9613
  1224.5000      7.8117      2.6102      0.0324      2.4110    123.8946
  1224.6000      7.8117      2.6019      0.0640      2.9166    120.3970
  1224.7000      7.8117      2.6039      0.1013      2.7956    121.2086
  1224.8000      7.8195      2.6068      0.0877      2.6175    122.2584
  1224.9000      7.8195      2.6067      0.0772      2.6222    123.3749
  1225.0000      7.8278      2.5986      0.0645      3.1157    126.1838
  1225.1000      7.8278      2.5787      0.0488      4.3236    127.8255
  1225.2000      7.8278      2.5534      0.0345      5.8515    125.3067
  1225.3000      7.8315      2.5408      0.0322      6.6158    123.0083
  1225.4000      7.8315      2.5524      0.0610      5.9145    127.1800
  1225.5000      7.8275      2.5758      0.0904      4.4985    135.0173
  1225.6000      7.8275      2.5887      0.0897      3.7159    137.6809
  1225.7000      7.8275      2.5844      0.0809      3.9740    135.0709
  1225.8000      7.8204      2.5705      0.0753      4.8204    130.9872
  1225.9000      7.8204      2.5542      0.0772      5.8064    123.3100
  1226.0000      7.8189      2.5435      0.0518      6.4554    114.7559
  1226.1000      7.8189      2.5409      0.1015      6.6100    110.5188
  1226.2000      7.8189      2.5368      0.0828      6.8635    109.0881
  1226.3000      7.8239      2.5249      0.0378      7.5803    110.7094
  1226.4000      7.8239      2.5126      0.0463      8.3284    118.0767
  1226.5000      7.8285      2.5065      0.0184      8.6950    125.8504
  1226.6000      7.8285      2.5042      0.0629      8.8367    127.6602
  1226.7000      7.8285      2.5026      0.0327      8.9355    127.9965
