~Version Information
VERS.                      2.0: CWLS Log ASCII Standard - VERSION 2.0
WRAP.                       NO: One line per depth step
~Well Information Block
STRT.FT               521.6000: 
STOP.FT              1490.2000: 
STEP.FT                 0.1000: 
NULL.                -999.2500: 
COMP.          Petrogulf Corporation: COMPANY
WELL.          Robinson 15-11R: WELL
FLD.           Purgatorie River: FIELD
LOC.           324' FNL & 570' FWL: LOCATION
CNTY.               Las Animas: COUNTY
SRVC.                         : SERVICE COMPANY
DATE.          Sat Nov 06 22:43:15 2004: LOG DATE
UWI.           05 071 08029 00: UNIQUE WELL ID
STAT.                 Colorado: STATE
~Curve Information Block
DEPT.FT            0 000 00 00: Depth
DCAL.in                       : CDL Caliper
RHOB.g/cc                     : CDL Bulk Density
RHOC.g/cc                     : CDL Density Correction
DPOR.pu                       : CDL Density Porosity
GR.GAPI                       : Gamma Ray
NPOR.pu                       : Neutron Porosity
~Parameter Information Block
~A  Depth       DCAL        RHOB        RHOC        DPOR         GR         NPOR    
# ...
   915.2000      7.8970      2.4715      0.1095     10.8197    132.8415     26.5935
   915.3000      7.8790      2.4904      0.1362      9.6733    129.2572     27.0511
   915.4000      7.8790      2.5015      0.0913      8.9986    129.9823     27.5252
   915.5000      7.9113      2.5097      0.0841      8.5044    135.7098     27.6079
   915.6000      7.9113      2.5279      0.1403      7.3996    140.1066     27.2799
   915.7000      7.9113      2.5442      0.1947      6.4144    137.0690     26.5734
   915.8000      7.8755      2.5356      0.1779      6.9321    132.3021     25.4970
   915.9000      7.8755      2.5027      0.1578      8.9261    132.5536     24.6237
   916.0000      7.8784      2.4641      0.1603     11.2690    136.5303     24.2413
   916.1000      7.8784      2.4311      0.1499     13.2650    138.1416     23.7772
   916.2000      7.8784      2.4101      0.0495     14.5410    135.2990     22.7558
   916.3000      7.8954      2.4066      0.0537     14.7536    133.0094     21.5620
   916.4000      7.8954      2.4107      0.0598     14.5049    132.0027     20.8656
   916.5000      7.8976      2.4013      0.0648     15.0705    132.2766     20.3007
   916.6000      7.8976      2.3643      0.0757     17.3172    137.1888     18.9976
   916.7000      7.8976      2.2961      0.0731     21.4456    141.8260     17.1119
   916.8000      7.9785      2.2014      0.0584     27.1897    137.9293     15.3093
   916.9000      7.9785      2.0901      0.0499     33.9312    128.3354     13.8800
   917.0000      7.9659      1.9776     -0.0066     40.7531    122.4981     12.7436
   917.1000      7.9659      1.8698     -0.0039     47.2833    123.8067     11.6775
   917.2000      7.9659      1.7520     -0.0376     54.4221    126.8089     10.7704
   917.3000      8.0468      1.6214     -0.1091     62.3407    124.9831     10.1948
   917.4000      8.0468      1.5062     -0.0731     69.3205    116.2362      9.9497
   917.5000      8.0702      1.4419     -0.1037     73.2199    103.1218      9.9547
   917.6000      8.0702      1.4435      0.0414     73.1224     91.2081     10.2601
   917.7000      8.0702      1.4927      0.1268     70.1371     85.9222     11.1657
   917.8000      8.1445      1.5644      0.1622     65.7965     85.8587     12.5874
   917.9000      8.1445      1.6488      0.1743     60.6790     84.7213     13.8250
   918.0000      8.1935      1.7399      0.2465     55.1599     83.7913     14.9110
   918.1000      8.1935      1.8291      0.2487     49.7535     86.6055     16.6137
   918.2000      8.1935      1.9158      0.2801     44.4996     89.0135     18.8816
   918.3000      8.0543      1.9992      0.2369     39.4442     88.2845     20.9399
   918.4000      8.0543      2.0724      0.2318     35.0090     88.5485     22.3642
   918.5000      8.0505      2.1325      0.2069     31.3663     90.2560     23.1746
   918.6000      8.0505      2.1829      0.2018     28.3078     90.8317     23.6971
   918.7000      8.0505      2.2247      0.1658     25.7774     95.2293     24.4079
   918.8000      8.0154      2.2601      0.1311     23.6329    105.5453     25.3066
   918.9000      8.0154      2.2954      0.1369     21.4895    114.9166     26.0970
   919.0000      7.9628      2.3283      0.1553     19.4943    122.3265     26.6392
   919.1000      7.9628      2.3527      0.1564     18.0188    128.3606     26.9627
   919.2000      7.9628      2.3700      0.1510     16.9679    128.6348     27.0066
   919.3000      7.9844      2.3791      0.1536     16.4190    127.3869     26.6843
   919.4000      7.9844      2.3790      0.0868     16.4242    130.0745     26.3984
   919.5000      7.9662      2.3790      0.0867     16.4230    131.9681     26.4357
   919.6000      7.9662      2.3868      0.0814     15.9523    130.6827     26.6809
   919.7000      7.9662      2.3985      0.0946     15.2427    131.3885     26.9632
   919.8000      7.9866      2.3990      0.1136     15.2132    137.0923     27.1829
   919.9000      7.9866      2.3805      0.0752     16.3362    142.0418     27.2536
   920.0000      8.0260      2.3500      0.0707     18.1819    141.5022     27.1578
   920.1000      8.0260      2.3167      0.0481     20.2011    141.3695     27.1183
   920.2000      8.0260      2.3030      0.0275     21.0309    147.4284     27.1362
   920.3000      7.9728      2.3373      0.0441     18.9490    153.0947     26.7958
   920.4000      7.9728      2.4089      0.0626     14.6129    150.0019     26.3075
   920.5000      7.9495      2.4682      0.1380     11.0187    142.3598     26.2576
   920.6000      7.9495      2.4915      0.1007      9.6052    138.0936     26.6520
   920.7000      7.9495      2.5025      0.1312      8.9379    137.9424     27.2891
   920.8000      7.9724      2.5171      0.1377      8.0555    139.1301     28.0671
   920.9000      7.9724      2.5271      0.1379      7.4487    140.4914     28.7084
   921.0000      7.9670      2.5193      0.1485      7.9200    141.4113     28.6514
   921.1000      7.9670      2.4895      0.1166      9.7302    141.4259     27.7513
   921.2000      7.9670      2.4534      0.0369     11.9144    141.7867     26.7377
   921.3000      7.9176      2.4287      0.0929     13.4144    143.1335     25.7979
   921.4000      7.9176      2.4150      0.0231     14.2405    142.0315     24.6576
   921.5000      7.8996      2.4067      0.0812     14.7434    137.8173     23.9050
   921.6000      7.8996      2.3977      0.0759     15.2928    135.7086     23.9289
   921.7000      7.8996      2.3911      0.0368     15.6891    135.6759     23.9109
   921.8000      7.8756      2.3957      0.0992     15.4108    136.6152     23.4118
   921.9000      7.8756      2.4134      0.1179     14.3385    143.7617     22.9138
   922.0000      7.8858      2.4355      0.1921     13.0020    156.2711     22.7211
   922.1000      7.8858      2.4420      0.2152     12.6075    165.1675     23.0107
   922.2000      7.8858      2.4292      0.1783     13.3830    164.5097     23.6220
   922.3000      7.8714      2.4107      0.1474     14.5041    156.5744     24.0346
   922.4000      7.8714      2.3897      0.1319     15.7730    148.1267     23.9981
   922.5000      7.8808      2.3665      0.0987     17.1800    141.9310     23.6818
   922.6000      7.8808      2.3519      0.0760     18.0690    134.2460     23.3276
   922.7000      7.8808      2.3469      0.0622     18.3697    126.2872     22.9407
   922.8000      7.9266      2.3373      0.0677     18.9497    126.9084     22.3159
   922.9000      7.9266      2.3196      0.0207     20.0221    134.7087     21.2394
   923.0000      7.9345      2.3068      0.0600     20.7993    141.1662     20.0650
   923.1000      7.9345      2.3025      0.0714     21.0613    147.8910     19.5566
   923.2000      7.9345      2.2961      0.0966     21.4490    152.7961     19.8033
   923.3000      7.9045      2.2740      0.1165     22.7882    147.6636     20.1068
   923.4000      7.9045      2.2309      0.0669     25.4000    140.0615     19.8196
   923.5000      7.9361      2.1777      0.0627     28.6259    141.0172     19.0442
   923.6000      7.9361      2.1294      0.0761     31.5520    145.8861     18.4231
   923.7000      7.9361      2.0934      0.1013     33.7360    145.5763     18.3020
   923.8000      7.9519      2.0622      0.1471     35.6218    142.6263     18.5027
   923.9000      7.9519      2.0265      0.0938     37.7854    140.5751     18.7133
   924.0000      7.8863      1.9900      0.0952     40.0009    134.5963     18.7557
   924.1000      7.8863      1.9610      0.0866     41.7546    123.9190     18.9455
   924.2000      7.8863      1.9540      0.0560     42.1799    115.4166     19.6284
   924.3000      7.9149      1.9812      0.0993     40.5315    113.5705     20.4490
   924.4000      7.9149      2.0320      0.1509     37.4552    117.0994     20.9525
   924.5000      7.9582      2.0833      0.1483     34.3460    122.6605     20.9858
   924.6000      7.9582      2.1223      0.1406     31.9824    127.2468     20.3166
   924.7000      7.9582      2.1464      0.1109     30.5192    129.4779     19.3762
