~Version Information
VERS.                      2.0: CWLS Log ASCII Standard - VERSION 2.0
WRAP.                       NO: One line per depth step
~Well Information Block
STRT.FT               953.8000: 
STOP.FT              2226.0000: 
STEP.FT                 0.1000: 
NULL.                -999.2500: 
COMP.          Petrogulf Corporation: COMPANY
WELL.             Burson 8-13R: WELL
FLD.           Purgatorie River: FIELD
LOC.           1045' FNL & 2189' FEL: LOCATION
CNTY.               Las Animas: COUNTY
SRVC.                         : SERVICE COMPANY
DATE.          Fri Apr 30 07:30:36 2004: LOG DATE
UWI.           05 071 08039 00: UNIQUE WELL ID
STAT.                 Colorado: STATE
~Curve Information Block
DEPT.FT            0 000 00 00: Depth
DCAL.in                       : CDL Caliper
RHOB.g/cc                     : CDL Bulk Density
RHOC.g/cc                     : CDL Density Correction
DPOR.pu                       : CDL Density Porosity
NPOR.pu                       : Neutron Porosity
GR.GAPI                       : Gamma Ray
~Parameter Information Block
~A  Depth       DCAL        RHOB        RHOC        DPOR        NPOR         GR     
# ...
   963.4000   -999.2500   -999.2500   -999.2500   -999.2500     48.5786     89.9858
   963.5000   -999.2500   -999.2500   -999.2500   -999.2500     48.7630     83.3116
   963.6000   -999.2500   -999.2500   -999.2500   -999.2500     49.0508     77.4722
   963.7000   -999.2500   -999.2500   -999.2500   -999.2500     49.3279     76.8303
   963.8000   -999.2500   -999.2500   -999.2500   -999.2500     49.4625     79.0629
   963.9000   -999.2500   -999.2500   -999.2500   -999.2500     49.2526     80.2426
   964.0000   -999.2500   -999.2500   -999.2500   -999.2500     48.8390     79.5240
   964.1000   -999.2500   -999.2500   -999.2500   -999.2500     48.5917     79.1029
   964.2000   -999.2500   -999.2500   -999.2500   -999.2500     48.6444     80.3386
   964.3000   -999.2500   -999.2500   -999.2500   -999.2500     48.8248     81.2666
   964.4000   -999.2500   -999.2500   -999.2500   -999.2500     48.9686     79.5102
   964.5000   -999.2500   -999.2500   -999.2500   -999.2500     49.1469     76.5980
   964.6000   -999.2500   -999.2500   -999.2500   -999.2500     49.3683     77.2171
   964.7000   -999.2500   -999.2500   -999.2500   -999.2500     49.4423     82.2825
   964.8000   -999.2500   -999.2500   -999.2500   -999.2500     49.3364     86.1362
   964.9000   -999.2500   -999.2500   -999.2500   -999.2500     49.2946     85.6715
   965.0000   -999.2500   -999.2500   -999.2500   -999.2500     49.4258     83.7050
   965.1000   -999.2500   -999.2500   -999.2500   -999.2500     49.5003     82.0189
   965.2000   -999.2500   -999.2500   -999.2500   -999.2500     49.5026     79.8617
   965.3000   -999.2500   -999.2500   -999.2500   -999.2500     49.5941     77.6504
   965.4000   -999.2500   -999.2500   -999.2500   -999.2500     49.6910     76.6770
   965.5000   -999.2500   -999.2500   -999.2500   -999.2500     49.7894     75.6565
   965.6000   -999.2500   -999.2500   -999.2500   -999.2500     50.0104     72.9855
   965.7000   -999.2500   -999.2500   -999.2500   -999.2500     50.1689     71.7906
   965.8000   -999.2500   -999.2500   -999.2500   -999.2500     49.9671     75.9456
   965.9000   -999.2500   -999.2500   -999.2500   -999.2500     49.4932     82.8507
   966.0000   -999.2500   -999.2500   -999.2500   -999.2500     49.1250     87.0192
   966.1000   -999.2500   -999.2500   -999.2500   -999.2500     49.0349     88.0638
   966.2000   -999.2500   -999.2500   -999.2500   -999.2500     49.1085     86.4251
   966.3000   -999.2500   -999.2500   -999.2500   -999.2500     49.0449     82.7482
   966.4000   -999.2500   -999.2500   -999.2500   -999.2500     48.7139     79.2560
   966.5000   -999.2500   -999.2500   -999.2500   -999.2500     48.3972     76.9645
   966.6000   -999.2500   -999.2500   -999.2500   -999.2500     48.5695     75.2918
   966.7000   -999.2500   -999.2500   -999.2500   -999.2500     49.1003     73.6107
   966.8000   -999.2500   -999.2500   -999.2500   -999.2500     49.4194     73.8706
   966.9000   -999.2500   -999.2500   -999.2500   -999.2500     49.4439     78.1783
   967.0000   -999.2500   -999.2500   -999.2500   -999.2500     49.5136     83.0665
   967.1000   -999.2500   -999.2500   -999.2500   -999.2500     49.7952     82.6103
   967.2000   -999.2500   -999.2500     -0.2511   -999.2500     50.2380     78.3845
   967.3000      8.1907   -999.2500     -0.2518   -999.2500     50.6610     78.1856
   967.4000      8.1907   -999.2500     -0.2304   -999.2500     50.7707     82.1444
   967.5000      8.2109   -999.2500     -0.2391   -999.2500     50.6011     81.8182
   967.6000      8.2109   -999.2500     -0.2370   -999.2500     50.6739     76.2148
   967.7000      8.2109      2.3267     -0.2223     19.5931     51.1552     73.2197
   967.8000      8.1880      2.3584     -0.1589     17.6700     51.5445     74.4324
   967.9000      8.1880      2.3670     -0.2043     17.1526     51.4799     76.2727
   968.0000      8.1869      2.3608     -0.2597     17.5259     51.0619     78.1977
   968.1000      8.1869      2.3474     -0.1707     18.3364     50.6277     79.2287
   968.2000      8.1869      2.3034     -0.1916     21.0086     50.3877     77.1185
   968.3000      8.1911      2.2303     -0.3170     25.4342     50.2722     72.7267
   968.4000      8.1911      2.1714     -0.3581     29.0090     50.2145     69.6416
   968.5000      8.1876      2.1459     -0.2901     30.5523     50.1385     70.6386
   968.6000      8.1876      2.1372     -0.3489     31.0800     49.9728     73.5215
   968.7000      8.1876      2.1402     -0.2924     30.8941     49.9637     73.9357
   968.8000      8.1854      2.1693     -0.3513     29.1312     50.3623     73.6923
   968.9000      8.1854      2.2307     -0.3190     25.4121     50.8829     76.2819
   969.0000      8.1872      2.3053     -0.2493     20.8914     51.0195     80.1854
   969.1000      8.1872      2.3798     -0.2945     16.3769     50.7097     83.0791
   969.2000      8.1872      2.4587     -0.2465     11.5917     50.3126     84.5302
   969.3000      8.1889      2.5180     -0.1433      7.9978     50.1567     85.9809
   969.4000      8.1889      2.5295     -0.1967      7.3023     50.2404     89.3617
   969.5000      8.1893      2.5174     -0.2286      8.0351     50.2835     92.6197
   969.6000      8.1893      2.5121     -0.2048      8.3575     50.2262     92.3145
   969.7000      8.1893      2.5124     -0.1839      8.3414     50.1239     90.3239
   969.8000      8.1877      2.5223     -0.2316      7.7389     49.9547     89.5245
   969.9000      8.1877      2.5453     -0.1734      6.3443     49.8831     90.0030
   970.0000      8.1935      2.5549     -0.1498      5.7639     50.0889     89.7796
   970.1000      8.1935      2.5360     -0.1967      6.9081     50.3703     86.7332
   970.2000      8.1935      2.5185     -0.2572      7.9695     50.3909     83.3655
   970.3000      8.1918      2.5305     -0.2043      7.2402     50.2329     82.3514
   970.4000      8.1918      2.5621     -0.2266      5.3277     50.1329     83.0677
   970.5000      8.1863      2.5865     -0.1964      3.8505     50.0787     86.2651
   970.6000      8.1863      2.5825     -0.2004      4.0935     49.9580     89.0169
   970.7000      8.1863      2.5551     -0.2083      5.7520     49.6865     89.6147
   970.8000      8.1858      2.5304     -0.2521      7.2478     49.2962     91.6040
   970.9000      8.1858      2.5174     -0.2218      8.0338     49.0040     92.7816
   971.0000      8.1917      2.5120     -0.2687      8.3620     49.0068     91.5498
   971.1000      8.1917      2.5135     -0.2418      8.2716     49.2310     92.2804
   971.2000      8.1917      2.5095     -0.2389      8.5179     49.3521     95.5093
   971.3000      8.1893      2.4969     -0.2372      9.2787     49.2650     97.8049
   971.4000      8.1893      2.5049     -0.2766      8.7923     49.0489     95.5758
   971.5000      8.1881      2.5496     -0.2300      6.0852     48.5523     88.8765
   971.6000      8.1881      2.6030     -0.1436      2.8482     47.9539     82.6581
   971.7000      8.1881      2.6420     -0.1807      0.4840     47.7993     79.4263
   971.8000      8.1879      2.6704     -0.1370     -1.2388     48.0074     78.1765
   971.9000      8.1879      2.6821     -0.1279     -1.9446     48.0249     78.2410
   972.0000      8.1909      2.6690     -0.1589     -1.1493     47.6242     77.8805
   972.1000      8.1909      2.6455     -0.2424      0.2712     47.1166     74.8940
   972.2000      8.1909      2.6383     -0.2333      0.7063     47.0300     69.9314
   972.3000      8.1863      2.6499     -0.1772      0.0063     47.2923     66.2710
   972.4000      8.1863      2.6549     -0.2282     -0.2984     47.2718     67.0339
   972.5000      8.1895      2.6411     -0.2423      0.5365     46.8181     69.7517
   972.6000      8.1895      2.6204     -0.2312      1.7949     46.3772     69.0937
   972.7000      8.1895      2.6135     -0.2764      2.2139     46.1311     65.4443
   972.8000      8.1874      2.6338     -0.2410      0.9801     45.9546     62.9429
   972.9000      8.1874      2.6668     -0.1848     -1.0172     45.7714     62.5699
