~Version Information
VERS.                      2.0: CWLS Log ASCII Standard - VERSION 2.0
WRAP.                       NO: One line per depth step
~Well Information Block
STRT.FT                -7.5000: 
STOP.FT              2226.0000: 
STEP.FT                 0.2500: 
NULL.                -999.2500: 
COMP.          Pioneer Natural Resources: COMPANY
WELL.              Tonto 42-23: WELL
FLD.           Purgatorie River: FIELD
LOC.           2217' FNL & 423' FEL----: LOCATION
PROV.                       CO: PROVINCE
CNTY.               Las Animas: COUNTRY
SRVC.          Patterson Wireline: SERVICE COMPANY
DATE.          Fri Apr 22 11:40:07 2005: LOG DATE
UWI.           05 071 08335 00: UNIQUE WELL ID
~Curve Information Block
DEPT.FT            0 000 00 00: Depth
CCL.                          : Casing Collar Locator
TT3.usec                      : CBL 3' Travel Time
AMP3.mV                       : CBL 3' Amplitude
GR.GAPI                       : Gamma Ray
~Parameter Information Block
~A  Depth       CCL         TT3         AMP3         GR     
# ...
  1600.5000      0.0000    769.7457      7.3585     84.2208
  1600.7500      0.0000    770.5871      7.5875     87.2725
  1601.0000      0.0000    771.8025      7.7181     95.5813
  1601.2500      0.0000    773.8167      7.7776    105.3538
  1601.5000      0.0000    776.3957      7.7656    112.1471
  1601.7500      0.0000    778.5968      7.6551    114.1756
  1602.0000      0.0000    779.2967      7.4735    113.4441
  1602.2500      0.0000    778.1732      7.3301    113.4476
  1602.5000      0.0000    776.0135      7.3271    116.0684
  1602.7500      0.0000    773.7562      7.4552    120.8214
  1603.0000      0.0000    771.2955      7.6006    126.2207
  1603.2500      0.0000    767.5237      7.6506    131.0921
  1603.5000      0.0000    761.7880      7.5753    135.1044
  1603.7500      0.0000    755.2715      7.4086    138.8325
  1604.0000      0.0000    750.4587      7.1803    143.0374
  1604.2500      0.0000    748.9602      6.8927    147.4193
  1604.5000      0.0000    750.3617      6.5677    150.3363
  1604.7500      0.0000    753.3107      6.2850    149.9661
  1605.0000      0.0000    756.6633      6.1408    145.5646
  1605.2500      0.0000    759.1311      6.1616    137.6891
  1605.5000      0.0000    758.6295      6.2774    127.8495
  1605.7500      0.0000    753.0677      6.3886    118.3175
  1606.0000      0.0000    742.7659      6.4488    111.7195
  1606.2500      0.0000    732.4265      6.4765    109.7845
  1606.5000      0.0000    728.9927      6.4989    111.9696
  1606.7500      0.0000    735.3162      6.5070    115.6022
  1607.0000      0.0000    746.2516      6.4771    117.8282
  1607.2500      0.0000    752.6724      6.4221    117.3652
  1607.5000      0.0000    749.3224      6.3968    114.4027
  1607.7500      0.0000    738.4798      6.4431    109.6567
  1608.0000      0.0000    727.1462      6.5381    104.3225
  1608.2500      0.0000    721.3065      6.6044    100.6313
  1608.5000      0.0000    721.6626      6.5680    101.2421
  1608.7500      0.0000    723.6788      6.4096    107.3411
  1609.0000      0.0000    721.7123      6.1816    117.6173
  1609.2500      0.0000    713.2714      5.9812    129.4446
  1609.5000      0.0000    699.6698      5.8812    140.7938
  1609.7500      0.0000    684.0624      5.8744    150.7852
  1610.0000      0.0000    669.6813      5.8983    158.9229
  1610.2500      0.0000    658.8349      5.9185    164.5427
  1610.5000      0.0000    652.0228      5.9657    167.1504
  1610.7500      0.0000    647.7929      6.0803    167.0838
  1611.0000      0.0000    644.0389      6.2468    165.8207
  1611.2500      0.0000    639.4570      6.4019    165.5092
  1611.5000      0.0000    633.6442      6.4908    167.7030
  1611.7500      0.0000    626.5843      6.4900    172.0490
  1612.0000      0.0000    618.9924      6.3983    176.1365
  1612.2500      0.0000    612.9683      6.2407    176.9243
  1612.5000      0.0000    611.1862      6.0778    172.7131
  1612.7500      0.0000    614.8167      5.9670    164.1897
  1613.0000      0.0000    622.5907      5.8935    154.0905
  1613.2500      0.0000    632.3539      5.7705    145.8932
  1613.5000      0.0000    643.3170      5.5389    142.0712
  1613.7500      0.0000    656.1666      5.2537    142.7432
  1614.0000      0.0000    671.2898      5.0385    145.6841
  1614.2500      0.0000    688.0692      4.9665    147.8060
  1614.5000      0.0000    706.1256      5.0032    147.1567
  1614.7500      2.0000    725.7482      5.0528    144.0476
  1615.0000      2.0000    746.3011      5.0473    140.2946
  1615.2500      0.0000    765.3140      5.0060    137.2374
  1615.5000      0.0000    779.6253      5.0305    134.7905
  1615.7500      0.0000    787.0211      5.2290    132.6882
  1616.0000      0.0000    787.6343      5.6118    132.0555
  1616.2500      0.0000    784.7460      6.0453    134.8540
  1616.5000      0.0000    783.0913      6.3286    141.7776
  1616.7500      0.0000    784.7805      6.3494    151.1769
  1617.0000      0.0000    787.1837      6.1805    160.0441
  1617.2500      0.0000    786.0128      6.0185    165.6855
  1617.5000      0.0000    780.4439      6.0196    166.6741
  1617.7500      0.0000    774.4573      6.1906    162.8810
  1618.0000      0.0000    773.0862      6.4238    155.1182
  1618.2500      0.0000    777.8904      6.6025    144.9568
  1618.5000      0.0000    786.2846      6.6676    134.6026
  1618.7500      0.0000    794.2048      6.6243    126.2299
  1619.0000      0.0000    798.4952      6.5280    120.9733
  1619.2500      0.0000    797.5450      6.4547    118.6357
  1619.5000      0.0000    791.0618      6.4511    118.5396
  1619.7500      0.0000    779.5948      6.4973    120.4622
  1620.0000      0.0000    763.9540      6.5159    124.3222
  1620.2500      0.0000    745.2328      6.4243    129.1908
  1620.5000      0.0000    725.6520      6.1896    133.5381
  1620.7500      0.0000    708.9308      5.8616    136.6972
  1621.0000      0.0000    699.1913      5.5656    139.3723
  1621.2500      0.0000    699.1445      5.4402    142.3309
  1621.5000      0.0000    708.3862      5.5401    145.1308
  1621.7500      0.0000    722.1888      5.7819    146.6776
  1622.0000      0.0000    732.5233      5.9993    146.8852
  1622.2500      0.0000    732.8611      6.0645    147.1028
  1622.5000      0.0000    723.4311      5.9660    148.5786
  1622.7500      0.0000    711.0510      5.7923    150.9646
  1623.0000      0.0000    703.4855      5.6593    152.4585
  1623.2500      0.0000    704.4607      5.6398    150.8568
  1623.5000      0.0000    713.1284      5.7371    144.5670
  1623.7500      0.0000    725.8244      5.9013    133.7069
  1624.0000      0.0000    737.0432      6.0482    120.7040
  1624.2500      0.0000    740.2383      6.0745    109.1072
  1624.5000      0.0000    730.4874      5.9073    101.1987
  1624.7500      0.0000    707.5782      5.5822     97.0189
  1625.0000      0.0000    676.0975      5.2587     95.5895
  1625.2500      0.0000    642.7878      5.1247     96.0563
  1625.5000      0.0000    614.4437      5.2637     97.1848
  1625.7500      0.0000    596.8745      5.5916     96.8447
  1626.0000      0.0000    593.3654      5.9075     93.3854
  1626.2500      0.0000    603.1793      6.0163     87.5971
  1626.5000      0.0000    622.0323      5.8454     82.4412
  1626.7500      0.0000    644.3332      5.4866     80.4500
  1627.0000      0.0000    665.1232      5.1291     81.6823
  1627.2500      0.0000    680.6398      4.9319     84.2826
  1627.5000      0.0000    688.6224      4.9418     86.4499
  1627.7500      0.0000    689.6089      5.1208     87.4858
  1628.0000      0.0000    688.0327      5.4188     87.3992
  1628.2500      0.0000    690.0913      5.7936     86.3362
  1628.5000      0.0000    698.5651      6.1850     84.6787
  1628.7500      0.0000    710.2175      6.5219     83.3897
  1629.0000      0.0000    719.3879      6.7617     83.7810
  1629.2500      0.0000    723.0403      6.8989     86.7162
  1629.5000      0.0000    721.3241      6.9374     92.1233
  1629.7500      0.0000    714.4313      6.8763     99.1828
  1630.0000      0.0000    701.0367      6.7327    106.6240
  1630.2500      0.0000    680.8864      6.5681    112.9502
  1630.5000      0.0000    658.4425      6.4692    117.2159
  1630.7500      0.0000    641.4455      6.4851    120.1071
  1631.0000      0.0000    633.9318      6.5870    123.8202
  1631.2500      0.0000    632.6935      6.7081    130.1360
  1631.5000      0.0000    633.2275      6.8113    138.5444
  1631.7500      0.0000    636.8720      6.9038    146.5117
  1632.0000      0.0000    648.4702      6.9913    151.5603
  1632.2500      0.0000    668.3547      7.0537    153.0784
  1632.5000      0.0000    690.3132      7.0826    152.4235
  1632.7500      0.0000    707.3585      7.1162    151.5376
  1633.0000      0.0000    716.9634      7.2077    151.4473
  1633.2500      0.0000    720.7469      7.3571    151.8857
  1633.5000      0.0000    721.6573      7.4970    152.1250
  1633.7500      0.0000    722.6948      7.5636    151.8552
