~Version Information
VERS.                      2.0: CWLS Log ASCII Standard - VERSION 2.0
WRAP.                       NO: One line per depth step
~Well Information Block
STRT.FT               647.0000: 
STOP.FT              1167.5000: 
STEP.FT                 0.2500: 
NULL.                -999.2500: 
COMP.          Pioneer Natural Resources: COMPANY
WELL.             Linda T 32-3: WELL
FLD.           Purgatoire River: FIELD
LOC.           1350' FNL & 2290' FEL: LOCATION
PROV.                 Colorado: PROVINCE
CNTY.               Las Animas: COUNTRY
SRVC.                Patterson: SERVICE COMPANY
DATE.          Sat Feb 05 06:41:02 2005: LOG DATE
UWI.           05 071 08215 00: UNIQUE WELL ID
~Curve Information Block
DEPT.FT            0 000 00 00: Depth
SN.Ohm-m                      : IEL Short Normal
SP.mV                         : IEL Spontaneous Potential
DIR.Ohm-m                     : IEL Induction Resistivity
GR.GAPI                       : Gamma Ray
~Parameter Information Block
~A  Depth        SN          SP         DIR          GR     
# ...
   848.0000     17.7377     23.5864     14.3609     84.6435
   848.2500     17.3646     23.9571     14.3362     84.3580
   848.5000     17.0647     24.4919     14.4186     85.2785
   848.7500     16.8524     25.1925     14.5829     85.7209
   849.0000     16.7318     26.0397     14.7813     84.5543
   849.2500     16.7037     27.0047     14.9613     82.0023
   849.5000     16.7696     28.0549     15.0840     75.1440
   849.7500     16.9409     29.1578     15.1354     68.9060
   850.0000     17.2278     30.2868     15.1271     59.1221
   850.2500     17.6289     31.4274     15.0883     54.1698
   850.5000     18.1404     32.5744     15.0568     51.9426
   850.7500     18.7450     33.7189     15.0684     54.4994
   851.0000     19.3803     34.8369     15.1469     62.9629
   851.2500     19.9532     35.8866     15.2947     69.9598
   851.5000     20.4018     36.8172     15.4893     79.5476
   851.7500     20.7295     37.5824     15.6870     84.2490
   852.0000     20.9706     38.1523     15.8357     88.4198
   852.2500     21.1416     38.5187     15.8956     89.8121
   852.5000     21.2485     38.6960     15.8573     90.9944
   852.7500     21.3274     38.7208     15.7464     91.5208
   853.0000     21.4449     38.6452     15.6100     91.9791
   853.2500     21.6200     38.5221     15.4920     92.0767
   853.5000     21.7743     38.3888     15.4147     91.7842
   853.7500     21.8398     38.2555     15.3706     90.8883
   854.0000     21.8585     38.1061     15.3275     87.5938
   854.2500     21.8904     37.9093     15.2435     84.0263
   854.5000     21.9214     37.6373     15.0859     77.7992
   854.7500     21.8918     37.2789     14.8474     74.3150
   855.0000     21.7424     36.8387     14.5495     72.3768
   855.2500     21.4568     36.3228     14.2300     74.1014
   855.5000     21.0786     35.7283     13.9240     80.7475
   855.7500     20.6545     35.0439     13.6527     86.5531
   856.0000     20.1835     34.2638     13.4237     94.5424
   856.2500     19.6342     33.4055     13.2376     98.2796
   856.5000     18.9838     32.5207     13.0955    101.1802
   856.7500     18.2494     31.6865     13.0010    101.9276
   857.0000     17.5201     30.9784     12.9589    102.6410
   857.2500     16.9317     30.4411     12.9729    103.1861
   857.5000     16.5614     30.0775     13.0405    103.6168
   857.7500     16.3832     29.8641     13.1521    103.1222
   858.0000     16.3547     29.7774     13.2935    100.6149
   858.2500     16.4736     29.8117     13.4526     97.6327
   858.5000     16.7453     29.9852     13.6245     91.0963
   858.7500     17.1706     30.3359     13.8115     85.4222
   859.0000     17.7641     30.9035     14.0187     75.6780
   859.2500     18.5525     31.7035     14.2478     69.3448
   859.5000     19.5594     32.7079     14.4956     62.3588
   859.7500     20.7779     33.8450     14.7617     60.4557
   860.0000     22.1095     35.0178     15.0610     62.1993
   860.2500     23.3304     36.1301     15.4276     65.8885
   860.5000     24.1974     37.1131     15.9007     73.7531
   860.7500     24.6244     37.9451     16.4993     79.7975
   861.0000     24.7193     38.6516     17.2015     89.1016
   861.2500     24.6656     39.2789     17.9452     94.9885
   861.5000     24.6060     39.8553     18.6523    102.6209
   861.7500     24.6201     40.3741     19.2636    106.5891
   862.0000     24.7514     40.8146     19.7599    110.5854
   862.2500     25.0128     41.1733     20.1576    111.9038
   862.5000     25.3961     41.4730     20.4861    111.7092
   862.7500     25.9246     41.7476     20.7693    109.8686
   863.0000     26.6919     42.0248     21.0212    103.8890
   863.2500     27.8062     42.3211     21.2541     97.4932
   863.5000     29.2707     42.6419     21.4866     84.6377
   863.7500     30.9260     42.9755     21.7422     74.7949
   864.0000     32.5081     43.2880     22.0381     60.5798
   864.2500     33.7580     43.5326     22.3740     52.9199
   864.5000     34.5057     43.6746     22.7269     45.8125
   864.7500     34.6896     43.7146     23.0533     44.3532
   865.0000     34.3463     43.6922     23.2990     46.7769
   865.2500     33.6068     43.6687     23.4113     50.7671
   865.5000     32.6369     43.7010     23.3501     58.1769
   865.7500     31.5240     43.8223     23.0920     62.5468
   866.0000     30.2503     44.0366     22.6327     66.5383
   866.2500     28.7962     44.3286     21.9960     67.7281
   866.5000     27.2561     44.6757     21.2418     69.5411
   866.7500     25.8449     45.0555     20.4553     72.0664
   867.0000     24.7703     45.4480     19.7211     78.1124
   867.2500     24.0900     45.8381     19.0989     82.5952
   867.5000     23.7065     46.2180     18.6149     87.7098
   867.7500     23.4771     46.5871     18.2633     89.4327
   868.0000     23.3072     46.9474     18.0150     90.1975
   868.2500     23.1882     47.2970     17.8309     90.3964
   868.5000     23.1808     47.6255     17.6803     91.1120
   868.7500     23.3319     47.9169     17.5547     91.6316
   869.0000     23.6205     48.1537     17.4647     91.4998
   869.2500     23.9941     48.3226     17.4244     90.6377
   869.5000     24.4118     48.4202     17.4362     88.9830
   869.7500     24.8348     48.4592     17.4890     88.1774
   870.0000     25.2208     48.4684     17.5675     87.3925
   870.2500     25.5425     48.4833     17.6658     86.7307
   870.5000     25.8012     48.5284     17.7946     85.2950
   870.7500     26.0205     48.6049     17.9745     84.5555
   871.0000     26.2260     48.6933     18.2222     85.2099
   871.2500     26.4326     48.7702     18.5386     87.3223
   871.5000     26.6442     48.8240     18.9077     92.6235
   871.7500     26.8469     48.8548     19.3006     96.8989
   872.0000     27.0126     48.8655     19.6761    103.3380
   872.2500     27.1166     48.8571     19.9816    107.0871
   872.5000     27.1264     48.8339     20.1612    110.5117
   872.7500     26.9803     48.8084     20.1744    110.3804
   873.0000     26.6275     48.7989     20.0093    106.0336
   873.2500     26.1134     48.8199     19.6841    101.3346
   873.5000     25.5917     48.8771     19.2396     95.0035
   873.7500     25.2061     48.9680     18.7309     93.1815
   874.0000     24.9570     49.0820     18.2162     95.0480
   874.2500     24.7258     49.1990     17.7449     98.4026
   874.5000     24.4346     49.2916     17.3486    103.9384
   874.7500     24.1006     49.3354     17.0379    106.7682
   875.0000     23.7452     49.3230     16.8051    108.6760
   875.2500     23.3521     49.2724     16.6334    108.2553
   875.5000     22.9130     49.2251     16.5122    105.5989
   875.7500     22.4543     49.2321     16.4503    102.9941
   876.0000     22.0294     49.3352     16.4771     98.3956
   876.2500     21.7165     49.5551     16.6260     94.9003
   876.5000     21.6102     49.8914     16.9133     88.8972
   876.7500     21.7863     50.3299     17.3239     84.3262
   877.0000     22.2583     50.8508     17.8112     76.4303
   877.2500     22.9963     51.4337     18.3118     70.3299
   877.5000     24.0094     52.0645     18.7674     59.9365
   877.7500     25.3431     52.7415     19.1417     52.5920
   878.0000     27.0060     53.4733     19.4253     42.3922
   878.2500     28.9488     54.2664     19.6282     36.9906
   878.5000     30.9901     55.1096     19.7716     31.6152
   878.7500     32.7325     55.9698     19.8849     29.7122
   879.0000     33.7023     56.8044     20.0070     29.0378
   879.2500     33.6320     57.5826     20.1844     30.0879
   879.5000     32.6118     58.2984     20.4578     34.2545
   879.7500     31.0167     58.9648     20.8394     38.8228
   880.0000     29.2933     59.5924     21.2870     47.9332
   880.2500     27.7583     60.1699     21.6979     54.9793
   880.5000     26.5451     60.6607     21.9404     65.7675
   880.7500     25.6607     61.0195     21.9171     72.2529
   881.0000     25.0349     61.2150     21.6169     79.4572
   881.2500     24.5774     61.2469     21.1140     81.9601
