~Version Information
VERS.                      2.0: CWLS Log ASCII Standard - VERSION 2.0
WRAP.                       NO: One line per depth step
~Well Information Block
STRT.FT               440.0000: 
STOP.FT              1001.5000: 
STEP.FT                 0.1000: 
NULL.                -999.2500: 
COMP.          Pioneer Natural Resources: COMPANY
WELL.              Dylan 42-25: WELL
FLD.           Purgatoire River: FIELD
LOC.           2160' FNL & 855' FEL: LOCATION
PROV.                 Colorado: PROVINCE
CNTY.               Las Animas: COUNTRY
SRVC.                Patterson: SERVICE COMPANY
DATE.          Mon Apr 25 09:31:16 2005: LOG DATE
UWI.           05 071 08229 00: UNIQUE WELL ID
~Curve Information Block
DEPT.FT            0 000 00 00: Depth
DCAL.in                       : CDL Caliper
RHOB.g/cc                     : CDL Bulk Density
RHOC.g/cc                     : CDL Density Correction
DPOR.pu                       : CDL Density Porosity
GR.GAPI                       : Gamma Ray
NPOR.pu                       : Neutron Porosity
~Parameter Information Block
~A  Depth       DCAL        RHOB        RHOC        DPOR         GR         NPOR    
# ...
   881.6000      7.9125      2.5075      0.0785      8.6337     64.9954     19.9658
   881.7000      7.9125      2.5202      0.0541      7.8660     61.7965     18.7088
   881.8000      7.9194      2.5132      0.0223      8.2932     59.6702     18.5526
   881.9000      7.9194      2.5101     -0.0031      8.4759     58.4270     19.6333
   882.0000      7.9279      2.5267      0.0541      7.4717     59.4436     20.5129
   882.1000      7.9279      2.5486      0.0828      6.1471     61.6547     20.1924
   882.2000      7.9279      2.5514      0.0794      5.9746     62.6844     19.2077
   882.3000      7.9117      2.5377      0.0294      6.8074     62.9483     18.4398
   882.4000      7.9117      2.5325      0.0280      7.1185     63.4009     17.9977
   882.5000      7.9120      2.5375      0.0857      6.8175     62.4725     17.9339
   882.6000      7.9120      2.5351      0.0557      6.9631     60.0767     18.5306
   882.7000      7.9120      2.5247      0.0325      7.5945     60.1001     19.2511
   882.8000      7.9212      2.5118      0.0367      8.3784     64.9287     19.3604
   882.9000      7.9212      2.4989      0.0142      9.1586     71.7419     19.2996
   883.0000      7.9153      2.4864      0.0464      9.9150     74.8371     19.6404
   883.1000      7.9153      2.4763     -0.0147     10.5253     71.9998     19.8917
   883.2000      7.9153      2.4786     -0.0124     10.3886     66.7131     19.4957
   883.3000      7.9056      2.4881      0.0664      9.8139     64.4757     19.0939
   883.4000      7.9056      2.4926      0.0149      9.5415     67.4815     19.4363
   883.5000      7.9032      2.4992      0.0758      9.1369     73.7048     19.6402
   883.6000      7.9032      2.5140      0.0434      8.2396     78.9458     19.1227
   883.7000      7.9032      2.5260      0.1007      7.5142     79.7991     18.7506
   883.8000      7.9171      2.5207      0.0823      7.8363     76.8956     18.7569
   883.9000      7.9171      2.5026      0.0646      8.9325     72.4254     18.6721
   884.0000      7.9145      2.4914      0.0251      9.6104     67.3746     18.4392
   884.1000      7.9145      2.4937      0.0404      9.4720     63.1232     18.2916
   884.2000      7.9145      2.4941      0.0508      9.4514     62.1011     18.2534
   884.3000      7.9173      2.4836      0.0517     10.0879     63.9752     18.2627
   884.4000      7.9173      2.4755     -0.0039     10.5783     64.5359     18.6224
   884.5000      7.9166      2.4827      0.0403     10.1410     62.0832     19.6025
   884.6000      7.9166      2.4942      0.0740      9.4433     60.0984     20.8289
   884.7000      7.9166      2.4965      0.0121      9.3043     60.7570     21.1641
   884.8000      7.9219      2.5008      0.0061      9.0419     62.0645     20.2408
   884.9000      7.9219      2.5130      0.0743      8.3041     62.2828     19.2767
   885.0000      7.9258      2.5181      0.0596      7.9967     62.3400     18.7592
   885.1000      7.9258      2.5079      0.0835      8.6143     61.8526     18.4063
   885.2000      7.9258      2.4907      0.0307      9.6520     59.6817     18.5219
   885.3000      7.9246      2.4763      0.0350     10.5299     57.8789     19.2800
   885.4000      7.9246      2.4652      0.0326     11.2023     57.8307     20.2100
   885.5000      7.9196      2.4622      0.0158     11.3826     57.8057     20.3962
   885.6000      7.9196      2.4724      0.0535     10.7615     56.5961     20.1139
   885.7000      7.9196      2.4842      0.0926     10.0485     55.5579     20.5920
   885.8000      7.9205      2.4848      0.0498     10.0147     56.9257     22.1252
   885.9000      7.9205      2.4758      0.0985     10.5570     60.2279     23.6117
   886.0000      7.9150      2.4601      0.0171     11.5070     63.1543     23.4729
   886.1000      7.9150      2.4408      0.0558     12.6817     64.3828     21.4850
   886.2000      7.9150      2.4272     -0.0091     13.5014     62.3137     18.9872
   886.3000      7.9160      2.4265      0.0408     13.5456     59.3182     17.4439
   886.4000      7.9160      2.4357      0.0184     12.9879     59.2447     17.4949
   886.5000      7.9115      2.4569      0.0135     11.7039     61.2736     18.8592
   886.6000      7.9115      2.4830      0.0781     10.1197     63.6846     20.2864
   886.7000      7.9115      2.4944      0.0805      9.4285     66.1550     20.5520
   886.8000      7.9040      2.4918      0.0019      9.5869     68.1814     19.9775
   886.9000      7.9040      2.4852      0.0561      9.9866     69.7671     19.7258
   887.0000      7.9095      2.4750      0.0109     10.6081     73.1224     20.2791
   887.1000      7.9095      2.4683      0.0547     11.0129     77.6453     20.9585
   887.2000      7.9095      2.4736      0.0041     10.6881     79.5385     20.9604
   887.3000      7.9087      2.4896      0.0073      9.7226     78.1518     20.5751
   887.4000      7.9087      2.5030      0.0655      8.9079     75.2610     20.3156
   887.5000      7.9198      2.5019      0.0447      8.9734     72.3592     20.0654
   887.6000      7.9198      2.4966      0.0342      9.2970     69.6605     19.5414
   887.7000      7.9198      2.5007      0.0562      9.0464     66.9978     18.8094
   887.8000      7.9196      2.5038      0.0860      8.8579     65.1725     18.3655
   887.9000      7.9196      2.5026      0.0230      8.9341     65.1450     18.6435
   888.0000      7.9151      2.5144      0.0538      8.2192     66.2259     19.2712
   888.1000      7.9151      2.5310      0.1276      7.2104     67.3389     19.2299
   888.2000      7.9151      2.5303      0.0614      7.2542     70.5848     18.6522
   888.3000      7.9073      2.5218      0.0172      7.7709     77.6328     18.4797
   888.4000      7.9073      2.5254      0.0363      7.5530     83.3328     18.8074
   888.5000      7.9048      2.5321      0.0567      7.1453     82.9605     19.1181
   888.6000      7.9048      2.5213      0.0556      7.8025     79.5813     19.2201
   888.7000      7.9048      2.4961      0.0215      9.3268     76.4408     19.0933
   888.8000      7.9144      2.4772      0.0059     10.4714     75.4491     18.6867
   888.9000      7.9144      2.4782     -0.0135     10.4123     76.4909     18.5762
   889.0000      7.9147      2.4937      0.0638      9.4697     75.6941     18.8629
   889.1000      7.9147      2.5087      0.0325      8.5658     74.5693     18.9601
   889.2000      7.9147      2.5188      0.0900      7.9524     75.5445     18.9072
   889.3000      7.8984      2.5327      0.0369      7.1096     75.6150     18.8741
   889.4000      7.8984      2.5584      0.0451      5.5524     74.7289     18.8812
   889.5000      7.8862      2.5822      0.0930      4.1120     76.3023     19.2830
   889.6000      7.8862      2.5844      0.0602      3.9751     79.1011     19.8039
   889.7000      7.8862      2.5647      0.0576      5.1691     78.3160     19.8376
   889.8000      7.8859      2.5290      0.0633      7.3307     73.3799     20.0418
   889.9000      7.8859      2.4872      0.0281      9.8667     68.4149     20.8458
   890.0000      7.9137      2.4583     -0.0018     11.6190     68.2216     21.2952
   890.1000      7.9137      2.4529     -0.0117     11.9482     70.7398     20.6664
   890.2000      7.9137      2.4544      0.0348     11.8551     71.5241     19.5977
   890.3000      7.9390      2.4407      0.0191     12.6834     73.7539     18.9627
   890.4000      7.9390      2.4194      0.0049     13.9738     76.8235     18.8281
   890.5000      7.9300      2.4141     -0.0423     14.2951     74.0953     19.1871
   890.6000      7.9300      2.4333      0.0454     13.1305     68.0442     19.8514
   890.7000      7.9300      2.4664      0.0532     11.1265     67.8446     20.3950
   890.8000      7.9222      2.4958      0.0602      9.3443     74.8993     21.0882
   890.9000      7.9222      2.5082      0.0898      8.5957     82.7958     21.8700
   891.0000      7.9187      2.5059      0.0562      8.7307     84.3587     21.6623
   891.1000      7.9187      2.5063      0.0549      8.7092     77.4070     20.3117
