~Version Information
VERS.                      2.0: CWLS Log ASCII Standard - VERSION 2.0
WRAP.                       NO: One line per depth step
~Well Information Block
STRT.FT                -3.0000: 
STOP.FT              1679.2500: 
STEP.FT                 0.2500: 
NULL.                -999.2500: 
COMP.          Evergreen Operating Corp.: COMPANY
WELL.            Rimrock 14-29: WELL
FLD.           Purgatorie River: FIELD
LOC.           945' FSL & 604' FWL--: LOCATION
PROV.                       CO: PROVINCE
CNTY.               Las Animas: COUNTRY
SRVC.                         : SERVICE COMPANY
DATE.          Mon Oct 04 13:02:21 2004: LOG DATE
UWI.           05 071 08136 00: UNIQUE WELL ID
~Curve Information Block
DEPT.FT            0 000 00 00: Depth
GR.GAPI                       : Gamma Ray
CCL.                          : Casing Collar Locator
TT3.usec                      : CBL 3' Travel Time
AMP3.mV                       : CBL 3' Amplitude
~Parameter Information Block
~A  Depth        GR         CCL         TT3         AMP3    
# ...
  1638.5000    101.8317      0.0000    299.9569     33.5119
  1638.7500     96.9429      0.0000    300.0368     33.6565
  1639.0000     90.1676      0.0000    298.9980     34.3483
  1639.2500     83.2143      0.0000    296.3400     35.5482
  1639.5000     77.6552      0.0000    291.4985     37.2044
  1639.7500     74.4185      0.0000    284.5797     39.2158
  1640.0000     73.3771      0.0000    276.7766     41.4544
  1640.2500     73.2119      0.0000    269.8312     43.8293
  1640.5000     72.3526      0.0000    264.9300     46.3241
  1640.7500     70.4755      0.0000    262.1440     48.9691
  1641.0000     68.8536      0.0000    260.8134     51.7776
  1641.2500     69.0260      0.0000    260.2248     54.7159
  1641.5000     71.2278      0.0000    259.9436     57.7287
  1641.7500     74.2006      0.0000    259.7861     60.7749
  1642.0000     76.4545      0.0000    259.6935     63.8177
  1642.2500     77.7059      0.0000    259.6495     66.7781
  1642.5000     79.1271      0.0000    259.6448     69.5225
  1642.7500     82.1356      0.0000    259.6671     71.9123
  1643.0000     86.8562      0.0000    259.7001     73.8672
  1643.2500     91.8121      0.0000    259.7310     75.3881
  1643.5000     95.0562      0.0000    259.7546     76.5466
  1643.7500     95.4521      0.0000    259.7716     77.4544
  1644.0000     93.1869      0.0000    259.7854     78.2097
  1644.2500     89.6526      0.0000    259.7990     78.8521
  1644.5000     86.6744      0.0000    259.8148     79.3677
  1644.7500     85.2375      0.0000    259.8351     79.7353
  1645.0000     84.8899      0.0000    259.8611     79.9641
  1645.2500     84.5489      0.0000    259.8910     80.0960
  1645.5000     83.7050      0.0000    259.9196     80.1849
  1645.7500     82.6428      0.0000    259.9409     80.2836
  1646.0000     81.7536      0.0000    259.9515     80.4455
  1646.2500     81.0807      0.0000    259.9541     80.7252
  1646.5000     80.6714      0.0000    259.9544     81.1541
  1646.7500     81.0407      0.0000    259.9569     81.7036
  1647.0000     82.8407      0.0000    259.9620     82.2800
  1647.2500     85.9472      0.0000    259.9675     82.7703
  1647.5000     89.1299      0.0000    259.9722     83.1111
  1647.7500     90.8544      0.0000    259.9757     83.3207
  1648.0000     90.4547      0.0000    259.9784     83.4652
  1648.2500     88.5302      0.0000    259.9802     83.5948
  1648.5000     86.2893      0.0000    259.9811     83.7169
  1648.7500     84.7017      0.0000    259.9818     83.8212
  1649.0000     84.2270      0.0000    259.9833     83.9063
  1649.2500     84.8919      0.0000    259.9865     83.9784
  1649.5000     86.2700      0.0000    259.9910     84.0412
  1649.7500     87.6528      0.0000    259.9972     84.1006
  1650.0000     88.6594      0.0000    260.0060     84.1724
  1650.2500     89.6251      0.0000    260.0175     84.2658
  1650.5000     91.2307      0.0000    260.0300     84.3610
  1650.7500     93.8863      0.0000    260.0409     84.4128
  1651.0000     97.6125      0.0000    260.0483     84.3833
  1651.2500    102.3383      0.0000    260.0505     84.2703
  1651.5000    107.9736      0.0000    260.0471     84.1098
  1651.7500    113.9393      0.0000    260.0414     83.9555
  1652.0000    118.8521      0.0000    260.0386     83.8481
  1652.2500    121.2457      0.0000    260.0408     83.7926
  1652.5000    120.7620      0.0000    260.0445     83.7725
  1652.7500    118.3838      0.0000    260.0453     83.7855
  1653.0000    115.6199      0.0000    260.0436     83.8513
  1653.2500    113.7782      0.0000    260.0437     83.9781
  1653.5000    113.7300      0.0000    260.0489     84.1367
  1653.7500    115.6598      0.0000    260.0581     84.2753
  1654.0000    118.7395      0.0000    260.0679     84.3542
  1654.2500    121.2846      0.0000    260.0751     84.3662
  1654.5000    121.6237      0.0000    260.0779     84.3342
  1654.7500    119.2697      0.0000    260.0763     84.2901
  1655.0000    115.6074      0.0000    260.0714     84.2481
  1655.2500    113.2909      0.0000    260.0653     84.1985
  1655.5000    114.4246      0.0000    260.0599     84.1323
  1655.7500    118.9853      0.0000    260.0562     84.0613
  1656.0000    124.8756      0.0000    260.0538     84.0064
  1656.2500    129.3708      0.0000    260.0508     83.9741
  1656.5000    130.5447      0.0000    260.0453     83.9545
  1656.7500    127.9359      0.0000    260.0375     83.9360
  1657.0000    122.7113      0.0000    260.0294     83.9178
  1657.2500    117.2160      0.0000    260.0240     83.9132
  1657.5000    113.6406      0.0000    260.0237     83.9384
  1657.7500    112.8068      0.0000    260.0272     83.9904
  1658.0000    114.3072      0.0000    260.0315     84.0367
  1658.2500    117.4513      0.0000    260.0343     84.0373
  1658.5000    121.6074      0.0000    260.0373     83.9788
  1658.7500    125.8625      0.0000    260.0440     83.8834
  1659.0000    129.0441      0.0000    260.0558     83.7906
  1659.2500    130.3660      0.0000    260.0706     83.7349
  1659.5000    129.7803      0.0000    260.0850     83.7348
  1659.7500    127.6038      0.0000    260.0971     83.7873
  1660.0000    124.1712      0.0000    260.1062     83.8707
  1660.2500    120.2081      0.0000    260.1116     83.9571
  1660.5000    117.1981      0.0000    260.1133     84.0232
  1660.7500    116.5983      0.0000    260.1120     84.0514
  1661.0000    118.4895      0.0000    260.1097     84.0323
  1661.2500    121.5804      0.0000    260.1078     83.9761
  1661.5000    124.8495      0.0000    260.1074     83.9141
  1661.7500    128.8011      0.0000    260.1092     83.8815
  1662.0000    134.6920      0.0000    260.1144     83.8941
  1662.2500    142.5233      0.0000    260.1239     83.9394
  1662.5000    150.1966      0.0000    260.1358     83.9863
  1662.7500    154.8793      0.0000    260.1454     84.0092
  1663.0000    154.9104      0.0000    260.1491     84.0095
  1663.2500    150.4367      0.0000    260.1480     84.0066
  1663.5000    143.0637      0.0000    260.1276     84.0020
  1663.7500    135.2312      0.0000    260.0099     83.9554
  1664.0000    129.0355      0.0000    259.4262     83.7373
  1664.2500    124.9711      0.0000    257.1359     82.9631
  1664.5000    121.9988      0.0000    250.1027     80.6839
  1664.7500    118.9515      0.0000    233.2501     75.2824
  1665.0000    115.6368      0.0000    201.7769     65.2109
  1665.2500    112.7345      0.0000    155.9891     50.5531
  1665.5000    111.0854      0.0000    104.1063     33.9363
  1665.7500    111.0261      0.0000     58.3202     19.2683
  1666.0000    111.9217      0.0000     26.8519      9.1863
  1666.2500    112.3710      0.0000     10.0082      3.7898
  1666.5000    111.4292      0.0000      2.9868      1.5404
  1666.7500    109.8058      0.0000      0.7072      0.8101
  1667.0000    109.4695      0.0000      0.1309      0.6255
  1667.2500    111.8124      0.0000      0.0174      0.5892
  1667.5000    116.2010      0.0000   -999.2500   -999.2500
  1667.7500    120.2082      0.0000   -999.2500   -999.2500
  1668.0000    121.2614      0.0000   -999.2500   -999.2500
  1668.2500    118.4598      0.0000   -999.2500   -999.2500
  1668.5000    113.0033      0.0000   -999.2500   -999.2500
  1668.7500    106.8044      0.0000   -999.2500   -999.2500
  1669.0000    101.0390      0.0000   -999.2500   -999.2500
  1669.2500     96.3912      0.0000   -999.2500   -999.2500
  1669.5000     94.1526      0.0000   -999.2500   -999.2500
  1669.7500     96.1610      0.0000   -999.2500   -999.2500
  1670.0000    103.2799      0.0000   -999.2500   -999.2500
  1670.2500    113.9830      0.0000   -999.2500   -999.2500
  1670.5000    124.6676      0.0000   -999.2500   -999.2500
  1670.7500    131.8033      0.0000   -999.2500   -999.2500
  1671.0000    134.0820      0.0000   -999.2500   -999.2500
  1671.2500    132.5905      0.0000   -999.2500   -999.2500
  1671.5000    129.3925      0.0000   -999.2500   -999.2500
  1671.7500    126.4586      0.0000   -999.2500   -999.2500
