~Version Information
 VERS.                                  2.0 : CWLS LAS VERSION
 WRAP.                                   NO : WRAPING MODE
 SWARE .                 MController 2.5.0E : SOFTWARE VERSION
~Well Information
 WELL.                  McCullough 34-32 TR : WELL
 COMP.             Evergreen Operating Corp : COMPANY
 FLD.                      Purgatorie River : FIELD
 LOC.                SW/SE Sec 32 T32S R66W : LOCATION
 DATE.                           09/18/2004 : DATE(S) LOGGED
 SRVC.       Blanco Geological Services LLC : SERVICE COMPANY
 STAT.                                   CO : STATE
 CNTY.                            La Animas : COUNTY
 CTRY.                                  USA : COUNTRY
 API.                       05 071 08157-00 : API NUMBER
 STRT.FT                             521.00 : START DEPTH
 STOP.FT                            2000.00 : STOP DEPTH
 STEP.FT                               1.00 : DEPTH INCREMENT
 NULL.                                -9999 : NULL VALUE
~Curve information
 DEPTH.FT                                   :
 ROP.MIN/FT                                 :
 GAS.UNITS                                  :
~ASCII Log data
# ...
     1121.00        0.267          1.2 
     1122.00        0.567          1.1 
     1123.00        0.233          1.0 
     1124.00        0.267          1.7 
     1125.00        0.233          1.0 
     1126.00        0.267          1.3 
     1127.00        0.600          1.3 
     1128.00        0.250          1.2 
     1129.00        0.733          3.0 
     1130.00        0.267          5.2 
     1131.00        0.267          7.1 
     1132.00        0.400          8.3 
     1133.00        0.300          9.7 
     1134.00        0.533         10.9 
     1135.00        0.567          6.2 
     1136.00        5.333          2.8 
     1137.00        0.233          1.6 
     1138.00        0.233          1.6 
     1139.00        0.200          1.6 
     1140.00        0.233          1.4 
     1141.00        0.233          1.7 
     1142.00        0.233          1.7 
     1143.00        0.250          1.9 
     1144.00        0.500          1.8 
     1145.00        0.233          1.8 
     1146.00        0.633          1.6 
     1147.00        0.233          0.8 
     1148.00        0.200          0.8 
     1149.00        0.233          1.7 
     1150.00        0.233          1.7 
     1151.00        0.233          2.7 
     1152.00        0.200          3.1 
     1153.00        0.267          4.1 
     1154.00        0.683          5.0 
     1155.00        0.800          3.8 
     1156.00        0.800          2.7 
     1157.00        0.700          3.4 
     1158.00        0.850          3.2 
     1159.00        0.633          2.4 
     1160.00        0.233          1.6 
     1161.00        0.667          1.8 
     1162.00        0.600          1.7 
     1163.00        0.233          0.8 
     1164.00        0.533          1.5 
     1165.00        0.783          1.1 
     1166.00        7.000          6.6 
     1167.00        0.267          6.4 
     1168.00        0.267          5.5 
     1169.00        0.433          5.0 
     1170.00        0.533          3.4 
     1171.00        0.433          3.6 
     1172.00        0.333          2.5 
     1173.00        0.317          2.6 
     1174.00        0.267          2.1 
     1175.00        0.267          2.0 
     1176.00        0.300          1.3 
     1177.00        0.300          1.7 
     1178.00        0.267          1.2 
     1179.00        0.233          1.2 
     1180.00        0.300          1.0 
     1181.00        0.133          1.0 
     1182.00        0.233          1.0 
     1183.00        0.200          1.2 
     1184.00        0.200          1.4 
     1185.00        0.233          1.1 
     1186.00        0.350          1.2 
     1187.00        0.167          1.3 
     1188.00        0.267          1.0 
     1189.00        0.267          1.4 
     1190.00        0.267          0.4 
     1191.00        0.267          1.1 
     1192.00        0.267          1.8 
     1193.00        0.367          1.7 
     1194.00        0.267          3.8 
     1195.00        0.333          4.3 
     1196.00        3.717          4.4 
     1197.00        0.267          2.9 
     1198.00        0.383          2.9 
     1199.00        0.567          2.6 
     1200.00        0.200          2.1 
     1201.00        0.533          2.6 
     1202.00        0.400          1.8 
     1203.00        0.200          1.5 
     1204.00        0.167          1.6 
     1205.00        0.167          1.6 
     1206.00        0.133          2.3 
     1207.00        0.033          2.3 
     1208.00        0.300          1.9 
     1209.00        0.267          1.9 
     1210.00        0.250          2.0 
     1211.00        0.067          2.5 
     1212.00        0.333          1.6 
     1213.00        0.167          1.6 
     1214.00        0.267          2.4 
     1215.00        0.300          3.0 
     1216.00        0.267          3.2 
     1217.00        0.267          2.5 
     1218.00        0.333          3.0 
     1219.00        0.300          2.4 
     1220.00        0.267          2.1 
     1221.00        0.300          3.2 
     1222.00        0.283          4.3 
     1223.00        0.200          4.3 
     1224.00        0.200          5.6 
     1225.00        0.200          6.6 
     1226.00        2.950         14.2 
     1227.00        0.233          8.2 
     1228.00        0.200          7.9 
     1229.00        0.133          7.8 
     1230.00        0.167          6.7 
     1231.00        0.200          7.9 
     1232.00        0.267          7.7 
     1233.00        0.300          7.8 
     1234.00        0.300          6.9 
     1235.00        0.267          6.3 
     1236.00        0.267          5.8 
     1237.00        0.367          7.2 
     1238.00        0.383          8.1 
     1239.00        0.200          8.1 
     1240.00        0.200          7.2 
     1241.00        0.200          5.3 
     1242.00        0.267          5.1 
     1243.00        0.200          3.9 
     1244.00        0.333          3.4 
     1245.00        0.233          2.5 
     1246.00        0.167          2.3 
     1247.00        0.233          2.5 
     1248.00        0.233          2.6 
     1249.00        0.233          2.4 
     1250.00        0.233          2.8 
     1251.00        0.233          2.8 
     1252.00        0.250          4.8 
     1253.00        0.133          4.8 
     1254.00        0.200          7.2 
     1255.00        0.200          8.6 
     1256.00        2.700          7.0 
     1257.00        0.383          1.2 
     1258.00        0.300          2.5 
     1259.00        0.333          1.4 
     1260.00        0.467          3.4 
     1261.00        0.500          3.8 
     1262.00        0.700          4.0 
     1263.00        0.917          3.9 
     1264.00        0.567          3.4 
     1265.00        0.400          3.0 
     1266.00        0.233          2.5 
     1267.00        0.267          2.9 
     1268.00        0.300          3.4 
     1269.00        0.367          2.8 
     1270.00        0.333          3.5 
     1271.00        0.367          2.6 
     1272.00        0.383          3.3 
     1273.00        0.267          3.0 
     1274.00        0.233          3.0 
     1275.00        0.333          3.2 
     1276.00        0.333          2.5 
     1277.00        0.400          3.1 
     1278.00        0.367          2.5 
     1279.00        0.400          2.7 
     1280.00        0.300          2.9 
     1281.00        0.300          2.2 
     1282.00        0.450          4.8 
     1283.00        0.300          5.0 
     1284.00        0.267          6.7 
     1285.00        0.267          8.6 
     1286.00        2.717          8.8 
     1287.00        0.500          3.1 
     1288.00        0.400          3.1 
     1289.00        0.367          2.8 
     1290.00        0.400          3.1 
     1291.00        0.467          2.2 
     1292.00        0.367          3.0 
     1293.00        0.400          3.3 
     1294.00        0.383          3.5 
     1295.00        0.467          3.7 
     1296.00        0.633          5.7 
     1297.00        0.567         15.2 
     1298.00        0.533         17.1 
     1299.00        0.333         17.6 
     1300.00        0.300         19.2 
     1301.00        0.350         25.6 
     1302.00        0.300         30.8 
     1303.00        0.300         31.0 
     1304.00        0.167         29.6 
     1305.00        0.133         27.4 
     1306.00        0.100         27.4 
     1307.00        0.133         25.2 
     1308.00        0.200         24.0 
     1309.00        0.200         21.6 
     1310.00        0.167         18.5 
     1311.00        0.133         18.5 
     1312.00        0.167         15.7 
     1313.00        0.133         15.7 
     1314.00        0.100         13.2 
     1315.00        0.133         13.2 
     1316.00        5.867         44.8 
     1317.00        0.400         37.2 
     1318.00        0.233         32.7 
     1319.00        0.200         30.9 
     1320.00        0.167         28.9 
