~Version Information
VERS.                      2.0: CWLS Log ASCII Standard - VERSION 2.0
WRAP.                       NO: One line per depth step
~Well Information Block
STRT.FT               806.0000: 
STOP.FT              1814.0000: 
STEP.FT                 0.2500: 
NULL.                -999.2500: 
COMP.          Pioneer Natural Resources: COMPANY
WELL.            Hill 33-22 Tr: WELL
FLD.           Purgatoire River: FIELD
LOC.           1573' FSL & 1585' FEL: LOCATION
PROV.                 Colorado: PROVINCE
CNTY.               Las Animas: COUNTRY
SRVC.                Patterson: SERVICE COMPANY
DATE.          Thu Apr 14 09:13:17 2005: LOG DATE
UWI.           05 071 08316 00: UNIQUE WELL ID
~Curve Information Block
DEPT.FT            0 000 00 00: Depth
SN.Ohm-m                      : IEL Short Normal
SP.mV                         : IEL Spontaneous Potential
DIR.Ohm-m                     : IEL Induction Resistivity
GR.GAPI                       : Gamma Ray
~Parameter Information Block
~A  Depth        SN          SP         DIR          GR     
# ...
  1375.5000     27.6904     47.7672     30.4670     77.3424
  1375.7500     27.6947     47.7177     30.5174     74.8730
  1376.0000     27.7764     47.8279     30.5837     70.5391
  1376.2500     27.8633     48.0712     30.6317     67.7418
  1376.5000     27.8110     48.3833     30.6164     64.0538
  1376.7500     27.6154     48.6869     30.5068     61.8567
  1377.0000     27.3637     48.9181     30.3069     58.7731
  1377.2500     27.0947     49.0565     30.0582     56.9688
  1377.5000     26.8316     49.1397     29.8205     55.2719
  1377.7500     26.5634     49.2384     29.6430     55.2531
  1378.0000     26.2104     49.4056     29.5389     57.1938
  1378.2500     25.7725     49.6452     29.4820     59.5116
  1378.5000     25.3740     49.9216     29.4327     63.3367
  1378.7500     25.1354     50.1908     29.3731     65.2701
  1379.0000     25.1075     50.4226     29.3190     66.0545
  1379.2500     25.2424     50.6032     29.2948     64.8687
  1379.5000     25.3922     50.7317     29.2994     60.9465
  1379.7500     25.4267     50.8167     29.3022     57.5991
  1380.0000     25.3766     50.8710     29.2735     52.8333
  1380.2500     25.4055     50.9064     29.2183     50.3676
  1380.5000     25.6216     50.9290     29.1789     48.0631
  1380.7500     25.9521     50.9404     29.2080     47.3798
  1381.0000     26.2351     50.9404     29.3403     47.0655
  1381.2500     26.3998     50.9289     29.5829     46.7779
  1381.5000     26.5002     50.9074     29.9171     45.4254
  1381.7500     26.5990     50.8753     30.3013     43.8470
  1382.0000     26.6997     50.8230     30.6791     41.0837
  1382.2500     26.8004     50.7306     31.0050     39.4728
  1382.5000     26.9279     50.5757     31.2741     37.8818
  1382.7500     27.0865     50.3467     31.5249     37.3239
  1383.0000     27.2498     50.0534     31.7988     36.9597
  1383.2500     27.4165     49.7260     32.0909     37.0337
  1383.5000     27.6381     49.4029     32.3394     37.8982
  1383.7500     27.9520     49.1162     32.4779     39.0122
  1384.0000     28.2812     48.8823     32.5105     41.0170
  1384.2500     28.4788     48.6993     32.5333     42.1529
  1384.5000     28.4845     48.5507     32.6640     43.0700
  1384.7500     28.3753     48.4152     32.9294     43.0965
  1385.0000     28.2427     48.2781     33.1962     42.4044
  1385.2500     28.1010     48.1373     33.2097     41.6448
  1385.5000     27.9509     48.0023     32.7462     40.5953
  1385.7500     27.8411     47.8881     31.7754     40.3210
  1386.0000     27.8104     47.8091     30.4734     40.9842
  1386.2500     27.7829     47.7753     29.0805     42.2865
  1386.5000     27.5815     47.7873     27.7597     45.9842
  1386.7500     27.0450     47.8313     26.5705     50.0852
  1387.0000     26.1294     47.8757     25.5185     59.3448
  1387.2500     24.9615     47.8772     24.5976     67.5155
  1387.5000     23.7508     47.7963     23.7860     81.6881
  1387.7500     22.6228     47.6166     23.0293     91.3826
  1388.0000     21.6112     47.3543     22.2520    104.2957
  1388.2500     20.7030     47.0513     21.4020    110.9068
  1388.5000     19.8466     46.7597     20.4848    117.4200
  1388.7500     19.0717     46.5292     19.5543    119.9705
  1389.0000     18.5388     46.3917     18.6745    122.4325
  1389.2500     18.3184     46.3431     17.8880    123.7589
  1389.5000     18.2456     46.3407     17.2132    125.5997
  1389.7500     18.1139     46.3319     16.6555    126.6195
  1390.0000     17.9086     46.2881     16.2184    127.6508
  1390.2500     17.7127     46.2095     15.9053    128.0921
  1390.5000     17.4850     46.1055     15.7140    128.7688
  1390.7500     17.1683     45.9744     15.6319    129.4731
  1391.0000     16.8688     45.8007     15.6350    131.2502
  1391.2500     16.7116     45.5698     15.6939    132.8901
  1391.5000     16.7201     45.2862     15.7822    134.9621
  1391.7500     16.8837     44.9834     15.8819    134.8838
  1392.0000     17.1846     44.7131     15.9850    130.8891
  1392.2500     17.6275     44.5220     16.0898    125.5926
  1392.5000     18.2314     44.4274     16.2005    115.1325
  1392.7500     18.9215     44.4099     16.3300    107.7930
  1393.0000     19.5416     44.4257     16.5048     98.9402
  1393.2500     20.0196     44.4334     16.7655     95.8945
  1393.5000     20.3897     44.4198     17.1590     96.0340
  1393.7500     20.6365     44.4128     17.7247     97.9437
  1394.0000     20.7097     44.4717     18.4783    100.3556
  1394.2500     20.6901     44.6556     19.3956    100.5818
  1394.5000     20.7858     44.9857     20.4009     98.6807
  1394.7500     21.2154     45.4320     21.3687     96.0129
  1395.0000     22.1662     45.9347     22.1491     89.4496
  1395.2500     23.7667     46.4381     22.6108     83.1005
  1395.5000     26.0570     46.9068     22.6843     71.3729
  1395.7500     29.0106     47.3255     22.3812     63.3775
  1396.0000     32.4886     47.6970     21.7858     53.8874
  1396.2500     36.0175     48.0445     21.0274     50.5293
  1396.5000     38.6493     48.4051     20.2451     50.8622
  1396.7500     39.3640     48.8157     19.5589     54.3068
  1397.0000     37.8453     49.2940     19.0504     62.5730
  1397.2500     34.7633     49.8253     18.7513     68.9549
  1397.5000     31.2092     50.3629     18.6346     78.1499
  1397.7500     27.9582     50.8513     18.6092     83.3255
  1398.0000     25.2728     51.2559     18.5336     88.8493
  1398.2500     23.1561     51.5724     18.2620     90.7687
  1398.5000     21.5669     51.8100     17.7116     90.7728
  1398.7500     20.4163     51.9736     16.9017     88.9187
  1399.0000     19.5462     52.0600     15.9335     84.3666
  1399.2500     18.8241     52.0692     14.9319     81.4495
  1399.5000     18.1732     52.0153     13.9977     79.7648
  1399.7500     17.5121     51.9294     13.1872     81.2035
  1400.0000     16.8111     51.8521     12.5157     86.6882
  1400.2500     16.1418     51.8194     11.9701     91.6060
  1400.5000     15.5667     51.8499     11.5254     99.2036
  1400.7500     15.0937     51.9419     11.1571    103.6873
  1401.0000     14.7232     52.0782     10.8450    108.6749
  1401.2500     14.3960     52.2337     10.5708    110.5260
  1401.5000     13.9715     52.3812     10.3145    111.0208
  1401.7500     13.4115     52.5013     10.0557    110.1267
  1402.0000     12.8783     52.5926      9.7790    107.7820
  1402.2500     12.4951     52.6765      9.4805    106.0243
  1402.5000     12.1816     52.7881      9.1690    103.8035
  1402.7500     11.8135     52.9589      8.8622    102.9448
  1403.0000     11.3391     53.2015      8.5798    102.7969
  1403.2500     10.7585     53.5024      8.3378    103.3180
  1403.5000     10.1540     53.8221      8.1447    104.9554
  1403.7500      9.6908     54.1036      7.9991    106.9533
  1404.0000      9.5218     54.2935      7.8912    111.8272
  1404.2500      9.7003     54.3677      7.8055    115.8638
  1404.5000     10.1012     54.3440      7.7262    120.9603
  1404.7500     10.4406     54.2684      7.6403    122.6674
  1405.0000     10.5347     54.1876      7.5391    122.8781
  1405.2500     10.4615     54.1279      7.4176    122.4927
  1405.5000     10.3509     54.0915      7.2749    122.6712
  1405.7500     10.2220     54.0648      7.1148    123.3755
  1406.0000     10.1058     54.0288      6.9453    124.4160
  1406.2500     10.0578     53.9688      6.7764    124.6570
  1406.5000     10.0012     53.8824      6.6173    124.3850
  1406.7500      9.8008     53.7795      6.4745    124.0049
  1407.0000      9.4536     53.6712      6.3503    123.1953
  1407.2500      9.0820     53.5545      6.2430    122.4530
  1407.5000      8.8007     53.4106      6.1480    121.4244
  1407.7500      8.6119     53.2236      6.0602    121.2470
  1408.0000      8.4861     53.0006      5.9770    122.1749
  1408.2500      8.4617     52.7748      5.8990    123.3948
  1408.5000      8.5215     52.5915      5.8294    125.3199
  1408.7500      8.5533     52.4885      5.7721    126.2397
