~Version Information
VERS.                      2.0: CWLS Log ASCII Standard - VERSION 2.0
WRAP.                       NO: One line per depth step
~Well Information Block
STRT.FT               528.0000: 
STOP.FT              2251.5000: 
STEP.FT                 0.2500: 
NULL.                -999.2500: 
COMP.          Pioneer Natural Resources: COMPANY
WELL.           Parklane 43-34: WELL
FLD.           Purgatorie River: FIELD
LOC.           1704' FSL & 1119' FEL: LOCATION
PROV.                 Colorado: PROVINCE
CNTY.               Las Animas: COUNTRY
SRVC.                         : SERVICE COMPANY
DATE.          Thu Oct 07 01:37:17 2004: LOG DATE
UWI.           05 071 08162 00: UNIQUE WELL ID
~Curve Information Block
DEPT.FT            0 000 00 00: Depth
LTEN.lb                       : Surface Line Tension
SN.Ohm-m                      : IEL Short Normal
SP.mV                         : IEL Spontaneous Potential
DIR.Ohm-m                     : IEL Induction Resistivity
GR.GAPI                       : Gamma Ray
~Parameter Information Block
~A  Depth       LTEN         SN          SP         DIR          GR     
# ...
  2236.0000   1036.8311      8.1612     95.0506      7.2256   -999.2500
  2236.2500   1037.4149      8.1383     98.5026      7.2235   -999.2500
  2236.5000   1037.8594      8.1062    101.8546      7.2381   -999.2500
  2236.7500   1037.7764      8.0714    105.0371      7.2680   -999.2500
  2237.0000   1037.1105      8.0427    107.9508      7.3112   -999.2500
  2237.2500   1036.2024      8.0309    110.4970      7.3659   -999.2500
  2237.5000   1035.5310      8.0463    112.6051      7.4302   -999.2500
  2237.7500   1035.2169      8.0953    114.2490      7.5025   -999.2500
  2238.0000   1034.9464      8.1783    115.4480      7.5651   -999.2500
  2238.2500   1034.6183      8.2906    116.2549      7.6526   -999.2500
  2238.5000   1034.7687      8.4252    116.7401      7.7497   -999.2500
  2238.7500   1035.8848      8.5755    116.9746      7.8569   -999.2500
  2239.0000   1037.4436      8.7344    117.0206      7.9724   -999.2500
  2239.2500   1038.2491      8.8942    116.9249      8.0934   -999.2500
  2239.5000   1037.8477      9.0451    116.7212      8.2185   -999.2500
  2239.7500   1037.0760      9.1760    116.4332      8.3481   -999.2500
  2240.0000   1036.9185      9.2755    116.0792      8.4853   -999.2500
  2240.2500   1037.2595      9.3356    115.6759      8.6385   -999.2500
  2240.5000   1037.2135      9.3548    115.2401      8.8327   -999.2500
  2240.7500   1036.4327      9.3404    114.7897      9.1282   -999.2500
  2241.0000   1035.5638      9.3066    114.3423      9.6424   -999.2500
  2241.2500   1035.3950      9.2688    113.9152     10.5756   -999.2500
  2241.5000   1036.0154      9.2379    113.5222     12.3082   -999.2500
  2241.7500   1036.9926      9.2181    113.1733     15.3256   -999.2500
  2242.0000   1037.9623      9.2085    112.8739     20.6939   -999.2500
  2242.2500   1038.7021      9.2061    112.6246     30.2831   -999.2500
  2242.5000   1038.9294      9.2078    112.4215     47.1709   -999.2500
  2242.7500   1038.4868      9.2108    112.2571     74.7748   -999.2500
  2243.0000   1037.6644      9.2114    112.1216    112.1354   -999.2500
  2243.2500   1036.9655      9.2051    112.0038    148.9001   -999.2500
  2243.5000   1036.5228      9.1882    111.8932    174.3828   -999.2500
  2243.7500   1036.0587      9.1590    111.7775    189.9599   -999.2500
  2244.0000   1035.4965      9.1187    111.6492    204.1958   -999.2500
  2244.2500   1035.2527      9.0712    111.4990    226.1754   -999.2500
  2244.5000   1035.6871      9.0227    111.3128 100000.0000   -999.2500
  2244.7500   1036.5363      8.9813    111.0633 100000.0000   -999.2500
  2245.0000   1037.1991      8.9567    110.6970 100000.0000   -999.2500
  2245.2500   1037.4119      8.9582    110.1184 100000.0000   -999.2500
  2245.5000   1037.3373      8.9924    109.1743 100000.0000   -999.2500
  2245.7500   1037.1393      9.0600    107.6447 100000.0000   -999.2500
  2246.0000   1036.8328      9.1549    105.2495 100000.0000   -999.2500
  2246.2500   1036.4784      9.2622    101.6787 100000.0000   -999.2500
  2246.5000   1036.1733      9.3515     96.6485 100000.0000   -999.2500
  2246.7500   1035.8959      9.3655     89.9767 100000.0000   -999.2500
  2247.0000   1035.6990      9.2032     81.6578 100000.0000   -999.2500
  2247.2500   1035.9148      8.7204     71.9136 100000.0000   -999.2500
  2247.5000   1036.6444      7.7675     61.1938 100000.0000   -999.2500
  2247.7500   1036.2325      6.2729     50.1184 100000.0000   -999.2500
  2248.0000   1028.9189      4.3265     39.3718 100000.0000   -999.2500
  2248.2500   1001.7156      2.1907     29.5783 100000.0000   -999.2500
  2248.5000    933.9156      0.2046     21.1957 100000.0000   -999.2500
  2248.7500    806.5983     -1.3647     14.4564 100000.0000   -999.2500
  2249.0000    621.9150     -2.4197      9.3672 100000.0000   -999.2500
  2249.2500    413.7068     -3.0233      5.7571 100000.0000   -999.2500
  2249.5000    230.9518     -3.3176      3.3517 100000.0000   -999.2500
  2249.7500    105.9767     -3.4397      1.8461 100000.0000   -999.2500
  2250.0000     39.3781     -3.4829      0.9609 100000.0000   -999.2500
  2250.2500     11.7200     -3.4959      0.4719 100000.0000   -999.2500
  2250.5000      2.7688     -3.4993      0.2182 100000.0000   -999.2500
  2250.7500      0.5113   -999.2500      0.0946 100000.0000   -999.2500
  2251.0000      0.0675   -999.2500      0.0379 100000.0000   -999.2500
  2251.2500   -999.2500   -999.2500      0.0136   -999.2500   -999.2500
  2251.5000   -999.2500   -999.2500      0.0037   -999.2500   -999.2500
