~Version Information
VERS.                      2.0: CWLS Log ASCII Standard - VERSION 2.0
WRAP.                       NO: One line per depth step
~Well Information Block
STRT.FT                -3.2500: 
STOP.FT              2202.2500: 
STEP.FT                 0.2500: 
NULL.                -999.2500: 
COMP.          Pioneer Natural Resources: COMPANY
WELL.           Parklane 43-34: WELL
FLD.           Purgatorie River: FIELD
LOC.           1704' FSL & 1119' FEL--: LOCATION
PROV.                       CO: PROVINCE
CNTY.               Las Animas: COUNTRY
SRVC.                         : SERVICE COMPANY
DATE.          Thu Oct 14 14:49:09 2004: LOG DATE
UWI.           005 071 08162  : UNIQUE WELL ID
~Curve Information Block
DEPT.FT            0 000 00 00: Depth
GR.GAPI                       : Gamma Ray
CCL.                          : Casing Collar Locator
TT3.usec                      : CBL 3' Travel Time
AMP3.mV                       : CBL 3' Amplitude
~Parameter Information Block
~A  Depth        GR         CCL         TT3         AMP3    
# ...
   432.2500     82.2611      0.0000    688.9953      3.8173
   432.5000     83.8286      0.0000    671.2235      3.8965
   432.7500     83.7909      0.0000    665.2568      3.9504
   433.0000     82.7192      0.0000    668.6344      3.9625
   433.2500     81.3175      0.0000    674.5861      3.9300
   433.5000     80.2259      0.0000    679.5483      3.8722
   433.7500     80.2133      0.0000    685.6115      3.8149
   434.0000     82.1106      0.0000    696.1424      3.7664
   434.2500     85.9202      0.0000    711.0795      3.7160
   434.5000     90.0090      0.0000    726.9010      3.6548
   434.7500     92.0825      0.0000    739.9575      3.5863
   435.0000     91.4622      0.0000    749.2888      3.5206
   435.2500     89.8595      0.0000    756.4296      3.4673
   435.5000     89.5306      0.0000    762.9527      3.4330
   435.7500     91.2046      0.0000    768.7018      3.4167
   436.0000     93.9047      0.0000    772.0229      3.4063
   436.2500     95.9949      0.0000    771.0600      3.3849
   436.5000     96.1176      0.0000    764.9680      3.3450
   436.7500     93.8179      0.0000    754.7679      3.3007
   437.0000     89.7421      0.0000    742.8085      3.2849
   437.2500     85.0553      0.0000    730.5855      3.3303
   437.5000     80.5890      0.0000    718.3394      3.4461
   437.7500     76.5281      0.0000    708.2769      3.6115
   438.0000     72.6139      0.0000    705.7994      3.7908
   438.2500     68.5048      0.0000    714.3245      3.9534
   438.5000     64.2038      0.0000    730.3464      4.0816
   438.7500     60.4266      0.0000    746.3075      4.1674
   439.0000     58.6419      0.0000    757.2681      4.2108
   439.2500     60.5073      0.0000    763.3084      4.2207
   439.5000     66.6123      0.0000    767.2618      4.2106
   439.7500     75.2847      0.0000    772.0576      4.1948
   440.0000     82.9169      0.0000    779.2045      4.1875
   440.2500     86.3324      0.0000    787.8112      4.2030
   440.5000     85.2887      0.0000    794.6033      4.2510
   440.7500     82.6123      0.0000    795.9819      4.3285
   441.0000     81.7610      0.0000    790.7491      4.4186
   441.2500     84.0836      0.0000    780.9322      4.5016
   441.5000     88.0853      0.0000    770.1790      4.5660
   441.7500     90.9479      0.0000    761.6934      4.6135
   442.0000     90.8245      0.0000    757.1569      4.6542
   442.2500     88.0687      0.0000    756.4943      4.6959
   442.5000     84.5049      0.0000    758.2608      4.7349
   442.7500     81.6808      0.0000    760.6771      4.7621
   443.0000     79.9249      0.0000    762.6552      4.7804
   443.2500     78.8734      0.0000    763.9990      4.8060
   443.5000     78.3044      0.0000    764.9418      4.8507
   443.7500     78.2458      0.0000    765.7786      4.9117
   444.0000     78.7752      0.0000    766.9329      4.9821
   444.2500     80.0505      0.0000    769.2175      5.0559
   444.5000     82.3269      0.0000    773.6265      5.1219
   444.7500     85.7067      0.0000    780.1833      5.1627
   445.0000     89.6918      0.0000    786.7606      5.1694
   445.2500     92.9009      0.0000    790.0460      5.1558
   445.5000     93.6005      0.0000    788.8016      5.1520
   445.7500     91.0836      0.0000    785.8685      5.1797
   446.0000     86.6691      0.0000    786.1849      5.2301
   446.2500     83.1104      0.0000    793.1892      5.2645
   446.5000     82.8703      0.0000    807.4749      5.2366
   446.7500     86.5426      0.0000    827.6451      5.1225
   447.0000     92.3397      0.0000    850.7568      4.9410
   447.2500     97.2608      0.0000    871.8733      4.7472
   447.5000     99.4238      0.0000    885.1873      4.6003
   447.7500     99.4335      0.0000    887.5964      4.5299
   448.0000     99.1918      0.0000    881.4767      4.5288
   448.2500     99.6662      0.0000    872.8973      4.5672
   448.5000    100.5002      0.0000    866.5671      4.6095
   448.7500    101.5950      0.0000    863.4420      4.6233
   449.0000    103.9004      0.0000    863.4438      4.5848
   449.2500    107.9724      0.0000    868.1038      4.4831
   449.5000    112.4976      0.0000    878.5281      4.3239
   449.7500    115.2280      0.0000    892.2629      4.1364
   450.0000    115.1245      0.0000    904.3407      3.9697
   450.2500    112.8035      0.0000    911.0591      3.8681
   450.5000    109.5197      0.0000    911.9039      3.8430
   450.7500    106.7702      0.0000    908.8328      3.8693
   451.0000    106.2298      0.0000    904.8543      3.9081
   451.2500    108.6087      0.0000    902.5931      3.9293
   451.5000    112.5843      0.0000    902.9706      3.9137
   451.7500    115.7695      0.0000    904.9304      3.8451
   452.0000    116.8139      0.0000    906.7918      3.7090
   452.2500    116.1096      0.0000    907.8961      3.5035
   452.5000    114.5742      0.0000    908.8113      3.2523
   452.7500    112.3950      0.0000    910.1385      3.0029
   453.0000    109.1547      0.0000    911.4022      2.8044
   453.2500    104.6477      0.0000    911.2547      2.6813
   453.5000     99.2105      0.0000    908.9816      2.6248
   453.7500     93.6123      0.0000    905.8709      2.6112
   454.0000     88.8319      0.0000    904.5685      2.6239
   454.2500     85.6819      0.0000    906.6171      2.6561
   454.5000     84.4790      0.0000    910.8530      2.6981
   454.7500     85.0446      0.0000    914.4028      2.7229
   455.0000     86.8808      0.0000    914.6339      2.6946
   455.2500     89.2114      0.0000    910.2173      2.6001
   455.5000     91.0391      0.0000    901.7830      2.4714
   455.7500     91.4700      0.0000    892.3915      2.3676
   456.0000     90.3080      0.0000    885.8911      2.3318
   456.2500     88.4456      0.0000    883.2939      2.3711
   456.5000     87.2855      0.0000    881.7054      2.4767
   456.7500     87.4513      0.0000    877.8055      2.6508
   457.0000     88.4743      0.0000    870.7264      2.8999
   457.2500     89.8898      0.0000    860.8491      3.1992
   457.5000     91.8630      0.0000    848.4641      3.4787
   457.7500     94.2872      0.0000    834.8092      3.6586
   458.0000     95.9280      0.0000    821.7584      3.7025
   458.2500     95.1542      0.0000    809.6881      3.6348
   458.5000     91.4709      0.0000    798.0491      3.5110
   458.7500     86.4377      0.0000    788.2971      3.3794
   459.0000     83.2073      0.0000    783.6743      3.2608
   459.2500     84.4965      0.0000    785.4003      3.1510
   459.5000     90.2662      0.0000    790.2127      3.0375
   459.7500     97.5328      0.0000    792.4747      2.9141
   460.0000    102.6392      0.0000    788.7620      2.7730
   460.2500    103.5702      0.0000    780.4116      2.5880
   460.5000    100.5610      0.0000    771.8497      2.3289
   460.7500     95.3720      0.0000    767.1058      2.0028
   461.0000     90.1343      0.0000    767.3975      1.6692
   461.2500     86.2720      0.0000    770.7919      1.3993
   461.5000     84.1424      0.0000    773.6539      1.2162
   461.7500     83.7123      0.0000    773.3163      1.0754
   462.0000     85.3812      0.0000    769.7599      0.9014
   462.2500     89.6759      0.0000    765.0272      0.6432
   462.5000     95.9677      0.0000    762.3625      0.3050
   462.7500    101.8277      0.0000    766.0709     -0.0600
   463.0000    104.1070      0.0000    778.8607     -0.3777
   463.2500    101.0797      0.0000    797.4518     -0.5924
   463.5000     93.8985      0.0000    813.0316     -0.6944
   463.7500     85.9783      0.0000    818.5828     -0.7187
   464.0000     80.5867      0.0000    815.8313     -0.7165
   464.2500     78.7865     -2.0000    814.0595     -0.7233
   464.5000     79.6176     -2.0000    820.7846     -0.7435
   464.7500     81.8106      0.0000    832.9294     -0.7601
   465.0000     84.8897      0.0000    838.2449     -0.7524
   465.2500     88.8632      0.0000    827.2928     -0.7087
   465.5000     93.4566      0.0000    804.0157     -0.6326
