~Version Information
VERS.                      2.0: CWLS Log ASCII Standard - VERSION 2.0
WRAP.                       NO: One line per depth step
~Well Information Block
STRT.FT               650.0000: 
STOP.FT              1080.5000: 
STEP.FT                 0.1000: 
NULL.                -999.2500: 
COMP.          Pioneer Natural Resources: COMPANY
WELL.            Galileo 21-11: WELL
FLD.           Purgatoire River: FIELD
LOC.           407' FNL & 2394' FWL: LOCATION
PROV.                 Colorado: PROVINCE
CNTY.               Las Animas: COUNTRY
SRVC.                Patterson: SERVICE COMPANY
DATE.          Mon Apr 11 16:20:08 2005: LOG DATE
UWI.           05 071 08353 00: UNIQUE WELL ID
~Curve Information Block
DEPT.FT            0 000 00 00: Depth
DCAL.in                       : CDL Caliper
RHOB.g/cc                     : CDL Bulk Density
RHOC.g/cc                     : CDL Density Correction
DPOR.pu                       : CDL Density Porosity
GR.GAPI                       : Gamma Ray
NPOR.pu                       : Neutron Porosity
~Parameter Information Block
~A  Depth       DCAL        RHOB        RHOC        DPOR         GR         NPOR    
# ...
   976.4000      7.8080      2.6171      0.0433      1.9919     80.1026     25.4163
   976.5000      7.8088      2.6324      0.0492      1.0696     75.9935     24.9497
   976.6000      7.8088      2.6390      0.0473      0.6672     75.8031     23.7906
   976.7000      7.8088      2.6411      0.0455      0.5381     79.5894     22.7414
   976.8000      7.8122      2.6347      0.0371      0.9277     87.8705     22.3804
   976.9000      7.8122      2.6124      0.0457      2.2800     97.7983     22.1975
   977.0000      7.8099      2.5807     -0.0148      4.1996    103.7706     22.0162
   977.1000      7.8099      2.5562      0.0151      5.6845    106.0762     22.1092
   977.2000      7.8099      2.5483     -0.0146      6.1613    109.0359     21.9669
   977.3000      7.8107      2.5572     -0.0136      5.6213    110.1438     21.1334
   977.4000      7.8107      2.5705      0.0435      4.8157    104.3791     20.3135
   977.5000      7.8157      2.5727      0.0423      4.6856     93.7347     20.1260
   977.6000      7.8157      2.5682      0.0112      4.9576     87.1685     20.5775
   977.7000      7.8157      2.5648      0.0295      5.1620     91.1698     21.6021
   977.8000      7.8111      2.5551      0.0350      5.7511     98.0843     22.6363
   977.9000      7.8111      2.5412     -0.0092      6.5947     97.9357     22.8425
   978.0000      7.8120      2.5324      0.0039      7.1245     94.5841     22.4208
   978.1000      7.8120      2.5278      0.0179      7.4060     92.9766     22.5247
   978.2000      7.8120      2.5300      0.0028      7.2734     91.7163     23.3012
   978.3000      7.8075      2.5409      0.0584      6.6151     89.9136     23.5100
   978.4000      7.8075      2.5509      0.0446      6.0059     88.8861     23.0387
   978.5000      7.8137      2.5535      0.0539      5.8486     87.9321     22.8341
   978.6000      7.8137      2.5506      0.0337      6.0236     85.1642     22.9548
   978.7000      7.8137      2.5457      0.0344      6.3196     83.6539     22.9942
   978.8000      7.8171      2.5456     -0.0025      6.3303     83.8938     22.7453
   978.9000      7.8171      2.5505      0.0729      6.0332     82.6712     22.0896
   979.0000      7.8089      2.5494      0.0283      6.0975     82.4577     21.2951
   979.1000      7.8089      2.5448      0.0240      6.3776     86.6011     20.9097
   979.2000      7.8089      2.5457      0.0429      6.3233     94.2583     21.2946
   979.3000      7.8098      2.5485      0.0368      6.1514    102.2895     22.1403
   979.4000      7.8098      2.5476      0.0293      6.2042    105.0061     22.6902
   979.5000      7.8102      2.5482     -0.0009      6.1687    101.8504     22.6546
   979.6000      7.8102      2.5566      0.0487      5.6612    100.3067     22.6225
   979.7000      7.8102      2.5677      0.0491      4.9885     99.9949     23.1795
   979.8000      7.8089      2.5709      0.0803      4.7948     95.5870     23.9996
   979.9000      7.8089      2.5605      0.0499      5.4219     89.8894     24.6235
   980.0000      7.8129      2.5520     -0.0146      5.9413     86.5282     24.9862
   980.1000      7.8129      2.5663      0.0319      5.0757     86.4956     24.7886
   980.2000      7.8129      2.5993      0.0447      3.0699     89.6507     24.1065
   980.3000      7.8094      2.6311      0.0771      1.1476     92.4484     23.8730
   980.4000      7.8094      2.6450      0.0667      0.3046     93.0127     24.3589
   980.5000      7.8082      2.6408      0.0472      0.5564     93.3181     24.6085
   980.6000      7.8082      2.6263      0.1015      1.4384     92.8057     24.1621
   980.7000      7.8082      2.6015      0.0270      2.9379     89.7405     23.7442
   980.8000      7.8094      2.5736      0.0341      4.6295     88.0225     23.8071
   980.9000      7.8094      2.5547      0.0172      5.7765     90.6404     23.9626
   981.0000      7.8099      2.5435      0.0130      6.4573     93.3666     23.4773
   981.1000      7.8099      2.5314     -0.0413      7.1875     93.9012     22.3580
   981.2000      7.8099      2.5202     -0.0201      7.8697     94.3909     21.4862
   981.3000      7.8097      2.5157      0.0325      8.1415     94.8678     21.1911
   981.4000      7.8097      2.5216      0.0165      7.7836     93.3003     21.3923
   981.5000      7.8103      2.5355      0.0331      6.9384     91.9795     21.8980
   981.6000      7.8103      2.5518     -0.0120      5.9495     92.1663     22.1847
   981.7000      7.8103      2.5673      0.0443      5.0109     91.6709     21.9891
   981.8000      7.8094      2.5715      0.0823      4.7556     89.5439     21.8514
   981.9000      7.8094      2.5617      0.0410      5.3540     86.2572     22.1427
   982.0000      7.8079      2.5497      0.0630      6.0775     85.0350     22.0851
   982.1000      7.8079      2.5312      0.0581      7.1994     87.5287     21.1578
   982.2000      7.8079      2.4990      0.0084      9.1545     89.7153     20.0208
   982.3000      7.8068      2.4761     -0.0325     10.5367     90.4604     19.2220
   982.4000      7.8068      2.4891      0.0071      9.7525     92.3454     19.0200
   982.5000      7.8118      2.5312      0.0510      7.1997     93.0717     19.3725
   982.6000      7.8118      2.5664      0.1302      5.0654     90.6724     19.5719
   982.7000      7.8118      2.5697      0.0830      4.8690     88.2175     19.2246
   982.8000      7.8119      2.5574      0.1003      5.6121     87.1573     18.8614
   982.9000      7.8119      2.5582      0.1234      5.5637     86.5797     19.0346
   983.0000      7.8131      2.5734      0.1778      4.6437     86.6502     19.4710
   983.1000      7.8131      2.5814      0.1960      4.1570     87.5405     19.6012
   983.2000      7.8131      2.5746      0.1526      4.5716     88.2918     19.5386
   983.3000      7.8113      2.5669      0.1453      5.0355     88.9638     19.5782
   983.4000      7.8113      2.5683      0.1465      4.9506     89.8544     19.7543
   983.5000      7.8107      2.5780      0.1172      4.3663     90.6019     20.0723
   983.6000      7.8107      2.5922      0.1032      3.5052     92.7073     20.2491
   983.7000      7.8107      2.5996      0.1320      3.0563     95.6931     20.0423
   983.8000      7.8119      2.5902      0.1244      3.6251     95.8084     19.9369
   983.9000      7.8119      2.5723      0.0838      4.7093     93.1304     20.4113
   984.0000      7.8117      2.5568      0.0995      5.6468     92.9041     21.0096
   984.1000      7.8117      2.5417      0.0452      6.5661     96.9931     21.3055
   984.2000      7.8117      2.5302      0.0109      7.2590    100.9073     21.6294
   984.3000      7.8117      2.5263      0.0706      7.4987    101.1954     22.3397
   984.4000      7.8117      2.5227      0.0240      7.7171     98.5203     23.3088
   984.5000      7.8098      2.5177      0.0483      8.0161     94.5143     23.8415
   984.6000      7.8098      2.5130      0.0402      8.3022     91.1603     23.4761
   984.7000      7.8098      2.5111      0.0225      8.4164     90.8574     22.5797
   984.8000      7.8100      2.5163      0.0340      8.1047     93.3183     21.9176
   984.9000      7.8100      2.5311      0.0257      7.2037     94.6660     21.6672
   985.0000      7.8102      2.5493      0.0636      6.1032     93.0914     21.5300
   985.1000      7.8102      2.5510      0.0750      6.0018     89.3396     21.7929
   985.2000      7.8102      2.5293      0.0490      7.3130     86.1606     22.6063
   985.3000      7.8114      2.5003      0.0161      9.0749     87.4914     23.4534
   985.4000      7.8114      2.4806      0.0234     10.2638     89.9112     24.1912
   985.5000      7.8086      2.4763     -0.0196     10.5261     89.4550     24.6908
   985.6000      7.8086      2.4826      0.0063     10.1427     89.3517     24.3916
   985.7000      7.8086      2.4891      0.0127      9.7517     89.8170     23.5123
   985.8000      7.8116      2.4930     -0.0102      9.5162     88.8795     23.0326
   985.9000      7.8116      2.5024      0.0133      8.9446     88.0841     23.1252
