~Version Information
VERS.                      2.0: CWLS Log ASCII Standard - VERSION 2.0
WRAP.                       NO: One line per depth step
~Well Information Block
STRT.FT               440.0000: 
STOP.FT              1001.5000: 
STEP.FT                 0.1000: 
NULL.                -999.2500: 
COMP.          Pioneer Natural Resources: COMPANY
WELL.              Dylan 42-25: WELL
FLD.           Purgatoire River: FIELD
LOC.           2160' FNL & 855' FEL: LOCATION
PROV.                 Colorado: PROVINCE
CNTY.               Las Animas: COUNTRY
SRVC.                Patterson: SERVICE COMPANY
DATE.          Mon Apr 25 09:31:16 2005: LOG DATE
UWI.           05 071 08229 00: UNIQUE WELL ID
~Curve Information Block
DEPT.FT            0 000 00 00: Depth
DCAL.in                       : CDL Caliper
RHOB.g/cc                     : CDL Bulk Density
RHOC.g/cc                     : CDL Density Correction
DPOR.pu                       : CDL Density Porosity
GR.GAPI                       : Gamma Ray
NPOR.pu                       : Neutron Porosity
~Parameter Information Block
~A  Depth       DCAL        RHOB        RHOC        DPOR         GR         NPOR    
# ...
   948.8000      7.8775      2.4554      0.0890     11.7917    105.4366     20.4707
   948.9000      7.8775      2.4626      0.0766     11.3586     97.4747     19.9117
   949.0000      7.8772      2.4654      0.0928     11.1883     87.2306     20.4526
   949.1000      7.8772      2.4682      0.0788     11.0161     81.3117     21.2554
   949.2000      7.8772      2.4748      0.0996     10.6159     80.2886     21.4292
   949.3000      7.8991      2.4700      0.0951     10.9078     81.0696     21.2085
   949.4000      7.8991      2.4464      0.0493     12.3377     81.5821     21.1973
   949.5000      7.8983      2.4230      0.0163     13.7606     81.6101     21.5547
   949.6000      7.8983      2.4184      0.0429     14.0356     83.3406     21.8991
   949.7000      7.8983      2.4331      0.0427     13.1462     87.8473     21.3927
   949.8000      7.9180      2.4601      0.0357     11.5108     88.9866     20.1054
   949.9000      7.9180      2.4872      0.0670      9.8672     84.9151     18.8644
   950.0000      7.9274      2.4969      0.0655      9.2803     82.7960     18.4191
   950.1000      7.9274      2.4858      0.0563      9.9494     84.1260     19.3996
   950.2000      7.9274      2.4616      0.0851     11.4184     84.5821     20.9370
   950.3000      7.9332      2.4382      0.0165     12.8346     85.0208     21.6732
   950.4000      7.9332      2.4315      0.0052     13.2413     86.6304     21.7498
   950.5000      7.9351      2.4319      0.0624     13.2197     87.0735     21.8306
   950.6000      7.9351      2.4196      0.0571     13.9617     87.4186     22.1429
   950.7000      7.9351      2.3917      0.0534     15.6536     89.4337     22.4163
   950.8000      7.9285      2.3584     -0.0201     17.6717     91.3475     22.3112
   950.9000      7.9285      2.3381      0.0154     18.9036     90.0764     21.6664
   951.0000      7.9389      2.3410      0.0202     18.7285     84.5892     20.7448
   951.1000      7.9389      2.3646      0.0357     17.2978     78.8069     19.9842
   951.2000      7.9389      2.3990      0.0596     15.2098     75.2494     18.9550
   951.3000      7.9410      2.4307      0.0839     13.2927     73.8605     17.5608
   951.4000      7.9410      2.4479      0.0941     12.2475     75.4733     16.7299
   951.5000      7.9226      2.4466      0.0699     12.3291     79.2975     16.8377
   951.6000      7.9226      2.4391      0.0440     12.7822     80.9184     17.1629
   951.7000      7.9226      2.4472      0.0347     12.2881     77.3173     17.2803
   951.8000      7.9089      2.4727      0.0593     10.7440     72.2867     17.5270
   951.9000      7.9089      2.4925      0.0684      9.5437     71.5153     17.9210
   952.0000      7.9238      2.4971      0.0594      9.2688     74.1233     18.0482
   952.1000      7.9238      2.5049      0.0668      8.7947     74.4838     18.1310
   952.2000      7.9238      2.5260      0.0832      7.5159     72.7146     18.4222
   952.3000      7.9318      2.5509      0.0713      6.0089     73.9463     18.5603
   952.4000      7.9318      2.5761      0.0680      4.4780     79.3614     18.3776
   952.5000      7.9344      2.6027      0.0614      2.8693     84.2919     18.0148
   952.6000      7.9344      2.6205      0.0872      1.7896     84.6278     18.1866
   952.7000      7.9344      2.6166      0.1248      2.0249     82.1667     19.2471
   952.8000      7.9337      2.5943      0.0730      3.3731     81.2275     20.1044
   952.9000      7.9337      2.5772      0.0556      4.4124     82.1854     20.1283
   953.0000      7.9286      2.5814      0.0775      4.1552     82.6746     19.8499
   953.1000      7.9286      2.6007      0.0787      2.9865     82.9750     19.4332
   953.2000      7.9286      2.6188      0.1063      1.8922     83.7041     19.1181
   953.3000      7.9173      2.6188      0.1353      1.8879     84.6408     19.3744
   953.4000      7.9173      2.5975      0.0953      3.1806     84.4491     19.6001
   953.5000      7.9108      2.5702      0.0333      4.8355     80.1194     19.2400
   953.6000      7.9108      2.5563      0.0307      5.6767     72.7525     19.4046
   953.7000      7.9108      2.5572      0.1071      5.6240     68.3686     20.4796
   953.8000      7.9431      2.5565      0.0542      5.6653     69.0442     21.0927
   953.9000      7.9431      2.5513      0.0336      5.9796     71.1514     20.3604
   954.0000      7.9229      2.5519      0.0702      5.9434     72.9459     19.2991
   954.1000      7.9229      2.5620      0.0696      5.3308     75.6636     19.1303
   954.2000      7.9229      2.5756      0.1136      4.5074     78.2975     19.6512
   954.3000      7.9360      2.5808      0.1121      4.1928     79.5362     20.2526
   954.4000      7.9360      2.5647      0.1102      5.1676     81.9018     20.9547
   954.5000      7.8766      2.5293      0.0597      7.3138     85.2114     21.3130
   954.6000      7.8766      2.4976      0.0272      9.2337     86.1304     20.6155
   954.7000      7.8766      2.4829      0.0292     10.1264     85.4231     19.4358
   954.8000      7.8680      2.4767      0.0518     10.5017     86.5970     18.8506
   954.9000      7.8680      2.4679      0.0550     11.0368     88.9790     19.2510
   955.0000      7.8924      2.4553      0.0121     11.8012     90.5230     19.9743
   955.1000      7.8924      2.4415      0.0177     12.6368     91.5665     20.2951
   955.2000      7.8924      2.4351     -0.0338     13.0225     93.3965     20.6083
   955.3000      7.9360      2.4535     -0.0054     11.9112     95.2782     20.9477
   955.4000      7.9360      2.4921      0.0810      9.5692     95.3561     20.6604
   955.5000      7.9405      2.5253      0.0368      7.5566     96.3706     20.2427
   955.6000      7.9405      2.5381      0.0571      6.7799    100.6188     20.5532
   955.7000      7.9405      2.5356      0.0954      6.9351    104.8931     21.2888
   955.8000      7.9445      2.5330      0.0235      7.0891    105.1150     21.6401
   955.9000      7.9445      2.5331      0.0830      7.0825    100.6490     21.6010
   956.0000      7.9340      2.5211      0.0636      7.8092     95.6139     21.6461
   956.1000      7.9340      2.4960     -0.0042      9.3317     96.6390     21.8204
   956.2000      7.9340      2.4763     -0.0033     10.5271    105.3407     21.3395
   956.3000      7.9257      2.4752      0.0214     10.5964    115.7613     20.2777
   956.4000      7.9257      2.4916      0.0420      9.6025    121.6353     20.1125
   956.5000      7.9271      2.5179      0.0390      8.0069    122.1724     20.7732
   956.6000      7.9271      2.5428      0.0489      6.4953    119.7774     21.0915
   956.7000      7.9271      2.5472      0.0656      6.2276    117.2076     21.2320
   956.8000      7.9333      2.5223      0.0491      7.7412    115.1037     21.7100
   956.9000      7.9333      2.4870      0.0455      9.8770    113.2096     22.2832
   957.0000      7.9295      2.4688      0.0145     10.9794    112.2350     22.6589
   957.1000      7.9295      2.4812      0.0322     10.2308    110.3148     22.5325
   957.2000      7.9295      2.5102      0.0961      8.4702    105.2977     21.9430
   957.3000      7.9218      2.5243      0.1098      7.6202     99.2978     21.4937
   957.4000      7.9218      2.5128      0.0676      8.3142     96.9848     21.3333
   957.5000      7.8940      2.5002      0.0048      9.0815     98.8042     21.3254
   957.6000      7.8940      2.5085      0.0746      8.5761    103.1613     21.3627
   957.7000      7.8940      2.5262      0.0833      7.5049    109.2904     21.3660
   957.8000      7.8967      2.5332      0.0673      7.0807    112.1336     21.4991
   957.9000      7.8967      2.5258      0.0403      7.5293    108.7938     21.7343
   958.0000      7.8991      2.5096      0.0525      8.5062    102.1851     21.6925
   958.1000      7.8991      2.4913      0.0366      9.6186     97.3531     21.2619
   958.2000      7.8991      2.4815      0.0115     10.2091     98.1191     20.7184
   958.3000      7.8887      2.4936     -0.0094      9.4779    102.4709     20.3961
