~Version Information
VERS.                      2.0: CWLS Log ASCII Standard - VERSION 2.0
WRAP.                       NO: One line per depth step
~Well Information Block
STRT.FT               -12.5000: 
STOP.FT              1613.0000: 
STEP.FT                 0.2500: 
NULL.                -999.2500: 
COMP.          Pioneer Natural Resources: COMPANY
WELL.          Peregrine 12-20: WELL
FLD.           Purgatorie River: FIELD
LOC.           1722' FNL & 999' FWL--: LOCATION
PROV.                       CO: PROVINCE
CNTY.               Las Animas: COUNTRY
SRVC.          Patterson Wireline: SERVICE COMPANY
DATE.          Fri Jul 22 12:50:00 2005: LOG DATE
UWI.           05 071 08428 00: UNIQUE WELL ID
~Curve Information Block
DEPT.FT            0 000 00 00: Depth
CCL.                          : Casing Collar Locator
TT3.usec                      : CBL 3' Travel Time
AMP3.mV                       : CBL 3' Amplitude
GR.GAPI                       : Gamma Ray
~Parameter Information Block
~A  Depth       CCL         TT3         AMP3         GR     
# ...
  1260.5000      0.0000    649.4561      6.8726     71.8536
  1260.7500      0.0000    690.2178      6.8663     71.4366
  1261.0000      0.0000    712.4212      6.9098     71.6679
  1261.2500      0.0000    722.2469      6.9736     72.3155
  1261.5000      0.0000    726.7726      7.0199     73.4611
  1261.7500      0.0000    730.5086      7.0412     75.0390
  1262.0000      0.0000    735.0024      7.0622     76.3791
  1262.2500      0.0000    739.2408      7.1014     76.3438
  1262.5000      0.0000    740.9440      7.1453     74.2434
  1262.7500      0.0000    738.8967      7.1674     70.7412
  1263.0000      0.0000    734.2827      7.1659     67.5714
  1263.2500      0.0000    729.5234      7.1705     66.0001
  1263.5000      0.0000    726.2119      7.2123     65.7409
  1263.7500      0.0000    724.4757      7.2884     65.6987
  1264.0000      0.0000    723.7188      7.3598     65.4949
  1264.2500      0.0000    723.3923      7.3878     65.7435
  1264.5000      0.0000    723.1346      7.3676     66.9365
  1264.7500      0.0000    722.4575      7.3146     68.6137
  1265.0000      0.0000    720.3987      7.2255     69.8412
  1265.2500      0.0000    715.8372      7.0781     70.1107
  1265.5000      0.0000    709.0065      6.8763     69.5350
  1265.7500      0.0000    702.7333      6.6638     68.4488
  1266.0000      0.0000    700.5508      6.4828     67.0803
  1266.2500      0.0000    702.2895      6.3425     65.5015
  1266.5000      0.0000    702.8828      6.2268     63.7869
  1266.7500      0.0000    697.0842      6.1132     62.2772
  1267.0000      0.0000    684.6357      5.9857     61.7114
  1267.2500      0.0000    670.2963      5.8494     62.9286
  1267.5000      2.0000    660.1815      5.7286     66.2487
  1267.7500      0.0000    658.2664      5.6507     70.9831
  1268.0000      0.0000    664.7777      5.6348     75.4803
  1268.2500      0.0000    676.8697      5.6862     77.8167
  1268.5000      0.0000    690.6534      5.7844     76.8587
  1268.7500      0.0000    702.8619      5.8882     73.0289
  1269.0000      0.0000    711.6271      5.9795     68.0583
  1269.2500      0.0000    716.7500      6.0859     63.7770
  1269.5000      0.0000    719.4405      6.2376     61.0826
  1269.7500      0.0000    721.6138      6.4227     60.0030
  1270.0000      0.0000    725.1693      6.6063     60.4723
  1270.2500      0.0000    731.1505      6.7666     62.5801
  1270.5000      0.0000    738.6930      6.8932     65.7019
  1270.7500      0.0000    744.8031      6.9706     67.9744
  1271.0000      0.0000    746.2564      6.9841     67.7770
  1271.2500      0.0000    742.4236      6.9412     65.7277
  1271.5000      0.0000    735.9661      6.8762     64.1396
  1271.7500      0.0000    730.6227      6.8315     64.2569
  1272.0000      0.0000    728.7278      6.8307     64.8462
  1272.2500      0.0000    730.6029      6.8668     63.8112
  1272.5000      0.0000    735.2665      6.9171     60.6563
  1272.7500      0.0000    741.2216      6.9670     56.9551
  1273.0000      0.0000    746.8528      7.0167     54.5983
  1273.2500      0.0000    750.4638      7.0645     54.1178
  1273.5000      0.0000    750.4899      7.0909     54.8549
  1273.7500      0.0000    746.4024      7.0653     56.1437
  1274.0000      0.0000    739.5036      6.9711     57.6599
  1274.2500      0.0000    732.2798      6.8299     58.7997
  1274.5000      0.0000    726.7355      6.6948     58.5824
  1274.7500      0.0000    723.4183      6.6138     56.6167
  1275.0000      0.0000    721.7535      6.5957     53.6415
  1275.2500      0.0000    720.5801      6.6102     50.6152
  1275.5000      0.0000    717.7827      6.6195     47.6254
  1275.7500      0.0000    709.2386      6.6076     44.2527
  1276.0000      0.0000    689.0961      6.5803     40.8140
  1276.2500      0.0000    654.2786      6.5413     38.7272
  1276.5000      0.0000    611.9025      6.4804     39.5330
  1276.7500      0.0000    580.5464      6.3952     43.5994
  1277.0000      0.0000    578.1926      6.3056     49.7421
  1277.2500      0.0000    606.3864      6.2255     56.1364
  1277.5000      0.0000    648.8746      6.1396     61.6382
  1277.7500      0.0000    686.2339      6.0435     66.1491
  1278.0000      0.0000    709.2645      5.9877     69.8489
  1278.2500      0.0000    719.6151      6.0422     72.5184
  1278.5000      0.0000    722.9152      6.2186     73.8531
  1278.7500      0.0000    723.4471      6.4460     74.1391
  1279.0000      0.0000    722.6680      6.6260     74.2204
  1279.2500      0.0000    719.2224      6.6991     74.7727
  1279.5000      0.0000    709.5708      6.6620     75.8920
  1279.7500      0.0000    690.7344      6.5332     77.5369
  1280.0000      0.0000    664.3668      6.3291     80.0800
  1280.2500      0.0000    637.4728      6.0823     83.9903
  1280.5000      0.0000    618.0427      5.8538     89.0210
  1280.7500      0.0000    611.4332      5.6879     94.2108
  1281.0000      0.0000    620.2094      5.5721     98.7573
  1281.2500      0.0000    642.3740      5.4758    102.3119
  1281.5000      0.0000    668.5024      5.4050    104.4324
  1281.7500      0.0000    685.5093      5.3849    104.7177
  1282.0000      0.0000    686.3655      5.4118    103.7332
  1282.2500      0.0000    675.6233      5.4519    102.8222
  1282.5000      0.0000    665.7095      5.4713    102.6427
  1282.7500      0.0000    668.4169      5.4563    102.7280
  1283.0000      0.0000    687.8297      5.4203    102.8536
  1283.2500      0.0000    718.1734      5.3874    103.9265
  1283.5000      0.0000    747.8914      5.3472    106.8000
  1283.7500      0.0000    767.2538      5.2478    110.5242
  1284.0000      0.0000    773.6269      5.0767    112.4915
  1284.2500      0.0000    770.7877      4.9251    110.5036
  1284.5000      0.0000    764.0818      4.9135    104.5046
  1284.7500      0.0000    756.6069      5.0623     96.3754
  1285.0000      0.0000    749.1265      5.2704     88.4052
  1285.2500      0.0000    741.9454      5.4123     82.1321
  1285.5000      0.0000    735.8557      5.4413     78.2422
  1285.7500      0.0000    731.6475      5.4105     76.8380
  1286.0000      0.0000    729.5676      5.4088     77.4736
  1286.2500      0.0000    729.4889      5.4806     79.2271
  1286.5000      0.0000    731.2642      5.6032     81.0482
  1286.7500      0.0000    734.5855      5.7280     82.2506
  1287.0000      0.0000    738.4133      5.8286     83.0299
  1287.2500      0.0000    740.9220      5.9112     84.4395
  1287.5000      0.0000    740.5937      5.9902     87.2077
  1287.7500      0.0000    737.5259      6.0639     90.4974
  1288.0000      0.0000    733.3661      6.1164     92.5900
  1288.2500      0.0000    729.8830      6.1455     92.9170
  1288.5000      0.0000    727.8109      6.1835     92.7213
  1288.7500      0.0000    726.9352      6.2781     93.5639
  1289.0000      0.0000    726.8571      6.4510     95.8773
  1289.2500      0.0000    727.5278      6.6777     99.1726
  1289.5000      0.0000    729.3250      6.9115    102.8386
  1289.7500      0.0000    732.7075      7.1234    106.2560
  1290.0000      0.0000    737.4185      7.3153    108.6990
  1290.2500      0.0000    741.7754      7.4921    109.8059
  1290.5000      0.0000    743.2883      7.6341    109.9286
  1290.7500      0.0000    740.6193      7.7094    109.5621
  1291.0000      0.0000    734.8256      7.7086    108.6582
  1291.2500      0.0000    728.5138      7.6534    106.8867
  1291.5000      0.0000    724.2636      7.5773    104.4821
  1291.7500      0.0000    723.7961      7.5073    102.6644
  1292.0000      0.0000    727.6077      7.4563    103.1584
  1292.2500      0.0000    734.8361      7.4201    106.9206
  1292.5000      0.0000    743.7343      7.3746    112.9400
  1292.7500      0.0000    752.2057      7.2858    118.4039
  1293.0000      0.0000    757.6562      7.1298    120.4314
  1293.2500      0.0000    757.2427      6.9112    117.9991
  1293.5000      0.0000    749.6817      6.6623    112.6678
  1293.7500      0.0000    736.8284      6.4218    107.5509
