~Version Information
VERS.                      2.0: CWLS Log ASCII Standard - VERSION 2.0
WRAP.                       NO: One line per depth step
~Well Information Block
STRT.FT               780.0000: 
STOP.FT              1557.5000: 
STEP.FT                 0.1000: 
NULL.                -999.2500: 
COMP.          Pioneer Natural Resources: COMPANY
WELL.          Bunner's 13-26 Tr: WELL
FLD.           Purgatoire River: FIELD
LOC.           1843' FSL & 456' FWL----: LOCATION
PROV.                 Colorado: PROVINCE
CNTY.               Las Animas: COUNTRY
SRVC.                Patterson: SERVICE COMPANY
DATE.          Tue Mar 29 07:41:16 2005: LOG DATE
UWI.           05 071 08331 00: UNIQUE WELL ID
~Curve Information Block
DEPT.FT            0 000 00 00: Depth
DCAL.in                       : CDL Caliper
RHOB.g/cc                     : CDL Bulk Density
RHOC.g/cc                     : CDL Density Correction
DPOR.pu                       : CDL Density Porosity
NPOR.pu                       : Neutron Porosity
GR.GAPI                       : Gamma Ray
~Parameter Information Block
~A  Depth       DCAL        RHOB        RHOC        DPOR        NPOR         GR     
# ...
  1077.6000      8.0396      2.1493      0.1134     30.3471     12.1899    104.1877
  1077.7000      8.0396      2.2232      0.1357     25.8673     12.8181    105.4543
  1077.8000      8.0391      2.2787      0.1719     22.5003     13.4605    104.7405
  1077.9000      8.0391      2.3054      0.1659     20.8870     13.6671    102.9760
  1078.0000      8.0391      2.3133      0.1331     20.4039     13.6130    101.8464
  1078.1000      8.0391      2.3230      0.1168     19.8175     13.7784    103.2040
  1078.2000      8.0391      2.3366      0.1148     18.9951     14.2177    107.7012
  1078.3000      8.0394      2.3384      0.0923     18.8853     14.6622    112.3052
  1078.4000      8.0394      2.3288      0.0184     19.4675     14.9805    112.8892
  1078.5000      8.0378      2.3298     -0.0156     19.4048     15.3468    110.7381
  1078.6000      8.0378      2.3475      0.0350     18.3334     15.8657    109.5176
  1078.7000      8.0378      2.3682      0.0129     17.0773     16.4562    109.2421
  1078.8000      8.0370      2.3896      0.0603     15.7839     17.1614    109.0278
  1078.9000      8.0370      2.4149      0.0928     14.2461     17.7600    109.1377
  1079.0000      8.0449      2.4403      0.0858     12.7121     17.6712    109.9893
  1079.1000      8.0449      2.4615      0.1039     11.4264     17.2432    114.0025
  1079.2000      8.0449      2.4750      0.1578     10.6038     17.4414    122.6254
  1079.3000      8.0659      2.4751      0.1574     10.5975     18.2550    131.5572
  1079.4000      8.0659      2.4701      0.0717     10.9047     19.0220    136.7096
  1079.5000      8.0971      2.4796      0.0438     10.3284     19.2716    137.3866
  1079.6000      8.0971      2.5012      0.0765      9.0195     19.0123    133.8203
  1079.7000      8.0971      2.5132      0.0658      8.2901     18.8058    129.0890
  1079.8000      8.1294      2.5158      0.0049      8.1332     19.0324    125.9645
  1079.9000      8.1294      2.5227      0.0465      7.7171     19.6454    122.7393
  1080.0000      8.1509      2.5287      0.0262      7.3544     20.3753    119.1658
  1080.1000      8.1509      2.5244      0.0561      7.6109     20.9931    118.6302
  1080.2000      8.1509      2.5123      0.0355      8.3469     21.5968    122.8904
  1080.3000      8.1654      2.4991      0.0224      9.1438     22.2285    129.7231
  1080.4000      8.1654      2.4831      0.0494     10.1135     22.4835    136.0509
  1080.5000      8.1765      2.4607      0.0004     11.4752     22.3843    139.8690
  1080.6000      8.1765      2.4377     -0.0020     12.8679     22.4039    140.8837
  1080.7000      8.1765      2.4142      0.0264     14.2908     22.3833    139.7550
  1080.8000      8.1872      2.3868     -0.0167     15.9521     21.7305    136.1931
  1080.9000      8.1872      2.3513      0.0168     18.1055     20.3826    131.4071
  1081.0000      8.2025      2.2899      0.0057     21.8220     19.0351    128.2446
  1081.1000      8.2025      2.1961     -0.0443     27.5118     18.0034    127.7516
  1081.2000      8.2025      2.0850     -0.0569     34.2416     16.5942    128.4069
  1081.3000      8.2286      1.9689     -0.0725     41.2801     14.4941    128.1060
  1081.4000      8.2286      1.8499     -0.1037     48.4919     12.4758    126.2983
  1081.5000      8.2648      1.7290     -0.1176     55.8158     11.1176    122.5339
  1081.6000      8.2648      1.6118     -0.1320     62.9225     10.1419    117.8805
  1081.7000      8.2648      1.5175     -0.1572     68.6383      9.2570    113.3832
  1081.8000      8.2959      1.4746     -0.1273     71.2345      8.7924    106.8828
  1081.9000      8.2959      1.4951     -0.0569     69.9957      8.9014     98.9530
  1082.0000      8.3099      1.5592      0.0984     66.1111      9.2796     94.3799
  1082.1000      8.3099      1.6289      0.2607     61.8868      9.9021     94.1054
  1082.2000      8.3099      1.6790      0.3059     58.8486     10.7791     95.6951
  1082.3000      8.2789      1.7236      0.2292     56.1478     11.5945     97.8415
  1082.4000      8.2789      1.7927      0.2473     51.9553     12.2868    100.2219
  1082.5000      8.1954      1.8843      0.2583     46.4085     13.0734    103.9799
  1082.6000      8.1954      1.9732      0.2277     41.0175     13.8134    110.1667
  1082.7000      8.1954      2.0480      0.1686     36.4864     14.1810    113.0749
  1082.8000      8.1205      2.1069      0.1215     32.9125     14.2366    108.7978
  1082.9000      8.1205      2.1417      0.0998     30.8032     14.2427    104.0793
  1083.0000      8.0907      2.1432      0.1141     30.7167     14.3541    104.7093
  1083.1000      8.0907      2.1140      0.0500     32.4873     14.5616    107.8650
  1083.2000      8.0907      2.0635      0.0662     35.5459     14.6412    107.3864
  1083.3000      8.0858      1.9955     -0.0103     39.6683     14.4773    103.5516
  1083.4000      8.0858      1.9091     -0.0513     44.9010     14.3000    102.9253
  1083.5000      8.0852      1.8076     -0.0904     51.0542     14.0276    105.1790
  1083.6000      8.0852      1.7045     -0.0674     57.3018     13.3840    103.5247
  1083.7000      8.0852      1.6159     -0.0880     62.6711     12.4309     96.6121
  1083.8000      8.0805      1.5510     -0.1021     66.6091     11.3169     89.1298
  1083.9000      8.0805      1.5099     -0.1163     69.0983     10.0922     84.4838
  1084.0000      8.0640      1.4886     -0.0323     70.3864      8.9118     81.3249
  1084.1000      8.0640      1.4792      0.0324     70.9557      8.0671     76.7590
  1084.2000      8.0640      1.4712      0.0369     71.4451      7.5851     72.3228
  1084.3000      8.0305      1.4568      0.0530     72.3138      7.1451     72.4587
  1084.4000      8.0305      1.4349      0.0990     73.6441      6.5252     76.6959
  1084.5000      7.9839      1.4131      0.1098     74.9635      5.8995     78.9852
  1084.6000      7.9839      1.4007      0.1308     75.7131      5.5820     77.6133
  1084.7000      7.9839      1.4027      0.0507     75.5945      5.5784     77.2349
  1084.8000      7.9326      1.4282      0.0007     74.0496      5.6526     82.0890
  1084.9000      7.9326      1.4827      0.0244     70.7458      5.7431     91.1875
  1085.0000      7.8997      1.5575      0.0722     66.2126      5.9799     98.3802
  1085.1000      7.8997      1.6450      0.0749     60.9121      6.4166     99.0663
  1085.2000      7.8997      1.7500      0.1164     54.5427      6.9818     96.4475
  1085.3000      7.8866      1.8741      0.2212     47.0225      7.8133     96.4969
  1085.4000      7.8866      2.0030      0.2889     39.2139      9.1867    100.7489
  1085.5000      7.8790      2.1173      0.2972     32.2876     10.7942    107.4611
  1085.6000      7.8790      2.2081      0.2422     26.7808     12.0426    117.6411
  1085.7000      7.8790      2.2802      0.1717     22.4118     13.1020    129.7940
  1085.8000      7.8762      2.3390      0.1685     18.8488     14.1120    134.4330
  1085.9000      7.8762      2.3820      0.1235     16.2434     14.7339    128.4157
  1086.0000      7.8777      2.4097      0.0877     14.5641     15.0301    120.7537
  1086.1000      7.8777      2.4336      0.0771     13.1177     15.3201    118.3564
  1086.2000      7.8777      2.4595      0.0883     11.5432     15.5911    119.8147
  1086.3000      7.8784      2.4808      0.0636     10.2524     15.7909    120.9832
  1086.4000      7.8784      2.4950      0.0644      9.3916     16.1353    117.3175
  1086.5000      7.8766      2.5087      0.0431      8.5650     16.6435    109.5476
  1086.6000      7.8766      2.5241      0.1073      7.6319     17.1333    103.3564
  1086.7000      7.8766      2.5360      0.0874      6.9100     17.5761    103.0119
  1086.8000      7.8759      2.5454      0.0712      6.3383     18.1989    108.7901
  1086.9000      7.8759      2.5543      0.0935      5.7994     19.1487    114.8584
  1087.0000      7.8769      2.5627      0.0402      5.2892     20.3264    117.2809
  1087.1000      7.8769      2.5751      0.0728      4.5382     21.6067    117.7004
