~Version Information
 VERS.                                  2.0 : CWLS LAS VERSION
 WRAP.                                   NO : WRAPING MODE
 SWARE .                 MController 2.5.0J : SOFTWARE VERSION
~Well Information
 WELL.                      Barrelman 41-27 : WELL
 COMP.    Pioneer Natural Resources USA Inc : COMPANY
 FLD.                      Purgatoire River : FIELD
 LOC.                NE/NE Sec 27 T33S R65W : LOCATION
 DATE.                              5/20/05 : DATE(S) LOGGED
 SRVC.      Blanco Geological Services LLCD : SERVICE COMPANY
 STAT.                                   CO : STATE
 CNTY.                           Las Animas : COUNTY
 CTRY.                                  USA : COUNTRY
 API.                       05-071-08334-00 : API NUMBER
 STRT.FT                             253.00 : START DEPTH
 STOP.FT                             800.00 : STOP DEPTH
 STEP.FT                               1.00 : DEPTH INCREMENT
 NULL.                                -9999 : NULL VALUE
~Curve information
 DEPTH.FT                                   :
 ROP.MIN/FT                                 :
 GAS.UNITS                                  :
~ASCII Log data
# ...
       453.0         0.17          2.4 
       454.0         0.13          2.8 
       455.0         0.20          2.8 
       456.0         0.17          2.8 
       457.0         0.17          2.8 
       458.0         0.13          2.9 
       459.0         0.10          3.0 
       460.0         0.17          3.0 
       461.0         0.20          3.0 
       462.0         0.20          3.2 
       463.0         0.22          3.1 
       464.0         0.17          3.3 
       465.0         0.20          3.3 
       466.0         0.20          3.5 
       467.0         0.17          3.3 
       468.0         0.27          3.4 
       469.0         0.20          3.2 
       470.0         0.17          3.4 
       471.0         0.20          3.2 
       472.0         0.13          3.6 
       473.0         0.20          3.2 
       474.0         0.40          7.3 
       475.0         0.37         15.6 
       476.0         0.92         15.2 
       477.0         0.30          3.6 
       478.0         0.27          3.2 
       479.0         0.23          2.8 
       480.0         0.23          2.9 
       481.0         0.23          2.9 
       482.0         0.20          2.8 
       483.0         0.20          3.0 
       484.0         0.20          3.3 
       485.0         0.17          3.5 
       486.0         0.20          3.5 
       487.0         0.17          3.4 
       488.0         0.20          3.3 
       489.0         0.20          3.4 
       490.0         0.17          3.8 
       491.0         0.22          4.6 
       492.0         0.17          4.4 
       493.0         0.20          4.2 
       494.0         0.17          3.8 
       495.0         0.20          3.6 
       496.0         0.17          3.0 
       497.0         0.20          3.0 
       498.0         0.17          2.8 
       499.0         0.20          3.2 
       500.0         0.17          3.1 
       501.0         0.20          3.1 
       502.0         0.20          3.1 
       503.0         0.23          2.9 
       504.0         0.23          3.5 
       505.0         0.23          7.1 
       506.0         1.52         23.9 
       507.0         0.10         22.1 
       508.0         0.20         20.7 
       509.0         0.20         18.2 
       510.0         0.23         13.8 
       511.0         0.20         10.4 
       512.0         0.20          8.0 
       513.0         0.20          5.6 
       514.0         0.20          4.2 
       515.0         0.20          3.7 
       516.0         0.20          3.0 
       517.0         0.20          2.5 
       518.0         0.18          2.5 
       519.0         0.23          2.4 
       520.0         0.17          2.5 
       521.0         0.20          2.5 
       522.0         0.13          2.4 
       523.0         0.13          2.6 
       524.0         0.13          2.7 
       525.0         0.17          2.8 
       526.0         0.20          2.9 
       527.0         0.17          2.9 
       528.0         0.23          2.9 
       529.0         0.37          3.5 
       530.0         0.20          3.2 
       531.0         0.20          3.5 
       532.0         0.20          3.6 
       533.0         0.17          3.4 
       534.0         0.20          3.4 
       535.0         0.17          3.3 
       536.0         1.28         14.5 
       537.0         0.17          8.4 
       538.0         0.17          6.3 
       539.0         0.33          4.9 
       540.0         0.23          3.5 
       541.0         0.20          3.4 
       542.0         0.17          3.1 
       543.0         0.20          3.1 
       544.0         0.17          3.1 
       545.0         0.17          3.3 
       546.0         0.17          2.9 
       547.0         0.18          3.0 
       548.0         0.17          3.0 
       549.0         0.20          3.2 
       550.0         0.20          3.2 
       551.0         0.20          3.2 
       552.0         0.20          3.2 
       553.0         0.20          3.1 
       554.0         0.17          3.2 
       555.0         0.17          3.4 
       556.0         0.10          3.4 
       557.0         0.17          3.1 
       558.0         0.13          3.5 
       559.0         0.13          3.4 
       560.0         0.23          3.4 
       561.0         0.23          3.7 
       562.0         0.20          3.6 
       563.0         0.20          3.7 
       564.0         0.20          3.6 
       565.0         0.32          3.8 
       566.0         1.57         18.9 
       567.0         0.20         14.6 
       568.0         0.23         14.6 
       569.0         0.13         14.5 
       570.0         0.27         13.5 
       571.0         0.23         11.2 
       572.0         0.20          9.0 
       573.0         0.25          7.0 
       574.0         0.20          4.6 
       575.0         0.40          3.9 
       576.0         0.23          2.8 
       577.0         0.20          2.7 
       578.0         0.27          2.8 
       579.0         0.30          3.1 
       580.0         0.23          3.2 
       581.0         0.20          3.3 
       582.0         0.20          3.5 
       583.0         0.20          3.6 
       584.0         0.20          3.9 
       585.0         0.20          3.7 
       586.0         0.23          3.8 
       587.0         0.20          3.6 
       588.0         0.22          3.6 
       589.0         0.27          3.5 
       590.0         0.13          3.9 
       591.0         0.13          5.6 
       592.0         0.30         16.9 
       593.0         0.40         33.4 
       594.0         0.23         34.5 
       595.0         0.77         30.8 
       596.0         0.23         26.5 
       597.0         0.20         28.4 
       598.0         0.23         28.5 
       599.0         0.25         26.9 
       600.0         0.20         19.7 
       601.0         0.20         14.9 
       602.0         0.23         10.6 
       603.0         0.20          6.7 
       604.0         0.23          4.8 
       605.0         0.20          3.8 
       606.0         0.20          3.2 
       607.0         0.20          3.0 
       608.0         0.20          2.9 
       609.0         0.23          2.9 
       610.0         0.20          3.2 
       611.0         0.17          3.2 
       612.0         0.20          3.2 
       613.0         0.20          3.4 
       614.0         0.17          3.4 
       615.0         0.17          3.3 
       616.0         0.18          3.4 
       617.0         0.17          3.4 
       618.0         0.17          3.8 
       619.0         0.20          3.7 
       620.0         0.20          3.7 
       621.0         0.17          3.5 
       622.0         0.23          3.7 
       623.0         0.17          3.7 
       624.0         0.17          3.8 
       625.0         0.23          3.7 
       626.0         0.83          7.2 
       627.0         0.27          7.7 
       628.0         0.23         15.1 
       629.0         0.38         23.7 
       630.0         0.27         24.9 
       631.0         0.20         23.3 
       632.0         0.27         18.8 
       633.0         0.23         17.5 
       634.0         0.23         16.7 
       635.0         0.20         14.8 
       636.0         0.20         13.0 
       637.0         0.23         11.0 
       638.0         0.20          8.4 
       639.0         0.17          6.3 
       640.0         0.20          5.1 
       641.0         0.20          3.8 
       642.0         0.17          3.2 
       643.0         0.17          3.1 
       644.0         0.22          3.0 
       645.0         0.17          3.5 
       646.0         0.20          6.2 
       647.0         0.17         10.9 
       648.0         0.20         17.9 
       649.0         0.17         18.6 
       650.0         0.23         20.6 
       651.0         0.17         23.0 
       652.0         0.13         21.4 
