~Version Information
VERS.                      2.0: CWLS Log ASCII Standard - VERSION 2.0
WRAP.                       NO: One line per depth step
~Well Information Block
STRT.FT               510.0000: 
STOP.FT              1845.5000: 
STEP.FT                 0.1000: 
NULL.                -999.2500: 
COMP.          Pioneer Natural Resources: COMPANY
WELL.           Stampede 42-18: WELL
FLD.           Purgatoire River: FIELD
LOC.           2479' FNL & 160' FEL--: LOCATION
CNTY.               Las Animas: COUNTY
SRVC.          Superior Well Services: SERVICE COMPANY
DATE.          Sat Jun 09 02:39:23 2007: LOG DATE
UWI.           05 071 08237 00: UNIQUE WELL ID
STAT.                 Colorado: STATE
~Curve Information Block
DEPT.FT            0 000 00 00: Depth
DCAL.in                       : CDL Caliper
RHOB.g/cc                     : CDL Bulk Density
RHOC.g/cc                     : CDL Density Correction
DPOR.pu                       : CDL Density Porosity
GR.GAPI                       : Gamma Ray
~Parameter Information Block
~A  Depth       DCAL        RHOB        RHOC        DPOR         GR     
# ...
  1305.2000      7.8654      2.4883      0.0394      9.8011     87.0739
  1305.3000      7.8601      2.4810      0.0595     10.2446     85.3506
  1305.4000      7.8601      2.4842      0.0445     10.0478     82.0319
  1305.5000      7.8562      2.5026      0.0464      8.9329     80.2707
  1305.6000      7.8562      2.5391      0.0676      6.7187     78.1128
  1305.7000      7.8562      2.5813      0.1022      4.1618     75.2734
  1305.8000      7.8545      2.6117      0.1327      2.3201     74.3713
  1305.9000      7.8545      2.6278      0.1495      1.3455     74.7556
  1306.0000      7.8577      2.6386      0.1636      0.6922     76.0881
  1306.1000      7.8577      2.6470      0.1453      0.1831     79.5750
  1306.2000      7.8577      2.6422      0.1435      0.4736     82.0295
  1306.3000      7.8672      2.6089      0.1394      2.4893     83.5516
  1306.4000      7.8672      2.5457      0.1095      6.3186     88.8347
  1306.5000      7.8791      2.4733      0.0325     10.7069     98.1757
  1306.6000      7.8791      2.4210     -0.0281     13.8761    109.4827
  1306.7000      7.8791      2.3960      0.0459     15.3945    120.3000
  1306.8000      7.8889      2.3797     -0.0119     16.3812    126.9746
  1306.9000      7.8889      2.3570      0.0044     17.7597    132.5088
  1307.0000      7.9034      2.3258      0.0180     19.6473    141.9051
  1307.1000      7.9034      2.2937      0.0381     21.5965    152.2443
  1307.2000      7.9034      2.2683      0.0813     23.1319    160.2290
  1307.3000      7.9412      2.2636      0.0900     23.4188    165.4922
  1307.4000      7.9412      2.2876      0.1873     21.9623    169.0923
  1307.5000      8.0140      2.3156      0.2125     20.2664    174.1081
  1307.6000      8.0140      2.3291      0.1515     19.4505    178.2935
  1307.7000      8.0140      2.3512      0.1312     18.1075    176.9786
  1307.8000      8.1004      2.4073      0.1686     14.7083    173.2640
  1307.9000      8.1004      2.4851      0.2606      9.9964    171.3785
  1308.0000      8.1557      2.5530      0.3214      5.8758    169.6247
  1308.1000      8.1557      2.5951      0.3247      3.3294    167.1469
  1308.2000      8.1557      2.6030      0.3210      2.8462    164.1819
  1308.3000      8.1232      2.5697      0.1675      4.8689    160.4751
  1308.4000      8.1232      2.5099      0.1482      8.4881    158.4402
  1308.5000      8.0285      2.4426      0.1627     12.5724    154.6536
  1308.6000      8.0285      2.3673      0.1075     17.1355    149.3002
  1308.7000      8.0285      2.2878      0.0567     21.9513    150.7748
  1308.8000      7.9877      2.2225      0.0362     25.9099    157.5235
  1308.9000      7.9877      2.1843      0.0295     28.2240    158.9323
  1309.0000      8.0032      2.1737      0.0528     28.8672    152.0148
  1309.1000      8.0032      2.1866      0.0674     28.0851    145.7707
  1309.2000      8.0032      2.2251      0.0785     25.7540    147.9794
  1309.3000      7.9983      2.2948      0.1761     21.5272    152.1534
  1309.4000      7.9983      2.3836      0.2655     16.1427    147.2460
  1309.5000      7.9640      2.4583      0.2709     11.6201    136.3179
  1309.6000      7.9640      2.4918      0.2350      9.5874    131.7357
  1309.7000      7.9640      2.4955      0.0948      9.3618    134.7050
  1309.8000      7.9269      2.5013      0.0795      9.0119    133.2393
  1309.9000      7.9269      2.5105      0.0816      8.4569    124.1918
  1310.0000      7.8974      2.5089      0.0561      8.5521    118.0869
  1310.1000      7.8974      2.4997      0.0549      9.1080    121.8365
  1310.2000      7.8974      2.4974      0.0178      9.2487    129.1903
  1310.3000      7.8777      2.5104      0.0335      8.4620    130.8634
  1310.4000      7.8777      2.5260      0.0607      7.5152    127.3685
  1310.5000      7.8683      2.5311      0.0510      7.2089    123.2480
  1310.6000      7.8683      2.5306      0.0316      7.2334    118.5164
  1310.7000      7.8683      2.5278      0.0740      7.4044    110.9389
  1310.8000      7.8604      2.5148      0.0368      8.1920    102.7862
  1310.9000      7.8604      2.4942      0.0264      9.4431     97.1635
  1311.0000      7.8475      2.4839      0.0036     10.0658     94.2095
  1311.1000      7.8475      2.4964     -0.0037      9.3104     93.7366
  1311.2000      7.8475      2.5186      0.0816      7.9658     95.8130
  1311.3000      7.8396      2.5288      0.0679      7.3443     99.8190
  1311.4000      7.8396      2.5267      0.0517      7.4740    103.8308
  1311.5000      7.8371      2.5201      0.0405      7.8701    108.2341
  1311.6000      7.8371      2.5083      0.0505      8.5872    113.4922
  1311.7000      7.8371      2.4967      0.0143      9.2934    115.9987
  1311.8000      7.8352      2.4994      0.0029      9.1295    114.2871
  1311.9000      7.8352      2.5174      0.0268      8.0382    112.9535
  1312.0000      7.8332      2.5369      0.0750      6.8538    115.1336
  1312.1000      7.8332      2.5533      0.0386      5.8633    115.8598
  1312.2000      7.8332      2.5733      0.0263      4.6456    112.4524
  1312.3000      7.8311      2.5919      0.0826      3.5219    110.9845
  1312.4000      7.8311      2.5972      0.0617      3.1988    114.6963
  1312.5000      7.8300      2.5904      0.0564      3.6099    118.8178
  1312.6000      7.8300      2.5781      0.0628      4.3566    121.3247
  1312.7000      7.8300      2.5635      0.0888      5.2400    126.0735
  1312.8000      7.8298      2.5485      0.0412      6.1532    130.9904
  1312.9000      7.8298      2.5360      0.0546      6.9105    130.8027
  1313.0000      7.8301      2.5249      0.0644      7.5843    128.3250
  1313.1000      7.8301      2.5109      0.0224      8.4317    125.2616
  1313.2000      7.8301      2.4961      0.0272      9.3274    121.4032
  1313.3000      7.8314      2.4884      0.0497      9.7919    123.1562
  1313.4000      7.8314      2.4988     -0.0083      9.1630    132.6917
  1313.5000      7.8388      2.5336      0.0287      7.0572    142.0325
  1313.6000      7.8388      2.5726      0.1331      4.6882    144.9036
  1313.7000      7.8388      2.5909      0.1432      3.5801    140.2702
  1313.8000      7.8574      2.5917      0.1492      3.5338    130.8227
  1313.9000      7.8574      2.5845      0.1924      3.9671    122.2970
  1314.0000      7.8678      2.5707      0.1548      4.8059    115.7659
  1314.1000      7.8678      2.5600      0.0894      5.4519    108.1953
  1314.2000      7.8678      2.5677      0.0616      4.9890     97.2384
  1314.3000      7.8481      2.5903      0.1184      3.6180     82.8348
  1314.4000      7.8481      2.6039      0.1243      2.7955     70.6072
  1314.5000      7.8261      2.5926      0.0789      3.4812     66.4061
  1314.6000      7.8261      2.5656      0.0646      5.1145     66.0104
  1314.7000      7.8261      2.5433      0.0488      6.4677     62.6637
  1314.8000      7.8200      2.5340      0.0330      7.0283     59.1145
  1314.9000      7.8200      2.5286      0.0591      7.3566     61.1928
  1315.0000      7.8198      2.5214      0.0344      7.7938     66.9803
  1315.1000      7.8198      2.5227      0.0261      7.7133     70.8311
  1315.2000      7.8198      2.5374      0.0623      6.8260     72.2116
  1315.3000      7.8196      2.5544      0.0578      5.7945     73.7821
  1315.4000      7.8196      2.5593      0.0775      5.4951     75.3198
  1315.5000      7.8183      2.5483      0.0455      6.1660     75.9675
  1315.6000      7.8183      2.5393      0.0483      6.7109     78.8378
  1315.7000      7.8183      2.5462      0.0598      6.2899     87.2181
  1315.8000      7.8153      2.5520      0.1077      5.9398     98.2633
  1315.9000      7.8153      2.5387      0.0726      6.7482    106.3933
  1316.0000      7.8133      2.5202     -0.0101      7.8659    110.3374
  1316.1000      7.8133      2.5150      0.0395      8.1794    112.2966
  1316.2000      7.8133      2.5255      0.0257      7.5466    114.7554
  1316.3000      7.8133      2.5523      0.0446      5.9193    118.9371
