~Version Information
VERS.                      2.0: CWLS Log ASCII Standard - VERSION 2.0
WRAP.                       NO: One line per depth step
~Well Information Block
STRT.FT               433.5000: 
STOP.FT              1880.2500: 
STEP.FT                 0.2500: 
NULL.                -999.2500: 
COMP.          Pioneer Natural Resources: COMPANY
WELL.           Buckhorn 12-21: WELL
FLD.           Purgatorie River: FIELD
LOC.           2450' FNL & 608' FWL--: LOCATION
PROV.                       CO: PROVINCE
CNTY.               Las Animas: COUNTRY
SRVC.                         : SERVICE COMPANY
DATE.          Fri Dec 03 14:13:08 2004: LOG DATE
UWI.          005 071 08129 : UNIQUE WELL ID
~Curve Information Block
DEPT.FT            0 000 00 00: Depth
NPOR.pu                       : Neutron Porosity
CCL.                          : Casing Collar Locator
TT3.usec                      : CBL 3' Travel Time
AMP3.mV                       : CBL 3' Amplitude
GR.GAPI                       : Gamma Ray
~Parameter Information Block
~A  Depth       NPOR        CCL         TT3         AMP3         GR     
# ...
  1861.5000     28.9807      0.0000    761.2225      3.2808     34.4224
  1861.7500     28.3001      0.0000    758.2162      3.4979     15.9727
  1862.0000     27.6411      0.0000    750.5887      3.7070      5.9913
  1862.2500     27.1265      0.0000    740.6326      3.9357      1.7974
  1862.5000     26.9124      0.0000    730.5268      4.1997      0.4276
  1862.7500     27.0542      0.0000    722.3542      4.4765      0.0794
  1863.0000     27.4209      0.0000    717.2706      4.7219      0.0107
  1863.2500     27.7877      0.0000    714.8921      4.9064      0.0000
  1863.5000     28.0271      0.0000    713.9377      5.0239   -999.2500
  1863.7500     28.1876      0.0000    713.2606      5.0672   -999.2500
  1864.0000     28.3733      0.0000    712.2919      5.0181   -999.2500
  1864.2500     28.5779      0.0000    710.8813      4.8651   -999.2500
  1864.5000     28.6739      0.0000    708.8905      4.6205   -999.2500
  1864.7500     28.5587      0.0000    706.0237      4.3163   -999.2500
  1865.0000     28.2674      0.0000    701.4813      3.9891   -999.2500
  1865.2500     27.9252      0.0000    692.2238      3.6621   -999.2500
  1865.5000     27.6082      0.0000    670.1056      3.3328   -999.2500
  1865.7500     27.2866      0.0000    621.6316      2.9834   -999.2500
  1866.0000     26.9277      0.0000    534.7787      2.6061   -999.2500
  1866.2500     26.6289      0.0000    411.3836      2.2209   -999.2500
  1866.5000     26.5861      0.0000    273.5155      1.8711   -999.2500
  1866.7500     26.9175      0.0000    152.8280      1.6006   -999.2500
  1867.0000     27.5537      0.0000     70.2522      1.4281   -999.2500
  1867.2500     28.3001      0.0000     26.1597      1.3394   -999.2500
  1867.5000     28.9622      0.0000      7.8026      1.3031   -999.2500
  1867.7500     29.4120      0.0000      1.8466      1.2915   -999.2500
  1868.0000     29.6067      0.0000      0.3417      1.2885   -999.2500
  1868.2500     29.6106      0.0000      0.0454      1.2880   -999.2500
  1868.5000     29.5721      0.0000   -999.2500   -999.2500   -999.2500
  1868.7500     29.6085      0.0000   -999.2500   -999.2500   -999.2500
  1869.0000     29.6926      0.0000   -999.2500   -999.2500   -999.2500
  1869.2500     29.7000      0.0000   -999.2500   -999.2500   -999.2500
  1869.5000     29.5868      0.0000   -999.2500   -999.2500   -999.2500
  1869.7500     29.4726      0.0000   -999.2500   -999.2500   -999.2500
  1870.0000     29.5024      0.0000   -999.2500   -999.2500   -999.2500
  1870.2500     29.6704      0.0000   -999.2500   -999.2500   -999.2500
  1870.5000     29.8329      0.0000   -999.2500   -999.2500   -999.2500
  1870.7500     29.8657      0.0000   -999.2500   -999.2500   -999.2500
  1871.0000     29.7625      0.0000   -999.2500   -999.2500   -999.2500
  1871.2500     29.6048      0.0000   -999.2500   -999.2500   -999.2500
  1871.5000     29.4668      0.0000   -999.2500   -999.2500   -999.2500
  1871.7500     29.3458      0.0000   -999.2500   -999.2500   -999.2500
  1872.0000     29.1890      0.0000   -999.2500   -999.2500   -999.2500
  1872.2500     29.0031      0.0000   -999.2500   -999.2500   -999.2500
  1872.5000     28.9111      0.0000   -999.2500   -999.2500   -999.2500
  1872.7500     29.0781      0.0000   -999.2500   -999.2500   -999.2500
  1873.0000     29.5887      0.0000   -999.2500   -999.2500   -999.2500
  1873.2500     30.3818      0.0000   -999.2500   -999.2500   -999.2500
  1873.5000     31.2629      0.0000   -999.2500   -999.2500   -999.2500
  1873.7500     31.9864      0.0000   -999.2500   -999.2500   -999.2500
  1874.0000     32.3741      0.0000   -999.2500   -999.2500   -999.2500
  1874.2500     32.4004   -999.2500   -999.2500   -999.2500   -999.2500
  1874.5000     32.1773   -999.2500   -999.2500   -999.2500   -999.2500
  1874.7500     31.8484   -999.2500   -999.2500   -999.2500   -999.2500
  1875.0000     31.4832   -999.2500   -999.2500   -999.2500   -999.2500
  1875.2500     31.0804   -999.2500   -999.2500   -999.2500   -999.2500
  1875.5000     30.6699   -999.2500   -999.2500   -999.2500   -999.2500
  1875.7500     30.3597   -999.2500   -999.2500   -999.2500   -999.2500
  1876.0000     30.2424   -999.2500   -999.2500   -999.2500   -999.2500
  1876.2500     30.2803   -999.2500   -999.2500   -999.2500   -999.2500
  1876.5000     30.3271   -999.2500   -999.2500   -999.2500   -999.2500
  1876.7500     30.2747   -999.2500   -999.2500   -999.2500   -999.2500
  1877.0000     30.1776   -999.2500   -999.2500   -999.2500   -999.2500
  1877.2500     30.2710   -999.2500   -999.2500   -999.2500   -999.2500
  1877.5000     30.9111   -999.2500   -999.2500   -999.2500   -999.2500
  1877.7500     32.4333   -999.2500   -999.2500   -999.2500   -999.2500
  1878.0000     34.8908   -999.2500   -999.2500   -999.2500   -999.2500
  1878.2500     37.8482   -999.2500   -999.2500   -999.2500   -999.2500
  1878.5000     40.5619   -999.2500   -999.2500   -999.2500   -999.2500
  1878.7500     42.4772   -999.2500   -999.2500   -999.2500   -999.2500
  1879.0000     43.5227   -999.2500   -999.2500   -999.2500   -999.2500
  1879.2500     43.9653   -999.2500   -999.2500   -999.2500   -999.2500
  1879.5000     44.1109   -999.2500   -999.2500   -999.2500   -999.2500
  1879.7500     44.1480   -999.2500   -999.2500   -999.2500   -999.2500
  1880.0000     44.1554   -999.2500   -999.2500   -999.2500   -999.2500
  1880.2500     44.1565   -999.2500   -999.2500   -999.2500   -999.2500
