~Version Information
VERS.                      2.0: CWLS Log ASCII Standard - VERSION 2.0
WRAP.                       NO: One line per depth step
~Well Information Block
STRT.FT                12.0000: 
STOP.FT              1671.7500: 
STEP.FT                 0.2500: 
NULL.                -999.2500: 
COMP.          Pioneer Natural Resources: COMPANY
WELL.          Scott Canyon 11-18 Tr: WELL
FLD.           Purgatoire River: FIELD
LOC.           411' FNL & 580' FWL: LOCATION
PROV.                 Colorado: PROVINCE
CNTY.               Las Animas: COUNTRY
SRVC.                Patterson: SERVICE COMPANY
DATE.          Tue Feb 22 09:52:18 2005: LOG DATE
UWI.           05 071 08286 00: UNIQUE WELL ID
~Curve Information Block
DEPT.FT            0 000 00 00: Depth
GR.GAPI                       : Gamma Ray
CCL.                          : Casing Collar Locator
TT3.usec                      : CBL 3' Travel Time
AMP3.mV                       : CBL 3' Amplitude
~Parameter Information Block
~A  Depth        GR         CCL         TT3         AMP3    
# ...
   883.0000    112.2549      0.0000   1101.6360     17.4799
   883.2500    106.5880      0.0000   1111.7053     17.2217
   883.5000    101.6573      0.0000   1118.6704     16.9853
   883.7500     96.9392      0.0000   1124.1776     16.8367
   884.0000     90.7225      0.0000   1129.9266     16.8332
   884.2500     81.9992      0.0000   1136.3383     16.9885
   884.5000     71.8675      0.0000   1142.3534     17.2439
   884.7500     62.9724      0.0000   1146.6831     17.4795
   885.0000     57.6534      0.0000   1148.9999     17.5761
   885.2500     56.6289      0.0000   1149.8813     17.4870
   885.5000     59.0706      0.0000   1150.0630     17.2685
   885.7500     63.3586      0.0000   1149.8859     17.0564
   886.0000     67.6825      0.0000   1149.0564     17.0057
   886.2500     70.5941      0.0000   1146.4293     17.2180
   886.5000     71.7348      0.0000   1140.0267     17.6889
   886.7500     72.1430      0.0000   1128.0570     18.3079
   887.0000     73.5521      0.0000   1111.0493     18.9146
   887.2500     77.3541      0.0000   1093.3672     19.3761
   887.5000     84.1485      0.0000   1081.8024     19.6401
   887.7500     93.7210      0.0000   1081.5269     19.7441
   888.0000    104.9456      0.0000   1092.5928     19.7871
   888.2500    115.8474      0.0000   1109.9131     19.8770
   888.5000    124.0223      0.0000   1126.7322     20.0723
   888.7500    127.2045      0.0000   1138.6698     20.3508
   889.0000    124.0815      0.0000   1145.1536     20.6278
   889.2500    115.3467      0.0000   1147.9156     20.8066
   889.5000    103.9715      0.0000   1148.8555     20.8206
   889.7500     93.7541      0.0000   1149.0833     20.6521
   890.0000     87.1462      0.0000   1149.0605     20.3322
   890.2500     84.3442      0.0000   1148.9685     19.9225
   890.5000     84.0688      0.0000   1148.8988     19.4794
   890.7500     84.8090      0.0000   1148.9023     19.0304
   891.0000     85.5260      0.0000   1148.9849     18.5818
   891.2500     85.8734      0.0000   1149.1044     18.1412
   891.5000     86.0872      0.0000   1149.2041     17.7251
   891.7500     86.4210      0.0000   1149.2740     17.3485
   892.0000     86.5792      0.0000   1149.3555     17.0185
   892.2500     86.0327      0.0000   1149.4541     16.7401
   892.5000     84.7514      0.0000   1149.3534     16.5277
   892.7500     82.9986      0.0000   1148.3043     16.4056
   893.0000     80.5832      0.0000   1144.6656     16.3904
   893.2500     77.2537      0.0000   1136.1270     16.4689
   893.5000     73.9216      0.0000   1121.5165     16.5974
   893.7500     72.5274      0.0000   1103.5182     16.7243
   894.0000     74.1811      0.0000   1088.5859     16.8164
   894.2500     77.9157      0.0000   1081.7345     16.8664
   894.5000     81.6368      0.0000   1081.1771     16.8856
   894.7500     83.9605      0.0000   1080.1774     16.8950
   895.0000     84.9252      0.0000   1074.3456     16.9213
   895.2500     85.3197      0.0000   1065.1730     16.9935
   895.5000     85.7176      0.0000   1056.7069     17.1324
   895.7500     86.1324      0.0000   1051.1946     17.3368
   896.0000     86.2118      0.0000   1048.3740     17.5788
   896.2500     85.4552      0.0000   1047.0972     17.8143
   896.5000     83.4004      0.0000   1046.5055     18.0009
   896.7500     79.9957      0.0000   1046.1796     18.1132
   897.0000     75.9007      0.0000   1045.9401     18.1509
   897.2500     72.2475      0.0000   1045.7294     18.1409
   897.5000     69.9769      0.0000   1045.5770     18.1318
   897.7500     69.3456      0.0000   1045.5524     18.1757
   898.0000     70.0240      0.0000   1045.6895     18.2999
   898.2500     71.5395      0.0000   1045.9468     18.4861
   898.5000     73.3680      0.0000   1046.1895     18.6801
   898.7500     74.7194      0.0000   1046.1622     18.8250
   899.0000     74.9314      0.0000   1045.4183     18.8944
   899.2500     74.3536      0.0000   1043.3789     18.9008
   899.5000     74.3203      0.0000   1039.7371     18.8774
   899.7500     75.8813      0.0000   1035.0560     18.8537
   900.0000     78.7481      0.0000   1030.8837     18.8433
   900.2500     81.5456      0.0000   1028.9529     18.8466
   900.5000     82.8645      0.0000   1029.9962     18.8590
   900.7500     82.0556      0.0000   1033.1185     18.8771
   901.0000     79.3867      0.0000   1036.1437     18.9004
   901.2500     75.8227      0.0000   1036.6622     18.9270
   901.5000     72.6177      0.0000   1033.2406     18.9487
   901.7500     70.6624      0.0000   1026.3276     18.9550
   902.0000     69.9087      0.0000   1018.4236     18.9456
   902.2500     69.5255      0.0000   1013.0502     18.9338
   902.5000     68.8540      0.0000   1012.8179     18.9353
   902.7500     68.2037      0.0000   1017.8851     18.9530
   903.0000     68.4745      0.0000   1025.9862     18.9774
   903.2500     69.9530      0.0000   1034.0347     18.9996
   903.5000     71.7515      0.0000   1039.9912     19.0206
   903.7500     72.5451      0.0000   1043.5515     19.0470
   904.0000     71.6871      0.0000   1045.4583     19.0772
   904.2500     69.6273      0.0000   1046.4850     19.0967
   904.5000     67.5410      0.0000   1046.9899     19.0905
   904.7500     66.4942      0.0000   1047.0691     19.0575
   905.0000     66.6764      0.0000   1046.8475     19.0077
   905.2500     67.4022      0.0000   1046.6407     18.9460
   905.5000     67.9803      0.0000   1047.0004     18.8630
   905.7500     68.4776      0.0000   1048.7446     18.7420
   906.0000     69.5229      0.0000   1052.6912     18.5733
   906.2500     71.4991      0.0000   1058.6946     18.3632
   906.5000     74.1300      0.0000   1064.6804     18.1353
   906.7500     76.7375      0.0000   1067.4777     17.9212
   907.0000     78.6442      0.0000   1065.6467     17.7479
   907.2500     79.3963      0.0000   1061.5229     17.6250
   907.5000     78.8485      0.0000   1060.4451     17.5421
   907.7500     77.1535      0.0000   1068.7791     17.4773
   908.0000     74.7264      0.0000   1092.0107     17.4146
   908.2500     72.2475      0.0000   1131.2166     17.3606
   908.5000     70.4600      0.0000   1178.1472     17.3478
   908.7500     69.5156      0.0000   1215.0135     17.4181
   909.0000     68.5862      0.0000   1223.9058     17.5962
   909.2500     66.6853      0.0000   1199.9678     17.8753
   909.5000     63.9041      0.0000   1155.4236     18.2258
   909.7500     61.3096      0.0000   1109.9086     18.6092
   910.0000     59.8233      0.0000   1076.9541     18.9841
   910.2500     59.8237      0.0000   1058.8129     19.3103
   910.5000     61.5279      0.0000   1050.7156     19.5576
   910.7500     64.8645      0.0000   1047.0557     19.7163
   911.0000     68.9161      0.0000   1044.3198     19.7980
   911.2500     72.2098      0.0000   1041.3010     19.8261
   911.5000     73.9485      0.0000   1038.5327     19.8213
   911.7500     74.6656      0.0000   1037.3069     19.7933
   912.0000     75.2693      0.0000   1038.2588     19.7460
   912.2500     75.7010      0.0000   1040.6488     19.6876
   912.5000     75.1613      0.0000   1043.0780     19.6308
   912.7500     73.5216      0.0000   1044.6671     19.5841
   913.0000     71.8722      0.0000   1045.3801     19.5513
   913.2500     71.5739      0.0000   1045.5348     19.5389
   913.5000     73.0990      0.0000   1045.2920     19.5549
   913.7500     75.8850      0.0000   1044.4865     19.5975
   914.0000     79.0765      0.0000   1042.8119     19.6544
   914.2500     82.1592      0.0000   1040.3289     19.7131
   914.5000     84.8613      0.0000   1037.9191     19.7673
   914.7500     86.7548      0.0000   1036.9247     19.8150
   915.0000     87.4028      0.0000   1037.9614     19.8539
   915.2500     87.0554      0.0000   1040.1462     19.8789
   915.5000     86.9505      0.0000   1041.6808     19.8790
   915.7500     88.6272      0.0000   1041.0918     19.8303
   916.0000     92.7539      0.0000   1038.3958     19.6858
   916.2500     98.5791      0.0000   1036.0956     19.3665
