~Version Information
VERS.                      2.0: CWLS Log ASCII Standard - VERSION 2.0
WRAP.                       NO: One line per depth step
~Well Information Block
STRT.FT                 3.0000: 
STOP.FT              1884.7500: 
STEP.FT                 0.2500: 
NULL.                -999.2500: 
COMP.          Pioneer Natural Resources: COMPANY
WELL.          Blackjack 32-11 Tr: WELL
FLD.           Purgatoire River: FIELD
LOC.           2066' FNL & 1453' FEL: LOCATION
PROV.                 Colorado: PROVINCE
CNTY.               Las Animas: COUNTRY
SRVC.                Patterson: SERVICE COMPANY
DATE.          Fri Aug 19 11:07:11 2005: LOG DATE
UWI.           05 071 08310 00: UNIQUE WELL ID
~Curve Information Block
DEPT.FT            0 000 00 00: Depth
CCL.                          : Casing Collar Locator
TT3.usec                      : CBL 3' Travel Time
AMP3.mV                       : CBL 3' Amplitude
GR.GAPI                       : Gamma Ray
~Parameter Information Block
~A  Depth       CCL         TT3         AMP3         GR     
# ...
   606.0000      0.0000    743.3112      8.3323    105.9657
   606.2500      0.0000    737.5814      8.3040    108.8480
   606.5000      0.0000    732.7876      8.2919    109.4762
   606.7500      0.0000    729.4665      8.2848    109.0262
   607.0000      0.0000    727.9205      8.2809    108.3001
   607.2500      0.0000    728.4526      8.2847    107.6553
   607.5000      0.0000    731.7986      8.2990    107.6443
   607.7500      0.0000    738.9384      8.3182    108.7709
   608.0000      0.0000    749.8903      8.3271    110.3051
   608.2500      0.0000    762.4412      8.3098    110.0271
   608.5000      0.0000    772.5470      8.2585    105.8985
   608.7500      0.0000    776.6590      8.1790     98.1068
   609.0000      0.0000    773.8678      8.0870     89.2418
   609.2500      0.0000    765.8711      8.0012     82.5409
   609.5000      0.0000    755.4389      7.9347     80.0737
   609.7500      0.0000    745.2193      7.8929     82.1631
   610.0000      0.0000    737.3023      7.8746     87.7703
   610.2500      0.0000    733.0560      7.8757     95.1617
   610.5000      0.0000    733.1812      7.8939    102.5685
   610.7500      0.0000    737.8663      7.9315    108.6802
   611.0000      0.0000    746.5220      7.9931    112.8490
   611.2500      0.0000    757.2951      8.0760    115.1058
   611.5000      0.0000    767.3907      8.1645    116.0276
   611.7500      0.0000    774.4297      8.2382    116.2748
   612.0000      0.0000    777.5115      8.2878    116.0350
   612.2500      0.0000    776.9446      8.3208    115.0310
   612.5000      0.0000    773.5549      8.3516    113.1356
   612.7500      0.0000    768.7687      8.3876    110.7661
   613.0000      0.0000    764.6404      8.4232    108.5423
   613.2500      0.0000    762.6720      8.4438    106.6479
   613.5000      0.0000    762.8205      8.4363    104.6816
   613.7500      0.0000    764.5720      8.4008    102.2520
   614.0000      0.0000    768.7479      8.3532     99.6876
   614.2500      0.0000    776.9415      8.3133     98.0133
   614.5000      0.0000    788.3890      8.2899     98.0681
   614.7500      0.0000    798.1622      8.2800     99.5657
   615.0000      0.0000    799.8959      8.2781    101.1845
   615.2500      0.0000    790.8630      8.2832    101.7932
   615.5000      0.0000    774.1429      8.2948    101.4120
   615.7500      0.0000    756.0082      8.3083    100.7945
   616.0000      0.0000    741.5964      8.3169    100.3866
   616.2500      0.0000    732.6490      8.3163    100.0170
   616.5000      0.0000    728.1567      8.3071     99.4204
   616.7500      0.0000    726.2305      8.2910     98.6885
   617.0000      0.0000    725.4185      8.2670     98.1077
   617.2500      0.0000    725.0018      8.2340     97.6701
   617.5000      0.0000    724.7490      8.1955     96.9572
   617.7500      0.0000    724.6264      8.1590     95.6822
   618.0000      0.0000    724.6321      8.1299     94.2197
   618.2500      0.0000    724.7373      8.1069     93.2332
   618.5000      0.0000    724.8938      8.0842     92.7670
   618.7500      0.0000    725.0521      8.0583     92.1576
   619.0000      0.0000    725.1553      8.0336     91.0720
   619.2500      0.0000    725.0668      8.0223     90.2532
   619.5000      0.0000    724.3887      8.0384     90.8926
   619.7500      0.0000    722.2330      8.0862     93.4003
   620.0000      0.0000    717.3472      8.1439     97.0315
   620.2500      0.0000    709.3470      8.1516    100.6901
   620.5000      0.0000    700.8188      8.0260    103.8768
   620.7500      0.0000    697.8073      7.7123    106.7406
   621.0000      0.0000    705.9177      7.2520    109.2855
   621.2500      0.0000    724.3324      6.7973    110.7225
   621.5000      0.0000    744.6574      6.5233    109.8099
   621.7500      0.0000    757.5325      6.4902    106.0451
   622.0000      0.0000    760.4248      6.5886    100.5517
   622.2500      3.0000    758.1863      6.6330     95.6934
   622.5000     -3.0000    756.6722      6.5110     93.6831
   622.7500      0.0000    757.3269      6.2577     95.2479
   623.0000      0.0000    757.6887      6.0307     99.2115
   623.2500      0.0000    755.0114      6.0320    103.3816
   623.5000      0.0000    748.4438      6.3972    106.1706
   623.7500      0.0000    739.2165      7.0811    107.3879
   624.0000      0.0000    729.8588      7.8585    107.3755
   624.2500      0.0000    722.5941      8.4941    105.8540
   624.5000      0.0000    718.0336      8.9044    102.3745
   624.7500      0.0000    715.7236      9.1329     97.8245
   625.0000      0.0000    715.3947      9.2385     94.4865
   625.2500      0.0000    716.9294      9.2703     94.0313
   625.5000      0.0000    719.5723      9.3049     95.8638
   625.7500      0.0000    722.1156      9.4313     97.8801
   626.0000      0.0000    723.7714      9.6902     98.4714
   626.2500      0.0000    724.5065     10.0483     97.4995
   626.5000      0.0000    724.6772     10.4312     95.7810
   626.7500      0.0000    724.6323     10.7754     94.1141
   627.0000      0.0000    724.6092     11.0525     92.6912
   627.2500      0.0000    724.8401     11.2537     91.2239
   627.5000      0.0000    725.6704     11.3601     89.7659
   627.7500      0.0000    727.5087     11.3313     89.3454
   628.0000      0.0000    730.4533     11.1277     91.2263
   628.2500      0.0000    733.9172     10.7560     95.2990
   628.5000      0.0000    736.8555     10.2938     99.7503
   628.7500      0.0000    738.4951      9.8544    102.6789
   629.0000      0.0000    738.6102      9.5171    103.6344
   629.2500      0.0000    737.1968      9.2911    103.3985
   629.5000      0.0000    734.4660      9.1389    102.7324
   629.7500      0.0000    731.1653      9.0190    101.4660
   630.0000      0.0000    728.3132      8.9111     98.3967
   630.2500      0.0000    726.4841      8.8192     92.1437
   630.5000      0.0000    725.5835      8.7571     82.6449
   630.7500      0.0000    725.2317      8.7302     71.9883
   631.0000      0.0000    725.1610      8.7281     63.5336
   631.2500      0.0000    725.3986      8.7329     59.8968
   631.5000      0.0000    726.4631      8.7335     61.3625
   631.7500      0.0000    729.6533      8.7310     65.8362
   632.0000      0.0000    736.9703      8.7338     70.3604
   632.2500      0.0000    749.8470      8.7492     72.9791
   632.5000      0.0000    767.1442      8.7770     73.3488
   632.7500      0.0000    785.0158      8.8107     71.8414
   633.0000      0.0000    800.0158      8.8441     68.6980
   633.2500      0.0000    811.9840      8.8763     64.3422
   633.5000      0.0000    822.7313      8.9100     59.9095
   633.7500      0.0000    832.7406      8.9486     56.6995
   634.0000      0.0000    840.6998      8.9946     55.0835
   634.2500      0.0000    845.6078      9.0475     54.3910
   634.5000      0.0000    847.9105      9.1010     53.9757
   634.7500      0.0000    848.7833      9.1455     54.0759
   635.0000      0.0000    849.1674      9.1755     55.3993
   635.2500      0.0000    849.4962      9.1913     58.0093
   635.5000      0.0000    849.8449      9.1940     60.8545
   635.7500      0.0000    850.0201      9.1851     62.4803
   636.0000      0.0000    849.4705      9.1757     62.1803
   636.2500      0.0000    847.0581      9.1928     60.4828
   636.5000      0.0000    841.1748      9.2592     58.5515
   636.7500      0.0000    830.5844      9.3540     57.1646
   637.0000      0.0000    815.4911      9.4063     56.2731
   637.2500      0.0000    797.6615      9.3524     55.4161
   637.5000      0.0000    779.6910      9.1992     54.4004
   637.7500      0.0000    764.8132      9.0141     53.5286
   638.0000      0.0000    756.8513      8.8566     53.2616
   638.2500      0.0000    758.1269      8.7380     53.8088
   638.5000      0.0000    766.0964      8.6402     55.0566
   638.7500      0.0000    773.2438      8.5481     56.8306
   639.0000      0.0000    772.3490      8.4564     59.0974
   639.2500      0.0000    762.3856      8.3611     61.8252
