~Version Information
VERS.                      2.0: CWLS Log ASCII Standard - VERSION 2.0
WRAP.                       NO: One line per depth step
~Well Information Block
STRT.FT               743.8000: 
STOP.FT              1975.8000: 
STEP.FT                 0.1000: 
NULL.                -999.2500: 
COMP.          Petrogulf Corporation: COMPANY
WELL.            Montoya 6-14V: WELL
FLD.           Purgatorie River: FIELD
LOC.           318' FSL & 882' FWL: LOCATION
CNTY.               Las Animas: COUNTY
SRVC.                         : SERVICE COMPANY
DATE.          Sat Aug 14 09:19:43 2004: LOG DATE
UWI.           05 071 08020 00: UNIQUE WELL ID
STAT.                 Colorado: STATE
~Curve Information Block
DEPT.FT            0 000 00 00: Depth
DCAL.in                       : CDL Caliper
RHOB.g/cc                     : CDL Bulk Density
RHOC.g/cc                     : CDL Density Correction
DPOR.pu                       : CDL Density Porosity
GR.GAPI                       : Gamma Ray
NPOR.pu                       : Neutron Porosity
~Parameter Information Block
~A  Depth       DCAL        RHOB        RHOC        DPOR         GR         NPOR    
# ...
  1454.2000      7.7339      2.5732      0.0475      4.6575    101.2875     19.3628
  1454.3000      7.7377      2.5724      0.0670      4.7005    103.3827     19.4057
  1454.4000      7.7377      2.5685      0.0699      4.9410    102.1358     18.8374
  1454.5000      7.7232      2.5544      0.0501      5.7947     98.3964     18.0844
  1454.6000      7.7232      2.5425      0.0308      6.5139     93.3286     18.0310
  1454.7000      7.7232      2.5422      0.0389      6.5312     86.4730     18.6876
  1454.8000      7.7310      2.5471      0.0550      6.2336     79.3575     19.1264
  1454.9000      7.7310      2.5525      0.0505      5.9089     76.1453     19.1161
  1455.0000      7.7464      2.5584      0.0761      5.5522     77.3296     19.2020
  1455.1000      7.7464      2.5656      0.0030      5.1158     75.7033     19.2285
  1455.2000      7.7464      2.5787      0.0480      4.3214     69.1194     18.7126
  1455.3000      7.7633      2.5926      0.1006      3.4798     64.2539     18.2818
  1455.4000      7.7633      2.5978      0.0680      3.1631     63.6042     18.2839
  1455.5000      7.7264      2.5991      0.0664      3.0873     64.3513     17.7442
  1455.6000      7.7264      2.6010      0.0641      2.9701     64.9494     16.2867
  1455.7000      7.7264      2.6010      0.0858      2.9719     63.7072     14.8588
  1455.8000      7.7207      2.6003      0.0643      3.0134     61.3880     14.3180
  1455.9000      7.7207      2.5963      0.0966      3.2518     61.2229     14.2464
  1456.0000      7.7298      2.5807      0.0730      4.1985     63.4407     13.7422
  1456.1000      7.7298      2.5603      0.0311      5.4372     67.2907     13.0592
  1456.2000      7.7298      2.5510      0.0324      6.0028     72.2418     12.8682
  1456.3000      7.7333      2.5605      0.0254      5.4260     75.8826     12.7518
  1456.4000      7.7333      2.5821      0.0690      4.1128     75.1454     12.4939
  1456.5000      7.7105      2.5993      0.0569      3.0738     70.5576     12.6719
  1456.6000      7.7105      2.6077      0.0371      2.5641     65.4893     12.9649
  1456.7000      7.7105      2.6123      0.0700      2.2825     62.0535     12.6011
  1456.8000      7.7222      2.6066      0.0790      2.6287     60.4206     11.8763
  1456.9000      7.7222      2.5910      0.0123      3.5746     60.2362     11.5460
  1457.0000      7.7201      2.5806      0.0334      4.2033     60.4033     11.8091
  1457.1000      7.7201      2.5729      0.0487      4.6703     60.1487     12.2416
  1457.2000      7.7201      2.5595     -0.0120      5.4836     60.6102     12.4133
  1457.3000      7.7253      2.5499      0.0090      6.0675     63.8638     12.4140
  1457.4000      7.7253      2.5499      0.0240      6.0661     69.6397     12.7038
  1457.5000      7.7388      2.5530      0.0331      5.8802     73.9946     13.5542
  1457.6000      7.7388      2.5557      0.0370      5.7180     75.3245     14.9172
  1457.7000      7.7388      2.5611     -0.0045      5.3877     77.9654     16.2976
  1457.8000      7.7347      2.5710      0.0237      4.7875     82.6599     16.7692
  1457.9000      7.7347      2.5807      0.0168      4.2016     85.6670     16.3918
  1458.0000      7.7349      2.5797      0.0777      4.2595     87.9609     15.9690
  1458.1000      7.7349      2.5660      0.0556      5.0913     91.8779     15.9529
  1458.2000      7.7349      2.5564      0.0229      5.6753     94.3748     16.6402
  1458.3000      7.7606      2.5561      0.0597      5.6931     92.1749     18.0389
  1458.4000      7.7606      2.5477      0.0516      6.1977     88.5925     19.6153
  1458.5000      7.7509      2.5201      0.0172      7.8703     88.5913     20.5260
  1458.6000      7.7509      2.4749     -0.0288     10.6095     90.8538     20.3389
  1458.7000      7.7509      2.4153     -0.0109     14.2269     94.4010     19.7682
  1458.8000      7.7817      2.3515     -0.0665     18.0931     99.1882     20.0394
  1458.9000      7.7817      2.2996     -0.0332     21.2348    101.1990     21.4679
  1459.0000      7.8483      2.2623     -0.0410     23.4976    100.5115     23.4748
  1459.1000      7.8483      2.2382     -0.0523     24.9578    100.0418     25.5855
  1459.2000      7.8483      2.2255      0.0113     25.7249     99.2706     27.3176
  1459.3000      7.8868      2.2217     -0.0071     25.9561    102.4888     27.9492
  1459.4000      7.8868      2.2322      0.0671     25.3217    113.7318     27.5231
  1459.5000      7.9467      2.2570      0.1324     23.8189    126.1579     27.1483
  1459.6000      7.9467      2.2885      0.1411     21.9081    131.7378     27.5164
  1459.7000      7.9467      2.3246      0.1607     19.7229    129.8490     28.2505
  1459.8000      8.1960      2.3685      0.0813     17.0617    124.7318     28.8197
  1459.9000      8.1960      2.4175      0.1670     14.0900    122.1221     28.7346
  1460.0000      8.2419      2.4560      0.1723     11.7561    125.3697     28.3325
  1460.1000      8.2419      2.4778      0.1801     10.4377    132.6153     28.6125
  1460.2000      8.2419      2.4916      0.2311      9.6029    139.0579     29.2844
  1460.3000      8.4510      2.4958      0.2866      9.3481    140.2158     29.5961
  1460.4000      8.4510      2.4735      0.2527     10.6981    137.8966     29.6921
  1460.5000      8.3629      2.4170      0.1519     14.1184    138.7200     29.8994
  1460.6000      8.3629      2.3398      0.1212     18.8000    142.3643     30.1654
  1460.7000      8.3629      2.2625      0.0973     23.4833    143.5073     30.5827
  1460.8000      8.3968      2.2093      0.0299     26.7099    141.6909     30.9695
  1460.9000      8.3968      2.2007     -0.0158     27.2279    139.7746     30.5557
  1461.0000      8.1410      2.2392      0.0544     24.8961    138.7112     29.5032
  1461.1000      8.1410      2.3205      0.0567     19.9715    140.8071     28.8689
  1461.2000      8.1410      2.4352      0.2691     13.0174    145.6345     28.5894
  1461.3000      8.0357      2.5492      0.4006      6.1121    146.0837     28.2294
  1461.4000      8.0357      2.6230      0.4327      1.6382    138.2853     28.2716
  1461.5000      8.0708      2.6412      0.3595      0.5309    128.5945     28.7295
  1461.6000      8.0708      2.6244      0.1741      1.5523    124.6297     28.8900
  1461.7000      8.0708      2.6086      0.1380      2.5089    127.5049     28.6912
  1461.8000      8.1580      2.5968      0.1359      3.2224    133.6857     28.6720
  1461.9000      8.1580      2.5648      0.1292      5.1657    138.0801     28.5682
  1462.0000      8.1766      2.5205      0.0496      7.8480    140.5429     28.1185
  1462.1000      8.1766      2.5095     -0.0204      8.5162    142.9388     27.8266
  1462.2000      8.1766      2.5487      0.0497      6.1415    140.2794     27.7119
  1462.3000      8.0564      2.6016      0.0498      2.9359    130.3455     27.2003
  1462.4000      8.0564      2.6183      0.1295      1.9220    120.6345     26.2363
  1462.5000      7.9656      2.5793     -0.0092      4.2843    117.6478     25.6568
  1462.6000      7.9656      2.5165     -0.0489      8.0923    122.7506     25.8984
  1462.7000      7.9656      2.4732     -0.0686     10.7139    134.2742     26.2356
  1462.8000      7.9441      2.4592     -0.0014     11.5627    145.8088     26.3813
  1462.9000      7.9441      2.4601      0.0032     11.5071    149.7960     26.7304
  1463.0000      7.9043      2.4674      0.0104     11.0662    147.6913     26.9982
  1463.1000      7.9043      2.4780      0.0339     10.4219    147.1764     26.7970
  1463.2000      7.9043      2.4853     -0.0383      9.9840    147.1211     26.5096
  1463.3000      7.8694      2.4879     -0.0032      9.8269    142.8333     26.5844
  1463.4000      7.8694      2.4904      0.0661      9.6758    137.8912     26.8486
  1463.5000      7.8962      2.4888      0.0890      9.7722    138.0612     26.7769
  1463.6000      7.8962      2.4783      0.0997     10.4066    139.6980     26.0023
  1463.7000      7.8962      2.4702      0.1006     10.8954    137.5839     24.5433
