~Version Information
VERS.                      2.0: CWLS Log ASCII Standard - VERSION 2.0
WRAP.                       NO: One line per depth step
~Well Information Block
STRT.FT                -9.5000: 
STOP.FT              2451.0000: 
STEP.FT                 0.2500: 
NULL.                -999.2500: 
COMP.          Petrogulf Corporation: COMPANY
WELL.           Vallejo 19-31V: WELL
FLD.           Purgatorie River: FIELD
LOC.           345' FNL & 2457' FEL: LOCATION
CNTY.               Las Animas: COUNTY
SRVC.                         : SERVICE COMPANY
DATE.          Mon Mar 08 08:24:37 2004: LOG DATE
UWI.           05-071-07919-00: UNIQUE WELL ID
STAT.                 Colorado: STATE
~Curve Information Block
DEPT.FT            0 000 00 00: Depth
MINMK.                        : Surface Line Tension
GR.GAPI                       : Gamma Ray
CCL.                          : Casing Collar Locator
TT3.usec                      : CBL 3' Travel Time
AMP3.mV                       : CBL 3' Amplitude
~Parameter Information Block
~A  Depth      MINMK         GR         CCL         TT3         AMP3    
# ...
  1446.5000      0.0000    131.0575      0.0000    745.4741      4.9790
  1446.7500      0.0000    130.0552      0.0000    716.7643      5.0802
  1447.0000      0.0000    129.7591      0.0000    632.4091      5.2166
  1447.2500      0.0000    130.5981      0.0000    524.3207      5.4304
  1447.5000      0.0000    132.8930      0.0000    439.9158      5.7611
  1447.7500      0.0000    136.2117      0.0000    394.5202      6.2584
  1448.0000      0.0000    140.0492      0.0000    372.4593      6.9487
  1448.2500      0.0000    144.5793      0.0000    358.3252      7.8161
  1448.5000      0.0000    150.1992      0.0000    348.6553      8.8296
  1448.7500      0.0000    156.4353      0.0000    343.7707      9.9427
  1449.0000      0.0000    161.6740      0.0000    342.1990     11.0760
  1449.2500      0.0000    164.2856      0.0000    341.7840     12.1622
  1449.5000      0.0000    164.1056      0.0000    340.7827     13.2017
  1449.7500      0.0000    162.7285      0.0000    337.4044     14.2467
  1450.0000      0.0000    162.3398      0.0000    330.5092     15.3807
  1450.2500      0.0000    164.2316      0.0000    321.5406     16.6986
  1450.5000      0.0000    168.0911      0.0000    313.8275     18.2000
  1450.7500      0.0000    172.3412      0.0000    309.2647     19.7299
  1451.0000      0.0000    175.2189      0.0000    307.3085     21.0885
  1451.2500      0.0000    175.8176      0.0000    306.6570     22.1426
  1451.5000      0.0000    174.4948      0.0000    306.4598     22.8507
  1451.7500      0.0000    172.6698      0.0000    306.4153     23.2616
  1452.0000      1.0000    171.9926      0.0000    306.5215     23.4585
  1452.2500      0.0000    172.9502      0.0000    306.7891     23.4911
  1452.5000      0.0000    174.3296      0.0000    307.1189     23.4086
  1452.7500      0.0000    174.7467      0.0000    307.4123     23.3081
  1453.0000      0.0000    174.4405      0.0000    307.6804     23.2712
  1453.2500      0.0000    174.6062      0.0000    307.9502     23.2948
  1453.5000      0.0000    175.1476      0.0000    308.1271     23.3112
  1453.7500      0.0000    174.3882      0.0000    308.1350     23.2231
  1454.0000      0.0000    171.5580      0.0000    308.3922     22.9636
  1454.2500      0.0000    168.4745      0.0000    310.5527     22.6018
  1454.5000      0.0000    167.6196      0.0000    317.2206     22.2292
  1454.7500      0.0000    169.1489      0.0000    328.0797     21.6839
  1455.0000      0.0000    170.9488      0.0000    336.9984     20.6917
  1455.2500      0.0000    171.4035      0.0000    338.3857     19.3014
  1455.5000      0.0000    171.0609      0.0000    333.9664     17.9266
  1455.7500      0.0000    171.3551      0.0000    329.1863     17.0329
  1456.0000      0.0000    172.5343      0.0000    326.9796     16.8036
  1456.2500      0.0000    173.4871      0.0000    325.5896     17.0872
  1456.5000      0.0000    173.2189      0.0000    322.1612     17.7578
  1456.7500      0.0000    171.6672      0.0000    317.6489     18.8520
  1457.0000      0.0000    169.1574      0.0000    315.0818     20.2804
  1457.2500      0.0000    165.8524      0.0000    315.0914     21.7833
  1457.5000      0.0000    161.8739      0.0000    314.1653     23.4509
  1457.7500      0.0000    157.2754      0.0000    307.0119     26.0505
  1458.0000      0.0000    151.7336      0.0000    293.4366     30.0402
  1458.2500      0.0000    144.8443      0.0000    280.0284     34.4285
  1458.5000      0.0000    137.0560      0.0000    272.0821     37.7923
  1458.7500      0.0000    129.9237      0.0000    269.0959     39.8855
  1459.0000      0.0000    125.0688      0.0000    268.3867     41.3125
  1459.2500      0.0000    123.2879      0.0000    268.2553     42.5840
  1459.5000      0.0000    124.9270      0.0000    268.1049     43.8961
  1459.7500      0.0000    130.2504      0.0000    267.8889     45.2337
  1460.0000      0.0000    138.6188      0.0000    267.7339     46.5206
  1460.2500      0.0000    148.0451      0.0000    267.6842     47.7480
  1460.5000      0.0000    156.6031      0.0000    267.6701     48.9701
  1460.7500      0.0000    163.9430      0.0000    267.6544     50.1165
  1461.0000      0.0000    170.8656      0.0000    267.6330     50.9199
  1461.2500      0.0000    177.8896      0.0000    267.5587     51.1931
  1461.5000      0.0000    184.5375      0.0000    267.4414     51.0402
  1461.7500      0.0000    189.3632      0.0000    267.3680     50.6815
  1462.0000      0.0000    190.5048      0.0000    267.3532     50.2791
  1462.2500      0.0000    186.9260      0.0000    267.3670     49.9881
  1462.5000      0.0000    179.5518      0.0000    267.4339     49.9524
  1462.7500      0.0000    170.9483      0.0000    267.5237     50.1483
  1463.0000      0.0000    163.9005      0.0000    267.5313     50.2646
  1463.2500      0.0000    160.3521      0.0000    267.4774     49.7548
  1463.5000      0.0000    161.0358      0.0000    267.5125     48.1673
  1463.7500      0.0000    165.2027      0.0000    267.6767     45.6049
  1464.0000      0.0000    170.6877      0.0000    267.8558     42.7286
  1464.2500      0.0000    174.8489      0.0000    267.9693     40.1769
  1464.5000      0.0000    175.8005      0.0000    268.0829     38.1494
  1464.7500      0.0000    172.9605      0.0000    268.4951     36.4974
  1465.0000      0.0000    166.8512      0.0000    270.0500     34.9435
  1465.2500      0.0000    158.7442      0.0000    274.2846     33.2542
  1465.5000      0.0000    150.3136      0.0000    282.1278     31.3717
  1465.7500      0.0000    142.9850      0.0000    291.7691     29.4122
  1466.0000      0.0000    137.1805      0.0000    299.5954     27.4795
  1466.2500      0.0000    132.2827      0.0000    303.8427     25.6185
  1466.5000      0.0000    127.4994      0.0000    305.3591     24.0500
  1466.7500      0.0000    122.7496      0.0000    305.4998     23.1641
  1467.0000      0.0000    118.8868      0.0000    305.1053     23.1339
  1467.2500      0.0000    117.1921      0.0000    304.7033     23.7159
  1467.5000      0.0000    118.4649      0.0000    304.5799     24.4533
  1467.7500      0.0000    122.4043      0.0000    304.7233     25.0086
  1468.0000      0.0000    127.8363      0.0000    304.9653     25.3118
  1468.2500      0.0000    133.2646      0.0000    305.1704     25.4451
  1468.5000      0.0000    137.1500      0.0000    305.2638     25.4950
  1468.7500      0.0000    138.3210      0.0000    305.2391     25.5276
  1469.0000      0.0000    136.8089      0.0000    305.1740     25.6126
  1469.2500      0.0000    134.2789      0.0000    305.0959     25.8318
  1469.5000      0.0000    133.2706      0.0000    304.9142     26.2374
  1469.7500      0.0000    135.6229      0.0000    304.6171     26.7449
  1470.0000      0.0000    141.1579      0.0000    304.3709     27.1334
  1470.2500      0.0000    147.6237      0.0000    304.2642     27.2795
  1470.5000      0.0000    152.2118      0.0000    304.0284     27.3082
  1470.7500      0.0000    153.6391      0.0000    302.8306     27.4221
  1471.0000      0.0000    152.9956      0.0000    299.1418     27.7257
  1471.2500      0.0000    152.6147      0.0000    291.8462     28.2805
  1471.5000      0.0000    154.1068      0.0000    282.4877     29.1783
  1471.7500      0.0000    157.2686      0.0000    274.7063     30.4303
  1472.0000      0.0000    160.4892      0.0000    270.5079     31.8483
  1472.2500      0.0000    161.8256      0.0000    269.0099     33.1884
  1472.5000      0.0000    159.8358      0.0000    268.5419     34.3842
  1472.7500      0.0000    154.1943      0.0000    268.2182     35.5805
  1473.0000      0.0000    146.2588      0.0000    267.8889     37.0028
  1473.2500      0.0000    138.8690      0.0000    267.6236     38.7665
  1473.5000      0.0000    134.8910      0.0000    267.4276     40.7273
  1473.7500      0.0000    135.4623      0.0000    267.2512     42.5651
  1474.0000      0.0000    139.4882      0.0000    267.0822     44.0254
  1474.2500      0.0000    144.7851      0.0000    266.9279     44.9975
