~Version Information
 VERS.                                  2.0 : CWLS LAS VERSION
 WRAP.                                   NO : WRAPING MODE
 SWARE .                 MController 2.5.0I : SOFTWARE VERSION
~Well Information
 WELL.                      Anderson 18-43v : WELL
 COMP.                       Petrogulf Corp : COMPANY
 FLD.                      Purgatorie River : FIELD
 LOC.                NE/SE Sec 18 T33S R67W : LOCATION
 DATE.                              9/01/04 : DATE(S) LOGGED
 SRVC.       Blanco geological services LLC : SERVICE COMPANY
 STAT.                                   CO : STATE
 CNTY.                           Las Animas : COUNTY
 CTRY.                                  USA : COUNTRY
 API.                       05-071-08156-00 : API NUMBER
 STRT.FT                             158.00 : START DEPTH
 STOP.FT                            2300.00 : STOP DEPTH
 STEP.FT                               1.00 : DEPTH INCREMENT
 NULL.                                -9999 : NULL VALUE
~Curve information
 DEPTH.FT                                   :
 ROP.MIN/FT                                 :
 GAS.UNITS                                  :
~ASCII Log data
# ...
      1958.0          0.3         32.6 
      1959.0          0.3         32.2 
      1960.0          0.3         32.3 
      1961.0          0.4         30.8 
      1962.0          0.4         30.4 
      1963.0          0.5         26.5 
      1964.0          0.5         22.4 
      1965.0          0.5         22.6 
      1966.0          0.6         22.3 
      1967.0          0.4         19.4 
      1968.0          0.4         15.2 
      1969.0          0.4         13.5 
      1970.0          0.5         13.3 
      1971.0          0.5         14.2 
      1972.0          0.5         16.6 
      1973.0          0.5         16.6 
      1974.0          0.5         19.6 
      1975.0          0.5         19.2 
      1976.0          0.4         16.2 
      1977.0          0.4         17.3 
      1978.0          0.4         19.2 
      1979.0          0.4         20.4 
      1980.0          0.3         24.8 
      1981.0          0.3         23.5 
      1982.0          2.0        112.6 
      1983.0          0.3        123.7 
      1984.0          0.6        122.9 
      1985.0          0.5         69.0 
      1986.0          0.5         34.7 
      1987.0          0.5         18.9 
      1988.0          0.5         24.8 
      1989.0          0.4         26.6 
      1990.0          0.3         26.3 
      1991.0          0.4         25.6 
      1992.0          0.5         24.9 
      1993.0          0.5         24.9 
      1994.0          0.7         23.7 
      1995.0          0.4         20.4 
      1996.0          0.3         20.1 
      1997.0          0.4         19.5 
      1998.0          0.4         17.6 
      1999.0          0.4         14.3 
      2000.0          0.4         12.1 
      2001.0          0.4         13.7 
      2002.0          0.3         16.4 
      2003.0          0.4         19.3 
      2004.0          0.4         19.3 
      2005.0          0.4         17.7 
      2006.0          0.4         16.4 
      2007.0          0.4         17.0 
      2008.0          0.4         17.0 
      2009.0          0.4         18.0 
      2010.0          0.4         16.4 
      2011.0          0.4         12.1 
      2012.0          0.3          7.3 
      2013.0          0.3          5.8 
      2014.0          1.5         96.8 
      2015.0          0.4         96.8 
      2016.0          0.3         73.8 
      2017.0          0.3         49.7 
      2018.0          0.2         34.3 
      2019.0          0.3         36.5 
      2020.0          0.2         40.0 
      2021.0          0.3         41.4 
      2022.0          0.3         41.2 
      2023.0          0.3         36.9 
      2024.0          0.2         35.9 
      2025.0          0.2         35.9 
      2026.0          0.3         35.8 
      2027.0          0.3         34.2 
      2028.0          0.3         30.6 
      2029.0          0.2         28.1 
      2030.0          0.4         26.3 
      2031.0          0.3         23.8 
      2032.0          0.2         20.8 
      2033.0          0.3         19.2 
      2034.0          0.3         19.6 
      2035.0          0.3         20.4 
      2036.0          0.3         22.1 
      2037.0          0.3         23.6 
      2038.0          0.3         23.5 
      2039.0          0.3         23.0 
      2040.0          0.3         21.4 
      2041.0          0.4         18.3 
      2042.0          0.3         16.5 
      2043.0          0.3         14.9 
      2044.0          2.0         48.7 
      2045.0          0.6         66.7 
      2046.0          0.4         63.4 
      2047.0          0.4         50.5 
      2048.0          0.4         39.5 
      2049.0          0.3         25.7 
      2050.0          0.4         25.1 
      2051.0          0.3         28.1 
      2052.0          0.3         29.6 
      2053.0          0.2         31.0 
      2054.0          0.3         31.1 
      2055.0          0.2         28.5 
      2056.0          0.3         23.9 
      2057.0          0.3         19.0 
      2058.0          0.3         16.4 
      2059.0          0.3         19.3 
      2060.0          0.3         24.6 
      2061.0          0.3         26.9 
      2062.0          0.3         40.1 
      2063.0          0.3         45.4 
      2064.0          0.3         41.7 
      2065.0          0.3         30.2 
      2066.0          0.4         25.5 
      2067.0          0.4         25.6 
      2068.0          0.4         21.5 
      2069.0          0.4         16.1 
      2070.0          0.3         11.7 
      2071.0          0.3          9.8 
      2072.0          0.3          8.8 
      2073.0          0.3          8.5 
      2074.0          2.2         93.5 
      2075.0          0.5         97.9 
      2076.0          0.8         77.0 
      2077.0          0.9         29.3 
      2078.0          0.8         35.9 
      2079.0          1.2         35.5 
      2080.0          2.0         35.3 
      2081.0          0.3         41.7 
      2082.0          0.3         41.9 
      2083.0          0.3         39.0 
      2084.0          0.3         35.1 
      2085.0          0.3         28.1 
      2086.0          0.3         22.5 
      2087.0          0.3         27.1 
      2088.0          0.3         36.2 
      2089.0          0.3         41.0 
      2090.0          0.4         41.7 
      2091.0          0.3         38.3 
      2092.0          0.3         32.0 
      2093.0          0.3         26.6 
      2094.0          0.3         32.6 
      2095.0          0.3         40.8 
      2096.0          0.3         52.1 
      2097.0          0.3         58.5 
      2098.0          0.3         58.5 
      2099.0          0.3         56.0 
      2100.0          0.3         50.4 
      2101.0          0.4         45.4 
      2102.0          0.3         40.4 
      2103.0          0.2         32.0 
      2104.0          1.6         64.5 
      2105.0          0.3         97.6 
      2106.0          0.4        113.3 
      2107.0          0.3        107.6 
      2108.0          0.3         81.7 
      2109.0          0.4         50.2 
      2110.0          0.3         39.6 
      2111.0          0.4         49.8 
      2112.0          0.4         56.8 
      2113.0          0.4         57.1 
      2114.0          0.4         52.6 
      2115.0          0.4         45.7 
      2116.0          0.3         35.9 
      2117.0          0.4         39.4 
      2118.0          0.3         44.7 
      2119.0          0.3         55.6 
      2120.0          0.3         65.8 
      2121.0          0.3         67.7 
      2122.0          0.3         66.4 
      2123.0          0.3         59.3 
      2124.0          0.3         50.6 
      2125.0          0.3         42.3 
      2126.0          0.3         31.7 
      2127.0          0.3         38.7 
      2128.0          0.3         47.6 
      2129.0          0.3         49.5 
      2130.0          0.4         48.2 
      2131.0          0.3         38.2 
      2132.0          0.3         28.9 
      2133.0          0.4         24.8 
      2134.0          1.4         43.3 
      2135.0          0.2         67.4 
      2136.0          0.1         90.6 
      2137.0          0.2        131.3 
      2138.0          0.3        142.1 
      2139.0          0.3        136.2 
      2140.0          0.3        107.8 
      2141.0          0.3         82.2 
      2142.0          0.3         66.3 
      2143.0          0.2         55.3 
      2144.0          0.2         48.4 
      2145.0          0.3         43.3 
      2146.0          0.2         39.6 
      2147.0          0.2         36.7 
      2148.0          0.2         34.5 
      2149.0          0.2         40.9 
      2150.0          0.2         52.2 
      2151.0          0.2         56.0 
      2152.0          0.2         55.6 
      2153.0          0.2         51.9 
      2154.0          0.3         46.6 
      2155.0          0.2         39.2 
      2156.0          0.2         35.5 
      2157.0          0.2         32.3 
