~Version Information
VERS.                      2.0: CWLS Log ASCII Standard - VERSION 2.0
WRAP.                       NO: One line per depth step
~Well Information Block
STRT.FT               472.0000: 
STOP.FT              2430.5000: 
STEP.FT                 0.2500: 
NULL.                -999.2500: 
COMP.          Pioneer Natural Resources: COMPANY
WELL.          Flying Horse 12-11: WELL
FLD.           Purgatoire River: FIELD
LOC.           2428' FNL & 308' FWL: LOCATION
PROV.                 Colorado: PROVINCE
CNTY.               Las Animas: COUNTRY
SRVC.                Patterson: SERVICE COMPANY
DATE.          Sun May 29 11:58:35 2005: LOG DATE
UWI.           05 071 08378 00: UNIQUE WELL ID
~Curve Information Block
DEPT.FT            0 000 00 00: Depth
SN.Ohm-m                      : IEL Short Normal
SP.mV                         : IEL Spontaneous Potential
DIR.Ohm-m                     : IEL Induction Resistivity
GR.GAPI                       : Gamma Ray
~Parameter Information Block
~A  Depth        SN          SP         DIR          GR     
# ...
   974.5000   2000.0000   2000.0000     18.1062    131.2658
   974.7500   2000.0000   2000.0000     18.0941    130.3260
   975.0000   2000.0000   2000.0000     18.1193    133.3999
   975.2500   2000.0000   2000.0000     18.1540    137.7858
   975.5000   2000.0000   2000.0000     18.1592    145.6287
   975.7500   2000.0000   2000.0000     18.0945    150.4772
   976.0000   2000.0000   2000.0000     17.9341    156.4243
   976.2500   2000.0000   2000.0000     17.6773    159.7616
   976.5000   2000.0000   2000.0000     17.3443    164.3336
   976.7500   2000.0000   2000.0000     16.9612    167.0613
   977.0000   2000.0000   2000.0000     16.5500    170.3454
   977.2500   2000.0000   2000.0000     16.1278    171.8466
   977.5000   2000.0000   2000.0000     15.7077    172.8211
   977.7500   2000.0000   2000.0000     15.2989    172.4359
   978.0000   2000.0000   2000.0000     14.9058    170.3010
   978.2500   2000.0000   2000.0000     14.5300    168.2951
   978.5000   2000.0000   2000.0000     14.1741    165.9374
   978.7500   2000.0000   2000.0000     13.8444    165.6703
   979.0000   2000.0000   2000.0000     13.5496    167.6562
   979.2500   2000.0000   2000.0000     13.2958    170.0352
   979.5000   2000.0000   2000.0000     13.0824    173.6400
   979.7500   2000.0000   2000.0000     12.9017    175.3785
   980.0000   2000.0000   2000.0000     12.7446    176.7551
   980.2500   2000.0000   2000.0000     12.6066    177.2450
   980.5000   2000.0000   2000.0000     12.4890    178.4096
   980.7500   2000.0000   2000.0000     12.3975    179.8264
   981.0000   2000.0000   2000.0000     12.3411    182.3168
   981.2500   2000.0000   2000.0000     12.3350    183.3420
   981.5000   2000.0000   2000.0000     12.3978    182.7607
   981.7500   2000.0000   2000.0000     12.5424    180.9238
   982.0000   2000.0000   2000.0000     12.7657    176.6174
   982.2500   2000.0000   2000.0000     13.0476    172.9881
   982.5000   2000.0000   2000.0000     13.3621    166.5692
   982.7500   2000.0000   2000.0000     13.6927    161.8911
   983.0000   2000.0000   2000.0000     14.0398    155.2441
   983.2500   2000.0000   2000.0000     14.4159    151.5259
   983.5000   2000.0000   2000.0000     14.8305    146.8965
   983.7500   2000.0000   2000.0000     15.2783    144.0912
   984.0000   2000.0000   2000.0000     15.7371    140.3243
   984.2500   2000.0000   2000.0000     16.1807    138.4671
   984.5000   2000.0000   2000.0000     16.5965    136.9324
   984.7500   2000.0000   2000.0000     16.9931    136.5769
   985.0000   2000.0000   2000.0000     17.3885    136.9138
   985.2500   2000.0000   2000.0000     17.7889    137.8207
   985.5000   2000.0000   2000.0000     18.1742    139.7971
   985.7500   2000.0000   2000.0000     18.5046    140.7340
   986.0000   2000.0000   2000.0000     18.7445    140.2077
   986.2500   2000.0000   2000.0000     18.8858    138.4351
   986.5000   2000.0000   2000.0000     18.9559    134.6492
   986.7500   2000.0000   2000.0000     19.0021    132.1641
   987.0000   2000.0000   2000.0000     19.0652    129.2647
   987.2500   2000.0000   2000.0000     19.1571    127.9977
   987.5000   2000.0000   2000.0000     19.2568    127.3601
   987.7500   2000.0000   2000.0000     19.3255    127.9846
   988.0000   2000.0000   2000.0000     19.3328    130.0277
   988.2500   2000.0000   2000.0000     19.2751    131.2345
   988.5000   2000.0000   2000.0000     19.1753    131.5079
   988.7500   2000.0000   2000.0000     19.0652    130.7718
   989.0000   2000.0000   2000.0000     18.9689    129.8106
   989.2500   2000.0000   2000.0000     18.8959    130.2135
   989.5000   2000.0000   2000.0000     18.8435    132.8518
   989.7500   2000.0000   2000.0000     18.8001    135.3096
   990.0000   2000.0000   2000.0000     18.7479    137.9646
   990.2500   2000.0000   2000.0000     18.6661    138.0790
   990.5000   2000.0000   2000.0000     18.5390    135.6866
   990.7500   2000.0000   2000.0000     18.3642    133.1927
   991.0000   2000.0000   2000.0000     18.1566    129.9361
   991.2500   2000.0000   2000.0000     17.9428    128.9475
   991.5000   2000.0000   2000.0000     17.7509    130.0397
   991.7500   2000.0000   2000.0000     17.6030    132.4814
   992.0000   2000.0000   2000.0000     17.5122    137.7498
   992.2500   2000.0000   2000.0000     17.4844    141.3335
   992.5000   2000.0000   2000.0000     17.5189    145.2570
   992.7500   2000.0000   2000.0000     17.6073    146.5922
   993.0000   2000.0000   2000.0000     17.7319    147.0144
   993.2500   2000.0000   2000.0000     17.8684    146.4029
   993.5000   2000.0000   2000.0000     17.9946    143.8645
   993.7500   2000.0000   2000.0000     18.0982    140.9862
   994.0000   2000.0000   2000.0000     18.1805    135.6394
   994.2500   2000.0000   2000.0000     18.2502    132.2094
   994.5000   2000.0000   2000.0000     18.3161    128.1972
   994.7500   2000.0000   2000.0000     18.3838    126.2150
   995.0000   2000.0000   2000.0000     18.4549    123.6313
   995.2500   2000.0000   2000.0000     18.5281    121.8894
   995.5000   2000.0000   2000.0000     18.5980    119.2469
   995.7500   2000.0000   2000.0000     18.6549    117.7308
   996.0000   2000.0000   2000.0000     18.6840    116.6299
   996.2500   2000.0000   2000.0000     18.6681    117.1840
   996.5000   2000.0000   2000.0000     18.5923    120.3575
   996.7500   2000.0000   2000.0000     18.4511    123.8125
   997.0000   2000.0000   2000.0000     18.2509    129.9468
   997.2500   2000.0000   2000.0000     18.0048    133.9308
   997.5000   2000.0000   2000.0000     17.7285    138.8628
   997.7500   2000.0000   2000.0000     17.4386    141.3152
   998.0000   2000.0000   2000.0000     17.1528    143.8598
   998.2500   2000.0000   2000.0000     16.8855    144.7801
   998.5000   2000.0000   2000.0000     16.6419    144.8017
   998.7500   2000.0000   2000.0000     16.4196    144.0232
   999.0000   2000.0000   2000.0000     16.2162    142.5171
   999.2500   2000.0000   2000.0000     16.0370    141.8174
   999.5000   2000.0000   2000.0000     15.8938    141.3580
   999.7500   2000.0000   2000.0000     15.7977    141.0838
  1000.0000   2000.0000   2000.0000     15.7504    140.1017
  1000.2500   2000.0000   2000.0000     15.7438    138.9785
  1000.5000   2000.0000   2000.0000     15.7678    136.8001
  1000.7500   2000.0000   2000.0000     15.8202    135.2346
  1001.0000   2000.0000   2000.0000     15.9055    133.1463
  1001.2500   2000.0000   2000.0000     16.0207    132.0756
  1001.5000   2000.0000   2000.0000     16.1423    130.8201
  1001.7500   2000.0000   2000.0000     16.2317    130.1383
  1002.0000   2000.0000   2000.0000     16.2584    130.0364
  1002.2500   2000.0000   2000.0000     16.2187    131.4372
  1002.5000   2000.0000   2000.0000     16.1309    136.5101
  1002.7500   2000.0000   2000.0000     16.0179    141.1480
  1003.0000   2000.0000   2000.0000     15.9000    147.1409
  1003.2500   2000.0000   2000.0000     15.7989    149.0092
  1003.5000   2000.0000   2000.0000     15.7368    148.2415
  1003.7500   2000.0000   2000.0000     15.7267    146.5067
  1004.0000   2000.0000   2000.0000     15.7626    144.8588
  1004.2500   2000.0000   2000.0000     15.8227    145.3006
  1004.5000   2000.0000   2000.0000     15.8823    147.5455
  1004.7500   2000.0000   2000.0000     15.9268    148.8580
  1005.0000   2000.0000   2000.0000     15.9530    148.8655
  1005.2500   2000.0000   2000.0000     15.9610    147.3807
  1005.5000   2000.0000   2000.0000     15.9414    143.5725
  1005.7500   2000.0000   2000.0000     15.8697    140.3366
  1006.0000   2000.0000   2000.0000     15.7112    134.2175
  1006.2500   2000.0000   2000.0000     15.4409    128.8431
  1006.5000   2000.0000   2000.0000     15.0622    118.7914
  1006.7500   2000.0000   2000.0000     14.6091    111.6958
  1007.0000   2000.0000   2000.0000     14.1291    103.1074
  1007.2500   2000.0000   2000.0000     13.6623    100.0243
  1007.5000   2000.0000   2000.0000     13.2320    100.0485
  1007.7500   2000.0000   2000.0000     12.8494    102.7907
