~Version Information
VERS.                      2.0: CWLS Log ASCII Standard - VERSION 2.0
WRAP.                       NO: One line per depth step
~Well Information Block
STRT.FT               553.0000: 
STOP.FT              1576.5000: 
STEP.FT                 0.2500: 
NULL.                -999.2500: 
COMP.          Pioneer Natural Resources: COMPANY
WELL.           Telna 24-22 Tr: WELL
FLD.           Purgatoire River: FIELD
LOC.           748' FSL & 1931' FWL: LOCATION
PROV.                 Colorado: PROVINCE
CNTY.               Las Animas: COUNTRY
SRVC.                Patterson: SERVICE COMPANY
DATE.          Mon May 02 07:15:29 2005: LOG DATE
UWI.           05 071 08304 00: UNIQUE WELL ID
~Curve Information Block
DEPT.FT            0 000 00 00: Depth
DCAL.in                       : CDL Caliper
RHOB.g/cc                     : CDL Bulk Density
RHOC.g/cc                     : CDL Density Correction
DPOR.pu                       : CDL Density Porosity
GR.GAPI                       : Gamma Ray
NPOR.pu                       : Neutron Porosity
~Parameter Information Block
~A  Depth       DCAL        RHOB        RHOC        DPOR         GR         NPOR    
# ...
   961.0000      7.9671      2.3802      0.0496     16.3530    105.4905     29.5123
   961.2500      7.9679      2.3847      0.0528     16.0792    116.6969     28.1916
   961.5000      7.9683      2.3608      0.0001     17.5254    113.0358     29.4169
   961.7500      7.9690      2.4402      0.1134     12.7177    105.6089     26.6372
   962.0000      7.9740      2.4383      0.0819     12.8325    109.7976     26.5920
   962.2500      7.9863      2.4028      0.0816     14.9804    117.5568     28.3971
   962.5000      7.9785      2.4362      0.0586     12.9590    118.5688     25.8965
   962.7500      7.9288      2.4671      0.0793     11.0860    115.8317     28.0816
   963.0000      7.8850      2.5205      0.1445      7.8480    131.4809     28.3441
   963.2500      7.8701      2.5128      0.1094      8.3150    126.4924     28.1518
   963.5000      7.8674      2.5128      0.0314      8.3140    123.5887     24.7513
   963.7500      7.8676      2.5722      0.1550      4.7127    120.5711     25.6123
   964.0000      7.8698      2.6271      0.0759      1.3898    116.5568     26.2876
   964.2500      7.8716      2.6239      0.0406      1.5812     98.1905     26.5139
   964.5000      7.8704      2.6260      0.0154      1.4564    111.8777     29.4044
   964.7500      7.8717      2.6148     -0.0176      2.1330    107.7816     29.5341
   965.0000      7.8789      2.5812      0.0685      4.1726    119.6849     26.0714
   965.2500      7.8881      2.5805      0.0712      4.2140    125.1891     26.2868
   965.5000      7.8962      2.5307      0.0739      7.2315    130.7022     25.7267
   965.7500      7.9004      2.5259      0.0520      7.5185    129.3356     28.6941
   966.0000      7.9021      2.5045      0.0096      8.8164    120.5052     28.6266
   966.2500      7.9029      2.4920      0.0292      9.5737    131.9467     27.1226
   966.5000      7.9027      2.4219     -0.0470     13.8246    122.6504     26.5858
   966.7500      7.9036      2.4444     -0.0002     12.4628    120.6822     25.7671
   967.0000      7.9066      2.4142     -0.0052     14.2924    127.9955     27.5640
   967.2500      7.9079      2.3772     -0.0104     16.5306    126.6941     27.5306
   967.5000      7.9055      2.3919      0.0614     15.6403    128.4834     25.5881
   967.7500      7.9040      2.4089      0.0650     14.6097    124.8671     27.6055
   968.0000      7.9045      2.5107      0.1409      8.4407    140.7267     27.2374
   968.2500      7.9045      2.6069      0.2377      2.6123    134.9615     29.0010
   968.5000      7.9039      2.5725      0.1980      4.6950    136.4693     27.5598
   968.7500      7.9035      2.5039      0.0760      8.8575    138.6898     27.8110
   969.0000      7.9036      2.4513      0.0645     12.0419    131.4650     28.1726
   969.2500      7.9034      2.4391      0.0174     12.7831    127.8521     27.5183
   969.5000      7.9027      2.4904      0.0515      9.6716    134.9197     30.2342
   969.7500      7.9024      2.4845      0.0448     10.0316    129.4384     29.7110
   970.0000      7.9028      2.4723      0.0529     10.7675    123.9045     26.3147
   970.2500      7.9034      2.4635      0.0233     11.3038    124.5617     26.9628
   970.5000      7.9042      2.4702      0.0626     10.8971    125.8877     27.1691
   970.7500      7.9052      2.4222      0.0482     13.8070    132.0952     28.5821
   971.0000      7.9053      2.3979      0.0692     15.2785    141.4179     28.5508
   971.2500      7.9051      2.3899      0.0048     15.7641    132.9796     27.6217
   971.5000      7.9050      2.3396      0.0272     18.8144    119.7420     27.9781
   971.7500      7.9051      2.3303      0.0192     19.3738    121.6290     29.7067
   972.0000      7.9063      2.2882      0.0396     21.9270    125.2216     29.3692
   972.2500      7.9099      2.2721      0.0687     22.9050    112.0048     28.6648
   972.5000      7.9126      2.3129      0.0960     20.4283    116.5517     29.2407
   972.7500      7.9080      2.3582      0.0677     17.6836    121.9308     29.6914
   973.0000      7.9023      2.4790      0.1714     10.3665    119.5579     31.4704
   973.2500      7.8997      2.5446      0.1938      6.3856    120.3296     30.4698
   973.5000      7.8797      2.5056      0.1250      8.7534    137.1680     28.5827
   973.7500      7.8341      2.5118      0.0681      8.3767    136.8189     26.4078
   974.0000      7.8031      2.5701      0.1372      4.8405    130.9350     23.5808
   974.2500      7.7962      2.5256      0.0308      7.5372    131.2810     24.2508
   974.5000      7.7963      2.4793     -0.0158     10.3475    128.5517     25.5290
   974.7500      7.7968      2.4970      0.0107      9.2729    128.0294     24.5681
   975.0000      7.7970      2.5398      0.0561      6.6809    141.4940     26.3436
   975.2500      7.7967      2.5104      0.0275      8.4582    142.9973     26.8039
   975.5000      7.7962      2.4743      0.0814     10.6458    158.5896     26.8551
   975.7500      7.7965      2.4411     -0.0078     12.6589    160.3459     28.2962
   976.0000      7.7971      2.4336      0.0100     13.1160    149.8806     27.9473
   976.2500      7.7960      2.4971      0.0738      9.2696    133.8033     27.2409
   976.5000      7.7896      2.5614      0.1406      5.3706    139.1482     28.5023
   976.7500      7.7786      2.5578      0.1064      5.5876    142.2147     26.7594
   977.0000      7.7718      2.5846      0.1141      3.9626    126.0309     27.7481
   977.2500      7.7702      2.5909      0.0642      3.5841    110.5333     24.9926
   977.5000      7.7699      2.7355      0.0601     -5.1829    124.2364     22.0528
   977.7500      7.7692      2.8521      0.2133    -12.2485    114.5081     23.6318
   978.0000      7.7687      2.9278      0.1311    -16.8358     96.1185     24.1628
   978.2500      7.7682      2.9461      0.1136    -17.9441     97.0608     25.8375
   978.5000      7.7677      2.7848     -0.0088     -8.1703    105.3382     23.0633
   978.7500      7.7678      2.6310     -0.0810      1.1519    111.7757     23.4002
   979.0000      7.7684      2.5463     -0.0520      6.2831    121.1433     26.6792
   979.2500      7.7692      2.5338      0.0096      7.0396    138.7079     27.0661
   979.5000      7.7695      2.5245      0.0396      7.6059    134.0100     28.3263
   979.7500      7.7695      2.5177      0.0929      8.0188    130.4041     27.0095
   980.0000      7.7696      2.4997      0.0197      9.1104    123.1245     25.9234
   980.2500      7.7698      2.5544      0.0664      5.7966    122.0982     24.9523
   980.5000      7.7696      2.5806      0.0826      4.2032    117.4897     25.0713
   980.7500      7.7694      2.5739      0.0956      4.6127    127.0233     26.8695
   981.0000      7.7695      2.5518      0.0649      5.9509    143.8273     27.7769
   981.2500      7.7695      2.5427     -0.0018      6.5001    137.7095     27.4576
   981.5000      7.7695      2.5250      0.0032      7.5757    128.3296     25.7871
   981.7500      7.7695      2.5136      0.0344      8.2645    136.9782     25.4277
   982.0000      7.7695      2.5371      0.0594      6.8420    141.8166     25.9853
   982.2500      7.7691      2.5608      0.0911      5.4033    141.4025     26.7097
   982.5000      7.7685      2.5197      0.0564      7.8979    155.3523     28.3234
   982.7500      7.7689      2.5228      0.0410      7.7076    143.5879     27.4665
   983.0000      7.7697      2.5390      0.0880      6.7278    141.2062     27.6451
   983.2500      7.7693      2.5290      0.0749      7.3326    143.4825     26.1100
   983.5000      7.7676      2.5580      0.0829      5.5764    139.6947     24.3811
   983.7500      7.7672      2.5712      0.0802      4.7736    138.5973     24.9234
   984.0000      7.7679      2.5996      0.0727      3.0541    136.9245     27.4766
   984.2500      7.7689      2.5721      0.0529      4.7235    146.2457     27.3479
   984.5000      7.7704      2.5256     -0.0058      7.5394    148.7336     25.4607
   984.7500      7.7709      2.5080      0.0029      8.6082    152.0533     25.9875
