~Version Information
VERS.                      2.0: CWLS Log ASCII Standard - VERSION 2.0
WRAP.                       NO: One line per depth step
~Well Information Block
STRT.FT               235.0000: 
STOP.FT              1634.5000: 
STEP.FT                 0.2500: 
NULL.                -999.2500: 
COMP.          Petrogulf Corporation: COMPANY
WELL.             State 16-41R: WELL
FLD.           Purgatorie River: FIELD
LOC.           280' FNL & 907' FEL: LOCATION
SECT.                       16: SECTION
TOWN.                      33S: TOWNSHIP
RANG.                      67W: RANGE
STAT.                 Colorado: STATE
CNTY.               Las Animas: COUNTY
CTRY.                      USA: COUNTRY
SRVC.                Patterson: SERVICE COMPANY
DATE.         Tue Oct 18 15:59:41 2005: LOG DATE
API.              05-071-08345: UNIQUE WELL ID
~Curve Information Block
DEPT.FT            0 000 00 00: Depth
SP.mV                         : DIL Spontaneous Potential
RILD.Ohm-m                    : DIL Deep Resistivity
RILM.Ohm-m                    : DIL Medium Resistivity
RLL3.Ohm-m                    : DIL Shallow Resistivity
GR.GAPI                       : Gamma Ray
~Parameter Information Block
~A  Depth        SP         RILD        RILM        RLL3         GR     
# ...
   319.0000   2000.0000     10.9320     10.1226   2000.0000    148.9147
   319.2500   2000.0000     11.2957     10.4190   2000.0000    148.1032
   319.5000   2000.0000     11.7042     10.8070   2000.0000    144.6695
   319.7500   2000.0000     12.1598     11.3009   2000.0000    142.2337
   320.0000   2000.0000     12.6662     11.9147   2000.0000    140.3117
   320.2500   2000.0000     13.2315     12.6610   2000.0000    140.2432
   320.5000   2000.0000     13.8681     13.5496   2000.0000    139.8315
   320.7500   2000.0000     14.5873     14.5855   2000.0000    137.5940
   321.0000   2000.0000     15.3930     15.7670   2000.0000    129.5801
   321.2500   2000.0000     16.2789     17.0836   2000.0000    121.5634
   321.5000   2000.0000     17.2321     18.5154   2000.0000    108.2142
   321.7500   2000.0000     18.2400     20.0325   2000.0000    100.2422
   322.0000   2000.0000     19.2933     21.5956   2000.0000     91.6075
   322.2500   2000.0000     20.3798     23.1564   2000.0000     88.1933
   322.5000   2000.0000     21.4761     24.6584   2000.0000     85.5269
   322.7500   2000.0000     22.5416     26.0403   2000.0000     84.4731
   323.0000   2000.0000     23.5235     27.2432   2000.0000     82.8373
   323.2500   2000.0000     24.3715     28.2214   2000.0000     81.8257
   323.5000   2000.0000     25.0564     28.9534   2000.0000     82.3086
   323.7500   2000.0000     25.5799     29.4479   2000.0000     85.3298
   324.0000   2000.0000     25.9689     29.7399   2000.0000     94.2929
   324.2500   2000.0000     26.2607     29.8798   2000.0000    101.6572
   324.5000   2000.0000     26.4899     29.9210   2000.0000    110.6112
   324.7500   2000.0000     26.6817     29.9109   2000.0000    113.4857
   325.0000   2000.0000     26.8505     29.8868   2000.0000    112.9738
   325.2500   2000.0000     27.0007     29.8753   2000.0000    110.3435
   325.5000   2000.0000     27.1291     29.8934   2000.0000    104.6328
   325.7500   2000.0000     27.2284     29.9468   2000.0000    100.3838
   326.0000   2000.0000     27.2885     30.0296   2000.0000     94.4653
   326.2500   2000.0000     27.2990     30.1230   2000.0000     91.2625
   326.5000   2000.0000     27.2542     30.1975   2000.0000     87.4114
   326.7500   2000.0000     27.1593     30.2169   2000.0000     84.9767
   327.0000   2000.0000     27.0306     30.1465   2000.0000     80.8103
   327.2500   2000.0000     26.8893     29.9604   2000.0000     77.6320
   327.5000   2000.0000     26.7557     29.6491   2000.0000     72.7853
   327.7500   2000.0000     26.6477     29.2235   2000.0000     70.1626
   328.0000   2000.0000     26.5825     28.7156   2000.0000     68.7321
   328.2500   2000.0000     26.5724     28.1743   2000.0000     70.2863
   328.5000   2000.0000     26.6164     27.6572   2000.0000     76.8478
   328.7500   2000.0000     26.6950     27.2199   2000.0000     83.5930
   329.0000   2000.0000     26.7748     26.9072   2000.0000     95.4076
   329.2500   2000.0000     26.8226     26.7456   2000.0000    102.8113
   329.5000   2000.0000     26.8201     26.7414   2000.0000    110.1242
   329.7500   2000.0000     26.7720     26.8813   2000.0000    111.1444
   330.0000   2000.0000     26.7023     27.1373   2000.0000    106.6384
   330.2500   2000.0000     26.6440     27.4741   2000.0000    100.6770
   330.5000   2000.0000     26.6299     27.8570   2000.0000     90.0795
   330.7500   2000.0000     26.6903     28.2600   2000.0000     83.4171
   331.0000   2000.0000     26.8536     28.6685   2000.0000     75.6413
   331.2500   2000.0000     27.1443     29.0790   2000.0000     72.0474
   331.5000   2000.0000     27.5754     29.4936   2000.0000     68.0009
   331.7500   2000.0000     28.1370     29.9148   2000.0000     65.5973
   332.0000   2000.0000     28.7898     30.3411   2000.0000     62.5823
   332.2500   2000.0000     29.4676     30.7650   2000.0000     61.4738
   332.5000   2000.0000     30.0914     31.1742   2000.0000     61.3872
   332.7500   2000.0000     30.5894     31.5536   2000.0000     61.9499
   333.0000   2000.0000     30.9166     31.8881   2000.0000     62.8191
   333.2500   2000.0000     31.0652     32.1648   2000.0000     63.1712
   333.5000   2000.0000     31.0639     32.3755   2000.0000     63.4443
   333.7500   2000.0000     30.9704     32.5177   2000.0000     63.5962
   334.0000   2000.0000     30.8580     32.5959   2000.0000     63.7672
   334.2500   2000.0000     30.7986     32.6207   2000.0000     63.6653
   334.5000   2000.0000     30.8404     32.6080   2000.0000     63.0761
   334.7500   2000.0000     30.9905     32.5759   2000.0000     62.6682
   335.0000   2000.0000     31.2147     32.5425   2000.0000     62.7020
   335.2500   2000.0000     31.4582     32.5225   2000.0000     63.1639
   335.5000   2000.0000     31.6745     32.5253   2000.0000     63.6774
   335.7500   2000.0000     31.8434     32.5543   2000.0000     63.4477
   336.0000   2000.0000     31.9714     32.6072   2000.0000     62.5562
   336.2500   2000.0000     32.0811     32.6778   2000.0000     62.2340
   336.5000   2000.0000     32.2008     32.7596   2000.0000     62.6889
   336.7500   2000.0000     32.3560     32.8488   2000.0000     63.2191
   337.0000   2000.0000     32.5612     32.9474   2000.0000     63.2155
   337.2500   2000.0000     32.8133     33.0634   2000.0000     62.3921
   337.5000   2000.0000     33.0940     33.2094   2000.0000     60.4008
   337.7500   2000.0000     33.3801     33.3989   2000.0000     59.1267
   338.0000   2000.0000     33.6568     33.6425   2000.0000     58.0009
   338.2500   2000.0000     33.9212     33.9446   2000.0000     57.7221
   338.5000   2000.0000     34.1769     34.3018   2000.0000     57.1384
   338.7500   2000.0000     34.4290     34.7038   2000.0000     56.1476
   339.0000   2000.0000     34.6858     35.1354   2000.0000     53.9110
   339.2500   2000.0000     34.9648     35.5802   2000.0000     52.5209
   339.5000   2000.0000     35.2897     36.0247   2000.0000     51.4117
   339.7500   2000.0000     35.6755     36.4608   2000.0000     51.2512
   340.0000   2000.0000     36.1151     36.8879   2000.0000     50.9916
   340.2500   2000.0000     36.5808     37.3126   2000.0000     50.2713
   340.5000   2000.0000     37.0408     37.7460   2000.0000     48.1662
   340.7500   2000.0000     37.4763     38.2007   2000.0000     46.5159
   341.0000   2000.0000     37.8833     38.6869   2000.0000     44.9552
   341.2500   2000.0000     38.2625     39.2111   2000.0000     45.0974
   341.5000   2000.0000     38.6129     39.7759   2000.0000     47.1036
   341.7500   2000.0000     38.9348     40.3805   2000.0000     49.1208
   342.0000   2000.0000     39.2391     41.0212   2000.0000     51.8302
   342.2500   2000.0000     39.5536     41.6900   2000.0000     52.6104
   342.5000   2000.0000     39.9165     42.3738   2000.0000     51.4163
   342.7500   2000.0000     40.3524     43.0540   2000.0000     49.3372
   343.0000   2000.0000     40.8422     43.7085   2000.0000     46.0877
   343.2500   2000.0000     41.3153     44.3174   2000.0000     44.8624
   343.5000   2000.0000     41.6826     44.8673   2000.0000     44.6717
   343.7500   2000.0000     41.8981     45.3534   2000.0000     44.9473
   344.0000   2000.0000     41.9957     45.7769   2000.0000     44.8000
   344.2500   2000.0000     42.0722     46.1396   2000.0000     44.2416
   344.5000   2000.0000     42.2331     46.4407   2000.0000     43.2799
   344.7500   2000.0000     42.5491     46.6775   2000.0000     42.8249
   345.0000   2000.0000     43.0426     46.8517   2000.0000     42.5199
   345.2500   2000.0000     43.6961     46.9766   2000.0000     42.6163
   345.5000   2000.0000     44.4653     47.0806   2000.0000     43.4256
   345.7500   2000.0000     45.2840     47.2022   2000.0000     44.4672
   346.0000   2000.0000     46.0733     47.3790   2000.0000     46.6171
   346.2500   2000.0000     46.7602     47.6333   2000.0000     48.2929
   346.5000   2000.0000     47.3006     47.9626   2000.0000     50.9056
   346.7500   2000.0000     47.6839     48.3374   2000.0000     52.3864
