~Version Information
VERS.                      2.0: CWLS Log ASCII Standard - VERSION 2.0
WRAP.                       NO: One line per depth step
~Well Information Block
STRT.FT                 0.0000: 
STOP.FT              2430.7500: 
STEP.FT                 0.2500: 
NULL.                -999.2500: 
COMP.          Petrogulf Corporation: COMPANY
WELL.             Leier 17-42V: WELL
FLD.           Purgatorie River: FIELD
LOC.           2309' FNL & 1062' FEL: LOCATION
PROV.                 Colorado: PROVINCE
CNTY.               Las Animas: COUNTRY
SRVC.                Patterson: SERVICE COMPANY
DATE.          Thu Oct 06 10:18:00 2005: LOG DATE
UWI.                          : UNIQUE WELL ID
~Curve Information Block
DEPT.FT            0 000 00 00: Depth
CCL.                          : Casing Collar Locator
TT3.usec                      : CBL 3' Travel Time
AMP3.mV                       : CBL 3' Amplitude
GR.GAPI                       : Gamma Ray
~Parameter Information Block
~A  Depth       CCL         TT3         AMP3         GR     
# ...
  2412.0000      0.0000    682.9754      1.4627     76.1590
  2412.2500      0.0000    682.7227      1.4658     76.1249
  2412.5000      0.0000    689.9011      1.4832     75.6135
  2412.7500      0.0000    704.9037      1.5258     73.9120
  2413.0000      0.0000    720.9003      1.5784     70.9042
  2413.2500      0.0000    733.7874      1.6118     66.9684
  2413.5000      0.0000    745.0404      1.6272     62.6666
  2413.7500      0.0000    753.6319      1.6529     58.4186
  2414.0000      0.0000    756.1974      1.7045     54.2190
  2414.2500      0.0000    753.0062      1.7695     49.3989
  2414.5000      0.0000    748.4755      1.8221     42.7804
  2414.7500      0.0000    745.5388      1.8526     33.6806
  2415.0000      0.0000    740.6372      1.8766     23.0659
  2415.2500      0.0000    728.0988      1.9045     13.2675
  2415.5000      0.0000    709.4719      1.9215      6.2548
  2415.7500      0.0000    694.9669      1.9188      2.3776
  2416.0000      0.0000    693.3450      1.9110      0.7209
  2416.2500      0.0000    702.0754      1.9092      0.1729
  2416.5000      0.0000    710.7682      1.9100      0.0325
  2416.7500      0.0000    712.0345      1.9121      0.0044
  2417.0000      0.0000    705.5677      1.9179      0.0000
  2417.2500      0.0000    696.4003      1.9329   -999.2500
  2417.5000      0.0000    695.6729      1.9642   -999.2500
  2417.7500      0.0000    715.3221      2.0074   -999.2500
  2418.0000      0.0000    751.8258      2.0493   -999.2500
  2418.2500      0.0000    783.6189      2.0843   -999.2500
  2418.5000      0.0000    792.3598      2.1093   -999.2500
  2418.7500      0.0000    789.1735      2.1100   -999.2500
  2419.0000      0.0000    813.8380      2.0721   -999.2500
  2419.2500      0.0000    881.6979      1.9993   -999.2500
  2419.5000      0.0000    939.1134      1.9096   -999.2500
  2419.7500      0.0000    911.8983      1.8122   -999.2500
  2420.0000      0.0000    774.7787      1.6895   -999.2500
  2420.2500      0.0000    551.9578      1.5126   -999.2500
  2420.5000      0.0000    308.7521      1.3014   -999.2500
  2420.7500      0.0000    126.7208      1.1290   -999.2500
  2421.0000      0.0000     36.2758      1.0381   -999.2500
  2421.2500      0.0000      7.0073      1.0075   -999.2500
  2421.5000      0.0000      0.8933      1.0010   -999.2500
  2421.7500      0.0000      0.0707      1.0001   -999.2500
  2422.0000      0.0000   -999.2500   -999.2500   -999.2500
  2422.2500      0.0000   -999.2500   -999.2500   -999.2500
  2422.5000      0.0000   -999.2500   -999.2500   -999.2500
  2422.7500      0.0000   -999.2500   -999.2500   -999.2500
  2423.0000      0.0000   -999.2500   -999.2500   -999.2500
  2423.2500      0.0000   -999.2500   -999.2500   -999.2500
  2423.5000      0.0000   -999.2500   -999.2500   -999.2500
  2423.7500      0.0000   -999.2500   -999.2500   -999.2500
  2424.0000      0.0000   -999.2500   -999.2500   -999.2500
  2424.2500      0.0000   -999.2500   -999.2500   -999.2500
  2424.5000      0.0000   -999.2500   -999.2500   -999.2500
  2424.7500      0.0000   -999.2500   -999.2500   -999.2500
  2425.0000      0.0000   -999.2500   -999.2500   -999.2500
  2425.2500      0.0000   -999.2500   -999.2500   -999.2500
  2425.5000      0.0000   -999.2500   -999.2500   -999.2500
  2425.7500      0.0000   -999.2500   -999.2500   -999.2500
  2426.0000      0.0000   -999.2500   -999.2500   -999.2500
  2426.2500      0.0000   -999.2500   -999.2500   -999.2500
  2426.5000      0.0000   -999.2500   -999.2500   -999.2500
  2426.7500      0.0000   -999.2500   -999.2500   -999.2500
  2427.0000      0.0000   -999.2500   -999.2500   -999.2500
  2427.2500      0.0000   -999.2500   -999.2500   -999.2500
  2427.5000      0.0000   -999.2500   -999.2500   -999.2500
  2427.7500      0.0000   -999.2500   -999.2500   -999.2500
  2428.0000   -999.2500   -999.2500   -999.2500   -999.2500
  2428.2500   -999.2500   -999.2500   -999.2500   -999.2500
  2428.5000   -999.2500   -999.2500   -999.2500   -999.2500
  2428.7500   -999.2500   -999.2500   -999.2500   -999.2500
  2429.0000   -999.2500   -999.2500   -999.2500   -999.2500
  2429.2500   -999.2500   -999.2500   -999.2500   -999.2500
  2429.5000   -999.2500   -999.2500   -999.2500   -999.2500
  2429.7500   -999.2500   -999.2500   -999.2500   -999.2500
  2430.0000   -999.2500   -999.2500   -999.2500   -999.2500
  2430.2500   -999.2500   -999.2500   -999.2500   -999.2500
  2430.5000   -999.2500   -999.2500   -999.2500   -999.2500
  2430.7500   -999.2500   -999.2500   -999.2500   -999.2500
