~Version Information
VERS.                      2.0: CWLS Log ASCII Standard - VERSION 2.0
WRAP.                       NO: One line per depth step
~Well Information Block
STRT.FT               583.0000: 
STOP.FT              1701.5000: 
STEP.FT                 0.2500: 
NULL.                -999.2500: 
COMP.          Pioneer Natural Resources: COMPANY
WELL.          Scott Canyon 11-18 Tr: WELL
FLD.           Purgatoire River: FIELD
LOC.           411' FNL & 580' FWL: LOCATION
PROV.                 Colorado: PROVINCE
CNTY.               Las Animas: COUNTRY
SRVC.                Patterson: SERVICE COMPANY
DATE.          Thu Feb 17 02:07:21 2005: LOG DATE
UWI.           05 071 08286 00: UNIQUE WELL ID
~Curve Information Block
DEPT.FT            0 000 00 00: Depth
SN.Ohm-m                      : IEL Short Normal
SP.mV                         : IEL Spontaneous Potential
DIR.Ohm-m                     : IEL Induction Resistivity
GR.GAPI                       : Gamma Ray
~Parameter Information Block
~A  Depth        SN          SP         DIR          GR     
# ...
   717.0000   2000.0000   2000.0000     10.7363     90.9610
   717.2500   2000.0000   2000.0000     10.4930     91.1778
   717.5000   2000.0000   2000.0000     10.2818     97.2989
   717.7500   2000.0000   2000.0000     10.0905    104.6365
   718.0000   2000.0000   2000.0000      9.8913    118.6925
   718.2500   2000.0000   2000.0000      9.6542    128.5977
   718.5000   2000.0000   2000.0000      9.3614    141.4427
   718.7500   2000.0000   2000.0000      9.0152    147.4115
   719.0000   2000.0000   2000.0000      8.6354    152.0412
   719.2500   2000.0000   2000.0000      8.2503    153.0296
   719.5000   2000.0000   2000.0000      7.8880    153.2099
   719.7500   2000.0000   2000.0000      7.5711    153.0823
   720.0000   2000.0000   2000.0000      7.3140    152.6957
   720.2500   2000.0000   2000.0000      7.1230    152.2889
   720.5000   2000.0000   2000.0000      6.9969    151.4726
   720.7500   2000.0000   2000.0000      6.9285    150.7361
   721.0000   2000.0000   2000.0000      6.9062    149.3542
   721.2500   2000.0000   2000.0000      6.9172    148.5406
   721.5000   2000.0000   2000.0000      6.9504    148.0813
   721.7500   2000.0000   2000.0000      6.9980    148.1334
   722.0000   2000.0000   2000.0000      7.0551    147.5968
   722.2500   2000.0000   2000.0000      7.1184    146.4315
   722.5000   2000.0000   2000.0000      7.1860    144.3562
   722.7500   2000.0000   2000.0000      7.2588    143.7133
   723.0000   2000.0000   2000.0000      7.3413    144.5984
   723.2500   2000.0000   2000.0000      7.4404    146.0913
   723.5000   2000.0000   2000.0000      7.5632    148.6883
   723.7500   2000.0000   2000.0000      7.7132    150.2278
   724.0000   2000.0000   2000.0000      7.8892    151.7443
   724.2500   2000.0000   2000.0000      8.0848    151.9442
   724.5000   2000.0000   2000.0000      8.2912    150.7476
   724.7500   2000.0000   2000.0000      8.5000    149.1032
   725.0000   2000.0000   2000.0000      8.7055    146.2684
   725.2500   2000.0000   2000.0000      8.9062    144.8260
   725.5000   2000.0000   2000.0000      9.1061    143.9808
   725.7500   2000.0000   2000.0000      9.3155    143.9962
   726.0000   2000.0000   2000.0000      9.5489    143.5770
   726.2500   2000.0000   2000.0000      9.8207    142.4478
   726.5000   2000.0000   2000.0000     10.1384    139.5826
   726.7500   2000.0000   2000.0000     10.4988    137.3012
   727.0000   2000.0000   2000.0000     10.8864    133.8593
   727.2500   2000.0000   2000.0000     11.2767    131.6810
   727.5000   2000.0000   2000.0000     11.6436    128.9089
   727.7500   2000.0000   2000.0000     11.9674    127.8050
   728.0000   2000.0000   2000.0000     12.2371    127.9818
   728.2500   2000.0000   2000.0000     12.4463    129.3480
   728.5000   2000.0000   2000.0000     12.5845    132.6387
   728.7500   2000.0000   2000.0000     12.6322    135.2282
   729.0000   2000.0000   2000.0000     12.5668    138.8614
   729.2500   2000.0000   2000.0000     12.3754    140.2855
   729.5000   2000.0000   2000.0000     12.0670    139.4626
   729.7500   2000.0000   2000.0000     11.6733    136.9416
   730.0000   2000.0000   2000.0000     11.2395    132.2229
   730.2500   2000.0000   2000.0000     10.8112    129.8985
   730.5000   2000.0000   2000.0000     10.4258    128.7096
   730.7500   2000.0000   2000.0000     10.1079    129.3482
   731.0000   2000.0000   2000.0000      9.8699    132.3818
   731.2500   2000.0000   2000.0000      9.7126    135.8660
   731.5000   2000.0000   2000.0000      9.6274    142.5272
   731.7500   2000.0000   2000.0000      9.6006    146.7572
   732.0000   2000.0000   2000.0000      9.6178    150.3761
   732.2500   2000.0000   2000.0000      9.6692    150.0093
   732.5000   2000.0000   2000.0000      9.7524    145.6839
   732.7500   2000.0000   2000.0000      9.8736    141.9977
   733.0000   2000.0000   2000.0000     10.0450    139.0880
   733.2500   2000.0000   2000.0000     10.2815    139.9564
   733.5000   2000.0000   2000.0000     10.5987    143.9852
   733.7500   2000.0000   2000.0000     11.0141    146.6813
   734.0000   2000.0000   2000.0000     11.5493    148.4877
   734.2500   2000.0000   2000.0000     12.2309    147.7910
   734.5000   2000.0000   2000.0000     13.0858    144.3193
   734.7500   2000.0000   2000.0000     14.1337    141.0308
   735.0000   2000.0000   2000.0000     15.3770    135.8321
   735.2500   2000.0000   2000.0000     16.7943    132.5284
   735.5000   2000.0000   2000.0000     18.3365    127.5282
   735.7500   2000.0000   2000.0000     19.9302    123.7501
   736.0000   2000.0000   2000.0000     21.4875    116.9982
   736.2500   2000.0000   2000.0000     22.9258    111.9210
   736.5000   2000.0000   2000.0000     24.2007    104.2377
   736.7500   2000.0000   2000.0000     25.3394     99.5495
   737.0000   2000.0000   2000.0000     26.4485     93.6047
   737.2500   2000.0000   2000.0000     27.6770     90.5022
   737.5000   2000.0000   2000.0000     29.1513     87.6156
   737.7500   2000.0000   2000.0000     30.9222     87.1699
   738.0000   2000.0000   2000.0000     32.9501     88.4189
   738.2500   2000.0000   2000.0000     35.1304     89.7284
   738.5000   2000.0000   2000.0000     37.3276     90.9714
   738.7500   2000.0000   2000.0000     39.3844     91.0784
   739.0000   2000.0000   2000.0000     41.1050     90.5038
   739.2500   2000.0000   2000.0000     42.2559     89.6515
   739.5000   2000.0000   2000.0000     42.6233     87.2688
   739.7500   2000.0000   2000.0000     42.1141     85.0137
   740.0000   2000.0000   2000.0000     40.8253     81.6718
   740.2500   2000.0000   2000.0000     39.0278     80.1551
   740.5000   2000.0000   2000.0000     37.0819     79.4732
   740.7500   2000.0000   2000.0000     35.3295     80.1677
   741.0000   2000.0000   2000.0000     34.0180     83.3728
   741.2500   2000.0000   2000.0000     33.2624     87.3708
   741.5000   2000.0000   2000.0000     33.0286     96.3987
   741.7500   2000.0000   2000.0000     33.1210    103.9320
   742.0000   2000.0000   2000.0000     33.1953    115.6353
   742.2500   2000.0000   2000.0000     32.8706    122.4456
   742.5000   2000.0000   2000.0000     31.9499    129.4114
   742.7500   2000.0000   2000.0000     30.5598    131.2416
   743.0000   2000.0000   2000.0000     29.0262    129.4369
   743.2500   2000.0000   2000.0000     27.6229    125.6066
   743.5000   2000.0000   2000.0000     26.4510    117.7380
   743.7500   2000.0000   2000.0000     25.4861    112.5070
   744.0000   2000.0000   2000.0000     24.6782    106.7529
   744.2500   2000.0000   2000.0000     24.0041    104.9167
   744.5000   2000.0000   2000.0000     23.4515    105.2909
   744.7500   2000.0000   2000.0000     22.9839    107.3761
   745.0000   2000.0000   2000.0000     22.5377    112.2360
   745.2500   2000.0000   2000.0000     22.0555    115.6932
   745.5000   2000.0000   2000.0000     21.5217    119.8620
   745.7500   2000.0000   2000.0000     20.9630    121.9583
   746.0000   2000.0000   2000.0000     20.4223    125.4022
   746.2500   2000.0000   2000.0000     19.9304    128.6606
   746.5000   2000.0000   2000.0000     19.4932    134.7750
   746.7500   2000.0000   2000.0000     19.0926    138.6313
   747.0000   2000.0000   2000.0000     18.6949    142.1709
   747.2500   2000.0000   2000.0000     18.2686    142.6315
   747.5000   2000.0000   2000.0000     17.8061    141.3360
   747.7500   2000.0000   2000.0000     17.3380    140.1750
   748.0000   2000.0000   2000.0000     16.9224    139.7249
   748.2500   2000.0000   2000.0000     16.6177    140.9173
   748.5000   2000.0000   2000.0000     16.4594    144.9178
   748.7500   2000.0000   2000.0000     16.4562    148.3047
   749.0000   2000.0000   2000.0000     16.6011    152.4315
   749.2500   2000.0000   2000.0000     16.8840    153.5473
   749.5000   2000.0000   2000.0000     17.2937    152.1046
   749.7500   2000.0000   2000.0000     17.8089    149.1617
   750.0000   2000.0000   2000.0000     18.3935    142.1987
   750.2500   2000.0000   2000.0000     19.0096    136.2014
