~Version Information
VERS.                      2.0: CWLS Log ASCII Standard - VERSION 2.0
WRAP.                       NO: One line per depth step
~Well Information Block
STRT.FT               563.6000: 
STOP.FT              2133.0000: 
STEP.FT                 0.1000: 
NULL.                -999.2500: 
COMP.          Petrogulf Corporation: COMPANY
WELL.             State 16-43V: WELL
FLD.           Purgatorie River: FIELD
LOC.           2437' FSL & 734' FEL: LOCATION
CNTY.               Las Animas: COUNTY
SRVC.                         : SERVICE COMPANY
DATE.          Mon Dec 06 06:01:26 2004: LOG DATE
UWI.           05 071 08015 00: UNIQUE WELL ID
STAT.                 Colorado: STATE
~Curve Information Block
DEPT.FT            0 000 00 00: Depth
DCAL.in                       : CDL Caliper
RHOB.g/cc                     : CDL Bulk Density
RHOC.g/cc                     : CDL Density Correction
DPOR.pu                       : CDL Density Porosity
GR.GAPI                       : Gamma Ray
NPOR.pu                       : Neutron Porosity
~Parameter Information Block
~A  Depth       DCAL        RHOB        RHOC        DPOR         GR         NPOR    
# ...
  1917.2000      7.8516      2.6197      0.0575      1.8374     90.4062     27.8613
  1917.3000      7.8488      2.6219      0.0448      1.7022     83.5535     27.8190
  1917.4000      7.8488      2.6193      0.0697      1.8620     79.0925     27.6962
  1917.5000      7.8330      2.6225      0.0627      1.6642     76.8608     27.1714
  1917.6000      7.8330      2.6284      0.0839      1.3081     72.9720     26.6753
  1917.7000      7.8330      2.6406      0.0004      0.5719     67.4532     26.7507
  1917.8000      7.8578      2.6580      0.0758     -0.4877     64.4182     27.0879
  1917.9000      7.8578      2.6599      0.0670     -0.5982     65.2653     27.2064
  1918.0000      7.8458      2.6440      0.0257      0.3636     66.4582     27.3327
  1918.1000      7.8458      2.6324      0.0095      1.0672     67.7968     27.4987
  1918.2000      7.8458      2.6291      0.0568      1.2650     71.0053     27.5039
  1918.3000      7.8609      2.6227      0.0278      1.6566     72.8945     27.3909
  1918.4000      7.8609      2.6087      0.0548      2.5039     70.8365     27.2319
  1918.5000      7.8677      2.5868      0.0508      3.8332     65.8979     27.1918
  1918.6000      7.8677      2.5670      0.0339      5.0304     60.6705     27.1919
  1918.7000      7.8677      2.5694      0.0252      4.8862     59.8364     26.7892
  1918.8000      7.8336      2.6005      0.0201      2.9992     63.5822     26.1752
  1918.9000      7.8336      2.6391      0.0597      0.6583     67.3466     26.0477
  1919.0000      7.8231      2.6498      0.0739      0.0148     70.5684     26.3211
  1919.1000      7.8231      2.6175      0.0601      1.9712     73.0482     26.3882
  1919.2000      7.8231      2.5716     -0.0096      4.7537     73.2509     25.9703
  1919.3000      7.8357      2.5597      0.0073      5.4704     71.3336     25.5342
  1919.4000      7.8357      2.5932      0.0442      3.4452     69.0694     25.6468
  1919.5000      7.8128      2.6348      0.0961      0.9187     68.2769     25.9874
  1919.6000      7.8128      2.6450      0.0845      0.3037     67.2992     26.0279
  1919.7000      7.8128      2.6197      0.0615      1.8334     65.7099     25.8875
  1919.8000      7.8198      2.5879     -0.0230      3.7659     66.9229     25.5823
  1919.9000      7.8198      2.5785      0.0114      4.3309     71.2584     24.7898
  1920.0000      7.8325      2.5874     -0.0045      3.7946     74.9191     23.8539
  1920.1000      7.8325      2.5940      0.0178      3.3930     75.9178     23.5693
  1920.2000      7.8325      2.5976      0.0258      3.1738     74.3748     23.9387
  1920.3000      7.8621      2.6033      0.0425      2.8328     69.6106     24.3574
  1920.4000      7.8621      2.6025      0.0274      2.8764     62.8409     24.3767
  1920.5000      7.8284      2.5935     -0.0101      3.4256     58.4106     24.0955
  1920.6000      7.8284      2.5898      0.0160      3.6482     58.0359     24.2025
  1920.7000      7.8284      2.5912      0.0235      3.5652     60.0109     24.9284
  1920.8000      7.8184      2.5847      0.0440      3.9572     61.4770     25.4628
  1920.9000      7.8184      2.5802     -0.0080      4.2278     59.4517     25.2566
  1921.0000      7.8151      2.5994     -0.0006      3.0670     56.0896     24.9456
  1921.1000      7.8151      2.6403      0.0433      0.5908     56.1475     24.9659
  1921.2000      7.8151      2.6765      0.0857     -1.6084     60.3763     24.8969
  1921.3000      7.8287      2.6788      0.1505     -1.7475     66.4667     24.5676
  1921.4000      7.8287      2.6528      0.0683     -0.1668     69.9140     24.3861
  1921.5000      7.8437      2.6406      0.0731      0.5716     68.1011     24.4505
  1921.6000      7.8437      2.6512      0.0895     -0.0734     63.7784     24.4982
  1921.7000      7.8437      2.6543      0.1044     -0.2626     59.7651     24.6270
  1921.8000      7.8472      2.6403      0.0478      0.5897     57.2708     25.1093
  1921.9000      7.8472      2.6259      0.0342      1.4629     56.9669     25.5183
  1922.0000      7.8011      2.6177      0.0572      1.9585     57.1851     25.5533
  1922.1000      7.8011      2.6073      0.0459      2.5883     56.6287     25.5352
  1922.2000      7.8011      2.6024     -0.0061      2.8838     56.5948     25.5347
  1922.3000      7.8429      2.6147      0.0185      2.1395     59.2033     25.5196
  1922.4000      7.8429      2.6287      0.0497      1.2909     63.3303     25.6975
  1922.5000      7.8195      2.6300      0.0392      1.2143     65.5230     25.9604
  1922.6000      7.8195      2.6282      0.0412      1.3184     65.1359     25.9210
  1922.7000      7.8195      2.6319      0.0888      1.0992     63.5509     25.7461
  1922.8000      7.8242      2.6353      0.0582      0.8928     61.6114     25.4895
  1922.9000      7.8242      2.6294      0.0862      1.2488     60.7885     24.7835
  1923.0000      7.8063      2.6156      0.0379      2.0878     61.2509     23.9412
  1923.1000      7.8063      2.6078      0.0181      2.5602     61.1814     23.2998
  1923.2000      7.8063      2.6084      0.0133      2.5222     60.2187     22.6586
  1923.3000      7.8162      2.6069      0.0685      2.6127     59.7377     21.9814
  1923.4000      7.8162      2.5984      0.0495      3.1259     61.5408     21.4048
  1923.5000      7.7928      2.5864      0.0195      3.8545     66.4651     20.9596
  1923.6000      7.7928      2.5638      0.0273      5.2220     72.8588     20.2653
  1923.7000      7.7928      2.5171     -0.0091      8.0551     75.7979     19.1195
  1923.8000      7.7738      2.4555      0.0521     11.7909     73.2066     18.1474
  1923.9000      7.7738      2.4001      0.0128     15.1431     68.9971     17.9600
  1924.0000      7.8008      2.3628      0.0391     17.4060     67.3277     18.4696
  1924.1000      7.8008      2.3484      0.0234     18.2764     69.2120     19.6011
  1924.2000      7.8008      2.3599      0.0124     17.5827     71.5952     21.3697
  1924.3000      7.7446      2.3903      0.0482     15.7409     75.0530     22.9462
  1924.4000      7.7446      2.4292      0.0835     13.3792     81.5542     23.8363
  1924.5000      7.7884      2.4723      0.1549     10.7668     86.4129     24.6134
  1924.6000      7.7884      2.5182      0.2133      7.9891     85.1010     25.6172
  1924.7000      7.7884      2.5556      0.2796      5.7188     79.1652     26.5543
  1924.8000      7.8317      2.5651      0.1586      5.1444     73.9802     26.9910
  1924.9000      7.8317      2.5508      0.0991      6.0091     73.1406     26.7429
  1925.0000      7.8670      2.5447      0.0709      6.3806     76.2975     26.0251
  1925.1000      7.8670      2.5677      0.0642      4.9867     79.3683     25.3085
  1925.2000      7.8670      2.5963      0.1247      3.2572     79.0558     25.0247
  1925.3000      7.8091      2.6024      0.0654      2.8868     76.4690     25.1078
  1925.4000      7.8091      2.5966      0.0716      3.2379     74.3338     25.1952
  1925.5000      7.7749      2.5888      0.0813      3.7066     74.6908     25.2193
  1925.6000      7.7749      2.5801      0.0135      4.2392     77.2799     25.4095
  1925.7000      7.7749      2.5694      0.1030      4.8830     81.1429     25.7166
  1925.8000      7.8191      2.5485      0.0769      6.1518     84.9963     25.5505
  1925.9000      7.8191      2.5320      0.0378      7.1517     86.8467     24.7236
  1926.0000      7.8411      2.5360      0.1356      6.9085     84.8963     24.0944
  1926.1000      7.8411      2.5536      0.0735      5.8453     79.4519     24.3435
  1926.2000      7.8411      2.5777      0.1182      4.3840     74.9039     25.2098
  1926.3000      7.7602      2.6003      0.0854      3.0112     75.5248     25.8646
  1926.4000      7.7602      2.6224      0.0935      1.6724     80.0311     25.8802
  1926.5000      7.7806      2.6497      0.1310      0.0180     85.5813     25.9496
  1926.6000      7.7806      2.6689      0.1394     -1.1468     91.2850     26.6636
  1926.7000      7.7806      2.6664      0.0959     -0.9969     94.3971     27.7123
