~Version Information
VERS.                      2.0: CWLS Log ASCII Standard - VERSION 2.0
WRAP.                       NO: One line per depth step
~Well Information Block
STRT.FT               590.0000: 
STOP.FT              1563.5000: 
STEP.FT                 0.2500: 
NULL.                -999.2500: 
COMP.          Petrogulf Corporation: COMPANY
WELL.             State 16-43R: WELL
FLD.           Purgatorie River: FIELD
LOC.           2538' FSL & 716' FEL: LOCATION
PROV.                 Colorado: PROVINCE
CNTY.               Las Animas: COUNTRY
SRVC.                Patterson: SERVICE COMPANY
DATE.          Tue Aug 09 14:21:37 2005: LOG DATE
UWI.                          : UNIQUE WELL ID
~Curve Information Block
DEPT.FT            0 000 00 00: Depth
RILD.Ohm-m                    : DIL Deep Resistivity
RILM.Ohm-m                    : DIL Medium Resistivity
GR.GAPI                       : Gamma Ray
~Parameter Information Block
~A  Depth       RILD        RILM         GR     
# ...
   840.5000     16.8976     20.4781    130.7422
   840.7500     15.4999     19.1581    124.4907
   841.0000     15.5994     16.8798    136.8520
   841.2500     15.5804     16.1990    141.0279
   841.5000     13.9533     15.1642    141.4764
   841.7500     13.7576     14.4779    140.4296
   842.0000     13.1491     13.6417    142.3365
   842.2500     12.5955     12.6772    145.5203
   842.5000     12.0109     11.8385    150.5267
   842.7500     11.6677     11.4076    148.2499
   843.0000     10.8238     11.1688    152.7449
   843.2500     10.7826     10.9877    158.6722
   843.5000     10.5625     10.4397    158.0265
   843.7500     10.1163     10.0913    161.3073
   844.0000     10.2274      9.7015    153.3340
   844.2500     10.2230      9.6635    150.0862
   844.5000     10.0683      9.9469    158.9079
   844.7500     10.1918      9.6611    153.3069
   845.0000      9.9295      9.6150    150.0025
   845.2500      9.6885     10.0705    154.4054
   845.5000      9.7807     10.0070    149.0812
   845.7500      9.9990     10.0282    148.6607
   846.0000     10.0393     10.0707    147.0918
   846.2500     10.2058      9.9107    146.7548
   846.5000     10.3180      9.8309    164.5978
   846.7500     10.2291     10.0294    160.7460
   847.0000     10.7978      9.9201    156.9049
   847.2500     10.9321     10.0790    143.2596
   847.5000     11.0421     10.6278    140.9920
   847.7500     11.2763     10.6827    146.0009
   848.0000     11.4651     10.9119    141.1909
   848.2500     11.5949     11.5121    142.6299
   848.5000     11.8582     11.6348    131.3250
   848.7500     11.9346     12.1369    138.0740
   849.0000     12.3095     13.0675    137.0265
   849.2500     12.6657     13.2450    131.6515
   849.5000     12.9059     13.6663    133.5451
   849.7500     13.4294     13.9166    134.1364
   850.0000     13.7880     14.0726    135.8925
   850.2500     14.5897     14.5039    132.1145
   850.5000     15.0297     15.4886    129.2854
   850.7500     15.4838     15.2417    131.4624
   851.0000     16.4735     15.9930    133.2162
   851.2500     16.1160     16.9357    130.7020
   851.5000     17.0391     17.6508    126.6152
   851.7500     16.9035     18.4260    126.6402
   852.0000     16.9217     19.3634    122.1467
   852.2500     16.8809     19.5632    124.3497
   852.5000     17.7134     20.6640    123.5121
   852.7500     18.3690     20.4906    118.3743
   853.0000     18.6596     20.4364    119.8040
   853.2500     18.2502     20.5352    129.1882
   853.5000     18.5761     19.3754    124.4199
   853.7500     18.7518     19.3594    126.8377
   854.0000     19.6837     18.7135    129.5534
   854.2500     19.4610     18.6144    132.3765
   854.5000     19.4428     19.2645    140.8369
   854.7500     19.4867     18.7382    138.8316
   855.0000     19.5828     19.8420    135.4786
   855.2500     19.4581     19.1458    137.2146
   855.5000     18.8901     19.1578    121.9705
   855.7500     19.1602     19.0825    118.8006
   856.0000     19.2758     19.6225    137.3797
   856.2500     19.4404     18.7216    139.6809
   856.5000     20.0281     18.7539    141.0107
   856.7500     20.5009     18.8229    136.4789
   857.0000     21.0358     19.8540    134.5513
   857.2500     21.1605     20.2402    141.2229
   857.5000     20.9934     21.1514    134.1393
   857.7500     21.0538     22.4740    139.5108
   858.0000     20.8275     24.4397    125.8499
   858.2500     20.0208     24.9895    118.7696
   858.5000     18.9139     26.6903    111.1487
   858.7500     18.3594     26.4035    115.0038
   859.0000     17.1565     25.2979    121.3411
   859.2500     15.8630     23.3289    133.1412
   859.5000     15.0617     20.6838    132.8645
   859.7500     14.3384     18.0380    128.7966
   860.0000     13.8449     14.9703    143.8721
   860.2500     13.5910     13.4611    145.5837
   860.5000     13.2076     12.0187    160.5784
   860.7500     13.0266     10.8785    170.9234
   861.0000     12.6190     10.5550    162.0719
   861.2500     12.4298     10.3520    155.7469
   861.5000     12.3198     10.2700    154.4695
   861.7500     12.3095     10.1976    152.3047
   862.0000     12.4830     10.4253    148.5307
   862.2500     12.4224     10.7537    140.6658
   862.5000     12.3456     11.3179    125.6531
   862.7500     12.5432     12.0684    115.9894
   863.0000     12.5944     13.1200     99.6818
   863.2500     12.3243     14.1265    106.2284
   863.5000     13.3113     14.9727    105.6127
   863.7500     13.8730     15.0113    113.7438
   864.0000     14.3410     15.2419    118.5230
   864.2500     15.2560     15.2974    119.8241
   864.5000     16.5204     15.2010    121.0488
   864.7500     17.6489     16.0091    123.9868
   865.0000     19.0313     16.2481    122.2696
   865.2500     21.2772     17.4387    118.0689
   865.5000     21.8818     19.5614    103.0554
   865.7500     22.1252     21.5414     86.1459
   866.0000     22.7551     23.6036     55.8987
   866.2500     22.7451     26.9106     50.3641
   866.5000     22.5166     29.5005     49.4709
   866.7500     21.2122     31.5500     49.0504
   867.0000     18.9303     35.7531     37.5183
   867.2500     18.8306     32.2680     41.5497
   867.5000     18.2402     32.2193     48.7623
   867.7500     17.8861     29.6424     57.6480
   868.0000     17.4970     26.7415     75.7378
   868.2500     15.9459     22.7673     91.9492
   868.5000     15.3179     19.4541    113.2505
   868.7500     14.7645     16.4635    126.1196
   869.0000     13.8874     13.7927    140.4843
   869.2500     13.2427     12.4470    144.6040
   869.5000     12.8268     11.4540    132.1308
   869.7500     12.3443     10.7190    136.9273
   870.0000     11.6393     10.1301    134.9587
   870.2500     11.3702      9.9817    137.4152
   870.5000     10.8110      9.9825    152.1880
   870.7500     10.7228     10.2176    156.2120
   871.0000     10.6484     10.1468    147.5925
   871.2500     10.4368     10.2673    146.5985
   871.5000     10.7074     10.5253    145.3528
   871.7500     10.9166     10.7004    140.1868
   872.0000     10.9687     11.1173    132.8150
   872.2500     11.2466     11.3097    127.6162
   872.5000     11.6945     11.5186    135.8647
   872.7500     12.0060     11.9225    130.5607
   873.0000     12.3327     12.0151    136.5314
   873.2500     13.0562     12.4568    138.3581
   873.5000     13.6848     13.0203    140.6250
   873.7500     14.1288     13.8185    133.9715
   874.0000     14.3962     14.2876    130.0468
   874.2500     14.4729     15.2177    132.2996
   874.5000     14.4474     15.3001    128.9071
   874.7500     15.0738     14.9605    130.7923
   875.0000     15.1217     15.3476    135.2105
   875.2500     15.0275     15.2993    131.7710
   875.5000     15.6302     15.3432    130.3675
   875.7500     15.1542     16.1494    134.9955
   876.0000     15.6388     16.6451    133.2001
   876.2500     16.2483     16.9377    126.8614
   876.5000     16.5457     17.2082    126.6171
   876.7500     16.1853     17.4752    130.3267
   877.0000     16.9154     17.3418    117.5961
   877.2500     16.9520     17.1782    114.1496
   877.5000     16.8839     17.5289    122.7505
   877.7500     16.8075     18.5042    121.3232
   878.0000     16.4992     19.1435    115.5680
   878.2500     15.3168     20.1198    105.5961
   878.5000     14.6371     19.2005     97.1876
   878.7500     14.0237     18.1762    101.1640
   879.0000     13.2258     17.1309    112.3997
   879.2500     13.1290     14.8059    121.4990
   879.5000     12.5958     13.7200    134.5407
   879.7500     12.3767     12.0408    141.3488
   880.0000     11.6367     11.0280    141.4964
   880.2500     11.2360     10.6952    148.3818
   880.5000     10.8981     10.4857    154.0095
   880.7500     10.2453     10.1300    158.1199
   881.0000     10.1066      9.9298    155.8520
   881.2500      9.7946      9.3268    145.7435
   881.5000      9.5697      9.0136    149.3231
   881.7500      9.4251      8.6200    159.0176
   882.0000      9.4742      8.5845    147.9851
