~Version Information
VERS.                      2.0: CWLS Log ASCII Standard - VERSION 2.0
WRAP.                       NO: One line per depth step
~Well Information Block
STRT.FT               590.0000: 
STOP.FT              1563.5000: 
STEP.FT                 0.1000: 
NULL.                -999.2500: 
COMP.          Petrogulf Corporation: COMPANY
WELL.             State 16-43R: WELL
FLD.           Purgatorie River: FIELD
LOC.           2538' FSL & 716' FEL: LOCATION
PROV.                 Colorado: PROVINCE
CNTY.               Las Animas: COUNTRY
SRVC.                Patterson: SERVICE COMPANY
DATE.          Tue Aug 09 14:21:37 2005: LOG DATE
UWI.                          : UNIQUE WELL ID
~Curve Information Block
DEPT.FT            0 000 00 00: Depth
DCAL.in                       : CDL Caliper
RHOB.g/cc                     : CDL Bulk Density
RHOC.g/cc                     : CDL Density Correction
DPOR.pu                       : CDL Density Porosity
GR.GAPI                       : Gamma Ray
NPOR.pu                       : Neutron Porosity
~Parameter Information Block
~A  Depth       DCAL        RHOB        RHOC        DPOR         GR         NPOR    
# ...
  1338.8000      7.9587      2.6763      0.3566     -1.5963    137.6620     28.0746
  1338.9000      7.9587      2.6780      0.3600     -1.6983    132.3964     28.5187
  1339.0000      7.9196      2.6665      0.2658     -0.9987    128.5933     28.8718
  1339.1000      7.9196      2.6545      0.1933     -0.2754    126.3840     29.0881
  1339.2000      7.9196      2.6388      0.1596      0.6780    125.1510     29.2669
  1339.3000      7.9078      2.6191      0.1237      1.8737    123.7422     29.5422
  1339.4000      7.9078      2.6129      0.0690      2.2513    120.5178     29.7006
  1339.5000      7.9367      2.6323      0.0586      1.0707    115.6964     29.3677
  1339.6000      7.9367      2.6579      0.1485     -0.4816    112.9138     28.6050
  1339.7000      7.9367      2.6654      0.0958     -0.9358    113.7632     27.7651
  1339.8000      7.9300      2.6619      0.0750     -0.7208    115.2875     27.0726
  1339.9000      7.9300      2.6602      0.1022     -0.6175    114.2493     26.6158
  1340.0000      7.8951      2.6511      0.1320     -0.0663    110.9392     26.1853
  1340.1000      7.8951      2.6226      0.0743      1.6623    107.6599     25.5677
  1340.2000      7.8951      2.5819      0.0204      4.1287    105.6939     25.0804
  1340.3000      7.8824      2.5466      0.0271      6.2659    104.4179     24.9766
  1340.4000      7.8824      2.5292      0.0164      7.3201    102.4896     24.9672
  1340.5000      7.8873      2.5301      0.0498      7.2657     99.8422     24.9017
  1340.6000      7.8873      2.5418      0.0182      6.5591     96.9341     24.9932
  1340.7000      7.8873      2.5577      0.0696      5.5934     95.7027     25.2938
  1340.8000      7.8907      2.5706      0.0744      4.8103     98.5220     25.7227
  1340.9000      7.8907      2.5810      0.0570      4.1799    104.4869     26.1611
  1341.0000      7.9131      2.5942      0.0932      3.3807    109.0752     26.3037
  1341.1000      7.9131      2.6075      0.1033      2.5764    109.3965     26.1140
  1341.2000      7.9131      2.6198      0.1223      1.8298    108.6622     25.7204
  1341.3000      7.8062      2.6297      0.1112      1.2285    109.5657     25.1727
  1341.4000      7.8062      2.6292      0.1528      1.2609    111.1558     24.6482
  1341.5000      7.7964      2.6177      0.0956      1.9552    113.7036     24.3633
  1341.6000      7.7964      2.6084      0.1036      2.5206    114.9796     24.2864
  1341.7000      7.7964      2.6042      0.1166      2.7780    111.3970     24.2423
  1341.8000      7.8062      2.5937      0.1381      3.4098    106.6854     24.1764
  1341.9000      7.8062      2.5707      0.0896      4.8091    105.0378     24.0543
  1342.0000      7.8657      2.5422      0.0417      6.5318    105.2061     23.7705
  1342.1000      7.8657      2.5193      0.0877      7.9209    106.9701     23.3907
  1342.2000      7.8657      2.5047      0.0737      8.8037    111.4445     22.9420
  1342.3000      7.8879      2.5038      0.0550      8.8609    117.4055     22.3951
  1342.4000      7.8879      2.5127      0.1192      8.3207    120.6332     21.9400
  1342.5000      7.9047      2.5029      0.1350      8.9160    118.8623     21.6558
  1342.6000      7.9047      2.4463      0.0996     12.3480    115.4211     21.1999
  1342.7000      7.9047      2.3457      0.1105     18.4418    114.7350     20.3353
  1342.8000      7.8567      2.2430      0.0790     24.6654    117.2560     19.3637
  1342.9000      7.8567      2.1832      0.1316     28.2886    119.3042     18.4203
  1343.0000      7.7203      2.1728      0.1418     28.9215    119.1781     17.4643
  1343.1000      7.7203      2.1961      0.1401     27.5069    119.2201     16.7812
  1343.2000      7.7203      2.2422      0.1771     24.7139    121.3006     16.7778
  1343.3000      7.7420      2.2978      0.2767     21.3483    125.6904     17.4954
  1343.4000      7.7420      2.3419      0.3666     18.6731    130.4128     18.5400
  1343.5000      8.0213      2.3622      0.3704     17.4437    132.2384     19.6636
  1343.6000      8.0213      2.3682      0.3619     17.0801    133.5073     21.0477
  1343.7000      8.0213      2.3927      0.1815     15.5927    138.3925     22.7374
  1343.8000      8.0760      2.4624      0.1153     11.3708    142.4126     24.3071
  1343.9000      8.0760      2.5506      0.1604      6.0245    140.7819     25.2768
  1344.0000      7.9368      2.6071      0.1433      2.5978    137.3437     25.7888
  1344.1000      7.9368      2.6189      0.1368      1.8845    134.8165     26.4444
  1344.2000      7.9368      2.6035      0.1036      2.8170    132.2850     27.2527
  1344.3000      7.8972      2.5793      0.1141      4.2869    130.4512     27.7037
  1344.4000      7.8972      2.5586      0.0734      5.5374    129.5940     27.7712
  1344.5000      7.8872      2.5502      0.0616      6.0460    128.7971     27.7841
  1344.6000      7.8872      2.5513      0.0878      5.9832    127.8124     27.6885
  1344.7000      7.8872      2.5561      0.0585      5.6889    128.5001     27.2362
  1344.8000      7.8799      2.5682      0.0485      4.9575    131.0150     26.6785
  1344.9000      7.8799      2.5804      0.0955      4.2178    133.7792     26.3313
  1345.0000      7.9510      2.5767      0.0813      4.4396    137.5179     26.1049
  1345.1000      7.9510      2.5608      0.0473      5.4077    141.2585     26.0188
  1345.2000      7.9510      2.5509      0.0433      6.0035    141.3587     26.1742
  1345.3000      8.0024      2.5508      0.0670      6.0112    138.7847     26.5658
  1345.4000      8.0024      2.5447      0.0579      6.3843    136.5437     27.1038
  1345.5000      8.0499      2.5180      0.0521      8.0026    136.1394     27.2366
  1345.6000      8.0499      2.4718      0.0245     10.8024    138.0347     26.5412
  1345.7000      8.0499      2.4281     -0.0109     13.4466    139.5043     25.8033
  1345.8000      8.0737      2.4106      0.0172     14.5120    139.8091     25.8065
  1345.9000      8.0737      2.4208     -0.0036     13.8935    142.5797     26.0075
  1346.0000      8.1217      2.4435      0.0506     12.5133    147.3319     25.8629
  1346.1000      8.1217      2.4601      0.0773     11.5095    149.9345     25.6389
  1346.2000      8.1217      2.4650      0.1071     11.2113    149.9980     25.4176
  1346.3000      8.1969      2.4665      0.1359     11.1211    150.2538     25.0827
  1346.4000      8.1969      2.4697      0.1528     10.9257    151.0046     24.8306
  1346.5000      8.2865      2.4789      0.0825     10.3713    150.8178     24.7675
  1346.6000      8.2865      2.4966      0.1220      9.2955    151.8824     24.6701
  1346.7000      8.2865      2.5124      0.1342      8.3389    155.6948     24.4839
  1346.8000      8.3710      2.5182      0.1057      7.9862    160.7336     24.6334
  1346.9000      8.3710      2.5269      0.0776      7.4629    163.9741     25.3476
  1347.0000      8.4385      2.5550      0.0964      5.7594    162.3824     26.1607
  1347.1000      8.4385      2.5909      0.1747      3.5846    158.0178     26.5755
  1347.2000      8.4385      2.6072      0.1382      2.5961    155.0128     26.6934
  1347.3000      8.5173      2.6045      0.1362      2.7605    153.8255     26.7434
  1347.4000      8.5173      2.6028      0.1284      2.8579    153.1264     26.7166
  1347.5000      8.5260      2.6038      0.1753      2.8002    152.0481     26.6884
  1347.6000      8.5260      2.5902      0.1366      3.6234    150.1165     26.9162
  1347.7000      8.5260      2.5617      0.0175      5.3496    146.4292     27.3250
  1347.8000      8.5162      2.5375      0.0413      6.8188    141.6061     27.4712
  1347.9000      8.5162      2.5253      0.0116      7.5553    137.1401     27.3448
  1348.0000      8.5053      2.5234      0.0019      7.6702    133.5357     27.1810
  1348.1000      8.5053      2.5259      0.0242      7.5241    129.8126     26.9661
  1348.2000      8.5053      2.5259      0.0146      7.5192    126.0008     26.8657
  1348.3000      8.5389      2.5318     -0.0130      7.1660    123.7324     26.9844
