~Version Information
VERS.                      2.0: CWLS Log ASCII Standard - VERSION 2.0
WRAP.                       NO: One line per depth step
~Well Information Block
STRT.FT               521.0000: 
STOP.FT              2732.5000: 
STEP.FT                 0.2500: 
NULL.                -999.2500: 
COMP.          Petrogulf Corporation: COMPANY
WELL.              Silva 6-22V: WELL
FLD.           Purgatorie River: FIELD
LOC.           1936' FNL & 1798' FWL: LOCATION
CNTY.               Las Animas: COUNTY
SRVC.                         : SERVICE COMPANY
DATE.          Tue Nov 09 08:09:38 2004: LOG DATE
UWI.           05 071 08143 00: UNIQUE WELL ID
STAT.                 Colorado: STATE
~Curve Information Block
DEPT.FT            0 000 00 00: Depth
SP.mV                         : DIL Spontaneous Potential
RILD.Ohm-m                    : DIL Deep Resistivity
RILM.Ohm-m                    : DIL Medium Resistivity
RLL3.Ohm-m                    : DIL Shallow Resistivity
GR.GAPI                       : Gamma Ray
~Parameter Information Block
~A  Depth        SP         RILD        RILM        RLL3         GR     
# ...
   689.0000   2000.0000     19.1822     18.7791   2000.0000    133.7243
   689.2500   2000.0000     19.2139     18.6476   2000.0000    132.0724
   689.5000   2000.0000     19.1889     18.5147   2000.0000    129.9916
   689.7500   2000.0000     19.0966     18.3863   2000.0000    130.1025
   690.0000   2000.0000     18.9333     18.2642   2000.0000    133.1669
   690.2500   2000.0000     18.7019     18.1468   2000.0000    136.6206
   690.5000   2000.0000     18.4117     18.0301   2000.0000    142.1607
   690.7500   2000.0000     18.0767     17.9089   2000.0000    145.1214
   691.0000   2000.0000     17.7132     17.7774   2000.0000    147.8880
   691.2500   2000.0000     17.3394     17.6301   2000.0000    149.0899
   691.5000   2000.0000     16.9729     17.4610   2000.0000    151.2332
   691.7500   2000.0000     16.6291     17.2650   2000.0000    153.1662
   692.0000   2000.0000     16.3209     17.0375   2000.0000    156.0801
   692.2500   2000.0000     16.0566     16.7757   2000.0000    157.4153
   692.5000   2000.0000     15.8411     16.4805   2000.0000    158.1635
   692.7500   2000.0000     15.6754     16.1567   2000.0000    158.0690
   693.0000   2000.0000     15.5580     15.8141   2000.0000    157.6031
   693.2500   2000.0000     15.4857     15.4666   2000.0000    157.2258
   693.5000   2000.0000     15.4546     15.1303   2000.0000    156.3263
   693.7500   2000.0000     15.4612     14.8213   2000.0000    155.1859
   694.0000   2000.0000     15.5021     14.5535   2000.0000    152.3946
   694.2500   2000.0000     15.5740     14.3369   2000.0000    150.1764
   694.5000   2000.0000     15.6730     14.1769   2000.0000    147.7239
   694.7500   2000.0000     15.7939     14.0739   2000.0000    147.3686
   695.0000   2000.0000     15.9296     14.0243   2000.0000    148.7803
   695.2500   2000.0000     16.0716     14.0218   2000.0000    150.5268
   695.5000   2000.0000     16.2112     14.0583   2000.0000    153.6456
   695.7500   2000.0000     16.3407     14.1264   2000.0000    155.8255
   696.0000   2000.0000     16.4553     14.2198   2000.0000    158.5622
   696.2500   2000.0000     16.5550     14.3345   2000.0000    159.4942
   696.5000   2000.0000     16.6441     14.4693   2000.0000    159.3103
   696.7500   2000.0000     16.7315     14.6251   2000.0000    158.5490
   697.0000   2000.0000     16.8280     14.8039   2000.0000    157.2006
   697.2500   2000.0000     16.9439     15.0085   2000.0000    156.1835
   697.5000   2000.0000     17.0867     15.2403   2000.0000    154.2066
   697.7500   2000.0000     17.2588     15.4989   2000.0000    152.7804
   698.0000   2000.0000     17.4570     15.7816   2000.0000    151.4883
   698.2500   2000.0000     17.6722     16.0821   2000.0000    151.6455
   698.5000   2000.0000     17.8911     16.3914   2000.0000    153.1578
   698.7500   2000.0000     18.0988     16.6978   2000.0000    154.3899
   699.0000   2000.0000     18.2810     16.9889   2000.0000    155.4908
   699.2500   2000.0000     18.4275     17.2534   2000.0000    155.3990
   699.5000   2000.0000     18.5332     17.4839   2000.0000    153.9660
   699.7500   2000.0000     18.5992     17.6780   2000.0000    152.2415
   700.0000   2000.0000     18.6316     17.8393   2000.0000    149.0188
   700.2500   2000.0000     18.6401     17.9757   2000.0000    147.2232
   700.5000   2000.0000     18.6356     18.0971   2000.0000    146.7408
   700.7500   2000.0000     18.6290     18.2127   2000.0000    148.1428
   701.0000   2000.0000     18.6302     18.3279   2000.0000    150.9705
   701.2500   2000.0000     18.6464     18.4431   2000.0000    151.6735
   701.5000   2000.0000     18.6825     18.5534   2000.0000    149.7269
   701.7500   2000.0000     18.7406     18.6517   2000.0000    147.2560
   702.0000   2000.0000     18.8205     18.7299   2000.0000    144.4233
   702.2500   2000.0000     18.9198     18.7837   2000.0000    144.1802
   702.5000   2000.0000     19.0347     18.8139   2000.0000    146.5041
   702.7500   2000.0000     19.1604     18.8274   2000.0000    149.3258
   703.0000   2000.0000     19.2916     18.8349   2000.0000    154.0781
   703.2500   2000.0000     19.4238     18.8477   2000.0000    156.6990
   703.5000   2000.0000     19.5530     18.8747   2000.0000    158.5768
   703.7500   2000.0000     19.6768     18.9189   2000.0000    158.0869
   704.0000   2000.0000     19.7953     18.9779   2000.0000    154.6706
   704.2500   2000.0000     19.9106     19.0440   2000.0000    150.9300
   704.5000   2000.0000     20.0280     19.1088   2000.0000    144.7440
   704.7500   2000.0000     20.1552     19.1666   2000.0000    141.8237
   705.0000   2000.0000     20.3019     19.2189   2000.0000    141.7970
   705.2500   2000.0000     20.4794     19.2765   2000.0000    145.0295
   705.5000   2000.0000     20.6993     19.3597   2000.0000    152.9511
   705.7500   2000.0000     20.9719     19.4955   2000.0000    158.6612
   706.0000   2000.0000     21.3063     19.7136   2000.0000    165.7170
   706.2500   2000.0000     21.7091     20.0431   2000.0000    168.6730
   706.5000   2000.0000     22.1849     20.5090   2000.0000    169.8244
   706.7500   2000.0000     22.7356     21.1301   2000.0000    168.4836
   707.0000   2000.0000     23.3622     21.9170   2000.0000    164.5164
   707.2500   2000.0000     24.0648     22.8711   2000.0000    161.5556
   707.5000   2000.0000     24.8446     23.9850   2000.0000    157.4630
   707.7500   2000.0000     25.7045     25.2420   2000.0000    154.5638
   708.0000   2000.0000     26.6511     26.6192   2000.0000    148.5724
   708.2500   2000.0000     27.6929     28.0898   2000.0000    143.0001
   708.5000   2000.0000     28.8395     29.6268   2000.0000    132.4175
   708.7500   2000.0000     30.0965     31.2060   2000.0000    124.3317
   709.0000   2000.0000     31.4606     32.8068   2000.0000    111.7594
   709.2500   2000.0000     32.9103     34.4106   2000.0000    103.7634
   709.5000   2000.0000     34.4017     35.9971   2000.0000     93.1060
   709.7500   2000.0000     35.8643     37.5385   2000.0000     87.0459
   710.0000   2000.0000     37.2049     38.9937   2000.0000     79.8542
   710.2500   2000.0000     38.3203     40.3027   2000.0000     76.6923
   710.5000   2000.0000     39.1159     41.3837   2000.0000     74.5668
   710.7500   2000.0000     39.5289     42.1340   2000.0000     74.2736
   711.0000   2000.0000     39.5390     42.4432   2000.0000     73.6165
   711.2500   2000.0000     39.1707     42.2162   2000.0000     72.1950
   711.5000   2000.0000     38.4832     41.3998   2000.0000     68.6639
   711.7500   2000.0000     37.5517     40.0089   2000.0000     66.3048
   712.0000   2000.0000     36.4508     38.1351   2000.0000     65.1134
   712.2500   2000.0000     35.2450     35.9264   2000.0000     67.1500
   712.5000   2000.0000     33.9818     33.5542   2000.0000     75.4145
   712.7500   2000.0000     32.6954     31.1769   2000.0000     83.9317
   713.0000   2000.0000     31.4068     28.9175   2000.0000     99.0337
   713.2500   2000.0000     30.1300     26.8544   2000.0000    109.1943
   713.5000   2000.0000     28.8751     25.0268   2000.0000    122.7548
   713.7500   2000.0000     27.6511     23.4441   2000.0000    130.1500
   714.0000   2000.0000     26.4676     22.0965   2000.0000    138.6110
   714.2500   2000.0000     25.3333     20.9630   2000.0000    142.7408
   714.5000   2000.0000     24.2564     20.0174   2000.0000    147.5198
   714.7500   2000.0000     23.2435     19.2323   2000.0000    150.3261
   715.0000   2000.0000     22.3001     18.5809   2000.0000    154.5578
   715.2500   2000.0000     21.4294     18.0379   2000.0000    157.3873
   715.5000   2000.0000     20.6331     17.5796   2000.0000    161.1613
   715.7500   2000.0000     19.9115     17.1847   2000.0000    162.9779
   716.0000   2000.0000     19.2637     16.8337   2000.0000    164.1497
   716.2500   2000.0000     18.6865     16.5105   2000.0000    163.8726
   716.5000   2000.0000     18.1749     16.2026   2000.0000    162.5635
   716.7500   2000.0000     17.7219     15.9019   2000.0000    161.8673
