~Version Information
VERS.                      2.0: CWLS Log ASCII Standard - VERSION 2.0
WRAP.                       NO: One line per depth step
~Well Information Block
STRT.FT               845.0000: 
STOP.FT              2308.2000: 
STEP.FT                 0.1000: 
NULL.                -999.2500: 
COMP.          Pioneer Natural Resources: COMPANY
WELL.             Vector 33-23: WELL
FLD.           Purgatoire River: FIELD
LOC.           1560' FEL & 1988' FSL----: LOCATION
PROV.                 Colorado: PROVINCE
CNTY.               Las Animas: COUNTRY
SRVC.                Patterson: SERVICE COMPANY
DATE.          Mon Mar 28 08:17:25 2005: LOG DATE
UWI.           05 071 08336 00: UNIQUE WELL ID
~Curve Information Block
DEPT.FT            0 000 00 00: Depth
DCAL.in                       : CDL Caliper
RHOB.g/cc                     : CDL Bulk Density
RHOC.g/cc                     : CDL Density Correction
DPOR.pu                       : CDL Density Porosity
NPOR.pu                       : Neutron Porosity
GR.GAPI                       : Gamma Ray
~Parameter Information Block
~A  Depth       DCAL        RHOB        RHOC        DPOR        NPOR         GR     
# ...
  1699.4000      8.2072      2.5327      0.0542      7.1103     27.3872    152.4895
  1699.5000      8.2170      2.5328      0.1079      7.1035     27.4040    150.5471
  1699.6000      8.2170      2.5332      0.1232      7.0761     27.5424    156.8432
  1699.7000      8.2170      2.5163      0.0973      8.1001     28.0411    163.8571
  1699.8000      8.2226      2.4855      0.0963      9.9669     28.8438    161.1730
  1699.9000      8.2226      2.4538      0.0639     11.8938     29.2902    149.2695
  1700.0000      8.2241      2.4362      0.0049     12.9577     29.0019    140.9115
  1700.1000      8.2241      2.4397      0.0064     12.7464     28.1901    145.1651
  1700.2000      8.2241      2.4537      0.0612     11.8981     27.3729    156.2148
  1700.3000      8.2274      2.4691      0.0729     10.9610     27.1110    165.9963
  1700.4000      8.2274      2.4961      0.0896      9.3259     27.4318    172.0792
  1700.5000      8.2433      2.5477      0.1276      6.1997     27.6772    173.0938
  1700.6000      8.2433      2.6110      0.2192      2.3636     27.5315    172.3121
  1700.7000      8.2433      2.6598      0.2162     -0.5950     27.0558    172.8018
  1700.8000      8.2744      2.6894      0.2655     -2.3860     26.4140    172.1711
  1700.9000      8.2744      2.7087      0.2649     -3.5566     25.9962    168.4434
  1701.0000      8.2610      2.7223      0.2499     -4.3825     25.9360    162.9253
  1701.1000      8.2610      2.7266      0.2065     -4.6396     25.9860    154.8069
  1701.2000      8.2610      2.7148      0.1750     -3.9299     25.8394    146.1087
  1701.3000      8.1712      2.6866      0.1158     -2.2184     25.4044    145.1257
  1701.4000      8.1712      2.6547      0.0514     -0.2832     24.7940    152.2450
  1701.5000      8.1024      2.6328      0.0469      1.0430     24.6098    156.5230
  1701.6000      8.1024      2.6153      0.0404      2.1006     25.2978    156.7941
  1701.7000      8.1024      2.5886      0.0380      3.7203     26.1626    160.4814
  1701.8000      8.0845      2.5596     -0.0153      5.4784     26.6152    165.4576
  1701.9000      8.0845      2.5468      0.0311      6.2545     27.0108    165.3176
  1702.0000      8.0836      2.5452      0.0223      6.3517     27.6247    159.7752
  1702.1000      8.0836      2.5349      0.0222      6.9751     28.1150    155.1909
  1702.2000      8.0836      2.5091     -0.0002      8.5385     28.1052    152.5054
  1702.3000      8.0860      2.4784     -0.0101     10.4017     27.7592    147.2556
  1702.4000      8.0860      2.4569     -0.0102     11.7016     27.6161    142.1151
  1702.5000      8.0877      2.4570     -0.0553     11.6956     27.9374    142.1084
  1702.6000      8.0877      2.4825      0.0175     10.1490     28.4264    143.5173
  1702.7000      8.0877      2.5207      0.0559      7.8382     28.5419    141.6672
  1702.8000      8.0875      2.5526      0.1116      5.9006     27.9558    139.7486
  1702.9000      8.0875      2.5663      0.1296      5.0710     27.2345    145.4518
  1703.0000      8.0863      2.5681      0.1006      4.9631     27.2473    160.2457
  1703.1000      8.0863      2.5756      0.1192      4.5116     27.8523    171.3795
  1703.2000      8.0863      2.5881      0.1456      3.7545     28.2928    171.6965
  1703.3000      8.0859      2.5923      0.1207      3.4988     28.2105    166.5232
  1703.4000      8.0859      2.5842      0.1387      3.9890     27.9030    158.8255
  1703.5000      8.0855      2.5673      0.1148      5.0134     27.9037    150.1176
  1703.6000      8.0855      2.5484      0.1191      6.1601     28.1256    145.8354
  1703.7000      8.0855      2.5360      0.0821      6.9103     27.9704    150.4926
  1703.8000      8.0848      2.5388      0.0765      6.7418     27.6377    159.2414
  1703.9000      8.0848      2.5566      0.1146      5.6601     27.8791    161.5787
  1704.0000      8.0854      2.5759      0.1222      4.4904     28.6028    157.3649
  1704.1000      8.0854      2.5850      0.1146      3.9410     28.9576    155.1140
  1704.2000      8.0854      2.5849      0.1074      3.9472     28.6764    155.3404
  1704.3000      8.0857      2.5832      0.0863      4.0505     28.3029    155.2614
  1704.4000      8.0857      2.5806      0.1401      4.2066     28.0039    155.9869
  1704.5000      8.0850      2.5708      0.1092      4.7989     27.5400    154.2161
  1704.6000      8.0850      2.5529      0.1173      5.8839     27.1870    151.6677
  1704.7000      8.0850      2.5341      0.0930      7.0270     27.2388    153.0571
  1704.8000      8.0842      2.5378      0.0412      6.7976     27.3617    154.3006
  1704.9000      8.0842      2.5758      0.1160      4.4996     27.3553    152.8628
  1705.0000      8.0823      2.6159      0.1125      2.0675     27.3257    152.2014
  1705.1000      8.0823      2.6299      0.0624      1.2154     27.4294    154.7191
  1705.2000      8.0823      2.6229      0.1090      1.6413     27.5180    158.8124
  1705.3000      8.0796      2.6089      0.0616      2.4934     27.5759    160.3024
  1705.4000      8.0796      2.5984      0.0832      3.1270     28.1617    161.0767
  1705.5000      8.0800      2.5935      0.0928      3.4236     28.9500    162.6929
  1705.6000      8.0800      2.5960      0.0861      3.2749     28.9511    160.8798
  1705.7000      8.0800      2.6134      0.1268      2.2152     28.2624    156.9180
  1705.8000      8.0833      2.6461      0.1361      0.2382     27.5999    154.8855
  1705.9000      8.0833      2.6768      0.1849     -1.6228     27.3334    153.1571
  1706.0000      8.0841      2.6819      0.1671     -1.9314     27.2195    150.7654
  1706.1000      8.0841      2.6612      0.1112     -0.6796     27.0642    153.7655
  1706.2000      8.0841      2.6317      0.1262      1.1115     27.3627    159.1026
  1706.3000      8.0809      2.6057      0.0786      2.6875     27.6331    156.7836
  1706.4000      8.0809      2.5946      0.0799      3.3570     27.0097    151.8129
  1706.5000      8.0780      2.5978      0.0665      3.1626     26.0786    153.7056
  1706.6000      8.0780      2.6031      0.0833      2.8443     25.2697    160.6587
  1706.7000      8.0780      2.6013      0.0890      2.9500     24.3424    164.1315
  1706.8000      8.0775      2.5935      0.0626      3.4257     23.5456    159.1191
  1706.9000      8.0775      2.5923      0.0377      3.4947     23.1786    147.7006
  1707.0000      8.0772      2.6006      0.0676      2.9930     23.1242    136.9546
  1707.1000      8.0772      2.6028      0.0688      2.8611     23.1718    131.5092
  1707.2000      8.0772      2.5951      0.0411      3.3251     23.4641    129.9482
  1707.3000      8.0778      2.5899      0.0272      3.6418     24.1448    128.7496
  1707.4000      8.0778      2.5881      0.0455      3.7528     24.8618    126.9511
  1707.5000      8.0784      2.5856      0.0161      3.9010     25.2193    128.5173
  1707.6000      8.0784      2.5930     -0.0047      3.4542     25.0936    136.1957
  1707.7000      8.0784      2.6141      0.0625      2.1757     24.6063    144.3360
  1707.8000      8.0782      2.6324      0.0666      1.0640     24.0690    143.9154
  1707.9000      8.0782      2.6390      0.0704      0.6642     23.6427    132.3694
  1708.0000      8.0792      2.6420      0.0639      0.4865     23.5156    117.3685
  1708.1000      8.0792      2.6465      0.0687      0.2103     23.8725    107.7849
  1708.2000      8.0792      2.6518      0.0904     -0.1089     24.6023    105.8800
  1708.3000      8.0799      2.6555      0.0556     -0.3303     25.5063    110.9668
  1708.4000      8.0799      2.6494      0.0995      0.0391     26.3993    121.6306
  1708.5000      8.0794      2.6323      0.0586      1.0740     26.9437    134.2075
  1708.6000      8.0794      2.6183      0.0475      1.9200     26.7279    144.5853
  1708.7000      8.0794      2.6154      0.0475      2.0948     26.1490    151.1081
  1708.8000      8.0789      2.6213      0.0468      1.7412     25.9494    156.6833
  1708.9000      8.0789      2.6279      0.0882      1.3370     26.1564    161.7814
