~Version Information
VERS.                      2.0: CWLS Log ASCII Standard - VERSION 2.0
WRAP.                       NO: One line per depth step
~Well Information Block
STRT.FT               850.0000: 
STOP.FT              1609.7000: 
STEP.FT                 0.1000: 
NULL.                -999.2500: 
COMP.          Petrogulf Corporation: COMPANY
WELL.          Great Plains 22-21R: WELL
FLD.           Purgatorie River: FIELD
LOC.           73' FNL & 1992' FWL: LOCATION
PROV.                 Colorado: PROVINCE
CNTY.               Las Animas: COUNTRY
SRVC.                Patterson: SERVICE COMPANY
DATE.          Wed Sep 14 12:10:29 2005: LOG DATE
UWI.                          : UNIQUE WELL ID
~Curve Information Block
DEPT.FT            0 000 00 00: Depth
NPOR.pu                       : Neutron Porosity
GR.GAPI                       : Gamma Ray
CCL.                          : Casing Collar Locator
~Parameter Information Block
~A  Depth       NPOR         GR         CCL     
# ...
  1384.4000     26.3823    103.7748      0.0000
  1384.5000     27.2450    113.1411      0.0000
  1384.6000     27.2450    113.1411      0.0000
  1384.7000     27.2450    113.1411      0.0000
  1384.8000     27.8832    120.6389      0.0000
  1384.9000     27.8832    120.6389      0.0000
  1385.0000     28.3021    125.4688      0.0000
  1385.1000     28.3021    125.4688      0.0000
  1385.2000     28.3021    125.4688      0.0000
  1385.3000     28.5619    128.1324      0.0000
  1385.4000     28.5619    128.1324      0.0000
  1385.5000     28.7374    129.2452      0.0000
  1385.6000     28.7374    129.2452      0.0000
  1385.7000     28.7374    129.2452      0.0000
  1385.8000     28.8677    128.8709      0.0000
  1385.9000     28.8677    128.8709      0.0000
  1386.0000     28.9441    127.3595      0.0000
  1386.1000     28.9441    127.3595      0.0000
  1386.2000     28.9441    127.3595      0.0000
  1386.3000     28.9401    126.2815      0.0000
  1386.4000     28.9401    126.2815      0.0000
  1386.5000     28.8269    127.7823      0.0000
  1386.6000     28.8269    127.7823      0.0000
  1386.7000     28.8269    127.7823      0.0000
  1386.8000     28.5587    132.7970      0.0000
  1386.9000     28.5587    132.7970      0.0000
  1387.0000     28.0870    139.9642      0.0000
  1387.1000     28.0870    139.9642      0.0000
  1387.2000     28.0870    139.9642      0.0000
  1387.3000     27.4130    146.3169      0.0000
  1387.4000     27.4130    146.3169      0.0000
  1387.5000     26.6068    149.0504      0.0000
  1387.6000     26.6068    149.0504      0.0000
  1387.7000     26.6068    149.0504      0.0000
  1387.8000     25.7547    146.8913      0.0000
  1387.9000     25.7547    146.8913      0.0000
  1388.0000     24.8967    140.3288      0.0000
  1388.1000     24.8967    140.3288      0.0000
  1388.2000     24.8967    140.3288      0.0000
  1388.3000     24.0299    131.0486      0.0000
  1388.4000     24.0299    131.0486      0.0000
  1388.5000     23.1654    121.1020      0.0000
  1388.6000     23.1654    121.1020      0.0000
  1388.7000     23.1654    121.1020      0.0000
  1388.8000     22.3673    112.1024      0.0000
  1388.9000     22.3673    112.1024      0.0000
  1389.0000     21.7230    104.6943      0.0000
  1389.1000     21.7230    104.6943      0.0000
  1389.2000     21.7230    104.6943      0.0000
  1389.3000     21.2737     98.6526      0.0000
  1389.4000     21.2737     98.6526      0.0000
  1389.5000     20.9782     93.6495      0.0000
  1389.6000     20.9782     93.6495      0.0000
  1389.7000     20.9782     93.6495      0.0000
  1389.8000     20.7528     89.8998      0.0000
  1389.9000     20.7528     89.8998      0.0000
  1390.0000     20.5490     87.8323      0.0000
  1390.1000     20.5490     87.8323      0.0000
  1390.2000     20.5490     87.8323      0.0000
  1390.3000     20.3874     87.2171      0.0000
  1390.4000     20.3874     87.2171      0.0000
  1390.5000     20.3181     87.0406      0.0000
  1390.6000     20.3181     87.0406      0.0000
  1390.7000     20.3181     87.0406      0.0000
  1390.8000     20.3648     86.4543      0.0000
  1390.9000     20.3648     86.4543      0.0000
  1391.0000     20.5084     85.5888      0.0000
  1391.1000     20.5084     85.5888      0.0000
  1391.2000     20.5084     85.5888      0.0000
  1391.3000     20.7022     85.1994      0.0000
  1391.4000     20.7022     85.1994      0.0000
  1391.5000     20.8928     85.7192      0.0000
  1391.6000     20.8928     85.7192      0.0000
  1391.7000     20.8928     85.7192      0.0000
  1391.8000     21.0470     86.9958      0.0000
  1391.9000     21.0470     86.9958      0.0000
  1392.0000     21.1864     88.8002      0.0000
  1392.1000     21.1864     88.8002      0.0000
  1392.2000     21.1864     88.8002      0.0000
  1392.3000     21.3849     91.1347      0.0000
  1392.4000     21.3849     91.1347      0.0000
  1392.5000     21.6976     93.9525      0.0000
  1392.6000     21.6976     93.9525      0.0000
  1392.7000     21.6976     93.9525      0.0000
  1392.8000     22.0964     96.9493      0.0000
  1392.9000     22.0964     96.9493      0.0000
  1393.0000     22.4953     99.9340      0.0000
  1393.1000     22.4953     99.9340      0.0000
  1393.2000     22.4953     99.9340      0.0000
  1393.3000     22.8218    103.2887      0.0000
  1393.4000     22.8218    103.2887      0.0000
  1393.5000     23.0332    107.7617      0.0000
  1393.6000     23.0332    107.7617      0.0000
  1393.7000     23.0332    107.7617      0.0000
  1393.8000     23.0963    113.4641      0.0000
  1393.9000     23.0963    113.4641      0.0000
  1394.0000     22.9983    118.9706      0.0000
  1394.1000     22.9983    118.9706      0.0000
  1394.2000     22.9983    118.9706      0.0000
  1394.3000     22.7701    121.7451      0.0000
  1394.4000     22.7701    121.7451      0.0000
  1394.5000     22.4687    119.9055      0.0000
  1394.6000     22.4687    119.9055      0.0000
  1394.7000     22.4687    119.9055      0.0000
  1394.8000     22.1528    113.8453      0.0000
  1394.9000     22.1528    113.8453      0.0000
  1395.0000     21.8929    106.2717      0.0000
  1395.1000     21.8929    106.2717      0.0000
  1395.2000     21.8929    106.2717      0.0000
  1395.3000     21.7783    100.5344      0.0000
  1395.4000     21.7783    100.5344      0.0000
  1395.5000     21.8710     98.5740      0.0000
  1395.6000     21.8710     98.5740      0.0000
  1395.7000     21.8710     98.5740      0.0000
  1395.8000     22.1419    100.2072      0.0000
  1395.9000     22.1419    100.2072      0.0000
  1396.0000     22.4582    104.0738      0.0000
  1396.1000     22.4582    104.0738      0.0000
  1396.2000     22.4582    104.0738      0.0000
  1396.3000     22.6542    108.7837      0.0000
  1396.4000     22.6542    108.7837      0.0000
  1396.5000     22.6309    113.1794      0.0000
  1396.6000     22.6309    113.1794      0.0000
  1396.7000     22.6309    113.1794      0.0000
  1396.8000     22.3916    116.2356      0.0000
  1396.9000     22.3916    116.2356      0.0000
  1397.0000     21.9934    117.1845      0.0000
  1397.1000     21.9934    117.1845      0.0000
  1397.2000     21.9934    117.1845      0.0000
  1397.3000     21.4940    115.5885      0.0000
  1397.4000     21.4940    115.5885      0.0000
  1397.5000     20.9497    111.3743      0.0000
  1397.6000     20.9497    111.3743      0.0000
  1397.7000     20.9497    111.3743      0.0000
  1397.8000     20.4370    105.1470      0.0000
  1397.9000     20.4370    105.1470      0.0000
  1398.0000     20.0508     98.3739      0.0000
  1398.1000     20.0508     98.3739      0.0000
  1398.2000     20.0508     98.3739      0.0000
  1398.3000     19.8804     92.7639      0.0000
  1398.4000     19.8804     92.7639      0.0000
  1398.5000     19.9844     89.3414      0.0000
  1398.6000     19.9844     89.3414      0.0000
  1398.7000     19.9844     89.3414      0.0000
  1398.8000     20.3795     88.3767      0.0000
  1398.9000     20.3795     88.3767      0.0000
  1399.0000     21.0554     90.0901      0.0000
  1399.1000     21.0554     90.0901      0.0000
  1399.2000     21.0554     90.0901      0.0000
  1399.3000     21.9880     94.8235      0.0000
  1399.4000     21.9880     94.8235      0.0000
  1399.5000     23.1161    102.4795      0.0000
  1399.6000     23.1161    102.4795      0.0000
  1399.7000     23.1161    102.4795      0.0000
  1399.8000     24.3052    112.2963      0.0000
  1399.9000     24.3052    112.2963      0.0000
  1400.0000     25.3687    123.1872      0.0000
  1400.1000     25.3687    123.1872      0.0000
  1400.2000     25.3687    123.1872      0.0000
  1400.3000     26.1472    133.8137      0.0000
  1400.4000     26.1472    133.8137      0.0000
  1400.5000     26.5797    142.3488      0.0000
  1400.6000     26.5797    142.3488      0.0000
  1400.7000     26.5797    142.3488      0.0000
  1400.8000     26.7155    146.8184      0.0000
  1400.9000     26.7155    146.8184      0.0000
  1401.0000     26.6694    146.2198      0.0000
