~Version Information
VERS.                      2.0: CWLS Log ASCII Standard - VERSION 2.0
WRAP.                       NO: One line per depth step
~Well Information Block
STRT.FT               758.7500: 
STOP.FT              2420.7500: 
STEP.FT                 0.2500: 
NULL.                -999.2500: 
COMP.          Petrogulf Corporation: COMPANY
WELL.            Montoya 7-21V: WELL
FLD.           Purgatorie River: FIELD
LOC.           738' FSL & 2070' FWL: LOCATION
CNTY.               Las Animas: COUNTY
SRVC.                         : SERVICE COMPANY
DATE.          Fri Aug 20 07:13:07 2004: LOG DATE
UWI.           05 071 08018 00: UNIQUE WELL ID
STAT.                 Colorado: STATE
~Curve Information Block
DEPT.FT            0 000 00 00: Depth
SP.mV                         : DIL Spontaneous Potential
RILD.Ohm-m                    : DIL Deep Resistivity
RILM.Ohm-m                    : DIL Medium Resistivity
RLL3.Ohm-m                    : DIL Shallow Resistivity
GR.GAPI                       : Gamma Ray
~Parameter Information Block
~A  Depth        SP         RILD        RILM        RLL3         GR     
# ...
  2382.7500     -0.0954     39.2230     40.3199     58.2437     98.2441
  2383.0000     -0.2905     39.2290     41.1720     59.4211    108.6065
  2383.2500     -0.4702     39.0549     41.8916     60.0133    116.1823
  2383.5000     -0.6264     38.7647     42.4411     59.9842    125.8201
  2383.7500     -0.7528     38.4212     42.7925     59.2998    129.9650
  2384.0000     -0.8468     38.0767     42.9299     57.9910    132.2028
  2384.2500     -0.9088     37.7700     42.8508     56.1815    131.3564
  2384.5000     -0.9416     37.5245     42.5641     54.0513    127.6019
  2384.7500     -0.9494     37.3461     42.0888     51.7768    124.0109
  2385.0000     -0.9363     37.2223     41.4518     49.5003    117.6646
  2385.2500     -0.9056     37.1235     40.6862     47.3276    113.0916
  2385.5000     -0.8602     37.0121     39.8290     45.3305    106.1522
  2385.7500     -0.8012     36.8563     38.9197     43.5448    101.5635
  2386.0000     -0.7286     36.6450     37.9951     41.9701     94.5865
  2386.2500     -0.6403     36.3894     37.0854     40.5765     89.8086
  2386.5000     -0.5327     36.1102     36.2110     39.3150     82.6915
  2386.7500     -0.4018     35.8160     35.3804     38.1298     78.2723
  2387.0000     -0.2441     35.4903     34.5909     36.9775     72.4975
  2387.2500     -0.0580     35.0938     33.8327     35.8443     69.1846
  2387.5000      0.1552     34.5829     33.0927     34.7496     64.7688
  2387.7500      0.3917     33.9337     32.3586     33.7275     62.2753
  2388.0000      0.6461     33.1567     31.6227     32.8007     59.9019
  2388.2500      0.9120     32.2968     30.8829     31.9670     59.5150
  2388.5000      1.1844     31.4185     30.1422     31.2076     60.2123
  2388.7500      1.4600     30.5845     29.4077     30.5084     60.8224
  2389.0000      1.7378     29.8388     28.6891     29.8700     61.1782
  2389.2500      2.0183     29.1961     27.9967     29.3000     61.1476
  2389.5000      2.3018     28.6449     27.3413     28.7951     61.2698
  2389.7500      2.5871     28.1592     26.7330     28.3303     61.5228
  2390.0000      2.8698     27.7175     26.1810     27.8647     61.7163
  2390.2500      3.1427     27.3140     25.6930     27.3644     61.5681
  2390.5000      3.3967     26.9581     25.2743     26.8287     61.3101
  2390.7500      3.6218     26.6621     24.9277     26.3019     61.4276
  2391.0000      3.8096     26.4267     24.6526     25.8581     62.0919
  2391.2500      3.9540     26.2341     24.4449     25.5661     62.6631
  2391.5000      4.0530     26.0523     24.2976     25.4576     63.2510
  2391.7500      4.1087     25.8452     24.2010     25.5147     62.9444
  2392.0000      4.1282     25.5847     24.1444     25.6796     59.6730
  2392.2500      4.1222     25.2563     24.1172     25.8744     54.4386
  2392.5000      4.1042     24.8610     24.1104     26.0272     41.5685
  2392.7500      4.0888     24.4147     24.1181     26.1024     31.0147
  2393.0000      4.0888     23.9466     24.1373     26.1222     16.2986
  2393.2500      4.1141     23.4960     24.1672     26.1609      9.1243
  2393.5000      4.1688     23.1045     24.2075     26.3023      2.9874
  2393.7500      4.2515     22.8057     24.2568     26.5798      1.1942
  2394.0000      4.3548     22.6163     24.3112     26.9400      0.2298
  2394.2500      4.4672     22.5304     24.3642     27.2557      0.0628
  2394.5000      4.5754     22.5203     24.4073     27.3848      0.0058
  2394.7500      4.6669     22.5409     24.4317     27.2409      0.0000
  2395.0000      4.7326     22.5387     24.4287     26.8387   -999.2500
  2395.2500      4.7678     22.4625     24.3890     26.2898   -999.2500
  2395.5000      4.7732     22.2748     24.3014     25.7565   -999.2500
  2395.7500      4.7548     21.9588     24.1502     25.3901   -999.2500
  2396.0000      4.7240     21.5222     23.9154     25.2837   -999.2500
  2396.2500      4.6961     20.9929     23.5741     25.4497   -999.2500
  2396.5000      4.6887     20.4110     23.1080     25.8091   -999.2500
  2396.7500      4.7185     19.8200     22.5109     26.1861   -999.2500
  2397.0000      4.7966     19.2583     21.7963     26.3236   -999.2500
  2397.2500      4.9246     18.7559     20.9986     25.9468   -999.2500
  2397.5000      5.0916     18.3324     20.1682     24.8722   -999.2500
  2397.7500      5.2738     17.9988     19.3618     23.1114   -999.2500
  2398.0000      5.4373     17.7591     18.6319     20.9087   -999.2500
  2398.2500      5.5446     17.6121     18.0201     18.6827   -999.2500
  2398.5000      5.5622     17.5523     17.5541     16.9060   -999.2500
  2398.7500      5.4683     17.5693     17.2475     15.9804   -999.2500
  2399.0000      5.2589     17.8176     17.1023     16.1419   -999.2500
  2399.2500      4.9485     18.1211     17.1108     17.4002   -999.2500
  2399.5000      4.5684     18.2883     17.2581     19.5222   -999.2500
  2399.7500      4.1595     18.4848     17.5238     22.0859   -999.2500
  2400.0000      3.7639     18.7150     17.8848     24.6090   -999.2500
  2400.2500      3.4159     18.9974     18.3172     26.6975   -999.2500
  2400.5000      3.1361     19.3667     18.7995     28.1382   -999.2500
  2400.7500      2.9280     19.8775     19.3137     28.9026   -999.2500
  2401.0000      2.7788     20.6143     19.8460     29.0905   -999.2500
  2401.2500      2.6633     21.7119     20.3861     28.8650   -999.2500
  2401.5000      2.5504     23.3927     20.9252     28.4050   -999.2500
  2401.7500      2.4102     26.0360     21.4533     27.8772   -999.2500
  2402.0000      2.2214     30.3221     21.9569     27.4198   -999.2500
  2402.2500      1.9761     37.5742     22.4174     27.1392   -999.2500
  2402.5000      1.6825     50.7141     22.8104     27.1094   -999.2500
  2402.7500      1.3617     74.1243     23.1054     27.3659   -999.2500
  2403.0000      1.0418    136.3622     23.2693     27.8903   -999.2500
  2403.2500      0.7501    431.6664     23.2732     28.5956   -999.2500
  2403.5000      0.5066 100000.0000     23.1014     29.3255   -999.2500
  2403.7500      0.3199 100000.0000     22.7621     29.8689   -999.2500
  2404.0000      0.1885 100000.0000     22.2936     29.9849   -999.2500
  2404.2500      0.1034 100000.0000     21.7646     29.4457   -999.2500
  2404.5000      0.0527 100000.0000     21.2672     28.1070   -999.2500
  2404.7500      0.0249 100000.0000     20.9059     25.9948   -999.2500
  2405.0000      0.0109 100000.0000     20.7908     23.3548   -999.2500
  2405.2500      0.0044 100000.0000     21.0359     20.6103   -999.2500
  2405.5000      0.0016 100000.0000     21.7677     18.2209   -999.2500
  2405.7500      0.0005   1589.0979     23.1410     16.5122   -999.2500
  2406.0000      0.0001   3782.3394     25.3630     15.5765   -999.2500
  2406.2500   -999.2500 100000.0000     28.7267     15.3009   -999.2500
  2406.5000   -999.2500 100000.0000     33.6522     15.5012   -999.2500
  2406.7500   -999.2500 100000.0000     40.7318     16.0729   -999.2500
  2407.0000   -999.2500 100000.0000     50.7571     17.0564   -999.2500
  2407.2500   -999.2500 100000.0000     64.6651     18.5699   -999.2500
  2407.5000   -999.2500 100000.0000     83.2807     20.6583   -999.2500
  2407.7500   -999.2500 100000.0000    106.2995     23.1805   -999.2500
  2408.0000   -999.2500 100000.0000    133.5592     25.8289   -999.2500
  2408.2500   -999.2500 100000.0000    160.5292     28.2610   -999.2500
  2408.5000   -999.2500 100000.0000    183.6498     30.2341   -999.2500
  2408.7500   -999.2500 100000.0000    200.3295     31.6457   -999.2500
  2409.0000   -999.2500 100000.0000    210.4282     32.4724   -999.2500
  2409.2500   -999.2500 100000.0000    215.5097     32.6733   -999.2500
  2409.5000   -999.2500 100000.0000    217.5509     32.1317   -999.2500
  2409.7500   -999.2500 100000.0000    218.1736     30.6827   -999.2500
  2410.0000   -999.2500 100000.0000    218.5061     28.2288   -999.2500
  2410.2500   -999.2500 100000.0000    219.2652     24.8879   -999.2500
  2410.5000   -999.2500 100000.0000   1099.3767     21.0751   -999.2500
