~Version Information
VERS.                      2.0: CWLS Log ASCII Standard - VERSION 2.0
WRAP.                       NO: One line per depth step
~Well Information Block
STRT.FT                -7.7500: 
STOP.FT               973.7500: 
STEP.FT                 0.2500: 
NULL.                -999.2500: 
COMP.          Pioneer Natural Resources: COMPANY
WELL.              Dylan 42-25: WELL
FLD.           Purgatorie River: FIELD
LOC.           2160' FNL & 855' FEL: LOCATION
PROV.                 Colorado: PROVINCE
CNTY.               Las Animas: COUNTRY
SRVC.          Patterson Wireline: SERVICE COMPANY
DATE.          Fri Apr 29 16:36:17 2005: LOG DATE
UWI.           05-071-08229-00: UNIQUE WELL ID
~Curve Information Block
DEPT.FT            0 000 00 00: Depth
CCL.                          : Casing Collar Locator
TT3.usec                      : CBL 3' Travel Time
AMP3.mV                       : CBL 3' Amplitude
GR.GAPI                       : Gamma Ray
~Parameter Information Block
~A  Depth       CCL         TT3         AMP3         GR     
# ...
   796.2500      0.0000    744.7797     10.2505     79.6430
   796.5000      0.0000    750.3909     10.2578     82.0805
   796.7500      0.0000    760.6003     10.2635     83.5434
   797.0000      0.0000    775.2595     10.2312     84.4171
   797.2500      0.0000    791.6207     10.1331     85.3454
   797.5000      0.0000    805.4991      9.9646     86.5376
   797.7500      0.0000    813.8107      9.7531     87.6415
   798.0000      0.0000    816.0358      9.5482     88.1150
   798.2500      0.0000    813.6420      9.3892     87.4963
   798.5000      0.0000    808.5942      9.2760     85.5095
   798.7500      0.0000    802.2866      9.1752     82.3391
   799.0000      0.0000    795.2789      9.0616     78.8313
   799.2500      0.0000    787.5121      8.9482     75.9644
   799.5000      0.0000    778.7017      8.8696     73.8827
   799.7500      0.0000    768.9849      8.8373     71.7204
   800.0000      0.0000    759.5418      8.8180     68.6392
   800.2500      0.0000    752.3528      8.7625     64.8078
   800.5000      0.0000    748.9584      8.6520     61.1457
   800.7500      0.0000    749.1664      8.5149     58.4869
   801.0000      0.0000    750.6984      8.3965     57.4145
   801.2500      0.0000    750.3586      8.3146     58.4269
   801.5000      0.0000    746.3776      8.2489     61.4629
   801.7500      0.0000    739.9713      8.1732     65.2371
   802.0000      0.0000    734.3854      8.0868     67.6648
   802.2500      0.0000    732.5814      8.0041     67.3712
   802.5000      0.0000    735.8677      7.9268     64.6594
   802.7500      0.0000    743.8693      7.8437     60.8937
   803.0000      0.0000    755.1129      7.7544     57.2598
   803.2500      0.0000    767.7180      7.6771     54.2513
   803.5000      0.0000    779.5934      7.6269     51.8221
   803.7500      0.0000    788.4395      7.5944     49.6546
   804.0000      0.0000    792.8245      7.5495     47.5377
   804.2500      0.0000    793.7148      7.4701     45.6978
   804.5000      0.0000    794.0458      7.3661     44.5858
   804.7500      0.0000    796.0535      7.2709     44.2355
   805.0000      0.0000    799.2531      7.2079     43.9625
   805.2500      0.0000    801.2143      7.1679     42.8115
   805.5000      0.0000    799.9989      7.1266     40.4148
   805.7500      0.0000    795.8064      7.0765     37.5532
   806.0000      0.0000    790.8176      7.0299     35.9499
   806.2500      0.0000    787.7724      6.9909     37.2867
   806.5000      0.0000    788.1984      6.9451     41.8915
   806.7500      0.0000    791.4462      6.8840     48.0733
   807.0000      0.0000    795.1990      6.8255     53.0652
   807.2500      0.0000    796.7428      6.7951     55.1183
   807.5000      0.0000    794.1473      6.7948     54.7056
   807.7500      0.0000    787.3497      6.8034     53.7530
   808.0000      0.0000    778.7498      6.8051     54.0253
   808.2500      0.0000    772.3889      6.8014     56.1413
   808.5000      0.0000    771.8663      6.7945     59.4731
   808.7500      0.0000    778.2234      6.7718     62.6520
   809.0000      0.0000    789.2153      6.7181     64.4493
   809.2500      0.0000    800.7963      6.6328     64.5538
   809.5000      0.0000    809.8197      6.5261     63.5786
   809.7500      0.0000    815.4971      6.4048     62.1832
   810.0000      0.0000    818.6462      6.2759     60.2742
   810.2500      0.0000    820.2361      6.1596     57.3647
   810.5000      0.0000    820.7838      6.0829     53.6073
   810.7500      0.0000    820.5326      6.0598     50.0687
   811.0000      0.0000    819.4999      6.0889     48.0196
   811.2500      0.0000    817.1573      6.1623     48.2277
   811.5000      0.0000    812.3693      6.2549     50.7488
   811.7500      0.0000    804.4565      6.3051     55.1118
   812.0000      0.0000    794.8873      6.2448     60.7589
   812.2500      0.0000    787.3986      6.0762     67.4242
   812.5000      0.0000    785.4894      5.8980     74.8648
   812.7500      0.0000    789.8366      5.8264     82.0680
   813.0000      0.0000    798.4522      5.9002     87.0132
   813.2500      0.0000    808.4332      6.0823     87.8142
   813.5000      0.0000    817.0950      6.3217     84.5305
   813.7500      0.0000    822.7338      6.5808     79.6454
   814.0000     -3.1219    825.2375      6.8247     76.2912
   814.2500     -5.0000    825.7769      7.0196     75.9365
   814.5000      0.0000    826.3875      7.1437     77.7775
   814.7500      0.0000    829.8977      7.2013     79.9982
   815.0000      0.0000    838.0468      7.2385     81.3519
   815.2500      0.0000    847.9783      7.3287     81.7420
   815.5000      0.0000    852.4384      7.5070     81.8046
   815.7500      0.0000    845.7735      7.7185     82.3877
   816.0000      0.0000    829.0502      7.8645     84.2145
   816.2500      0.0000    808.4999      7.8934     87.4571
   816.5000      0.0000    790.3720      7.8223     91.4205
   816.7500      0.0000    777.9519      7.6937     94.7163
   817.0000      0.0000    771.9711      7.5416     95.7779
   817.2500      0.0000    772.1560      7.3858     93.5023
   817.5000      0.0000    777.7432      7.2292     87.8597
   817.7500      0.0000    786.8060      7.0663     80.0177
   818.0000      0.0000    795.9609      6.9080     71.7598
   818.2500      0.0000    801.4429      6.7951     64.6583
   818.5000      0.0000    800.8929      6.7740     59.6489
   818.7500      0.0000    794.6294      6.8579     57.0600
   819.0000      0.0000    785.6612      7.0128     56.6655
   819.2500      0.0000    778.1275      7.1796     57.5973
   819.5000      0.0000    774.9664      7.3097     58.5993
   819.7500      0.0000    776.6907      7.3835     58.7850
   820.0000      0.0000    781.8960      7.4082     58.0824
   820.2500      0.0000    788.1641      7.4051     56.8617
   820.5000      0.0000    792.6877      7.3951     55.4145
   820.7500      0.0000    793.3884      7.3846     53.8755
   821.0000      0.0000    790.2941      7.3600     52.3799
   821.2500      0.0000    785.5552      7.3000     51.1777
   821.5000      0.0000    781.8974      7.1960     50.5543
   821.7500      0.0000    781.1477      7.0642     50.5403
   822.0000      0.0000    783.6920      6.9411     50.7700
   822.2500      0.0000    788.4036      6.8646     50.7895
   822.5000      0.0000    793.1642      6.8521     50.4537
   822.7500      0.0000    796.4070      6.8902     49.8678
   823.0000      0.0000    798.4402      6.9444     49.0596
   823.2500      0.0000    800.6314      6.9786     48.0079
   823.5000      0.0000    803.3441      6.9713     47.1240
   823.7500      0.0000    805.5801      6.9203     47.4639
   824.0000      0.0000    806.7252      6.8382     50.0663
   824.2500      0.0000    807.6086      6.7415     54.8491
   824.5000      0.0000    809.3787      6.6400     60.1521
   824.7500      0.0000    812.0435      6.5371     63.5290
   825.0000      0.0000    814.5975      6.4424     63.4074
   825.2500      0.0000    816.0695      6.3773     60.2986
   825.5000      0.0000    815.9524      6.3611     56.3071
   825.7500      0.0000    813.9508      6.3890     53.3367
   826.0000      0.0000    810.0769      6.4288     51.8631
   826.2500      0.0000    805.3628      6.4428     51.2852
   826.5000      0.0000    802.0139      6.4192     50.9229
   826.7500      0.0000    801.9615      6.3848     50.4187
   827.0000      0.0000    804.9752      6.3834     49.6279
   827.2500      0.0000    808.5858      6.4365     48.6346
   827.5000      0.0000    809.9855      6.5231     47.7691
   827.7500      0.0000    807.8911      6.5984     47.4087
   828.0000      0.0000    802.9298      6.6335     48.0004
   828.2500      0.0000    796.5981      6.6328     50.1787
   828.5000      0.0000    789.7028      6.6163     54.2927
   828.7500      0.0000    782.0024      6.5947     59.8003
   829.0000      0.0000    773.8372      6.5682     65.6886
   829.2500      0.0000    767.5424      6.5394     71.4732
   829.5000      0.0000    766.0555      6.5124     77.3804
