~Version Information
VERS.                      2.0: CWLS Log ASCII Standard - VERSION 2.0
WRAP.                       NO: One line per depth step
~Well Information Block
STRT.FT               910.3000: 
STOP.FT              1932.5000: 
STEP.FT                 0.1000: 
NULL.                -999.2500: 
COMP.          Petrogulf Corporation: COMPANY
WELL.             State 16-34R: WELL
FLD.           Purgatorie River: FIELD
LOC.           1095' FSL & 1498' FEL: LOCATION
CNTY.               Las Animas: COUNTY
SRVC.                         : SERVICE COMPANY
DATE.          Thu May 06 14:28:18 2004: LOG DATE
UWI.           05 071 08032 00: UNIQUE WELL ID
STAT.                 Colorado: STATE
~Curve Information Block
DEPT.FT            0 000 00 00: Depth
DCAL.in                       : CDL Caliper
RHOB.g/cc                     : CDL Bulk Density
RHOC.g/cc                     : CDL Density Correction
DPOR.pu                       : CDL Density Porosity
NPOR.pu                       : Neutron Porosity
GR.GAPI                       : Gamma Ray
~Parameter Information Block
~A  Depth       DCAL        RHOB        RHOC        DPOR        NPOR         GR     
# ...
   919.9000   -999.2500   -999.2500   -999.2500   -999.2500     49.1155     85.5074
   920.0000   -999.2500   -999.2500   -999.2500   -999.2500     48.9617     82.2143
   920.1000   -999.2500   -999.2500   -999.2500   -999.2500     48.7293     83.6796
   920.2000   -999.2500   -999.2500   -999.2500   -999.2500     48.3617     86.6528
   920.3000   -999.2500   -999.2500   -999.2500   -999.2500     48.1043     91.1123
   920.4000   -999.2500   -999.2500   -999.2500   -999.2500     47.9230     96.3751
   920.5000   -999.2500   -999.2500   -999.2500   -999.2500     47.6825     97.8303
   920.6000   -999.2500   -999.2500   -999.2500   -999.2500     47.5978     94.3883
   920.7000   -999.2500   -999.2500   -999.2500   -999.2500     47.9610     88.7248
   920.8000   -999.2500   -999.2500   -999.2500   -999.2500     48.6685     83.8031
   920.9000   -999.2500   -999.2500   -999.2500   -999.2500     49.1974     81.7946
   921.0000   -999.2500   -999.2500   -999.2500   -999.2500     49.2596     81.2443
   921.1000   -999.2500   -999.2500   -999.2500   -999.2500     49.0997     80.5133
   921.2000   -999.2500   -999.2500   -999.2500   -999.2500     49.0169     81.2378
   921.3000   -999.2500   -999.2500   -999.2500   -999.2500     49.0389     82.2967
   921.4000   -999.2500   -999.2500   -999.2500   -999.2500     48.9738     79.5698
   921.5000   -999.2500   -999.2500   -999.2500   -999.2500     48.5564     74.8102
   921.6000   -999.2500   -999.2500   -999.2500   -999.2500     47.8611     73.4488
   921.7000   -999.2500   -999.2500   -999.2500   -999.2500     47.4203     76.2888
   921.8000   -999.2500   -999.2500   -999.2500   -999.2500     47.5466     80.8153
   921.9000   -999.2500   -999.2500   -999.2500   -999.2500     47.8902     85.6827
   922.0000   -999.2500   -999.2500   -999.2500   -999.2500     48.1777     90.2500
   922.1000   -999.2500   -999.2500   -999.2500   -999.2500     48.5093     92.7705
   922.2000   -999.2500   -999.2500   -999.2500   -999.2500     48.7629     90.7383
   922.3000   -999.2500   -999.2500   -999.2500   -999.2500     48.7755     84.8096
   922.4000   -999.2500   -999.2500   -999.2500   -999.2500     48.6954     80.2752
   922.5000   -999.2500   -999.2500   -999.2500   -999.2500     48.6414     80.5358
   922.6000   -999.2500   -999.2500   -999.2500   -999.2500     48.5158     82.5376
   922.7000   -999.2500   -999.2500   -999.2500   -999.2500     48.2275     83.6301
   922.8000   -999.2500   -999.2500   -999.2500   -999.2500     47.9458     84.4603
   922.9000   -999.2500   -999.2500   -999.2500   -999.2500     47.8920     85.3785
   923.0000   -999.2500   -999.2500   -999.2500   -999.2500     47.9217     85.1056
   923.1000   -999.2500   -999.2500   -999.2500   -999.2500     47.8621     82.9032
   923.2000   -999.2500   -999.2500   -999.2500   -999.2500     47.8748     79.8769
   923.3000   -999.2500   -999.2500   -999.2500   -999.2500     47.9991     79.2620
   923.4000   -999.2500   -999.2500   -999.2500   -999.2500     48.1154     81.8632
   923.5000   -999.2500   -999.2500   -999.2500   -999.2500     48.2939     83.8829
   923.6000   -999.2500   -999.2500   -999.2500   -999.2500     48.4448     83.8308
   923.7000   -999.2500   -999.2500     -0.1872   -999.2500     48.3021     84.5788
   923.8000      8.1366   -999.2500     -0.2568   -999.2500     47.9115     85.4315
   923.9000      8.1366   -999.2500     -0.2401   -999.2500     47.5567     82.2116
   924.0000      8.1352   -999.2500     -0.2559   -999.2500     47.3551     75.2878
   924.1000      8.1352   -999.2500     -0.2042   -999.2500     47.2617     70.3962
   924.2000      8.1352      2.3961     -0.2109     15.3904     47.1624     71.1622
   924.3000      8.1391      2.3771     -0.2196     16.5369     47.0584     75.2358
   924.4000      8.1391      2.3692     -0.2807     17.0170     46.9672     79.7624
   924.5000      8.1379      2.3776     -0.1948     16.5102     46.6559     82.6426
   924.6000      8.1379      2.3769     -0.1771     16.5502     46.1686     80.8453
   924.7000      8.1379      2.3698     -0.3256     16.9815     45.9422     75.6739
   924.8000      8.1385      2.3799     -0.2432     16.3672     46.1483     71.5568
   924.9000      8.1385      2.3990     -0.1954     15.2107     46.5436     69.9102
   925.0000      8.1063      2.4178     -0.2349     14.0705     46.7104     71.4499
   925.1000      8.1063      2.4560     -0.2424     11.7604     46.5800     75.5355
   925.2000      8.1063      2.5180     -0.1701      7.9976     46.3960     79.7408
   925.3000      8.1246      2.5724     -0.1144      4.7056     46.5203     79.7474
   925.4000      8.1246      2.6031     -0.1543      2.8445     47.0888     73.7545
   925.5000      8.1367      2.6363     -0.1203      0.8298     47.7211     66.0235
   925.6000      8.1367      2.6976     -0.1541     -2.8837     48.0076     59.5939
   925.7000      8.1367      2.7743     -0.1136     -7.5317     47.8239     54.4967
   925.8000      8.1350      2.8328     -0.1512    -11.0793     47.5621     50.4799
   925.9000      8.1350      2.8599     -0.1280    -12.7196     47.8951     49.0312
   926.0000      8.1356      2.8494     -0.1623    -12.0824     48.7607     51.7977
   926.1000      8.1356      2.7889     -0.3899     -8.4158     49.5738     55.0370
   926.2000      8.1356      2.6772     -0.4326     -1.6509     50.1807     54.9134
   926.3000      8.1344      2.5404     -0.5829      6.6437     50.9152     53.2563
   926.4000      8.1344      2.4154     -0.5135     14.2160     51.8254     50.2388
   926.5000      8.1382      2.3153     -0.7023     20.2846     52.4588     45.4654
   926.6000      8.1382      2.2596     -1.0068     23.6626     52.4976     43.0501
   926.7000      8.1382      2.2772     -0.9243     22.5944     52.0943     44.9220
   926.8000      8.1352      2.3463     -0.7822     18.4084     51.5739     47.0038
   926.9000      8.1352      2.4050     -0.5992     14.8510     51.0503     46.1289
   927.0000      8.1321      2.4230     -0.7471     13.7567     50.3216     44.6713
   927.1000      8.1321      2.4172     -0.6063     14.1072     49.2289     45.7746
   927.2000      8.1321      2.3964     -0.5180     15.3710     47.9329     47.5857
   927.3000      8.1371      2.3655     -0.3842     17.2396     46.9723     48.8695
   927.4000      8.1371      2.3415     -0.3765     18.6981     46.8117     51.5056
   927.5000      8.1434      2.3298     -0.3524     19.4086     47.1846     53.9845
   927.6000      8.1434      2.3299     -0.3736     19.4015     47.4623     55.0255
   927.7000      8.1434      2.3492     -0.4311     18.2312     47.2076     56.3574
   927.8000      8.1390      2.3792     -0.3269     16.4133     46.3711     56.1442
   927.9000      8.1390      2.3930     -0.2777     15.5758     45.4044     52.7757
   928.0000      8.1376      2.3876     -0.2713     15.9057     44.7581     50.4348
   928.1000      8.1376      2.3830     -0.2694     16.1834     44.4333     51.2258
   928.2000      8.1376      2.3837     -0.1947     16.1421     44.2661     53.2155
   928.3000      8.1374      2.3762     -0.2279     16.5943     44.3834     55.3141
   928.4000      8.1374      2.3589     -0.2242     17.6454     44.7793     55.4815
   928.5000      8.1407      2.3427     -0.2592     18.6257     44.9788     51.5255
   928.6000      8.1407      2.3378     -0.2952     18.9202     44.7031     45.7066
   928.7000      8.1407      2.3426     -0.2674     18.6284     44.1488     41.4621
   928.8000      8.1374      2.3467     -0.2796     18.3823     43.9104     40.8052
   928.9000      8.1374      2.3526     -0.2527     18.0252     44.2183     44.1939
   929.0000      8.1319      2.3688     -0.2261     17.0401     44.6272     49.1837
   929.1000      8.1319      2.3939     -0.2464     15.5185     44.9444     54.0663
   929.2000      8.1319      2.4163     -0.2105     14.1665     45.2348     56.9233
   929.3000      8.1280      2.4262     -0.2259     13.5665     45.4113     55.4712
   929.4000      8.1280      2.4369     -0.2489     12.9176     45.4107     52.1026
