~Version Information
VERS.                      2.0: CWLS Log ASCII Standard - VERSION 2.0
WRAP.                       NO: One line per depth step
~Well Information Block
STRT.FT               510.5000: 
STOP.FT              2075.5000: 
STEP.FT                 0.1000: 
NULL.                -999.2500: 
COMP.          Petrogulf Corporation: COMPANY
WELL.          Robinson 15-11V: WELL
FLD.           Purgatorie River: FIELD
LOC.           226' FNL & 592' FWL: LOCATION
CNTY.               Las Animas: COUNTY
SRVC.                         : SERVICE COMPANY
DATE.          Wed Aug 04 06:17:53 2004: LOG DATE
UWI.           05 071 08027 00: UNIQUE WELL ID
STAT.                 Colorado: STATE
~Curve Information Block
DEPT.FT            0 000 00 00: Depth
DCAL.in                       : CDL Caliper
RHOB.g/cc                     : CDL Bulk Density
RHOC.g/cc                     : CDL Density Correction
DPOR.pu                       : CDL Density Porosity
GR.GAPI                       : Gamma Ray
NPOR.pu                       : Neutron Porosity
~Parameter Information Block
~A  Depth       DCAL        RHOB        RHOC        DPOR         GR         NPOR    
# ...
  2065.7000      7.4851      2.6656      0.2162     -0.9470   -999.2500   -999.2500
  2065.8000      7.4821      2.6606      0.1600     -0.6454   -999.2500   -999.2500
  2065.9000      7.4821      2.6579      0.1641     -0.4811   -999.2500   -999.2500
  2066.0000      7.4732      2.6576      0.2125     -0.4597   -999.2500   -999.2500
  2066.1000      7.4732      2.6393      0.1655      0.6459   -999.2500   -999.2500
  2066.2000      7.4732      2.6078      0.0838      2.5552   -999.2500   -999.2500
  2066.3000      7.4770      2.5846      0.0788      3.9620   -999.2500   -999.2500
  2066.4000      7.4770      2.5736      0.0616      4.6304   -999.2500   -999.2500
  2066.5000      7.5009      2.5671      0.0955      5.0244   -999.2500   -999.2500
  2066.6000      7.5009      2.5663      0.0729      5.0736   -999.2500   -999.2500
  2066.7000      7.5009      2.5726      0.1640      4.6898   -999.2500   -999.2500
  2066.8000      7.4867      2.5724      0.2141      4.7018   -999.2500   -999.2500
  2066.9000      7.4867      2.5628      0.1649      5.2869   -999.2500   -999.2500
  2067.0000      7.5136      2.5584      0.1243      5.5525   -999.2500   -999.2500
  2067.1000      7.5136      2.5583      0.1528      5.5560   -999.2500   -999.2500
  2067.2000      7.5136      2.5567      0.0743      5.6565   -999.2500   -999.2500
  2067.3000      7.5840      2.5684      0.1207      4.9464   -999.2500   -999.2500
  2067.4000      7.5840      2.5973      0.1675      3.1921   -999.2500   -999.2500
  2067.5000      7.4921      2.6302      0.1180      1.1996   -999.2500   -999.2500
  2067.6000      7.4921      2.6596      0.1791     -0.5799   -999.2500   -999.2500
  2067.7000      7.4921      2.6781      0.1902     -1.7038   -999.2500   -999.2500
  2067.8000      7.4403      2.6840      0.1810     -2.0592   -999.2500   -999.2500
  2067.9000      7.4403      2.6837      0.1663     -2.0411   -999.2500   -999.2500
  2068.0000      7.4730      2.6810      0.1333     -1.8784   -999.2500   -999.2500
  2068.1000      7.4730      2.6806      0.1102     -1.8552   -999.2500   -999.2500
  2068.2000      7.4730      2.6850      0.0842     -2.1225   -999.2500   -999.2500
  2068.3000      7.4992      2.6834      0.0788     -2.0227   -999.2500   -999.2500
  2068.4000      7.4992      2.6673      0.0737     -1.0477   -999.2500   -999.2500
  2068.5000      7.4872      2.6414      0.1241      0.5200   -999.2500   -999.2500
  2068.6000      7.4872      2.6078      0.0695      2.5562   -999.2500   -999.2500
  2068.7000      7.4872      2.5661      0.0386      5.0869   -999.2500   -999.2500
  2068.8000      7.4993      2.5230     -0.0078      7.6961   -999.2500   -999.2500
  2068.9000      7.4993      2.4946     -0.0048      9.4210   -999.2500   -999.2500
  2069.0000      7.4974      2.4875      0.0184      9.8493   -999.2500   -999.2500
  2069.1000      7.4974      2.4907      0.0083      9.6560   -999.2500   -999.2500
  2069.2000      7.4974      2.4876      0.0448      9.8435   -999.2500   -999.2500
  2069.3000      7.4944      2.4639      0.0470     11.2783   -999.2500   -999.2500
  2069.4000      7.4944      2.4242      0.0586     13.6860   -999.2500   -999.2500
  2069.5000      7.4779      2.3988      0.0708     15.2242   -999.2500   -999.2500
  2069.6000      7.4779      2.4131      0.1415     14.3549   -999.2500   -999.2500
  2069.7000      7.4779      2.4648      0.1823     11.2219   -999.2500   -999.2500
  2069.8000      7.4427      2.5371      0.1817      6.8399   -999.2500   -999.2500
  2069.9000      7.4427      2.6131      0.2250      2.2383   -999.2500   -999.2500
  2070.0000      7.4137      2.6817      0.2579     -1.9187   -999.2500   -999.2500
  2070.1000      7.4137      2.7393      0.3652     -5.4093   -999.2500   -999.2500
  2070.2000      7.4137      2.7838      0.3843     -8.1109   -999.2500   -999.2500
  2070.3000      7.3636      2.8032      0.4060     -9.2821   -999.2500   -999.2500
  2070.4000      7.3636      2.7735      0.3184     -7.4835   -999.2500   -999.2500
  2070.5000      7.4629      2.7008      0.1608     -3.0802   -999.2500   -999.2500
  2070.6000      7.4629      2.6307      0.0715      1.1689   -999.2500   -999.2500
  2070.7000      7.4629      2.5941      0.0401      3.3907   -999.2500   -999.2500
  2070.8000      7.5154      2.5857      0.0804      3.8948   -999.2500   -999.2500
  2070.9000      7.5154      2.5899      0.0545      3.6413   -999.2500   -999.2500
  2071.0000      7.5578      2.5994      0.0827      3.0639   -999.2500   -999.2500
  2071.1000      7.5578      2.6124      0.0977      2.2798   -999.2500   -999.2500
  2071.2000      7.5578      2.6287      0.0773      1.2930   -999.2500   -999.2500
  2071.3000      7.4516      2.6483      0.0891      0.1006   -999.2500   -999.2500
  2071.4000      7.4516      2.6610      0.1440     -0.6638   -999.2500   -999.2500
  2071.5000      7.4369      2.6575      0.0779     -0.4517   -999.2500   -999.2500
  2071.6000      7.4369      2.6518      0.0597     -0.1067   -999.2500   -999.2500
  2071.7000      7.4369      2.6530      0.0848     -0.1828   -999.2500   -999.2500
  2071.8000      7.4426      2.6469      0.1149      0.1857   -999.2500   -999.2500
  2071.9000      7.4426      2.6239      0.1222      1.5795   -999.2500   -999.2500
  2072.0000      7.4329      2.5916      0.0854      3.5423   -999.2500   -999.2500
  2072.1000      7.4329      2.5632      0.0622      5.2578   -999.2500   -999.2500
  2072.2000      7.4329      2.5490      0.0353      6.1192   -999.2500   -999.2500
  2072.3000      7.4260      2.5485      0.0614      6.1537   -999.2500   -999.2500
  2072.4000      7.4260      2.5490      0.0546      6.1218   -999.2500   -999.2500
  2072.5000      7.4095      2.5441      0.0400      6.4195   -999.2500   -999.2500
  2072.6000      7.4095      2.5400      0.0779      6.6680   -999.2500   -999.2500
  2072.7000      7.4095      2.5427      0.0796      6.5001   -999.2500   -999.2500
  2072.8000      7.4101      2.5530      0.0755      5.8784   -999.2500   -999.2500
  2072.9000      7.4101      2.5612      0.1199      5.3816   -999.2500   -999.2500
  2073.0000      7.3199      2.5653      0.1599      5.1327   -999.2500   -999.2500
  2073.1000      7.3199      2.6034      0.1053      2.8220   -999.2500   -999.2500
  2073.2000      7.3199      2.5983      0.0831      3.1348   -999.2500   -999.2500
  2073.3000      7.1294      2.1668      0.5483     29.2832   -999.2500   -999.2500
  2073.4000      7.1294      1.2323      0.0200     85.9240   -999.2500   -999.2500
  2073.5000      5.7927      0.4187      0.0200    135.2312   -999.2500   -999.2500
  2073.6000      5.7927      0.0796   -999.2500    155.7808   -999.2500   -999.2500
  2073.7000      5.7927      0.0082   -999.2500    160.1083   -999.2500   -999.2500
  2073.8000      0.3432      0.0004   -999.2500    160.5790   -999.2500   -999.2500
  2073.9000      0.3432      0.0000   -999.2500    160.6061   -999.2500   -999.2500
  2074.0000     -0.3836      0.0000   -999.2500    160.6061   -999.2500   -999.2500
  2074.1000     -0.3836   -999.2500   -999.2500   -999.2500   -999.2500   -999.2500
  2074.2000     -0.3836   -999.2500   -999.2500   -999.2500   -999.2500   -999.2500
  2074.3000   -999.2500   -999.2500   -999.2500   -999.2500   -999.2500   -999.2500
  2074.4000   -999.2500   -999.2500   -999.2500   -999.2500   -999.2500   -999.2500
  2074.5000   -999.2500   -999.2500   -999.2500   -999.2500   -999.2500   -999.2500
  2074.6000   -999.2500   -999.2500   -999.2500   -999.2500   -999.2500   -999.2500
  2074.7000   -999.2500   -999.2500   -999.2500   -999.2500   -999.2500   -999.2500
  2074.8000   -999.2500   -999.2500   -999.2500   -999.2500   -999.2500   -999.2500
  2074.9000   -999.2500   -999.2500   -999.2500   -999.2500   -999.2500   -999.2500
  2075.0000   -999.2500   -999.2500   -999.2500   -999.2500   -999.2500   -999.2500
  2075.1000   -999.2500   -999.2500   -999.2500   -999.2500   -999.2500   -999.2500
  2075.2000   -999.2500   -999.2500   -999.2500   -999.2500   -999.2500   -999.2500
