~Version Information
VERS.                      2.0: CWLS Log ASCII Standard - VERSION 2.0
WRAP.                       NO: One line per depth step
~Well Information Block
STRT.FT               230.0000: 
STOP.FT              1527.0000: 
STEP.FT                 0.1000: 
NULL.                -999.2500: 
COMP.          Pioneer Natural Resources: COMPANY
WELL.              Border 21-3: WELL
FLD.           Purgatorie River: FIELD
LOC.           865' FNL & 1415' FWL: LOCATION
PROV.                 Colorado: PROVINCE
CNTY.               Las Animas: COUNTRY
SRVC.                         : SERVICE COMPANY
DATE.          Thu Dec 09 16:57:34 2004: LOG DATE
UWI.           05 071 08169 00: UNIQUE WELL ID
~Curve Information Block
DEPT.FT            0 000 00 00: Depth
LTEN.lb                       : Surface Line Tension
DCAL.in                       : CDL Caliper
RHOB.g/cc                     : CDL Bulk Density
RHOC.g/cc                     : CDL Density Correction
DPOR.pu                       : CDL Density Porosity
GR.GAPI                       : Gamma Ray
NPOR.pu                       : Neutron Porosity
~Parameter Information Block
~A  Depth       LTEN        DCAL        RHOB        RHOC        DPOR         GR         NPOR    
# ...
   490.4000    873.3897      7.9046      2.5908      0.1442      3.5895     89.5453     20.0971
   490.5000    847.1232      7.9055      2.5957      0.0720      3.2906     88.4466     20.1726
   490.6000    847.1232      7.9055      2.5986      0.0871      3.1143     83.3179     20.0558
   490.7000    847.1232      7.9055      2.5973      0.0967      3.1958     81.2168     19.9287
   490.8000    836.1762      7.9060      2.5905      0.0837      3.6083     82.6135     19.9254
   490.9000    836.1762      7.9060      2.5848      0.0919      3.9498     82.2202     19.9507
   491.0000    824.0720      7.9042      2.5839      0.0731      4.0052     79.7017     20.0384
   491.1000    824.0720      7.9042      2.5851      0.0859      3.9339     79.7354     20.4861
   491.2000    824.0720      7.9042      2.5791      0.1139      4.2980     83.9785     21.2536
   491.3000    828.7207      7.9057      2.5613      0.0541      5.3752     89.1692     21.6558
   491.4000    828.7207      7.9057      2.5462      0.0460      6.2885     91.5377     21.4648
   491.5000    839.3726      7.9061      2.5510      0.0791      6.0015     90.3216     21.1416
   491.6000    839.3726      7.9061      2.5745      0.1081      4.5756     88.0872     20.9677
   491.7000    839.3726      7.9061      2.5979      0.0964      3.1595     86.8556     20.7960
   491.8000    822.0391      7.9044      2.6017      0.1121      2.9280     86.8159     20.6246
   491.9000    822.0391      7.9044      2.5842      0.0743      3.9854     89.4596     20.8428
   492.0000    820.4307      7.9043      2.5577      0.0638      5.5926     94.7979     21.3661
   492.1000    820.4307      7.9043      2.5374      0.0334      6.8235     96.2108     21.8263
   492.2000    820.4307      7.9043      2.5325      0.0658      7.1208     90.8084     22.0569
   492.3000    834.4871      7.9050      2.5369      0.0622      6.8541     86.0385     22.0073
   492.4000    834.4871      7.9050      2.5408      0.0317      6.6179     86.2342     21.8592
   492.5000    828.2792      7.9057      2.5418      0.0338      6.5589     88.1411     21.7891
   492.6000    828.2792      7.9057      2.5395      0.0609      6.6989     89.9525     21.7635
   492.7000    828.2792      7.9057      2.5364      0.0494      6.8853     92.2503     21.8213
   492.8000    836.2859      7.9051      2.5427      0.0464      6.5029     93.9051     21.9850
   492.9000    836.2859      7.9051      2.5633      0.0670      5.2551     94.3384     21.9229
   493.0000    859.1873      7.9047      2.5822      0.1201      4.1115     95.6370     21.5976
   493.1000    859.1873      7.9047      2.5840      0.0983      4.0026     97.2837     21.5267
   493.2000    859.1873      7.9047      2.5792      0.0603      4.2930     99.4603     21.7185
   493.3000    860.7053      7.9050      2.5806      0.0631      4.2031    104.1653     21.7038
   493.4000    860.7053      7.9050      2.5819      0.0749      4.1297    106.7566     21.4541
   493.5000    833.9268      7.9051      2.5760      0.0758      4.4845    102.5664     21.3057
   493.6000    833.9268      7.9051      2.5701      0.0674      4.8435     96.2823     21.4210
   493.7000    833.9268      7.9051      2.5702      0.1118      4.8335     93.8566     21.5315
   493.8000    830.1340      7.9058      2.5726      0.0768      4.6935     94.2213     21.2642
   493.9000    830.1340      7.9058      2.5686      0.1093      4.9335     93.4310     20.9409
   494.0000    811.3976      7.9059      2.5545      0.0945      5.7904     89.7921     21.1178
   494.1000    811.3976      7.9059      2.5423      0.0686      6.5287     84.5282     21.5689
   494.2000    811.3976      7.9059      2.5432      0.1149      6.4726     80.8751     21.7977
   494.3000    829.2272      7.9056      2.5483      0.1218      6.1642     79.0150     21.8624
   494.4000    829.2272      7.9056      2.5447      0.0911      6.3795     76.6437     21.9040
   494.5000    838.9501      7.9057      2.5274      0.0813      7.4278     76.5349     21.8493
   494.6000    838.9501      7.9057      2.4954      0.0647      9.3691     80.9777     21.6170
   494.7000    838.9501      7.9057      2.4493      0.0893     12.1612     86.8938     21.3923
   494.8000    820.5018      7.9050      2.3947      0.0507     15.4708     91.6563     21.5193
   494.9000    820.5018      7.9050      2.3498      0.0220     18.1932     95.1964     21.8024
   495.0000    815.5804      7.9059      2.3374      0.0166     18.9428     95.2742     21.8753
   495.1000    815.5804      7.9059      2.3618      0.0664     17.4675     92.3702     21.9427
   495.2000    815.5804      7.9059      2.4039      0.1480     14.9135     90.8445     22.2719
   495.3000    814.8073      7.9022      2.4481      0.1474     12.2364     89.3462     22.4785
   495.4000    814.8073      7.9022      2.4995      0.1775      9.1200     85.4040     22.0524
   495.5000    814.6256      7.9116      2.5652      0.2195      5.1373     82.4945     21.2710
   495.6000    814.6256      7.9116      2.6393      0.2845      0.6507     80.3835     20.9061
   495.7000    814.6256      7.9116      2.7073      0.3250     -3.4737     76.0090     21.0557
   495.8000    838.2034      7.9351      2.7510      0.3104     -6.1206     70.8920     21.2163
   495.9000    838.2034      7.9351      2.7544      0.3009     -6.3278     66.8967     20.9960
   496.0000    841.9937      7.9385      2.7183      0.2316     -4.1383     64.8367     20.3633
   496.1000    841.9937      7.9385      2.6654      0.1797     -0.9359     63.4892     19.5218
   496.2000    841.9937      7.9385      2.6233      0.0965      1.6201     60.5641     18.5924
   496.3000    844.2344      7.9359      2.5991      0.1388      3.0842     57.1952     17.9146
   496.4000    844.2344      7.9359      2.5867      0.0786      3.8342     54.3547     17.9126
   496.5000    834.6396      7.9363      2.5852      0.0807      3.9284     50.3393     18.2515
   496.6000    834.6396      7.9363      2.5890      0.1051      3.6986     45.3864     18.3258
   496.7000    834.6396      7.9363      2.5898      0.0919      3.6515     42.0367     18.1803
   496.8000    858.0441      7.9369      2.5832      0.1239      4.0480     40.9400     17.9953
   496.9000    858.0441      7.9369      2.5656      0.0960      5.1160     42.5946     17.5987
   497.0000    880.0594      7.9355      2.5446      0.0598      6.3855     47.3709     17.2143
   497.1000    880.0594      7.9355      2.5332      0.0611      7.0774     51.7864     17.3923
   497.2000    880.0594      7.9355      2.5307      0.0542      7.2305     52.5579     17.8574
   497.3000    862.2627      7.9373      2.5221      0.0480      7.7493     52.5713     18.1198
   497.4000    862.2627      7.9373      2.4978      0.0529      9.2252     55.3800     18.2503
   497.5000    827.7743      7.9373      2.4762     -0.0111     10.5349     58.7006     18.5861
   497.6000    827.7743      7.9373      2.4826      0.0362     10.1481     59.5002     19.3460
   497.7000    827.7743      7.9373      2.5074      0.0747      8.6445     58.9371     20.2923
   497.8000    839.6290      7.9369      2.5259      0.0724      7.5228     60.0923     20.9686
   497.9000    839.6290      7.9369      2.5328      0.0747      7.1053     63.9841     21.1247
   498.0000    853.1100      7.9348      2.5348      0.0370      6.9848     67.7417     20.9752
   498.1000    853.1100      7.9348      2.5396      0.0432      6.6909     68.5888     20.9149
   498.2000    853.1100      7.9348      2.5482      0.0690      6.1724     68.0080     20.9764
   498.3000    850.7344      7.9341      2.5568      0.0696      5.6513     68.9375     21.0584
   498.4000    850.7344      7.9341      2.5645      0.0652      5.1815     72.3264     21.2123
   498.5000    849.9633      7.9361      2.5679      0.0790      4.9774     76.2163     21.3154
   498.6000    849.9633      7.9361      2.5625      0.0522      5.3055     77.2545     21.4659
   498.7000    849.9633      7.9361      2.5513      0.0252      5.9809     75.8061     21.9810
