~Version Information
VERS.                      2.0: CWLS Log ASCII Standard - VERSION 2.0
WRAP.                       NO: One line per depth step
~Well Information Block
STRT.FT                -9.5000: 
STOP.FT              1862.5000: 
STEP.FT                 0.2500: 
NULL.                -999.2500: 
COMP.          Petrogulf Corporation: COMPANY
WELL.             State 16-34R: WELL
FLD.           Purgatoire River: FIELD
LOC.           1095' FSL & 1498' FEL--: LOCATION
CNTY.               Las Animas: COUNTY
SRVC.                         : SERVICE COMPANY
DATE.          Mon May 10 14:56:57 2004: LOG DATE
UWI.                          : UNIQUE WELL ID
STAT.                       CO: STATE
~Curve Information Block
DEPT.FT            0 000 00 00: Depth
GR.GAPI                       : Gamma Ray
CCL.                          : Casing Collar Locator
TT3.usec                      : CBL 3' Travel Time
AMP3.mV                       : CBL 3' Amplitude
~Parameter Information Block
~A  Depth        GR         CCL         TT3         AMP3    
# ...
  1699.0000    103.1948      0.0000    698.1174      3.6113
  1699.2500    102.3978      0.0000    718.6397      3.4262
  1699.5000    103.2888      0.0000    744.5645      3.4192
  1699.7500    104.5017      0.0000    761.2784      3.5563
  1700.0000    104.7015      0.0000    759.2117      3.6986
  1700.2500    103.4156      0.0000    744.4353      3.7485
  1700.5000    101.3742      0.0000    733.0474      3.7329
  1700.7500     99.8257      0.0000    741.8217      3.7232
  1701.0000     99.4335      0.0000    780.6797      3.7381
  1701.2500     99.9205      0.0000    842.1044      3.7671
  1701.5000    100.5952      0.0000    901.8248      3.8264
  1701.7500    100.8847      0.0000    945.8389      3.9467
  1702.0000    100.5850      0.0000    979.1908      4.1137
  1702.2500    100.2275      0.0000    991.9260      4.1985
  1702.5000    101.3038      0.0000    965.7342      4.0514
  1702.7500    105.4701      5.0000    922.9774      3.7238
  1703.0000    112.9898      0.0000    905.8632      3.4575
  1703.2500    122.0672      0.0000    909.8320      3.4216
  1703.5000    130.0226      0.0000    890.8201      3.5410
  1703.7500    135.1380      0.0000    833.8616      3.6241
  1704.0000    137.2241      0.0000    770.8166      3.5817
  1704.2500    136.5288      0.0000    731.4117      3.4732
  1704.5000    132.6675      0.0000    717.4744      3.4257
  1704.7500    125.1147      0.0000    719.5046      3.5684
  1705.0000    114.5361      0.0000    730.6664      3.9311
  1705.2500    102.9017      0.0000    751.9720      4.3606
  1705.5000     91.9692      0.0000    792.7337      4.6566
  1705.7500     82.1559      0.0000    852.3393      4.7641
  1706.0000     73.3382      0.0000    906.4382      4.7807
  1706.2500     66.1711      0.0000    937.3447      4.8416
  1706.5000     61.8728      0.0000    955.2294      5.0440
  1706.7500     60.9076      0.0000    966.6859      5.4293
  1707.0000     62.4034      0.0000    961.0515      5.9988
  1707.2500     64.6974      0.0000    931.1779      6.8053
  1707.5000     66.1421      0.0000    879.2808      7.9187
  1707.7500     65.6952      0.0000    816.4127      9.1917
  1708.0000     63.2948      0.0000    771.1006     10.2320
  1708.2500     59.9033      0.0000    774.8573     10.6782
  1708.5000     57.1607      0.0000    839.5485     10.4615
  1708.7500     56.7880      0.0000    946.7183      9.7801
  1709.0000     60.0463      0.0000   1039.9545      8.8614
  1709.2500     67.5518      0.0000   1057.9036      7.9073
  1709.5000     79.2142      0.0000    996.0982      7.1266
  1709.7500     93.7874      0.0000    907.3563      6.5769
  1710.0000    108.5292      0.0000    843.6392      6.0826
  1710.2500    120.1675      0.0000    820.4327      5.4165
  1710.5000    126.8641      0.0000    830.0256      4.5645
  1710.7500    129.1269      0.0000    866.2099      3.7425
  1711.0000    128.9525      0.0000    921.6751      3.1127
  1711.2500    128.6978      0.0000    972.9389      2.6529
  1711.5000    130.3542      0.0000    998.7684      2.3254
  1711.7500    134.3878      0.0000   1011.2131      2.1674
  1712.0000    138.8758      0.0000   1033.8629      2.1730
  1712.2500    140.7990      0.0000   1063.9514      2.2443
  1712.5000    138.7288      0.0000   1086.4584      2.3079
  1712.7500    133.8651      0.0000   1098.1007      2.3660
  1713.0000    128.4686      0.0000   1101.5247      2.4325
  1713.2500    123.9992      0.0000   1098.5695      2.4943
  1713.5000    120.9542      0.0000   1092.4540      2.5272
  1713.7500    119.5816      0.0000   1084.9635      2.5272
  1714.0000    119.9558      0.0000   1074.0798      2.5190
  1714.2500    121.6288      0.0000   1061.6472      2.5203
  1714.5000    123.7216      0.0000   1056.3706      2.5337
  1714.7500    125.3953      0.0000   1054.3901      2.5763
  1715.0000    126.3983      0.0000   1028.3795      2.6520
  1715.2500    127.4500      0.0000    962.4669      2.7128
  1715.5000    129.9566      0.0000    887.6685      2.6966
  1715.7500    135.0117      0.0000    847.0482      2.6022
  1716.0000    142.2982      0.0000    838.7462      2.5175
  1716.2500    149.6745      0.0000    845.3760      2.5283
  1716.5000    154.3665      0.0000    878.8812      2.6284
  1716.7500    155.2458      0.0000    934.7082      2.7639
  1717.0000    153.6003      0.0000    971.0093      2.8958
  1717.2500    151.2588      0.0000    976.3268      3.0467
  1717.5000    148.7161      0.0000    989.9562      3.2906
  1717.7500    145.7460      0.0000   1038.4122      3.5964
  1718.0000    142.9587      0.0000   1097.9719      3.8266
  1718.2500    141.7169      0.0000   1122.6251      3.9423
  1718.5000    142.8511      0.0000   1093.3464      4.0260
  1718.7500    146.0155      0.0000   1044.7784      4.1470
  1719.0000    150.0308      0.0000   1033.2542      4.3106
  1719.2500    153.5219      0.0000   1075.5667      4.4599
  1719.5000    155.4274      0.0000   1129.8290      4.4891
  1719.7500    155.2414      0.0000   1138.6082      4.3649
  1720.0000    152.8091      0.0000   1095.3137      4.1973
  1720.2500    148.0103      0.0000   1052.8175      4.1176
  1720.5000    141.1005      0.0000   1050.3470      4.1525
  1720.7500    133.6119      0.0000   1069.3770      4.2159
  1721.0000    128.2450      0.0000   1075.5807      4.2342
  1721.2500    126.9474      0.0000   1053.0104      4.2531
  1721.5000    129.0367      0.0000    998.8536      4.3110
  1721.7500    131.6601      0.0000    932.7020      4.3280
  1722.0000    132.0710      0.0000    897.2916      4.2481
  1722.2500    129.3543      0.0000    908.2388      4.1102
  1722.5000    124.3223      0.0000    919.8029      3.9009
  1722.7500    118.2931      0.0000    881.4500      3.5658
  1723.0000    112.2304      0.0000    806.6320      3.2070
  1723.2500    106.8399      0.0000    744.3513      3.0358
  1723.5000    102.7664      0.0000    716.8868      3.1042
  1723.7500    100.1131      0.0000    715.4957      3.2466
  1724.0000     98.0519      0.0000    724.1197      3.2833
  1724.2500     95.5756      0.0000    730.4960      3.1936
  1724.5000     92.6152      0.0000    729.3502      3.0737
  1724.7500     89.9218      0.0000    723.1218      3.0056
  1725.0000     87.9434      0.0000    720.0101      3.0437
  1725.2500     86.4038      0.0000    726.8672      3.2273
  1725.5000     84.9679      0.0000    739.7637      3.4889
  1725.7500     83.8561      0.0000    748.2843      3.6443
  1726.0000     83.7127      0.0000    751.2591      3.6014
  1726.2500     85.1538      0.0000    757.4866      3.4590
  1726.5000     88.5835      0.0000    770.2391      3.3146
  1726.7500     94.2657      0.0000    782.5825      3.1493
  1727.0000    102.1051      0.0000    789.2186      2.9511
  1727.2500    111.0346      0.0000    792.0976      2.8213
  1727.5000    119.0054      0.0000    793.2650      2.8491
  1727.7500    124.3357      0.0000    794.4517      2.9581
  1728.0000    127.1794      0.0000    805.2606      3.0094
  1728.2500    129.1132      0.0000    840.5714      2.9847
  1728.5000    131.1223      0.0000    900.7948      2.9791
  1728.7500    132.5664      0.0000    957.3456      3.0846
  1729.0000    132.4513      0.0000    981.9406      3.3322
  1729.2500    131.1514      0.0000    986.1131      3.6915
  1729.5000    130.2155      0.0000    987.9843      4.0523
  1729.7500    130.6453      0.0000    975.0181      4.2497
  1730.0000    131.9622      0.0000    954.2119      4.1924
  1730.2500    133.0856      0.0000    966.8663      3.9596
  1730.5000    133.6391      0.0000   1014.7982      3.7500
  1730.7500    133.9383      0.0000   1051.6340      3.6864
  1731.0000    133.7549      0.0000   1056.6112      3.6620
  1731.2500    131.6152      0.0000   1052.4629      3.4821
  1731.5000    125.8285      0.0000   1058.1686      3.1708
  1731.7500    116.5249      0.0000   1064.3499      2.9699
  1732.0000    106.6030      0.0000   1054.2687      2.9775
  1732.2500    100.2526      0.0000   1034.9541      3.0254
