~Version Information
 VERS.                                  2.0 : CWLS LAS VERSION
 WRAP.                                   NO : WRAPING MODE
 SWARE .                 MController 2.5.0J : SOFTWARE VERSION
~Well Information
 WELL.                          Quack 22-24 : WELL
 COMP.    PIONEER NATURAL RESOURCES USA INC : COMPANY
 FLD.                      PURGATOIRE RIVER : FIELD
 LOC.                 SE/NW Sec 24 32S  67W : LOCATION
 DATE.                                  N/A : DATE(S) LOGGED
 SRVC.       Blanco Geological Services LLC : SERVICE COMPANY
 STAT.                                   CO : STATE
 CNTY.                           LAS ANIMAS : COUNTY
 CTRY.                                  USA : COUNTRY
 API.                       05-071-08402-00 : API NUMBER
 STRT.FT                             201.00 : START DEPTH
 STOP.FT                            2610.00 : STOP DEPTH
 STEP.FT                               1.00 : DEPTH INCREMENT
 NULL.                                -9999 : NULL VALUE
~Curve information
 DEPTH.FT                                   :
 ROP.MIN/FT                                 :
 GAS.UNITS                                  :
~ASCII Log data
# ...
       401.0         0.17          4.8 
       402.0         0.17          4.8 
       403.0         0.20          5.1 
       404.0         0.17          5.1 
       405.0         0.17          4.8 
       406.0         0.13          4.1 
       407.0         0.17          3.4 
       408.0         0.13          2.8 
       409.0         0.13          2.2 
       410.0         0.17          1.8 
       411.0         0.13          1.6 
       412.0         0.17          1.3 
       413.0         0.17          1.1 
       414.0         0.20          1.1 
       415.0         0.17          1.0 
       416.0         1.55          5.5 
       417.0         0.30          6.4 
       418.0         0.17          5.9 
       419.0         0.20          5.5 
       420.0         0.17          4.4 
       421.0         0.17          3.5 
       422.0         0.17          2.8 
       423.0         0.13          1.9 
       424.0         0.17          1.8 
       425.0         0.17          1.4 
       426.0         0.18          1.1 
       427.0         0.17          1.0 
       428.0         0.17          1.0 
       429.0         0.20          1.4 
       430.0         0.17          2.1 
       431.0         0.20          3.7 
       432.0         0.17          5.3 
       433.0         0.20          6.9 
       434.0         0.17          8.3 
       435.0         0.20          8.5 
       436.0         0.20          7.2 
       437.0         0.17          4.8 
       438.0         0.20          2.6 
       439.0         0.20          1.4 
       440.0         0.20          0.4 
       441.0         0.17          0.2 
       442.0         0.20          0.5 
       443.0         0.17          0.4 
       444.0         0.25          0.6 
       445.0         0.17          1.1 
       446.0         1.57          7.7 
       447.0         0.23          8.1 
       448.0         0.27          8.1 
       449.0         0.23          8.5 
       450.0         0.23          8.4 
       451.0         0.20          8.5 
       452.0         0.17          8.5 
       453.0         0.20          8.6 
       454.0         0.18          8.4 
       455.0         0.20          8.1 
       456.0         0.20          7.9 
       457.0         0.20          7.8 
       458.0         0.20          8.0 
       459.0         0.20          8.5 
       460.0         0.20          8.5 
       461.0         0.20          8.5 
       462.0         0.20          8.9 
       463.0         0.20          9.6 
       464.0         0.20          9.6 
       465.0         0.17          9.6 
       466.0         0.20          8.1 
       467.0         0.17          5.6 
       468.0         0.20          3.8 
       469.0         0.17          1.5 
       470.0         0.20          0.9 
       471.0         0.18          0.4 
       472.0         0.17          0.3 
       473.0         0.17          0.3 
       474.0         0.17          0.4 
       475.0         0.20          2.2 
       476.0         1.60          7.1 
       477.0         0.20          5.7 
       478.0         0.20          5.7 
       479.0         0.17          5.4 
       480.0         0.17          5.8 
       481.0         0.17          5.9 
       482.0         0.18          5.3 
       483.0         0.17          5.3 
       484.0         0.17          5.3 
       485.0         0.20          4.9 
       486.0         0.20          5.1 
       487.0         0.17          4.8 
       488.0         0.20          5.2 
       489.0         0.17          5.3 
       490.0         0.20          5.2 
       491.0         0.17          5.4 
       492.0         0.20          5.5 
       493.0         0.23          6.0 
       494.0         0.17          5.6 
       495.0         0.20          4.5 
       496.0         0.17          2.6 
       497.0         0.17          1.2 
       498.0         0.20          0.4 
       499.0         0.17         -0.1 
       500.0         0.15         -0.1 
       501.0         0.17          0.0 
       502.0         0.17         -0.2 
       503.0         0.13         -0.2 
       504.0         0.17          0.8 
       505.0         0.23          2.6 
       506.0         1.43          7.1 
       507.0         0.27          7.1 
       508.0         0.23          7.1 
       509.0         0.23          7.1 
       510.0         0.17          6.8 
       511.0         0.25          6.5 
       512.0         0.17          6.0 
       513.0         0.20          5.5 
       514.0         0.17          5.6 
       515.0         0.17          5.2 
       516.0         0.17          5.1 
       517.0         0.17          5.3 
       518.0         0.20          5.5 
       519.0         0.20          5.4 
       520.0         0.20          5.7 
       521.0         0.20          5.9 
       522.0         0.17          5.7 
       523.0         0.17          5.6 
       524.0         0.20          5.6 
       525.0         0.17          5.2 
       526.0         0.20          3.7 
       527.0         0.20          2.0 
       528.0         0.17          0.6 
       529.0         0.18          0.2 
       530.0         0.17         -0.1 
       531.0         0.20          0.0 
       532.0         0.17          0.0 
       533.0         0.20          0.2 
       534.0         0.17          0.2 
       535.0         0.30          0.1 
       536.0         1.07          0.1 
       537.0         0.37          0.1 
       538.0         0.20          0.3 
       539.0         0.20          0.1 
       540.0         0.25          0.1 
       541.0         0.23          0.2 
       542.0         0.23         -0.2 
       543.0         0.20         -0.1 
       544.0         0.20         -0.3 
       545.0         0.23          0.0 
       546.0         0.13         -0.1 
       547.0         0.20          0.0 
       548.0         0.20          0.1 
       549.0         0.17          0.0 
       550.0         0.23          0.0 
       551.0         0.20         -0.1 
       552.0         0.20         -0.1 
       553.0         0.20          0.1 
       554.0         0.20          0.1 
       555.0         0.17          0.3 
       556.0         0.20          0.1 
       557.0         0.18         -0.1 
       558.0         0.20         -0.5 
       559.0         0.23         -0.5 
       560.0         0.17         -0.4 
       561.0         0.17          4.4 
       562.0         0.20          4.7 
       563.0         0.17          5.0 
       564.0         0.17          5.1 
       565.0         0.17          5.2 
       566.0         1.33          4.9 
       567.0         0.30          4.6 
       568.0         0.25          4.8 
       569.0         0.23          4.9 
       570.0         0.20          4.4 
       571.0         0.20          5.0 
       572.0         0.17          5.4 
       573.0         0.20          5.3 
       574.0         0.17          5.4 
       575.0         0.20          5.5 
       576.0         0.17          5.8 
       577.0         0.17          5.3 
       578.0         0.17          5.2 
       579.0         0.17          5.0 
       580.0         0.17          5.2 
       581.0         0.13          4.7 
       582.0         0.13          4.6 
       583.0         0.13          4.7 
       584.0         0.13          4.5 
       585.0         0.13          4.4 
       586.0         0.17          3.6 
       587.0         0.13          3.2 
       588.0         0.15          2.9 
       589.0         0.17          3.1 
       590.0         0.13          3.1 
       591.0         0.13          3.0 
       592.0         0.13          3.1 
       593.0         0.20          3.1 
       594.0         0.20          3.2 
       595.0         0.17          3.5 
       596.0         1.47          4.2 
       597.0         0.30          4.0 
       598.0         0.27          4.0 
       599.0         0.28          4.1 
       600.0         0.20          4.0 
