~Version Information
VERS.                      2.0: CWLS Log ASCII Standard - VERSION 2.0
WRAP.                       NO: One line per depth step
~Well Information Block
STRT.FT                -3.5000: 
STOP.FT              1841.0000: 
STEP.FT                 0.2500: 
NULL.                -999.2500: 
COMP.          Pioneer Natural Resources: COMPANY
WELL.          Corkscrew 33-12 Tr: WELL
FLD.           Purgatorie River: FIELD
LOC.           1870' FSL  & 1706' FEL--------: LOCATION
PROV.                       CO: PROVINCE
CNTY.               Las Animas: COUNTRY
SRVC.          Patterson Wireline: SERVICE COMPANY
DATE.          Mon Apr 04 10:07:45 2005: LOG DATE
UWI.           05 071 08295 00: UNIQUE WELL ID
~Curve Information Block
DEPT.FT            0 000 00 00: Depth
CCL.                          : Casing Collar Locator
TT3.usec                      : CBL 3' Travel Time
AMP3.mV                       : CBL 3' Amplitude
GR.GAPI                       : Gamma Ray
~Parameter Information Block
~A  Depth       CCL         TT3         AMP3         GR     
# ...
  1202.5000      0.0000    687.1763      6.2124    150.9761
  1202.7500      0.0000    703.0505      5.8675    154.1657
  1203.0000      0.0000    720.5507      5.7070    157.1610
  1203.2500      0.0000    736.7205      5.7558    157.5594
  1203.5000      0.0000    748.7275      6.0036    153.2106
  1203.7500      0.0000    756.2149      6.4165    144.0673
  1204.0000      0.0000    760.8665      6.9148    132.7132
  1204.2500      0.0000    763.8632      7.3860    122.9978
  1204.5000      0.0000    763.8484      7.7511    117.9400
  1204.7500      0.0000    757.4086      8.0069    118.3855
  1205.0000      0.0000    741.8939      8.1930    123.0981
  1205.2500      0.0000    717.6911      8.3255    129.7748
  1205.5000      0.0000    687.4074      8.3726    136.0812
  1205.7500      0.0000    654.0334      8.2783    140.3074
  1206.0000      0.0000    621.2065      8.0025    141.7108
  1206.2500      0.0000    593.7535      7.5614    140.6262
  1206.5000      0.0000    575.6425      7.0434    138.3076
  1206.7500      0.0000    567.3986      6.5673    136.3194
  1207.0000      0.0000    566.1857      6.2128    135.6814
  1207.2500      0.0000    567.8800      5.9996    136.5161
  1207.5000      0.0000    569.0858      5.9202    138.5483
  1207.7500      0.0000    568.4205      5.9615    141.6894
  1208.0000      0.0000    566.6382      6.1080    145.8445
  1208.2500      0.0000    565.3652      6.3534    150.1689
  1208.5000      0.0000    565.5736      6.6925    152.8240
  1208.7500      0.0000    567.1266      7.0857    151.9440
  1209.0000      0.0000    569.1924      7.4487    147.1709
  1209.2500      0.0000    570.6932      7.6925    140.1259
  1209.5000      0.0000    570.7162      7.7608    133.1688
  1209.7500      0.0000    569.2988      7.6281    127.7814
  1210.0000      0.0000    568.4840      7.2962    124.1174
  1210.2500      0.0000    572.1498      6.8188    121.4983
  1210.5000      0.0000    583.5164      6.3161    119.1159
  1210.7500      0.0000    602.3062      5.9318    116.9362
  1211.0000      0.0000    625.0740      5.7567    116.1116
  1211.2500      0.0000    648.3647      5.7834    117.7767
  1211.5000      0.0000    670.5494      5.9255    121.3400
  1211.7500      0.0000    691.0443      6.0809    124.5746
  1212.0000      0.0000    709.6409      6.1867    125.3387
  1212.2500      0.0000    727.1876      6.2146    122.7270
  1212.5000      0.0000    745.5537      6.1287    116.9317
  1212.7500      0.0000    765.5739      5.8857    108.7359
  1213.0000      0.0000    785.4521      5.4891     98.9910
  1213.2500      0.0000    802.5746      5.0238     88.1890
  1213.5000      0.0000    816.2693      4.6201     76.7501
  1213.7500     -2.0000    826.7659      4.3907     65.8029
  1214.0000      0.0000    832.1102      4.3900     57.3285
  1214.2500      0.0000    828.8055      4.6054     53.3624
  1214.5000      0.0000    816.6129      4.9645     54.9540
  1214.7500      0.0000    801.6375      5.3499     61.5169
  1215.0000      0.0000    793.0643      5.6214     71.1466
  1215.2500      0.0000    795.7913      5.6696     81.9395
  1215.5000      0.0000    806.5833      5.5001     92.9730
  1215.7500      0.0000    818.0249      5.2639    103.8508
  1216.0000      0.0000    825.3047      5.1550    113.7243
  1216.2500      0.0000    828.4595      5.2597    121.1925
  1216.5000      0.0000    829.7646      5.5188    125.0402
  1216.7500      0.0000    830.9723      5.8180    124.9629
  1217.0000      0.0000    832.4586      6.0764    121.9414
  1217.2500      0.0000    833.5139      6.2569    118.1525
  1217.5000      0.0000    833.4125      6.3368    116.0543
  1217.7500      0.0000    832.6373      6.2884    116.9621
  1218.0000      0.0000    832.7202      6.0843    120.3484
  1218.2500      0.0000    834.8086      5.7298    124.5586
  1218.5000      0.0000    838.7835      5.2980    128.0360
  1218.7500      0.0000    843.5939      4.9162    129.7323
  1219.0000      0.0000    848.0035      4.6969    128.8220
  1219.2500      0.0000    851.1901      4.6818    124.6938
  1219.5000      0.0000    853.0280      4.8477    117.2072
  1219.7500      0.0000    853.9016      5.1339    106.6262
  1220.0000      0.0000    854.2746      5.4534     93.5184
  1220.2500      0.0000    854.4289      5.7072     79.2580
  1220.5000      0.0000    854.4670      5.8189     66.5080
  1220.7500      0.0000    854.4056      5.7561     58.4181
  1221.0000      0.0000    854.2438      5.5277     56.8195
  1221.2500      0.0000    853.9988      5.1849     61.1524
  1221.5000      0.0000    853.6978      4.8292     69.1776
  1221.7500      0.0000    853.3601      4.5861     78.7086
  1222.0000      0.0000    852.8995      4.5426     88.6646
  1222.2500      0.0000    851.9307      4.7068     98.7481
  1222.5000      0.0000    849.5652      5.0268    108.6190
  1222.7500      0.0000    844.7285      5.4259    117.6242
  1223.0000      0.0000    837.4670      5.8163    124.9799
  1223.2500      0.0000    830.2595      6.1083    129.9294
  1223.5000      0.0000    827.0232      6.2301    131.9249
  1223.7500      0.0000    829.6185      6.1431    130.8839
  1224.0000      0.0000    835.6041      5.8572    127.2321
  1224.2500      0.0000    839.9837      5.4536    121.6855
  1224.5000      0.0000    838.7968      5.0821    115.0267
  1224.7500      0.0000    831.3572      4.8957    108.0324
  1225.0000      0.0000    820.4819      4.9664    101.4217
  1225.2500      0.0000    810.6979      5.2510     95.6644
  1225.5000      0.0000    804.7697      5.6306     90.8629
  1225.7500      0.0000    801.6619      5.9826     86.9919
  1226.0000      0.0000    798.7281      6.2322     84.0839
  1226.2500      0.0000    795.5822      6.3497     81.8675
  1226.5000      0.0000    794.5684      6.3224     79.4679
  1226.7500      0.0000    797.5161      6.1546     76.0438
  1227.0000      0.0000    803.3329      5.8888     71.7322
  1227.2500      0.0000    809.2342      5.5989     67.7205
  1227.5000      0.0000    813.3260      5.3565     65.4285
  1227.7500      0.0000    815.4270      5.2190     65.6084
  1228.0000      0.0000    816.2042      5.2336     67.9485
  1228.2500      0.0000    816.2875      5.4123     71.2614
  1228.5000      0.0000    816.0609      5.7027     74.0688
  1228.7500      0.0000    815.7245      6.0142     75.3570
  1229.0000      0.0000    815.2751      6.2761     75.1857
  1229.2500      0.0000    814.4044      6.4559     74.5500
  1229.5000      0.0000    812.4951      6.5367     74.3514
  1229.7500      0.0000    809.0009      6.5044     74.4589
  1230.0000      0.0000    804.1785      6.3555     73.8586
  1230.2500      0.0000    799.4662      6.1070     71.4910
  1230.5000      0.0000    796.6224      5.8091     66.9305
  1230.7500      0.0000    796.0175      5.5488     60.7877
  1231.0000      0.0000    795.9538      5.4187     54.5942
  1231.2500      0.0000    794.0805      5.4665     49.9242
  1231.5000      0.0000    789.4229      5.6723     47.5247
  1231.7500      0.0000    782.7012      5.9592     47.3313
  1232.0000      0.0000    775.0526      6.2185     48.8998
  1232.2500      0.0000    767.3416      6.3499     51.4312
  1232.5000      0.0000    760.7786      6.3064     53.7440
  1232.7500      0.0000    756.9756      6.1093     54.8802
  1233.0000      0.0000    756.4929      5.8309     54.8386
  1233.2500      0.0000    758.0015      5.5714     54.3700
  1233.5000      0.0000    759.7599      5.4294     54.0145
  1233.7500      0.0000    761.4301      5.4520     53.6294
  1234.0000      0.0000    763.9042      5.6036     52.9114
  1234.2500      0.0000    768.0369      5.7923     51.9558
  1234.5000      0.0000    774.0809      5.9229     51.0201
  1234.7500      0.0000    781.6575      5.9307     50.0773
  1235.0000      0.0000    789.6365      5.7938     48.9467
  1235.2500      0.0000    796.4696      5.5385     47.6930
  1235.5000      0.0000    801.1727      5.2359     46.6854
  1235.7500      0.0000    803.8795      4.9865     46.3864
