~Version Information
VERS.                      2.0: CWLS Log ASCII Standard - VERSION 2.0
WRAP.                       NO: One line per depth step
~Well Information Block
STRT.FT               491.0000: 
STOP.FT              1056.0000: 
STEP.FT                 0.2500: 
NULL.                -999.2500: 
COMP.          Evergreen Operating Corporation: COMPANY
WELL.              Sunset 24-3: WELL
FLD.           Purgatorie River: FIELD
LOC.           467' FSL & 2262' FWL: LOCATION
PROV.                 Colorado: PROVINCE
CNTY.               Las Animas: COUNTRY
SRVC.                         : SERVICE COMPANY
DATE.          Wed Sep 22 11:23:45 2004: LOG DATE
UWI.           05 071 08158 00: UNIQUE WELL ID
~Curve Information Block
DEPT.FT            0 000 00 00: Depth
SN.Ohm-m                      : IEL Short Normal
SP.mV                         : IEL Spontaneous Potential
DIR.Ohm-m                     : IEL Induction Resistivity
GR.GAPI                       : Gamma Ray
~Parameter Information Block
~A  Depth        SN          SP         DIR          GR     
# ...
   859.5000     24.7012     12.0943     20.5270     70.5435
   859.7500     24.8567     11.9757     20.5750     68.7659
   860.0000     24.8790     11.8579     20.5755     68.1316
   860.2500     24.7669     11.7373     20.5509     68.8512
   860.5000     24.5352     11.6118     20.5259     71.0749
   860.7500     24.2144     11.4822     20.5166     73.1625
   861.0000     23.8449     11.3517     20.5235     77.1515
   861.2500     23.4696     11.2265     20.5348     80.1885
   861.5000     23.1273     11.1150     20.5354     84.5303
   861.7500     22.8503     11.0265     20.5159     86.8203
   862.0000     22.6630     10.9701     20.4762     88.9708
   862.2500     22.5808     10.9536     20.4235     89.5118
   862.5000     22.6068     10.9820     20.3687     89.0087
   862.7500     22.7308     11.0568     20.3235     87.8992
   863.0000     22.9305     11.1760     20.2988     85.6732
   863.2500     23.1792     11.3340     20.3039     84.3905
   863.5000     23.4562     11.5225     20.3492     83.5293
   863.7500     23.7514     11.7306     20.4512     83.6067
   864.0000     24.0645     11.9457     20.6328     83.8434
   864.2500     24.3998     12.1533     20.9171     83.6021
   864.5000     24.7629     12.3375     21.3123     82.5735
   864.7500     25.1591     12.4814     21.7991     81.7531
   865.0000     25.5926     12.5680     22.3284     80.6911
   865.2500     26.0607     12.5823     22.8357     79.9611
   865.5000     26.5495     12.5126     23.2668     78.2386
   865.7500     27.0317     12.3533     23.5979     76.3968
   866.0000     27.4702     12.1056     23.8329     72.7070
   866.2500     27.8263     11.7789     23.9850     70.0955
   866.5000     28.0666     11.3888     24.0607     66.9393
   866.7500     28.1685     10.9566     24.0636     65.6753
   867.0000     28.1219     10.5059     24.0073     65.0850
   867.2500     27.9314     10.0603     23.9239     65.4440
   867.5000     27.6161      9.6413     23.8583     66.8120
   867.7500     27.2075      9.2663     23.8501     68.1046
   868.0000     26.7449      8.9475     23.9115     70.4089
   868.2500     26.2683      8.6918     24.0142     71.9592
   868.5000     25.8134      8.4999     24.0966     73.4058
   868.7500     25.4091      8.3675     24.0973     73.2275
   869.0000     25.0766      8.2850     23.9939     71.2057
   869.2500     24.8293      8.2393     23.8186     69.3557
   869.5000     24.6717      8.2153     23.6355     67.4173
   869.7500     24.5997      8.1972     23.5034     67.3071
   870.0000     24.6021      8.1715     23.4517     68.8381
   870.2500     24.6624      8.1281     23.4766     70.3223
   870.5000     24.7612      8.0616     23.5523     71.8203
   870.7500     24.8790      7.9719     23.6474     71.8904
   871.0000     24.9982      7.8628     23.7403     70.8055
   871.2500     25.1048      7.7404     23.8291     69.6464
   871.5000     25.1895      7.6117     23.9304     67.7388
   871.7500     25.2470      7.4822     24.0655     66.5935
   872.0000     25.2752      7.3554     24.2417     65.4558
   872.2500     25.2744      7.2325     24.4409     65.1375
   872.5000     25.2470      7.1130     24.6300     65.0306
   872.7500     25.1966      6.9957     24.7847     65.0075
   873.0000     25.1288      6.8797     24.9084     64.8778
   873.2500     25.0516      6.7650     25.0275     64.6769
   873.5000     24.9764      6.6524     25.1706     64.2229
   873.7500     24.9179      6.5435     25.3509     63.9792
   874.0000     24.8925      6.4393     25.5591     64.0060
   874.2500     24.9141      6.3401     25.7670     64.2301
   874.5000     24.9902      6.2445     25.9362     64.5420
   874.7500     25.1191      6.1498     26.0325     64.7298
   875.0000     25.2886      6.0528     26.0396     65.2816
   875.2500     25.4771      5.9500     25.9670     65.7280
   875.5000     25.6569      5.8389     25.8442     65.5785
   875.7500     25.7984      5.7185     25.7060     64.4614
   876.0000     25.8762      5.5895     25.5758     61.6125
   876.2500     25.8731      5.4542     25.4558     59.6910
   876.5000     25.7828      5.3157     25.3301     57.9297
   876.7500     25.6089      5.1775     25.1763     57.6890
   877.0000     25.3631      5.0432     24.9759     58.4008
   877.2500     25.0627      4.9155     24.7158     59.3787
   877.5000     24.7293      4.7969     24.3878     61.5761
   877.7500     24.3862      4.6888     23.9950     63.5720
   878.0000     24.0548      4.5916     23.5601     67.1177
   878.2500     23.7516      4.5054     23.1215     69.5125
   878.5000     23.4875      4.4292     22.7160     72.5018
   878.7500     23.2687      4.3620     22.3651     73.7704
   879.0000     23.0992      4.3025     22.0743     74.3745
   879.2500     22.9812      4.2502     21.8444     74.1187
   879.5000     22.9142      4.2050     21.6776     73.5924
   879.7500     22.8949      4.1681     21.5751     73.7332
   880.0000     22.9172      4.1418     21.5316     75.5622
   880.2500     22.9729      4.1293     21.5368     78.0820
   880.5000     23.0541      4.1344     21.5836     83.0332
   880.7500     23.1554      4.1606     21.6740     85.9436
   881.0000     23.2750      4.2106     21.8170     87.5770
   881.2500     23.4134      4.2851     22.0217     86.3558
   881.5000     23.5710      4.3826     22.2929     82.2063
   881.7500     23.7464      4.4985     22.6305     79.2931
   882.0000     23.9379      4.6251     23.0295     76.7936
   882.2500     24.1458      4.7517     23.4764     76.7713
   882.5000     24.3756      4.8656     23.9455     78.3777
   882.7500     24.6364      4.9526     24.4028     79.6638
   883.0000     24.9382      4.9986     24.8191     80.8778
   883.2500     25.2877      4.9914     25.1865     81.1844
   883.5000     25.6854      4.9224     25.5235     81.5346
   883.7500     26.1265      4.7885     25.8669     82.0844
   884.0000     26.6024      4.5926     26.2558     83.5379
   884.2500     27.1026      4.3440     26.7177     84.5842
   884.5000     27.6169      4.0575     27.2624     85.0935
   884.7500     28.1367      3.7511     27.8819     84.0988
   885.0000     28.6560      3.4435     28.5598     80.6401
   885.2500     29.1719      3.1522     29.2834     77.8356
   885.5000     29.6838      2.8911     30.0523     74.7402
   885.7500     30.1927      2.6692     30.8734     74.1704
   886.0000     30.6990      2.4911     31.7459     75.7981
   886.2500     31.2007      2.3573     32.6503     78.1881
   886.5000     31.6916      2.2648     33.5541     82.8093
   886.7500     32.1616      2.2088     34.4256     86.1099
   887.0000     32.5982      2.1834     35.2455     90.8369
   887.2500     32.9898      2.1822     36.0072     93.5812
   887.5000     33.3265      2.1991     36.7091     96.5706
   887.7500     33.5977      2.2284     37.3386     97.5218
   888.0000     33.7869      2.2655     37.8526     97.3292
   888.2500     33.8679      2.3076     38.1678     96.4838
   888.5000     33.8083      2.3538     38.1798     94.9677
   888.7500     33.5789      2.4055     37.8141     94.0122
   889.0000     33.1640      2.4658     37.0767     92.6545
   889.2500     32.5683      2.5390     36.0644     91.9115
   889.5000     31.8167      2.6291     34.9200     91.5324
   889.7500     30.9473      2.7388     33.7672     91.8350
   890.0000     30.0028      2.8684     32.6698     92.3930
   890.2500     29.0218      3.0153     31.6328     92.2815
   890.5000     28.0342      3.1746     30.6334     91.2697
   890.7500     27.0619      3.3392     29.6491     90.4371
   891.0000     26.1223      3.5006     28.6713     89.3633
   891.2500     25.2334      3.6501     27.7095     88.5661
   891.5000     24.4151      3.7784     26.7938     86.9041
   891.7500     23.6871      3.8765     25.9707     85.6840
   892.0000     23.0644      3.9354     25.2860     84.4050
   892.2500     22.5549      3.9467     24.7608     84.1419
   892.5000     22.1582      3.9034     24.3797     84.4421
   892.7500     21.8674      3.8005     24.0957     84.8812
