~Version Information
 VERS.                                  2.0 : CWLS LAS VERSION
 WRAP.                                   NO : WRAPING MODE
 SWARE .                 MController 2.5.0J : SOFTWARE VERSION
~Well Information
 WELL.                         Culver 14-12 : WELL
 COMP.    Pioneer Natural Resources USA Inc : COMPANY
 FLD.                      Purgatoire River : FIELD
 LOC.                SW/SW Sec 12 T32S R66W : LOCATION
 DATE.                              6/06/05 : DATE(S) LOGGED
 SRVC.       Blanco Geological Services LLC : SERVICE COMPANY
 STAT.                                   CO : STATE
 CNTY.                           Las Animas : COUNTY
 CTRY.                                  USA : COUNTRY
 API.                       05 071 08386 00 : API NUMBER
 STRT.FT                             442.00 : START DEPTH
 STOP.FT                            2305.00 : STOP DEPTH
 STEP.FT                               1.00 : DEPTH INCREMENT
 NULL.                                -9999 : NULL VALUE
~Curve information
 DEPTH.FT                                   :
 ROP.MIN/FT                                 :
 GAS.UNITS                                  :
~ASCII Log data
# ...
      1442.0         0.17         46.0 
      1443.0         0.28         47.4 
      1444.0         0.23         47.4 
      1445.0         0.23         46.1 
      1446.0         0.20         45.1 
      1447.0         0.27         43.5 
      1448.0         0.20         41.3 
      1449.0         0.20         39.9 
      1450.0         0.23         38.0 
      1451.0         0.20         37.1 
      1452.0         0.20         35.6 
      1453.0         0.23         34.0 
      1454.0         0.20         33.0 
      1455.0         0.17         32.8 
      1456.0         0.17         38.1 
      1457.0         0.20         42.8 
      1458.0         0.17         43.6 
      1459.0         0.18         43.0 
      1460.0         0.20         40.6 
      1461.0         0.17         38.5 
      1462.0         0.17         34.1 
      1463.0         0.20         29.8 
      1464.0         0.27         23.1 
      1465.0         0.30         19.0 
      1466.0         2.72        122.5 
      1467.0         0.27        108.4 
      1468.0         0.23         94.0 
      1469.0         0.20         86.3 
      1470.0         0.23         70.6 
      1471.0         0.23         58.5 
      1472.0         0.20         52.4 
      1473.0         0.27         49.9 
      1474.0         0.17         51.4 
      1475.0         0.13         53.2 
      1476.0         0.17         55.3 
      1477.0         0.27         57.7 
      1478.0         0.32         57.5 
      1479.0         0.27         52.5 
      1480.0         0.17         48.8 
      1481.0         0.20         45.2 
      1482.0         0.27         43.7 
      1483.0         0.23         43.1 
      1484.0         0.17         40.0 
      1485.0         0.23         39.0 
      1486.0         0.23         37.7 
      1487.0         0.20         37.0 
      1488.0         0.23         41.9 
      1489.0         0.23         43.2 
      1490.0         0.23         50.1 
      1491.0         0.20         65.0 
      1492.0         0.23         82.1 
      1493.0         0.25         92.0 
      1494.0         0.30         96.4 
      1495.0         0.13         97.8 
      1496.0         1.93        416.7 
      1497.0         0.23        463.0 
      1498.0         0.33        903.1 
      1499.0         0.45        887.6 
      1500.0         0.33        737.0 
      1501.0         0.30        590.1 
      1502.0         0.27        484.0 
      1503.0         0.30        440.0 
      1504.0         0.30        196.5 
      1505.0         0.37        174.3 
      1506.0         0.37        149.6 
      1507.0         0.27        130.9 
      1508.0         0.30        122.6 
      1509.0         0.38        118.5 
      1510.0         0.27        113.5 
      1511.0         0.23        110.1 
      1512.0         0.23        105.4 
      1513.0         0.23        100.8 
      1514.0         0.23         97.3 
      1515.0         0.23         94.3 
      1516.0         0.23         88.6 
      1517.0         0.20         89.9 
      1518.0         0.17        111.3 
      1519.0         0.23        125.0 
      1520.0         0.23        121.5 
      1521.0         0.23        104.1 
      1522.0         0.20         87.0 
      1523.0         0.20         73.5 
      1524.0         0.28         62.0 
      1525.0         0.20         52.6 
      1526.0         1.63        308.2 
      1527.0         0.53        345.3 
      1528.0         0.37        336.9 
      1529.0         0.27        293.7 
      1530.0         0.22        246.2 
      1531.0         0.23        209.4 
      1532.0         0.13        173.8 
      1533.0         0.17        157.6 
      1534.0         0.30        145.1 
      1535.0         0.33        131.8 
      1536.0         0.30        121.0 
      1537.0         0.23        117.5 
      1538.0         0.23        113.5 
      1539.0         0.23        110.1 
      1540.0         0.23        108.1 
      1541.0         0.17        100.9 
      1542.0         0.13         96.3 
      1543.0         0.07         94.7 
      1544.0         0.10         94.5 
      1545.0         0.07         94.6 
      1546.0         0.27         97.8 
      1547.0         0.28        102.3 
      1548.0         0.27        110.6 
      1549.0         0.23        133.1 
      1550.0         0.20        136.8 
      1551.0         0.23        131.7 
      1552.0         0.20        106.8 
      1553.0         0.20         89.7 
      1554.0         0.23         72.7 
      1555.0         0.23         61.2 
      1556.0         1.27        161.3 
      1557.0         0.38        236.4 
      1558.0         0.40        288.4 
      1559.0         0.10        296.7 
      1560.0         0.40        301.6 
      1561.0         0.47        291.6 
      1562.0         0.37        248.2 
      1563.0         0.27        199.1 
      1564.0         0.30        163.8 
      1565.0         0.30        134.8 
      1566.0         0.37        118.1 
      1567.0         0.32        102.2 
      1568.0         0.20         91.1 
      1569.0         0.23         82.9 
      1570.0         0.17         73.3 
      1571.0         0.10         69.0 
      1572.0         0.13         68.2 
      1573.0         0.20         67.0 
      1574.0         0.23         66.7 
      1575.0         0.30         70.5 
      1576.0         0.30         75.5 
      1577.0         0.20         77.7 
      1578.0         0.17         80.3 
      1579.0         0.27         86.0 
      1580.0         0.27         92.5 
      1581.0         0.13         94.0 
      1582.0         0.22         94.2 
      1583.0         0.40        100.3 
      1584.0         0.53        103.4 
      1585.0         0.33         75.3 
      1586.0         2.72        154.8 
      1587.0         0.23        172.4 
      1588.0         0.17        183.0 
      1589.0         0.23        185.2 
      1590.0         0.23        182.6 
      1591.0         0.20        167.0 
      1592.0         0.13        144.1 
      1593.0         0.20        133.0 
      1594.0         0.13        123.1 
      1595.0         0.20        115.8 
      1596.0         0.23        106.1 
      1597.0         0.27        111.5 
      1598.0         0.20        115.0 
      1599.0         0.25        115.0 
      1600.0         0.23        112.4 
      1601.0         0.23        107.6 
      1602.0         0.20        102.3 
      1603.0         0.23         93.4 
      1604.0         0.13         81.5 
      1605.0         0.10         78.3 
      1606.0         0.30         82.3 
      1607.0         0.23         96.0 
      1608.0         0.23        116.9 
      1609.0         0.23        118.3 
      1610.0         0.20        110.8 
      1611.0         0.20         98.5 
      1612.0         0.17         84.7 
      1613.0         0.20         73.8 
      1614.0         0.20         61.5 
      1615.0         0.22         52.8 
      1616.0         1.37        133.0 
      1617.0         0.30        165.3 
      1618.0         0.57        201.9 
      1619.0         0.23        202.0 
      1620.0         0.20        192.4 
      1621.0         0.27        175.5 
      1622.0         0.45        151.1 
      1623.0         0.37        115.8 
      1624.0         0.27        106.0 
      1625.0         0.33        104.5 
      1626.0         0.50         98.0 
      1627.0         0.50         89.2 
      1628.0         0.23         88.5 
      1629.0         0.20         86.1 
      1630.0         0.20         82.9 
      1631.0         0.20         79.2 
      1632.0         0.17         74.6 
      1633.0         0.20         71.7 
      1634.0         0.28         70.3 
      1635.0         0.27         68.6 
      1636.0         0.23         65.8 
      1637.0         0.17         68.3 
      1638.0         0.20         84.7 
      1639.0         0.20         92.0 
      1640.0         0.23         91.4 
      1641.0         0.20         79.6 
