~Version Information
VERS.                      2.0: CWLS Log ASCII Standard - VERSION 2.0
WRAP.                       NO: One line per depth step
~Well Information Block
STRT.FT               563.6000: 
STOP.FT              2133.0000: 
STEP.FT                 0.1000: 
NULL.                -999.2500: 
COMP.          Petrogulf Corporation: COMPANY
WELL.             State 16-43V: WELL
FLD.           Purgatorie River: FIELD
LOC.           2437' FSL & 734' FEL: LOCATION
CNTY.               Las Animas: COUNTY
SRVC.                         : SERVICE COMPANY
DATE.          Mon Dec 06 06:01:26 2004: LOG DATE
UWI.           05 071 08015 00: UNIQUE WELL ID
STAT.                 Colorado: STATE
~Curve Information Block
DEPT.FT            0 000 00 00: Depth
DCAL.in                       : CDL Caliper
RHOB.g/cc                     : CDL Bulk Density
RHOC.g/cc                     : CDL Density Correction
DPOR.pu                       : CDL Density Porosity
GR.GAPI                       : Gamma Ray
NPOR.pu                       : Neutron Porosity
~Parameter Information Block
~A  Depth       DCAL        RHOB        RHOC        DPOR         GR         NPOR    
# ...
  1706.0000      7.8839      2.6191      0.0835      1.8738     87.7552     24.0228
  1706.1000      7.8839      2.6107      0.0734      2.3798     89.0125     24.3175
  1706.2000      7.8839      2.6089      0.0107      2.4934     86.5462     24.6231
  1706.3000      7.8507      2.6219      0.0888      1.7008     81.4283     24.5971
  1706.4000      7.8507      2.6157      0.0511      2.0764     77.1833     24.0525
  1706.5000      7.8645      2.5814      0.0259      4.1567     78.3667     23.0022
  1706.6000      7.8645      2.5464      0.0135      6.2799     83.9009     22.1051
  1706.7000      7.8645      2.5184      0.0259      7.9763     87.1160     21.8679
  1706.8000      7.8903      2.4914     -0.0087      9.6100     85.4510     21.6957
  1706.9000      7.8903      2.4759     -0.0353     10.5500     81.9345     21.0566
  1707.0000      7.8858      2.4742      0.0594     10.6522     79.9959     20.3352
  1707.1000      7.8858      2.4753     -0.0055     10.5869     81.7585     20.0388
  1707.2000      7.8858      2.4845      0.0399     10.0297     87.3099     20.2523
  1707.3000      7.8981      2.5009      0.0597      9.0342     91.9354     20.9108
  1707.4000      7.8981      2.5157      0.0497      8.1390     92.6092     21.7234
  1707.5000      7.8803      2.5400      0.0293      6.6680     93.6261     22.2288
  1707.6000      7.8803      2.5749      0.1248      4.5512     98.1488     22.3966
  1707.7000      7.8803      2.5942      0.1403      3.3797    103.4602     22.3825
  1707.8000      7.8788      2.5865      0.1347      3.8471    107.3594     22.2295
  1707.9000      7.8788      2.5627      0.1480      5.2903    109.8964     21.9977
  1708.0000      7.9052      2.5358      0.0645      6.9224    110.2004     21.6853
  1708.1000      7.9052      2.5214      0.0306      7.7915    109.2355     21.1374
  1708.2000      7.9052      2.5232      0.0547      7.6846    108.5009     20.5024
  1708.3000      7.9400      2.5230      0.0477      7.6959    106.3771     20.3349
  1708.4000      7.9400      2.5132      0.0737      8.2892    101.8177     20.8109
  1708.5000      7.9577      2.5051      0.0492      8.7838     98.6973     21.6505
  1708.6000      7.9577      2.4965      0.1142      9.3043     98.7121     22.3501
  1708.7000      7.9577      2.4892      0.0216      9.7462     98.0363     22.7000
  1708.8000      7.9296      2.5059      0.1212      8.7352     96.0090     23.0025
  1708.9000      7.9296      2.5518      0.1103      5.9509     97.2150     23.3293
  1709.0000      7.9025      2.6116      0.1784      2.3284    101.8566     23.4186
  1709.1000      7.9025      2.6580      0.2323     -0.4855    103.0793     23.2316
  1709.2000      7.9025      2.6643      0.2404     -0.8688    101.8924     22.9723
  1709.3000      7.9116      2.6261      0.2351      1.4498    105.8039     22.9035
  1709.4000      7.9116      2.5684      0.1128      4.9461    113.1942     23.0781
  1709.5000      7.8967      2.5252      0.0573      7.5620    117.9570     23.1094
  1709.6000      7.8967      2.5001      0.0519      9.0822    118.5130     22.6544
  1709.7000      7.8967      2.4715      0.0602     10.8158    115.0979     21.9492
  1709.8000      7.9270      2.4315      0.0278     13.2429    110.5972     21.3912
  1709.9000      7.9270      2.3876      0.0730     15.9018    109.2922     21.1353
  1710.0000      7.9343      2.3429      0.0100     18.6099    111.2955     21.2555
  1710.1000      7.9343      2.3017     -0.0312     21.1115    114.5389     21.4106
  1710.2000      7.9343      2.2624      0.0143     23.4925    117.2213     21.0804
  1710.3000      7.8893      2.2146      0.0255     26.3903    116.1473     20.4667
  1710.4000      7.8893      2.1705     -0.0171     29.0606    110.9533     20.2222
  1710.5000      7.9075      2.1543      0.0826     30.0433    106.6984     20.5436
  1710.6000      7.9075      2.1683      0.1138     29.1961    104.0472     21.0890
  1710.7000      7.9075      2.2093      0.0623     26.7062     99.5369     21.6645
  1710.8000      7.9324      2.2710      0.1373     22.9679     94.4318     22.4269
  1710.9000      7.9324      2.3317      0.1281     19.2900     92.8804     23.3395
  1711.0000      7.8977      2.3891      0.1214     15.8120     95.4431     24.1333
  1711.1000      7.8977      2.4591      0.2430     11.5687     99.2891     24.5860
  1711.2000      7.8977      2.5333      0.2588      7.0725    103.5812     24.7313
  1711.3000      7.8861      2.5789      0.2599      4.3071    107.2613     24.8086
  1711.4000      7.8861      2.5714      0.2000      4.7633    106.7832     24.8928
  1711.5000      7.8952      2.5264      0.0995      7.4935    102.7433     25.0752
  1711.6000      7.8952      2.4948      0.0211      9.4057     99.0198     25.5908
  1711.7000      7.8952      2.5079      0.0438      8.6111     97.1959     26.1122
  1711.8000      7.8581      2.5425      0.1012      6.5167     94.5164     25.9056
  1711.9000      7.8581      2.5654      0.0897      5.1251     90.9323     25.1517
  1712.0000      7.8488      2.5742      0.1149      4.5916     91.2547     24.8083
  1712.1000      7.8488      2.5819      0.1651      4.1274     95.8842     25.0728
  1712.2000      7.8488      2.5995      0.1553      3.0587    101.7898     25.3192
  1712.3000      7.8918      2.6219      0.1712      1.7034    107.6659     25.0117
  1712.4000      7.8918      2.6317      0.1631      1.1103    111.7062     24.4366
  1712.5000      7.8307      2.6264      0.1110      1.4291    112.1230     24.4531
  1712.6000      7.8307      2.6208      0.1039      1.7686    110.1492     25.0162
  1712.7000      7.8307      2.6112      0.1959      2.3515    107.7776     25.3760
  1712.8000      7.8583      2.5801      0.1263      4.2381    103.9635     25.3719
  1712.9000      7.8583      2.5477      0.0014      6.1990    100.0228     25.1414
  1713.0000      7.8406      2.5449      0.0333      6.3691     98.1299     24.7311
  1713.1000      7.8406      2.5563      0.0876      5.6813     96.7467     24.4593
  1713.2000      7.8406      2.5492      0.0959      6.1112     95.4206     24.3130
  1713.3000      7.7810      2.5283     -0.0117      7.3769     95.5762     24.0718
  1713.4000      7.7810      2.5238      0.0403      7.6458     99.7328     24.0559
  1713.5000      7.8174      2.5427      0.0256      6.5004    104.5733     24.4109
  1713.6000      7.8174      2.5708      0.0448      4.8018    103.7124     24.8875
  1713.7000      7.8174      2.5973      0.0862      3.1935    101.1705     25.0137
  1713.8000      7.8503      2.6141      0.0761      2.1728    102.9373     24.4431
  1713.9000      7.8503      2.6152      0.0796      2.1062    107.4754     23.6855
  1714.0000      7.8371      2.6100      0.0640      2.4212    109.8652     23.1574
  1714.1000      7.8371      2.6116      0.0839      2.3258    106.3861     22.6835
  1714.2000      7.8371      2.6120      0.0617      2.3055     97.9292     22.2447
  1714.3000      7.7952      2.5961      0.0605      3.2680     88.7164     21.8565
  1714.4000      7.7952      2.5682      0.0562      4.9606     83.5031     21.3810
  1714.5000      7.7940      2.5430      0.0139      6.4876     84.3389     20.8721
  1714.6000      7.7940      2.5195      0.0466      7.9061     87.5598     20.4516
  1714.7000      7.7940      2.4887      0.0174      9.7755     87.4316     20.2587
  1714.8000      7.8149      2.4630     -0.0257     11.3346     84.5897     20.4322
  1714.9000      7.8149      2.4604      0.0052     11.4938     83.5305     20.6561
  1715.0000      7.8171      2.4688      0.0332     10.9828     83.6934     20.5404
  1715.1000      7.8171      2.4633      0.0552     11.3164     82.2140     20.4414
  1715.2000      7.8171      2.4494     -0.0056     12.1574     80.9880     20.8659
  1715.3000      7.8191      2.4584     -0.0619     11.6142     83.3280     21.7130
  1715.4000      7.8191      2.4988      0.0100      9.1613     87.5144     22.6822
  1715.5000      7.8416      2.5504      0.0597      6.0346     89.0199     23.5217
