~Version Information
VERS.                      2.0: CWLS Log ASCII Standard - VERSION 2.0
WRAP.                       NO: One line per depth step
~Well Information Block
STRT.FT               450.0000: 
STOP.FT              1739.2000: 
STEP.FT                 0.1000: 
NULL.                -999.2500: 
COMP.          Pioneer Natural Resources: COMPANY
WELL.            Harlee L 34-9: WELL
FLD.           Purgatoire River: FIELD
LOC.           600' FSL & 2125' FEL: LOCATION
PROV.                 Colorado: PROVINCE
CNTY.               Las Animas: COUNTRY
SRVC.                Patterson: SERVICE COMPANY
DATE.          Wed Jan 26 13:57:24 2005: LOG DATE
UWI.           05 071 08009 00: UNIQUE WELL ID
~Curve Information Block
DEPT.FT            0 000 00 00: Depth
DCAL.in                       : CDL Caliper
RHOB.g/cc                     : CDL Bulk Density
RHOC.g/cc                     : CDL Density Correction
DPOR.pu                       : CDL Density Porosity
NPOR.pu                       : Neutron Porosity
GR.GAPI                       : Gamma Ray
~Parameter Information Block
~A  Depth       DCAL        RHOB        RHOC        DPOR        NPOR         GR     
# ...
  1122.0000      8.7782      2.4547      0.0586     11.8389     19.7270     76.7746
  1122.1000      8.7782      2.4701      0.0953     10.9030     19.7065     79.5111
  1122.2000      8.7782      2.4890      0.1150      9.7553     19.5048     82.0664
  1122.3000      8.7791      2.4877      0.1215      9.8381     18.6547     83.2246
  1122.4000      8.7791      2.4710      0.0488     10.8503     17.3756     82.8098
  1122.5000      8.7836      2.4586      0.0893     11.5998     16.7352     79.8310
  1122.6000      8.7836      2.4555      0.0772     11.7875     17.0822     75.4270
  1122.7000      8.7836      2.4572      0.0753     11.6841     17.3152     72.4339
  1122.8000      8.7876      2.4580      0.0564     11.6377     16.9765     71.3047
  1122.9000      8.7876      2.4575      0.0609     11.6667     17.0363     71.4350
  1123.0000      8.7824      2.4626      0.0591     11.3586     18.0744     73.7475
  1123.1000      8.7824      2.4756      0.0769     10.5684     19.5276     77.5991
  1123.2000      8.7824      2.4906      0.0576      9.6629     20.5715     77.2514
  1123.3000      8.7761      2.4953      0.1033      9.3760     21.1499     70.5922
  1123.4000      8.7761      2.4816      0.0652     10.2074     21.3810     67.2730
  1123.5000      8.7742      2.4643      0.0227     11.2572     21.1710     71.5715
  1123.6000      8.7742      2.4617      0.0724     11.4150     20.4605     73.6356
  1123.7000      8.7742      2.4710      0.0753     10.8480     19.4933     68.8386
  1123.8000      8.7702      2.4895      0.0859      9.7273     18.8611     65.0202
  1123.9000      8.7702      2.5126      0.1096      8.3275     18.9998     66.5437
  1124.0000      8.7552      2.5204      0.1052      7.8563     19.2524     70.9155
  1124.1000      8.7552      2.5049      0.1143      8.7950     18.9445     74.7866
  1124.2000      8.7552      2.4860      0.0793      9.9368     18.7177     75.3091
  1124.3000      8.7432      2.4803      0.0962     10.2857     18.9926     73.6062
  1124.4000      8.7432      2.4829      0.0936     10.1291     19.3682     73.2882
  1124.5000      8.7566      2.4913      0.0561      9.6182     19.2596     75.0759
  1124.6000      8.7566      2.5045      0.0984      8.8189     18.5528     77.2958
  1124.7000      8.7566      2.5053      0.1273      8.7699     17.6956     77.3565
  1124.8000      8.7710      2.4866      0.0620      9.9008     16.5257     75.7540
  1124.9000      8.7710      2.4661      0.0570     11.1479     15.2771     77.6526
  1125.0000      8.7742      2.4594      0.0346     11.5493     15.1956     84.0159
  1125.1000      8.7742      2.4685      0.0785     11.0000     16.4745     90.4571
  1125.2000      8.7742      2.4830      0.1074     10.1225     18.0771     90.8051
  1125.3000      8.7763      2.4963      0.0920      9.3154     19.4531     85.1039
  1125.4000      8.7763      2.5111      0.1202      8.4208     20.1384     81.2853
  1125.5000      8.7783      2.5271      0.1004      7.4487     19.9038     83.1080
  1125.6000      8.7783      2.5402      0.1416      6.6562     19.7047     86.9388
  1125.7000      8.7783      2.5484      0.1352      6.1596     20.1593     91.6273
  1125.8000      8.7782      2.5542      0.1263      5.8033     20.5624     97.1288
  1125.9000      8.7782      2.5575      0.1324      5.6064     20.0351    100.7024
  1126.0000      8.7796      2.5562      0.1441      5.6823     19.2052    101.4657
  1126.1000      8.7796      2.5528      0.1274      5.8907     19.1269    101.6170
  1126.2000      8.7796      2.5477      0.1059      6.1974     19.3046    103.2512
  1126.3000      8.7798      2.5357      0.0941      6.9255     18.7753    101.9779
  1126.4000      8.7798      2.5181      0.0592      7.9928     17.5410     94.4452
  1126.5000      8.7774      2.5114      0.0074      8.3992     16.3551     85.9518
  1126.6000      8.7774      2.5185      0.0907      7.9686     15.9547     79.0918
  1126.7000      8.7774      2.5244      0.0644      7.6148     16.3799     71.6413
  1126.8000      8.7762      2.5328      0.0459      7.1015     16.9887     64.6909
  1126.9000      8.7762      2.5511      0.1113      5.9946     17.0443     61.5617
  1127.0000      8.7768      2.5637      0.1021      5.2278     16.4559     61.8827
  1127.1000      8.7768      2.5619      0.0835      5.3416     15.6312     62.4576
  1127.2000      8.7768      2.5590      0.0501      5.5149     14.8637     63.3159
  1127.3000      8.7775      2.5668      0.0512      5.0399     14.3991     66.1676
  1127.4000      8.7775      2.5791      0.0792      4.2972     14.2240     68.0767
  1127.5000      8.7781      2.5869      0.0547      3.8234     14.2273     67.3309
  1127.6000      8.7781      2.5906      0.0721      3.6015     14.8965     69.4205
  1127.7000      8.7781      2.5933      0.0638      3.4363     16.4314     76.3998
  1127.8000      8.7791      2.5888      0.1037      3.7113     17.8722     83.2071
  1127.9000      8.7791      2.5584      0.0913      5.5511     18.5467     84.7526
  1128.0000      8.7786      2.4954      0.0736      9.3701     19.0033     82.2267
  1128.1000      8.7786      2.4170      0.0095     14.1231     19.6400     81.3582
  1128.2000      8.7786      2.3466     -0.0045     18.3882     20.6148     83.5437
  1128.3000      8.7771      2.2949     -0.0247     21.5211     22.3167     87.7983
  1128.4000      8.7771      2.2641     -0.0071     23.3885     24.7378     97.7701
  1128.5000      8.7775      2.2602     -0.0143     23.6226     26.7900    113.4915
  1128.6000      8.7775      2.2855      0.0710     22.0904     27.4397    129.3125
  1128.7000      8.7775      2.3245      0.0916     19.7275     26.7440    143.0164
  1128.8000      8.7836      2.3601      0.1127     17.5674     25.4956    152.7891
  1128.9000      8.7836      2.3925      0.1425     15.6083     24.4553    152.3568
  1129.0000      8.7937      2.4300      0.1850     13.3361     23.7558    144.0050
  1129.1000      8.7937      2.4710      0.1643     10.8506     23.1811    139.0806
  1129.2000      8.7937      2.4988      0.1551      9.1614     22.7696    140.0226
  1129.3000      8.7996      2.4989      0.0933      9.1567     22.5888    139.6293
  1129.4000      8.7996      2.4843      0.0846     10.0399     22.6251    137.1282
  1129.5000      8.7927      2.4847      0.0624     10.0178     22.6012    138.6512
  1129.6000      8.7927      2.5129      0.1115      8.3101     22.0102    143.5955
  1129.7000      8.7927      2.5487      0.1708      6.1424     20.9639    148.1820
  1129.8000      8.7658      2.5669      0.1002      5.0343     20.2000    151.8732
  1129.9000      8.7658      2.5689      0.1201      4.9123     19.6618    151.3954
  1130.0000      8.7392      2.5647      0.0878      5.1726     18.6417    146.7764
  1130.1000      8.7392      2.5608      0.1144      5.4054     17.3660    146.1184
  1130.2000      8.7392      2.5653      0.0969      5.1314     16.5208    148.7191
  1130.3000      8.7375      2.5830      0.1245      4.0631     15.8330    145.8766
  1130.4000      8.7375      2.6042      0.1325      2.7750     15.0588    136.3518
  1130.5000      8.7448      2.6165      0.1325      2.0305     14.6005    124.1056
  1130.6000      8.7448      2.6182      0.1330      1.9259     14.4585    113.8371
  1130.7000      8.7448      2.6095      0.1324      2.4515     14.5051    110.2457
  1130.8000      8.7479      2.5854      0.1190      3.9154     14.8226    113.0382
  1130.9000      8.7479      2.5519      0.0490      5.9454     15.2552    118.9553
  1131.0000      8.7479      2.5339      0.0092      7.0345     15.8198    125.7911
  1131.1000      8.7479      2.5432      0.0241      6.4711     16.3690    130.5106
  1131.2000      8.7479      2.5646      0.0620      5.1736     16.3376    130.1572
  1131.3000      8.7475      2.5795      0.1019      4.2734     15.4783    128.8272
  1131.4000      8.7475      2.5879      0.0831      3.7646     14.3874    129.2610
  1131.5000      8.7493      2.6050      0.0687      2.7302     13.6806    126.0035
