~Version Information
VERS.                      2.0: CWLS Log ASCII Standard - VERSION 2.0
WRAP.                       NO: One line per depth step
~Well Information Block
STRT.FT                -7.0500: 
STOP.FT              3072.6000: 
STEP.FT                 0.0500: 
NULL.                -999.2500: 
COMP.          Pioneer Natural Resources: COMPANY
WELL.              Stones 24-8: WELL
FLD.           Purgatoire River: FIELD
LOC.           648' FSL & 2264' FWL--: LOCATION
PROV.                 Colorado: PROVINCE
CNTY.               Las Animas: COUNTRY
SRVC.                Patterson: SERVICE COMPANY
DATE.          Fri Feb 04 12:43:19 2005: LOG DATE
UWI.           05 071 07945 00: UNIQUE WELL ID
~Curve Information Block
DEPT.FT            0 000 00 00: Depth
CCL.                          : Casing Collar Locator
TT3.usec                      : CBL 3' Travel Time
AMP3.mV                       : CBL 3' Amplitude
GR.GAPI                       : Gamma Ray
~Parameter Information Block
~A  Depth       CCL         TT3         AMP3         GR     
# ...
  2237.4500      0.0000    600.5861      2.4610    101.1253
  2237.5000      0.0000    577.8229      2.4048    105.2754
  2237.5500      0.0000    577.8229      2.4048    105.2754
  2237.6000      0.0000    577.8229      2.4048    105.2754
  2237.6500      0.0000    577.8229      2.4048    105.2754
  2237.7000      0.0000    577.8229      2.4048    105.2754
  2237.7500      0.0000    560.0609      2.3685    104.4829
  2237.8000      0.0000    560.0609      2.3685    104.4829
  2237.8500      0.0000    560.0609      2.3685    104.4829
  2237.9000      0.0000    560.0609      2.3685    104.4829
  2237.9500      0.0000    560.0609      2.3685    104.4829
  2238.0000      0.0000    552.9315      2.3655     99.4677
  2238.0500      0.0000    552.9315      2.3655     99.4677
  2238.1000      0.0000    552.9315      2.3655     99.4677
  2238.1500      0.0000    552.9315      2.3655     99.4677
  2238.2000      0.0000    552.9315      2.3655     99.4677
  2238.2500      0.0000    558.4265      2.3927     92.6324
  2238.3000      0.0000    558.4265      2.3927     92.6324
  2238.3500      0.0000    558.4265      2.3927     92.6324
  2238.4000      0.0000    558.4265      2.3927     92.6324
  2238.4500      0.0000    558.4265      2.3927     92.6324
  2238.5000      0.0000    574.5980      2.4340     87.0127
  2238.5500      0.0000    574.5980      2.4340     87.0127
  2238.6000      0.0000    574.5980      2.4340     87.0127
  2238.6500      0.0000    574.5980      2.4340     87.0127
  2238.7000      0.0000    574.5980      2.4340     87.0127
  2238.7500      0.0000    596.5392      2.4719     85.2190
  2238.8000      0.0000    596.5392      2.4719     85.2190
  2238.8500      0.0000    596.5392      2.4719     85.2190
  2238.9000      0.0000    596.5392      2.4719     85.2190
  2238.9500      0.0000    596.5392      2.4719     85.2190
  2239.0000      0.0000    618.1548      2.4964     88.6308
  2239.0500      0.0000    618.1548      2.4964     88.6308
  2239.1000      0.0000    618.1548      2.4964     88.6308
  2239.1500      0.0000    618.1548      2.4964     88.6308
  2239.2000      0.0000    618.1548      2.4964     88.6308
  2239.2500      0.0000    634.5610      2.5043     96.8281
  2239.3000      0.0000    634.5610      2.5043     96.8281
  2239.3500      0.0000    634.5610      2.5043     96.8281
  2239.4000      0.0000    634.5610      2.5043     96.8281
  2239.4500      0.0000    634.5610      2.5043     96.8281
  2239.5000      0.0000    643.8745      2.4947    107.5520
  2239.5500      0.0000    643.8745      2.4947    107.5520
  2239.6000      0.0000    643.8745      2.4947    107.5520
  2239.6500      0.0000    643.8745      2.4947    107.5520
  2239.7000      0.0000    643.8745      2.4947    107.5520
  2239.7500      0.0000    647.0421      2.4682    117.8021
  2239.8000      0.0000    647.0421      2.4682    117.8021
  2239.8500      0.0000    647.0421      2.4682    117.8021
  2239.9000      0.0000    647.0421      2.4682    117.8021
  2239.9500      0.0000    647.0421      2.4682    117.8021
  2240.0000      0.0000    646.0831      2.4326    125.7785
  2240.0500      0.0000    646.0831      2.4326    125.7785
  2240.1000      0.0000    646.0831      2.4326    125.7785
  2240.1500      0.0000    646.0831      2.4326    125.7785
  2240.2000      0.0000    646.0831      2.4326    125.7785
  2240.2500      0.0000    642.5908      2.4020    132.0804
  2240.3000      0.0000    642.5908      2.4020    132.0804
  2240.3500      0.0000    642.5908      2.4020    132.0804
  2240.4000      0.0000    642.5908      2.4020    132.0804
  2240.4500      0.0000    642.5908      2.4020    132.0804
  2240.5000      0.0000    637.6832      2.3864    138.7557
  2240.5500      0.0000    637.6832      2.3864    138.7557
  2240.6000      0.0000    637.6832      2.3864    138.7557
  2240.6500      0.0000    637.6832      2.3864    138.7557
  2240.7000      0.0000    637.6832      2.3864    138.7557
  2240.7500      0.0000    632.7563      2.3844    146.7558
  2240.8000      0.0000    632.7563      2.3844    146.7558
  2240.8500      0.0000    632.7563      2.3844    146.7558
  2240.9000      0.0000    632.7563      2.3844    146.7558
  2240.9500      0.0000    632.7563      2.3844    146.7558
  2241.0000      0.0000    629.6025      2.3899    154.4682
  2241.0500      0.0000    629.6025      2.3899    154.4682
  2241.1000      0.0000    629.6025      2.3899    154.4682
  2241.1500      0.0000    629.6025      2.3899    154.4682
  2241.2000      0.0000    629.6025      2.3899    154.4682
  2241.2500      0.0000    629.5076      2.4032    159.1786
  2241.3000      0.0000    629.5076      2.4032    159.1786
  2241.3500      0.0000    629.5076      2.4032    159.1786
  2241.4000      0.0000    629.5076      2.4032    159.1786
  2241.4500      0.0000    629.5076      2.4032    159.1786
  2241.5000      0.0000    632.1721      2.4307    159.6972
  2241.5500      0.0000    632.1721      2.4307    159.6972
  2241.6000      0.0000    632.1721      2.4307    159.6972
  2241.6500      0.0000    632.1721      2.4307    159.6972
  2241.7000      0.0000    632.1721      2.4307    159.6972
  2241.7500      0.0000    635.4308      2.4762    157.2496
  2241.8000      0.0000    635.4308      2.4762    157.2496
  2241.8500      0.0000    635.4308      2.4762    157.2496
  2241.9000      0.0000    635.4308      2.4762    157.2496
  2241.9500      0.0000    635.4308      2.4762    157.2496
  2242.0000      0.0000    636.0459      2.5287    154.3285
  2242.0500      0.0000    636.0459      2.5287    154.3285
  2242.1000      0.0000    636.0459      2.5287    154.3285
  2242.1500      0.0000    636.0459      2.5287    154.3285
  2242.2000      0.0000    636.0459      2.5287    154.3285
  2242.2500      0.0000    631.2214      2.5615    153.0609
  2242.3000      0.0000    631.2214      2.5615    153.0609
  2242.3500      0.0000    631.2214      2.5615    153.0609
  2242.4000      0.0000    631.2214      2.5615    153.0609
  2242.4500      0.0000    631.2214      2.5615    153.0609
  2242.5000      0.0000    620.0237      2.5456    154.0263
  2242.5500      0.0000    620.0237      2.5456    154.0263
  2242.6000      0.0000    620.0237      2.5456    154.0263
  2242.6500      0.0000    620.0237      2.5456    154.0263
  2242.7000      0.0000    620.0237      2.5456    154.0263
  2242.7500      0.0000    603.8150      2.4717    155.8689
  2242.8000      0.0000    603.8150      2.4717    155.8689
  2242.8500      0.0000    603.8150      2.4717    155.8689
  2242.9000      0.0000    603.8150      2.4717    155.8689
  2242.9500      0.0000    603.8150      2.4717    155.8689
  2243.0000      0.0000    585.4107      2.3606    156.1744
  2243.0500      0.0000    585.4107      2.3606    156.1744
  2243.1000      0.0000    585.4107      2.3606    156.1744
  2243.1500      0.0000    585.4107      2.3606    156.1744
  2243.2000      0.0000    585.4107      2.3606    156.1744
  2243.2500      0.0000    567.7945      2.2487    153.2833
  2243.3000      0.0000    567.7945      2.2487    153.2833
  2243.3500      0.0000    567.7945      2.2487    153.2833
  2243.4000      0.0000    567.7945      2.2487    153.2833
  2243.4500      0.0000    567.7945      2.2487    153.2833
  2243.5000      0.0000    553.5139      2.1648    147.3454
  2243.5500      0.0000    553.5139      2.1648    147.3454
  2243.6000      0.0000    553.5139      2.1648    147.3454
  2243.6500      0.0000    553.5139      2.1648    147.3454
  2243.7000      0.0000    553.5139      2.1648    147.3454
  2243.7500      0.0000    544.6281      2.1178    139.7111
  2243.8000      0.0000    544.6281      2.1178    139.7111
  2243.8500      0.0000    544.6281      2.1178    139.7111
  2243.9000      0.0000    544.6281      2.1178    139.7111
  2243.9500      0.0000    544.6281      2.1178    139.7111
  2244.0000      0.0000    542.2809      2.1031    131.7920
  2244.0500      0.0000    542.2809      2.1031    131.7920
  2244.1000      0.0000    542.2809      2.1031    131.7920
