~Version Information
 VERS.                                  2.0 : CWLS LAS VERSION
 WRAP.                                   NO : WRAPING MODE
 SWARE .                 MController 2.5.0J : SOFTWARE VERSION
~Well Information
 WELL.                   Flying Horse 12-11 : WELL
 COMP.    Pioneer Natural Resources USA Inc : COMPANY
 FLD.                      Purgatoire River : FIELD
 LOC.                SW/NW Sec 11 T32S R66W : LOCATION
 DATE.                           5/28-29/05 : DATE(S) LOGGED
 SRVC.       Blanco Geological Services LLC : SERVICE COMPANY
 STAT.                                   CO : STATE
 CNTY.                           Las Animas : COUNTY
 CTRY.                                  USA : COUNTRY
 API.                       05-071-08378-00 : API NUMBER
 STRT.FT                            1495.00 : START DEPTH
 STOP.FT                            2425.00 : STOP DEPTH
 STEP.FT                               1.00 : DEPTH INCREMENT
 NULL.                                -9999 : NULL VALUE
~Curve information
 DEPTH.FT                                   :
 ROP.MIN/FT                                 :
 GAS.UNITS                                  :
~ASCII Log data
# ...
      2095.0         0.23        613.0 
      2096.0         2.62       1135.6 
      2097.0         0.30       1364.0 
      2098.0         0.23       1468.4 
      2099.0         0.27       1482.2 
      2100.0         0.23       1462.0 
      2101.0         0.22       1373.8 
      2102.0         0.20       1272.0 
      2103.0         0.20       1171.3 
      2104.0         0.23       1086.4 
      2105.0         0.23        998.1 
      2106.0         0.20        918.6 
      2107.0         0.20        853.2 
      2108.0         0.23        795.3 
      2109.0         0.17        738.3 
      2110.0         0.20        706.3 
      2111.0         0.20        671.3 
      2112.0         0.17        642.3 
      2113.0         0.22        626.8 
      2114.0         0.20        615.4 
      2115.0         0.17        607.6 
      2116.0         0.20        602.6 
      2117.0         0.20        596.8 
      2118.0         0.23        591.1 
      2119.0         0.20        587.1 
      2120.0         0.23        587.4 
      2121.0         0.20        591.8 
      2122.0         0.23        592.8 
      2123.0         0.22        590.8 
      2124.0         0.23        583.7 
      2125.0         0.17        579.0 
      2126.0         2.78       1205.6 
      2127.0         0.40       1495.0 
      2128.0         0.37       1525.0 
      2129.0         0.30       1488.6 
      2130.0         0.25       1352.2 
      2131.0         0.27       1235.0 
      2132.0         0.20       1117.4 
      2133.0         0.17       1028.8 
      2134.0         0.20        958.3 
      2135.0         0.17        876.5 
      2136.0         0.17        821.9 
      2137.0         0.17        780.5 
      2138.0         0.17        747.1 
      2139.0         0.23        719.8 
      2140.0         0.17        688.1 
      2141.0         0.17        669.3 
      2142.0         0.20        655.8 
      2143.0         0.22        643.0 
      2144.0         0.27        632.2 
      2145.0         0.27        618.7 
      2146.0         0.20        612.0 
      2147.0         0.23        613.7 
      2148.0         0.50        614.4 
      2149.0         0.27        579.3 
      2150.0         0.17        541.2 
      2151.0         0.20        535.9 
      2152.0         0.20        553.4 
      2153.0         0.17        574.3 
      2154.0         0.20        595.2 
      2155.0         0.18        597.2 
      2156.0         3.32       1482.9 
      2157.0         0.47       1480.9 
      2158.0         0.38       1313.8 
      2159.0         0.27       1123.8 
      2160.0         0.27       1008.2 
      2161.0         0.27        920.6 
      2162.0         0.27        847.2 
      2163.0         0.23        786.2 
      2164.0         0.23        743.7 
      2165.0         0.23        703.3 
      2166.0         0.27        676.0 
      2167.0         0.23        668.6 
      2168.0         0.23        663.5 
      2169.0         0.30        656.1 
      2170.0         0.38        643.7 
      2171.0         0.20        631.9 
      2172.0         0.23        618.1 
      2173.0         0.23        595.8 
      2174.0         0.23        580.0 
      2175.0         0.23        565.8 
      2176.0         0.27        562.8 
      2177.0         0.23        560.8 
      2178.0         0.23        555.1 
      2179.0         0.23        552.7 
      2180.0         0.23        548.7 
      2181.0         0.27        540.2 
      2182.0         0.23        540.9 
      2183.0         0.28        537.9 
      2184.0         0.27        528.1 
      2185.0         0.17        496.4 
      2186.0         2.50       1293.6 
      2187.0         0.45       1689.8 
      2188.0         0.30       1790.5 
      2189.0         0.40       1790.2 
      2190.0         0.33       1638.2 
      2191.0         0.47       1415.2 
      2192.0         0.27       1140.6 
      2193.0         0.33       1020.3 
      2194.0         0.37        898.0 
      2195.0         0.27        791.2 
      2196.0         0.28        734.0 
      2197.0         0.27        689.2 
      2198.0         0.20        651.8 
      2199.0         0.23        637.6 
      2200.0         0.20        627.8 
      2201.0         0.23        627.2 
      2202.0         0.27        627.5 
      2203.0         0.23        625.1 
      2204.0         0.30        625.1 
      2205.0         0.23        616.7 
      2206.0         0.20        606.3 
      2207.0         0.23        597.5 
      2208.0         0.20        590.4 
      2209.0         0.28        596.2 
      2210.0         0.23        604.9 
      2211.0         0.27        604.2 
      2212.0         0.30        604.2 
      2213.0         0.27        607.3 
      2214.0         0.30        608.3 
      2215.0         0.30        607.6 
      2216.0         2.62        587.1 
      2217.0         0.57       1501.8 
      2218.0         0.43       1568.2 
      2219.0         0.37       1537.8 
      2220.0         0.37       1377.8 
      2221.0         0.33       1184.1 
      2222.0         0.25       1127.8 
      2223.0         0.17       1127.1 
      2224.0         0.20       1094.1 
      2225.0         0.23        996.1 
      2226.0         0.27        918.3 
      2227.0         0.30        931.7 
      2228.0         0.27        933.4 
      2229.0         0.27        933.1 
      2230.0         0.23        933.1 
      2231.0         0.17        926.3 
      2232.0         0.17        911.9 
      2233.0         0.17        872.8 
      2234.0         0.13        824.3 
      2235.0         0.13        790.9 
      2236.0         0.13        760.9 
      2237.0         0.17        738.7 
      2238.0         0.28        774.1 
      2239.0         0.30        870.1 
      2240.0         0.30        934.1 
      2241.0         0.23        949.2 
      2242.0         0.23        948.9 
      2243.0         0.23        942.2 
      2244.0         0.23        930.4 
      2245.0         0.33        917.9 
      2246.0         2.38       1020.0 
      2247.0         0.33       1336.7 
      2248.0         0.43       1693.8 
      2249.0         0.37       1843.1 
      2250.0         0.30       1842.1 
      2251.0         0.13       1752.8 
      2252.0         0.13       1671.9 
      2253.0         0.17       1565.8 
      2254.0         0.17       1408.8 
      2255.0         0.28       1262.9 
      2256.0         0.33       1122.8 
      2257.0         0.33       1087.7 
      2258.0         0.30       1064.1 
      2259.0         0.33       1017.0 
      2260.0         0.30        957.7 
      2261.0         0.30        918.3 
      2262.0         0.30        903.4 
      2263.0         0.30        891.0 
      2264.0         0.32        870.7 
      2265.0         0.33        846.5 
      2266.0         0.20        817.2 
      2267.0         0.23        800.7 
      2268.0         0.23        764.6 
      2269.0         0.23        730.9 
      2270.0         0.20        727.2 
      2271.0         0.23        730.3 
      2272.0         0.23        730.9 
      2273.0         0.20        730.3 
      2274.0         0.23        727.9 
      2275.0         0.23        724.2 
      2276.0         3.12       1198.6 
      2277.0         0.42       1593.4 
      2278.0         0.27       1748.7 
      2279.0         0.30       1762.6 
      2280.0         0.23       1726.5 
      2281.0         0.30       1659.8 
      2282.0         0.43       1539.2 
      2283.0         0.37       1317.8 
      2284.0         0.30       1162.5 
      2285.0         0.23       1061.1 
      2286.0         0.20        994.7 
      2287.0         0.23        938.8 
      2288.0         0.27        884.6 
      2289.0         0.28        847.8 
      2290.0         0.23        835.0 
      2291.0         0.27        832.3 
      2292.0         0.27        827.6 
      2293.0         0.33        814.1 
      2294.0         0.33        793.6 
