~Version Information
VERS.                      2.0: CWLS Log ASCII Standard - VERSION 2.0
WRAP.                       NO: One line per depth step
~Well Information Block
STRT.FT               800.0000: 
STOP.FT              1933.5000: 
STEP.FT                 0.2500: 
NULL.                -999.2500: 
COMP.          Pioneer Natural Resources: COMPANY
WELL.            Nova 11-14 Tr: WELL
FLD.           Purgatoire River: FIELD
LOC.           706' FNL & 1109' FWL: LOCATION
PROV.                 Colorado: PROVINCE
CNTY.               Las Animas: COUNTRY
SRVC.                Patterson: SERVICE COMPANY
DATE.          Wed Jul 20 23:28:11 2005: LOG DATE
UWI.           05 071 08434 00: UNIQUE WELL ID
~Curve Information Block
DEPT.FT            0 000 00 00: Depth
SN.Ohm-m                      : IEL Short Normal
SP.mV                         : IEL Spontaneous Potential
DIR.Ohm-m                     : IEL Induction Resistivity
GR.GAPI                       : Gamma Ray
~Parameter Information Block
~A  Depth        SN          SP         DIR          GR     
# ...
  1537.0000     24.3596    -98.1807     23.8104     77.7258
  1537.2500     24.3148    -98.6860     23.8229     75.0942
  1537.5000     24.2594    -99.1795     23.8153     71.2677
  1537.7500     24.1796    -99.6757     23.7560     69.5601
  1538.0000     24.0865   -100.1769     23.6159     68.9334
  1538.2500     23.9569   -100.6755     23.4154     69.5195
  1538.5000     23.7971   -101.1601     23.2378     70.7075
  1538.7500     23.7293   -101.6195     23.1892     71.0878
  1539.0000     23.8966   -102.0422     23.3354     70.6677
  1539.2500     24.2877   -102.4161     23.6696     69.8336
  1539.5000     24.7786   -102.7316     24.1296     68.0166
  1539.7500     25.2996   -102.9867     24.6461     66.5261
  1540.0000     25.8531   -103.1892     25.1819     64.2224
  1540.2500     26.4573   -103.3497     25.7327     63.0479
  1540.5000     27.1410   -103.4684     26.2981     62.4147
  1540.7500     27.8964   -103.5214     26.8559     62.6210
  1541.0000     28.6474   -103.4586     27.3654     62.8599
  1541.2500     29.3539   -103.2247     27.7911     62.4528
  1541.5000     30.0561   -102.7977     28.1216     61.2375
  1541.7500     30.7389   -102.2200     28.3634     60.7917
  1542.0000     31.3053   -101.5863     28.5227     61.9458
  1542.2500     31.7066   -100.9906     28.5979     64.0555
  1542.5000     31.9380   -100.4765     28.5927     68.1141
  1542.7500     31.9836   -100.0317     28.5279     70.3542
  1543.0000     31.8395    -99.6194     28.4316     71.6526
  1543.2500     31.4860    -99.2101     28.3183     71.1055
  1543.5000     30.8959    -98.7968     28.1796     69.3638
  1543.7500     30.1148    -98.3952     27.9963     68.4664
  1544.0000     29.2515    -98.0328     27.7618     68.1817
  1544.2500     28.4118    -97.7302     27.4936     68.4534
  1544.5000     27.6770    -97.4877     27.2184     68.7880
  1544.7500     27.0778    -97.2889     26.9479     68.7885
  1545.0000     26.5899    -97.1172     26.6708     68.7762
  1545.2500     26.1819    -96.9712     26.3725     69.0168
  1545.5000     25.8366    -96.8662     26.0617     69.7327
  1545.7500     25.5382    -96.8258     25.7726     70.1234
  1546.0000     25.2893    -96.8695     25.5388     70.0972
  1546.2500     25.1315    -97.0020     25.3662     69.7754
  1546.5000     25.0895    -97.2047     25.2317     69.4471
  1546.7500     25.1107    -97.4326     25.1067     69.4594
  1547.0000     25.1231    -97.6264     24.9844     69.3166
  1547.2500     25.1338    -97.7336     24.8832     68.6925
  1547.5000     25.2091    -97.7285     24.8263     66.6886
  1547.7500     25.3906    -97.6184     24.8153     64.8695
  1548.0000     25.6644    -97.4292     24.8214     62.2940
  1548.2500     26.0021    -97.1828     24.8053     61.1684
  1548.5000     26.3894    -96.8864     24.7475     60.4103
  1548.7500     26.8057    -96.5431     24.6667     59.9701
  1549.0000     27.2281    -96.1748     24.6085     58.2799
  1549.2500     27.6347    -95.8260     24.6182     56.3757
  1549.5000     27.9756    -95.5449     24.7183     53.4897
  1549.7500     28.1906    -95.3592     24.9033     52.4088
  1550.0000     28.2848    -95.2703     25.1504     52.6182
  1550.2500     28.3624    -95.2601     25.4361     53.6735
  1550.5000     28.5372    -95.2959     25.7444     55.7178
  1550.7500     28.8120    -95.3313     26.0619     56.9866
  1551.0000     29.1229    -95.3141     26.3675     58.4389
  1551.2500     29.4615    -95.2091     26.6342     59.0511
  1551.5000     29.8676    -95.0256     26.8469     59.3602
  1551.7500     30.3591    -94.8241     27.0210     59.1526
  1552.0000     30.9160    -94.6890     27.1973     58.4137
  1552.2500     31.5319    -94.6803     27.4195     57.8243
  1552.5000     32.2832    -94.7984     27.7118     57.0861
  1552.7500     33.2788    -94.9820     28.0747     56.7955
  1553.0000     34.5524    -95.1380     28.4953     56.6707
  1553.2500     36.0420    -95.1850     28.9575     56.7265
  1553.5000     37.5862    -95.0869     29.4431     56.9682
  1553.7500     38.9422    -94.8567     29.9216     57.2454
  1554.0000     39.9247    -94.5331     30.3437     57.6859
  1554.2500     40.5227    -94.1499     30.6514     57.7568
  1554.5000     40.8057    -93.7258     30.8023     57.0802
  1554.7500     40.8111    -93.2766     30.7888     56.0323
  1555.0000     40.5585    -92.8224     30.6343     54.0920
  1555.2500     40.0508    -92.3731     30.3709     53.1671
  1555.5000     39.2719    -91.9152     30.0208     53.1963
  1555.7500     38.2240    -91.4297     29.5966     54.1863
  1556.0000     36.9386    -90.9271     29.1118     56.3762
  1556.2500     35.4915    -90.4575     28.5883     57.7403
  1556.5000     34.0069    -90.0845     28.0520     59.1020
  1556.7500     32.6006    -89.8487     27.5252     59.6659
  1557.0000     31.3315    -89.7495     27.0198     60.6834
  1557.2500     30.1970    -89.7492     26.5331     61.7421
  1557.5000     29.1422    -89.7944     26.0497     63.5769
  1557.7500     28.1091    -89.8439     25.5494     64.5805
  1558.0000     27.0966    -89.8817     25.0209     65.7411
  1558.2500     26.1594    -89.9115     24.4706     66.6635
  1558.5000     25.3706    -89.9454     23.9178     68.5351
  1558.7500     24.7557    -90.0014     23.3862     69.7608
  1559.0000     24.2444    -90.1022     22.9003     70.8906
  1559.2500     23.7675    -90.2627     22.4864     71.1644
  1559.5000     23.3311    -90.4779     22.1675     71.2148
  1559.7500     22.9301    -90.7259     21.9525     71.1217
  1560.0000     22.5419    -90.9834     21.8264     70.8824
  1560.2500     22.2295    -91.2320     21.7544     70.7481
  1560.5000     22.0796    -91.4486     21.6988     70.5725
  1560.7500     22.0743    -91.5943     21.6372     70.3614
  1561.0000     22.1647    -91.6193     21.5671     70.1027
  1561.2500     22.3457    -91.4792     21.4926     70.4211
  1561.5000     22.5883    -91.1473     21.4073     72.3347
  1561.7500     22.8191    -90.6166     21.2894     74.7326
  1562.0000     22.9840    -89.8940     21.1149     80.4048
  1562.2500     23.0575    -88.9976     20.8767     85.9176
  1562.5000     22.9900    -87.9592     20.5881     96.4382
  1562.7500     22.6996    -86.8307     20.2699    103.8083
  1563.0000     22.1304    -85.6820     19.9362    113.2354
  1563.2500     21.2918    -84.5865     19.5918    118.2119
  1563.5000     20.2451    -83.6043     19.2395    125.2449
  1563.7500     19.0868    -82.7747     18.8841    130.5007
  1564.0000     17.9764    -82.1172     18.5308    138.6196
  1564.2500     17.1645    -81.6291     18.1803    142.6474
  1564.5000     16.8472    -81.2836     17.8280    143.9945
  1564.7500     16.9333    -81.0391     17.4691    141.5343
  1565.0000     17.1067    -80.8561     17.1052    135.3981
  1565.2500     17.1497    -80.7044     16.7449    132.0456
  1565.5000     17.0652    -80.5564     16.3956    130.7888
  1565.7500     16.9236    -80.3722     16.0550    132.2428
  1566.0000     16.7504    -80.0977     15.7103    135.0724
  1566.2500     16.5296    -79.6855     15.3502    135.6002
  1566.5000     16.2361    -79.1287     14.9762    133.1703
  1566.7500     15.8807    -78.4759     14.6050    130.2623
  1567.0000     15.5166    -77.8120     14.2596    126.9857
  1567.2500     15.1763    -77.2167     13.9574    126.9343
  1567.5000     14.8317    -76.7306     13.7038    130.3470
  1567.7500     14.4321    -76.3457     13.4915    134.0426
  1568.0000     13.9357    -76.0226     13.3043    139.5806
  1568.2500     13.3153    -75.7218     13.1255    142.2960
  1568.5000     12.5857    -75.4287     12.9469    144.5058
  1568.7500     11.8216    -75.1552     12.7745    145.3112
  1569.0000     11.1405    -74.9167     12.6254    146.8391
  1569.2500     10.6666    -74.7075     12.5192    148.2303
  1569.5000     10.5040    -74.4958     12.4684    149.8270
  1569.7500     10.7186    -74.2493     12.4739    149.9127
  1570.0000     11.2603    -73.9681     12.5268    148.6696
  1570.2500     11.9617    -73.6944     12.6116    147.5665
