~Version Information
VERS.                      2.0: CWLS Log ASCII Standard - VERSION 2.0
WRAP.                       NO: One line per depth step
~Well Information Block
STRT.FT               583.0000: 
STOP.FT              1701.5000: 
STEP.FT                 0.2500: 
NULL.                -999.2500: 
COMP.          Pioneer Natural Resources: COMPANY
WELL.          Scott Canyon 11-18 Tr: WELL
FLD.           Purgatoire River: FIELD
LOC.           411' FNL & 580' FWL: LOCATION
PROV.                 Colorado: PROVINCE
CNTY.               Las Animas: COUNTRY
SRVC.                Patterson: SERVICE COMPANY
DATE.          Thu Feb 17 02:07:21 2005: LOG DATE
UWI.           05 071 08286 00: UNIQUE WELL ID
~Curve Information Block
DEPT.FT            0 000 00 00: Depth
SN.Ohm-m                      : IEL Short Normal
SP.mV                         : IEL Spontaneous Potential
DIR.Ohm-m                     : IEL Induction Resistivity
GR.GAPI                       : Gamma Ray
~Parameter Information Block
~A  Depth        SN          SP         DIR          GR     
# ...
  1219.5000     10.1121    -35.9704      9.0567    127.4755
  1219.7500     10.0457    -35.8854      9.0605    126.8255
  1220.0000      9.9747    -35.7286      9.0645    126.0777
  1220.2500      9.9113    -35.5276      9.0733    125.3847
  1220.5000      9.8608    -35.3165      9.0906    123.8090
  1220.7500      9.8399    -35.1248      9.1167    122.4192
  1221.0000      9.8757    -34.9737      9.1482    120.0398
  1221.2500      9.9765    -34.8726      9.1794    118.5085
  1221.5000     10.1148    -34.8165      9.2054    116.8447
  1221.7500     10.2435    -34.7869      9.2252    116.3541
  1222.0000     10.3188    -34.7613      9.2429    116.4706
  1222.2500     10.3144    -34.7242      9.2661    116.9910
  1222.5000     10.2171    -34.6721      9.3024    118.4783
  1222.7500     10.0242    -34.6097      9.3545    120.0370
  1223.0000      9.7971    -34.5437      9.4165    122.9359
  1223.2500      9.6810    -34.4818      9.4767    124.6938
  1223.5000      9.7631    -34.4338      9.5266    125.9585
  1223.7500      9.9608    -34.4124      9.5698    125.4817
  1224.0000     10.1311    -34.4331      9.6200    122.8911
  1224.2500     10.2150    -34.5129      9.6895    120.4647
  1224.5000     10.2435    -34.6664      9.7785    117.1020
  1224.7500     10.2649    -34.8940      9.8733    115.5768
  1225.0000     10.3045    -35.1663      9.9559    114.3427
  1225.2500     10.3848    -35.4276     10.0153    113.8367
  1225.5000     10.5332    -35.6257     10.0537    113.0177
  1225.7500     10.7556    -35.7459     10.0825    112.3993
  1226.0000     11.0259    -35.8133     10.1153    111.5609
  1226.2500     11.2908    -35.8629     10.1590    111.1946
  1226.5000     11.4743    -35.9098     10.2122    111.3347
  1226.7500     11.5141    -35.9469     10.2670    112.2126
  1227.0000     11.4148    -35.9655     10.3152    114.7601
  1227.2500     11.2531    -35.9681     10.3528    116.7650
  1227.5000     11.1210    -35.9578     10.3808    119.1009
  1227.7500     11.0537    -35.9236     10.4031    119.9817
  1228.0000     11.0158    -35.8459     10.4239    120.6311
  1228.2500     10.9605    -35.7160     10.4468    120.7849
  1228.5000     10.9029    -35.5447     10.4747    120.4491
  1228.7500     10.9087    -35.3548     10.5107    119.7337
  1229.0000     10.9940    -35.1690     10.5601    118.0962
  1229.2500     11.0988    -35.0024     10.6299    116.9552
  1229.5000     11.1979    -34.8591     10.7250    115.9190
  1229.7500     11.3604    -34.7316     10.8444    116.0453
  1230.0000     11.6747    -34.6063     10.9782    117.3802
  1230.2500     12.1624    -34.4707     11.1092    118.3390
  1230.5000     12.7534    -34.3214     11.2168    118.1608
  1230.7500     13.3122    -34.1662     11.2837    116.4744
  1231.0000     13.7169    -34.0201     11.3038    112.5467
  1231.2500     13.9481    -33.8953     11.2864    110.1982
  1231.5000     14.0933    -33.7934     11.2534    108.6893
  1231.7500     14.2649    -33.7057     11.2284    109.2038
  1232.0000     14.5150    -33.6221     11.2257    111.3032
  1232.2500     14.8142    -33.5420     11.2447    112.5925
  1232.5000     15.0807    -33.4783     11.2709    112.6840
  1232.7500     15.2083    -33.4529     11.2846    111.0854
  1233.0000     15.0963    -33.4826     11.2706    107.1938
  1233.2500     14.7020    -33.5626     11.2248    105.1556
  1233.5000     14.0835    -33.6594     11.1530    105.8095
  1233.7500     13.3929    -33.7237     11.0664    109.3470
  1234.0000     12.8075    -33.7162     10.9763    117.5865
  1234.2500     12.4294    -33.6272     10.8924    123.0652
  1234.5000     12.2362    -33.4789     10.8222    128.5119
  1234.7500     12.1291    -33.3107     10.7717    129.7498
  1235.0000     12.0249    -33.1593     10.7476    128.6221
  1235.2500     11.9071    -33.0418     10.7587    126.6195
  1235.5000     11.8148    -32.9480     10.8151    122.9408
  1235.7500     11.8043    -32.8463     10.9262    120.5444
  1236.0000     11.9142    -32.7004     11.0972    117.6487
  1236.2500     12.1453    -32.4891     11.3254    116.4863
  1236.5000     12.4622    -32.2177     11.5983    116.1346
  1236.7500     12.8141    -31.9169     11.8942    116.5357
  1237.0000     13.1527    -31.6298     12.1850    116.7559
  1237.2500     13.4324    -31.3953     12.4402    115.7939
  1237.5000     13.6066    -31.2332     12.6341    112.1405
  1237.7500     13.6403    -31.1366     12.7522    108.7393
  1238.0000     13.5422    -31.0774     12.7938    104.0537
  1238.2500     13.3764    -31.0246     12.7675    102.2580
  1238.5000     13.1988    -30.9624     12.6807    102.3420
  1238.7500     13.0023    -30.8941     12.5348    104.0843
  1239.0000     12.7662    -30.8306     12.3284    108.3594
  1239.2500     12.5082    -30.7776     12.0629    111.6210
  1239.5000     12.2547    -30.7346     11.7441    115.8735
  1239.7500     11.9864    -30.6999     11.3777    117.8736
  1240.0000     11.6354    -30.6719     10.9680    120.1021
  1240.2500     11.1499    -30.6506     10.5211    121.8370
  1240.5000     10.5674    -30.6417     10.0499    125.6714
  1240.7500     10.0033    -30.6567      9.5733    128.7995
  1241.0000      9.5444    -30.7032      9.1117    133.0957
  1241.2500      9.1784    -30.7737      8.6804    135.1531
  1241.5000      8.8392    -30.8437      8.2878    137.0911
  1241.7500      8.4858    -30.8810      7.9365    137.9969
  1242.0000      8.1329    -30.8603      7.6253    139.0804
  1242.2500      7.8141    -30.7783      7.3519    139.3698
  1242.5000      7.5333    -30.6633      7.1138    138.5797
  1242.7500      7.2753    -30.5637      6.9098    137.3116
  1243.0000      7.0258    -30.5159      6.7403    135.1526
  1243.2500      6.7694    -30.5187      6.6060    133.9960
  1243.5000      6.4966    -30.5401      6.5062    132.8020
  1243.7500      6.2196    -30.5455      6.4371    132.2049
  1244.0000      5.9722    -30.5177      6.3917    131.3409
  1244.2500      5.7903    -30.4567      6.3618    130.6940
  1244.5000      5.7004    -30.3700      6.3405    129.5963
  1244.7500      5.7339    -30.2638      6.3247    128.8639
  1245.0000      5.9283    -30.1406      6.3158    127.8791
  1245.2500      6.2717    -30.0038      6.3179    127.2211
  1245.5000      6.6637    -29.8660      6.3364    125.8610
  1245.7500      6.9896    -29.7492      6.3772    124.4735
  1246.0000      7.2064    -29.6723      6.4473    121.5543
  1246.2500      7.3339    -29.6333      6.5547    119.3131
  1246.5000      7.4062    -29.6063      6.7051    116.6298
  1246.7500      7.4576    -29.5575      6.8976    116.1116
  1247.0000      7.5287    -29.4673      7.1216    118.1009
  1247.2500      7.6506    -29.3399      7.3596    121.1777
  1247.5000      7.8247    -29.1976      7.5955    127.4826
  1247.7500      8.0367    -29.0705      7.8219    132.0816
  1248.0000      8.2776    -28.9866      8.0409    138.1183
  1248.2500      8.5409    -28.9617      8.2599    140.6112
  1248.5000      8.8261    -28.9957      8.4869    140.8769
  1248.7500      9.1424    -29.0763      8.7289    138.8223
  1249.0000      9.4730    -29.1862      8.9929    133.9600
  1249.2500      9.7552    -29.3066      9.2845    130.7295
  1249.5000      9.9563    -29.4183      9.6048    127.1870
  1249.7500     10.1266    -29.5041      9.9470    125.7153
  1250.0000     10.3302    -29.5508     10.2985    124.0795
  1250.2500     10.6032    -29.5507     10.6472    122.8700
  1250.5000     10.9788    -29.5016     10.9886    120.2761
  1250.7500     11.4843    -29.4092     11.3263    117.8824
  1251.0000     12.1052    -29.2885     11.6651    113.5557
  1251.2500     12.7651    -29.1617     12.0012    110.5509
  1251.5000     13.3646    -29.0482     12.3169    106.4292
  1251.7500     13.8540    -28.9529     12.5870    104.2084
  1252.0000     14.2373    -28.8607     12.7915    102.2842
  1252.2500     14.5126    -28.7460     12.9242    102.2196
  1252.5000     14.6601    -28.5881     12.9900    103.7053
  1252.7500     14.6843    -28.3843     12.9992    105.2178
