~Version Information
 VERS.                                  2.0 : CWLS LAS VERSION
 WRAP.                                   NO : WRAPING MODE
 SWARE .                 MController 2.5.0J : SOFTWARE VERSION
~Well Information
 WELL.                           Elmo 14-21 : WELL
 COMP.    PIONEER NATURAL RESOURCES USA INC : COMPANY
 FLD.                      PURGATOIRE RIVER : FIELD
 LOC.               SW/SW Sec 21 T33S  R66W : LOCATION
 DATE.                         5/16-17/2005 : DATE(S) LOGGED
 SRVC.       Blanco Geological Services LLC : SERVICE COMPANY
 STAT.                                   CO : STATE
 CNTY.                           Las Animas : COUNTY
 CTRY.                                  USA : COUNTRY
 API.                       05-071-08360-00 : API NUMBER
 STRT.FT                             300.00 : START DEPTH
 STOP.FT                            1680.00 : STOP DEPTH
 STEP.FT                               1.00 : DEPTH INCREMENT
 NULL.                                -9999 : NULL VALUE
~Curve information
 DEPTH.FT                                   :
 ROP.MIN/FT                                 :
 GAS.UNITS                                  :
~ASCII Log data
       300.0     -9999.00         20.0 
       301.0         6.33         21.8 
       302.0         1.27         21.4 
       303.0         1.27         21.6 
       304.0         0.63         21.0 
       305.0         0.63         21.8 
       306.0         1.27         21.7 
       307.0         0.63         21.4 
       308.0         0.63         21.7 
       309.0         0.63         24.1 
       310.0         0.63         21.4 
       311.0         0.63         21.7 
       312.0         0.63         20.8 
       313.0         0.63         21.3 
       314.0         0.63         21.1 
       315.0         0.63         21.8 
       316.0         0.63         21.4 
       317.0         0.63         20.7 
       318.0     -9999.00         20.6 
       319.0     -9999.00         20.7 
       320.0         0.63         21.8 
       321.0         0.63         21.3 
       322.0         0.63         21.9 
       323.0         0.63         21.2 
       324.0         0.63         21.9 
       325.0     -9999.00         21.3 
       326.0         0.63         22.3 
       327.0         0.63         21.5 
       328.0         0.63         22.2 
       329.0     -9999.00         21.4 
       330.0         0.63         22.3 
       331.0         0.63         22.5 
       332.0         0.63         21.7 
       333.0     -9999.00         22.3 
       334.0         0.63         22.4 
       335.0         0.63         22.4 
       336.0         0.63         21.4 
       337.0     -9999.00         21.6 
       338.0     -9999.00         21.6 
       339.0         0.63         22.3 
       340.0         0.63         21.7 
       341.0         0.63         22.1 
       342.0         0.63         22.1 
       343.0         0.63         22.9 
       344.0         0.63         23.0 
       345.0     -9999.00         21.7 
       346.0         0.63         22.2 
       347.0     -9999.00         20.2 
       348.0         0.63         22.7 
       349.0         0.63         22.9 
       350.0         0.63         22.4 
       351.0     -9999.00         21.9 
       352.0         0.63         22.8 
       353.0         0.63         21.9 
       354.0     -9999.00         22.7 
       355.0         0.63         22.1 
       356.0         0.63         22.2 
       357.0     -9999.00         21.8 
       358.0         0.63         22.1 
       359.0     -9999.00         21.9 
       360.0         0.63         21.8 
       361.0         0.63         22.4 
       362.0     -9999.00         22.9 
       363.0         0.63         23.0 
       364.0         0.63         22.1 
       365.0         0.63         22.7 
       366.0         0.63         22.1 
       367.0         0.63         23.1 
       368.0     -9999.00         23.0 
       369.0         0.63         22.5 
       370.0         0.63         23.1 
       371.0     -9999.00         23.8 
       372.0         0.63         23.6 
       373.0     -9999.00         22.5 
       374.0     -9999.00         22.9 
       375.0         1.28         23.6 
       376.0         1.27         23.6 
       377.0         0.63         22.9 
       378.0         0.63         22.8 
       379.0         0.63         23.5 
       380.0         1.27         23.6 
       381.0         0.63         23.7 
       382.0         0.63         23.1 
       383.0         0.63         24.0 
       384.0         1.27         23.9 
       385.0         0.63         24.1 
       386.0         1.27         23.9 
       387.0         0.63         24.0 
       388.0         0.63         23.6 
       389.0         1.27         24.0 
       390.0         0.63         23.7 
       391.0         0.63         23.6 
       392.0         1.27         24.3 
       393.0     -9999.00         28.2 
       394.0         0.63         24.2 
       395.0         0.63         24.3 
       396.0         0.63         24.3 
       397.0         0.63         24.3 
       398.0         0.63         24.4 
       399.0     -9999.00         23.6 
       400.0         0.63         23.7 
       401.0         0.63         24.2 
       402.0         0.63         24.0 
       403.0         0.63         24.1 
       404.0         0.63         24.4 
       405.0         0.63         24.6 
       406.0         0.63         23.8 
       407.0         0.63         23.6 
       408.0         0.63         24.8 
       409.0         0.63         24.2 
       410.0         0.63         24.3 
       411.0     -9999.00         23.7 
       412.0         0.63         24.5 
       413.0         0.63         24.5 
       414.0         0.63         24.7 
       415.0         0.65         25.0 
       416.0         0.27         25.0 
       417.0         0.27         24.8 
       418.0         0.27         23.8 
       419.0         0.53         25.0 
       420.0         0.27         24.5 
       421.0         0.28         25.2 
       422.0         0.27         25.2 
       423.0         0.53         25.3 
       424.0         0.53         24.7 
       425.0         0.27         24.4 
       426.0         0.53         25.6 
       427.0         0.53         25.0 
       428.0         0.27         24.6 
       429.0         0.28         25.2 
       430.0         0.27         24.5 
       431.0         0.27         25.4 
       432.0         0.53         24.8 
       433.0         0.27         25.1 
       434.0         0.27         24.8 
       435.0         0.27         25.6 
       436.0         0.53         25.8 
       437.0         0.27         26.1 
       438.0         0.47         26.9 
       439.0         0.55         25.9 
       440.0         0.27         25.3 
       441.0         0.27         25.4 
       442.0         0.27         25.6 
       443.0         0.53         25.6 
       444.0         0.27         25.5 
       445.0         0.27         25.0 
       446.0         0.53         24.7 
       447.0         0.55         25.1 
       448.0         0.53         25.4 
       449.0         0.27         24.9 
       450.0         0.27         25.9 
       451.0         0.53         25.8 
       452.0         0.27         25.2 
       453.0         0.30         26.1 
       454.0         0.50         26.0 
       455.0         0.43         26.1 
       456.0         0.25         26.3 
       457.0         0.37         26.2 
       458.0         0.27         26.2 
       459.0         0.37         26.2 
       460.0         0.40         26.4 
       461.0         0.40         26.3 
       462.0         0.47         26.2 
       463.0         0.17         26.2 
       464.0         0.37         26.2 
       465.0         0.37         26.3 
       466.0         0.28         26.2 
       467.0         0.40         26.2 
       468.0         0.13         26.2 
       469.0         0.40         26.4 
       470.0         0.17         26.4 
       471.0         0.33         26.5 
       472.0         0.37         26.4 
       473.0         0.37         26.3 
       474.0         0.20         26.3 
       475.0         0.37         26.4 
       476.0         0.13         26.7 
       477.0         0.38         26.5 
       478.0         0.40         26.5 
       479.0         0.43         26.6 
       480.0         0.33         26.8 
       481.0         0.30         26.7 
       482.0         0.40         27.0 
       483.0         0.37         26.7 
       484.0         0.40         26.9 
       485.0         0.37         26.8 
       486.0         0.38         27.1 
       487.0         0.23         26.9 
       488.0         0.30         27.0 
       489.0         0.30         26.9 
       490.0         0.33         26.7 
       491.0         0.40         26.9 
       492.0         0.40         26.8 
       493.0         0.37         26.8 
       494.0         0.33         27.4 
       495.0         0.27         26.9 
       496.0         0.28         26.7 
       497.0         0.17         27.1 
       498.0         0.23         27.0 
       499.0         0.40         27.2 
