~Version Information
VERS.                      2.0: CWLS Log ASCII Standard - VERSION 2.0
WRAP.                       NO: One line per depth step
~Well Information Block
STRT.FT               650.0000: 
STOP.FT              1080.5000: 
STEP.FT                 0.2500: 
NULL.                -999.2500: 
COMP.          Pioneer Natural Resources: COMPANY
WELL.            Galileo 21-11: WELL
FLD.           Purgatoire River: FIELD
LOC.           407' FNL & 2394' FWL: LOCATION
PROV.                 Colorado: PROVINCE
CNTY.               Las Animas: COUNTRY
SRVC.                Patterson: SERVICE COMPANY
DATE.          Mon Apr 11 11:14:18 2005: LOG DATE
UWI.           05 071 08353 00: UNIQUE WELL ID
~Curve Information Block
DEPT.FT            0 000 00 00: Depth
SN.Ohm-m                      : IEL Short Normal
SP.mV                         : IEL Spontaneous Potential
DIR.Ohm-m                     : IEL Induction Resistivity
GR.GAPI                       : Gamma Ray
~Parameter Information Block
~A  Depth        SN          SP         DIR          GR     
# ...
   817.5000    416.7634   -210.7636     14.1723     96.6665
   817.7500    421.0762   -215.0307     14.4811     96.6272
   818.0000    415.3112   -214.5489     14.7765     98.0072
   818.2500    405.0652   -210.4290     15.0602     99.1599
   818.5000    395.3801   -203.6179     15.3372    100.1945
   818.7500    388.2640   -194.7340     15.6082    100.4556
   819.0000    383.4656   -184.1225     15.8652    101.1275
   819.2500    380.1487   -171.9634     16.0919    102.3253
   819.5000    377.7404   -158.3405     16.2695    105.6709
   819.7500    376.0179   -143.2492     16.3836    108.8195
   820.0000    374.9294   -126.5829     16.4273    114.2296
   820.2500    374.4247   -108.1634     16.4012    117.7449
   820.5000    374.4054    -87.8338     16.3098    122.0452
   820.7500    374.7644    -65.5637     16.1577    123.9658
   821.0000    375.3914    -41.4905     15.9488    125.2905
   821.2500    376.0067    -15.8747     15.6868    125.1872
   821.5000    375.2542     10.9574     15.3791    123.5821
   821.7500    368.4319     38.5771     15.0398    121.4877
   822.0000    346.3465     66.3196     14.6892    116.9760
   822.2500    302.4013     93.1948     14.3477    113.5308
   822.5000    245.5418    117.9793     14.0291    108.9036
   822.7500    199.0896    139.4444     13.7372    106.6622
   823.0000    181.6228    156.5607     13.4691    104.6145
   823.2500    190.4999    168.6464     13.2207    103.9564
   823.5000    198.6850    175.5968     12.9927    104.0781
   823.7500    175.0768    178.1786     12.7916    105.0290
   824.0000    120.9036    178.0959     12.6275    107.3960
   824.2500     69.6863    177.5882     12.5082    108.9716
   824.5000     46.6503    178.6824     12.4363    110.3034
   824.7500     50.7325    182.4564     12.4088    110.2491
   825.0000     67.3855    188.6565     12.4211    108.7452
   825.2500     80.2007    195.8877     12.4697    106.9250
   825.5000     81.0097    202.2947     12.5521    103.4896
   825.7500     73.3268    206.3768     12.6635    101.1597
   826.0000     61.3953    207.5961     12.7941     98.1512
   826.2500     46.6539    206.5862     12.9301     96.5994
   826.5000     33.6198    204.7906     13.0581     95.2273
   826.7500     26.4392    203.5690     13.1706     95.2797
   827.0000     23.7427    203.3055     13.2687     97.2281
   827.2500     21.7785    203.2344     13.3608     99.5063
   827.5000     19.0980    202.0984     13.4571    102.9779
   827.7500     17.0544    199.0145     13.5657    104.4602
   828.0000     17.1446    193.8971     13.6921    104.8648
   828.2500     19.3847    187.3690     13.8411    104.1401
   828.5000     22.6782    180.5279     14.0173    102.3389
   828.7500     25.8542    174.8637     14.2232    101.2117
   829.0000     29.5304    172.1899     14.4552    100.4703
   829.2500     38.2733    174.1517     14.7000    100.6717
   829.5000     58.0652    181.2576     14.9358    101.1921
   829.7500     83.7150    192.1984     15.1382    101.1539
   830.0000     93.7889    204.2938     15.2898    100.5301
   830.2500     76.2490    214.8601     15.3883    100.2077
   830.5000     48.0522    222.3790     15.4486    100.5042
   830.7500     30.3627    226.6993     15.4975    101.1638
   831.0000     25.1615    228.4740     15.5643    102.1883
   831.2500     24.8772    228.4867     15.6757    102.5237
   831.5000     25.2739    227.2995     15.8521    102.5075
   831.7500     25.8734    225.2652     16.1065    102.5848
   832.0000     26.8283    222.6632     16.4425    103.6431
   832.2500     27.7628    219.6642     16.8531    104.9371
   832.5000     27.9863    216.0649     17.3204    106.5999
   832.7500     26.8512    211.0761     17.8181    106.7495
   833.0000     24.4773    203.5097     18.3158    105.1651
   833.2500     22.1792    192.3642     18.7838    103.2396
   833.5000     21.1185    177.4218     19.2002     99.7284
   833.7500     21.3848    159.3541     19.5550     97.2059
   834.0000     23.0214    139.0311     19.8509     93.5872
   834.2500     25.7070    116.2861     20.0999     91.6780
   834.5000     27.5307     89.1551     20.3179     90.1141
   834.7500     26.5205     54.6992     20.5223     89.9194
   835.0000     23.8332     11.3534     20.7316     90.2639
   835.2500     24.0931    -38.7519     20.9656     90.4476
   835.5000     33.1476    -89.4389     21.2416     90.1910
   835.7500     58.1311   -132.8430     21.5694     89.6868
   836.0000    104.5655   -163.1231     21.9459     88.7715
   836.2500    164.5128   -178.8347     22.3549     88.2633
   836.5000    215.0089   -182.3965     22.7713     87.8729
   836.7500    237.8577   -177.6679     23.1667     87.9399
   837.0000    232.2866   -167.8601     23.5157     88.7161
   837.2500    209.4452   -154.8900     23.8030     89.7579
   837.5000    187.6296   -139.7448     24.0291     91.6613
   837.7500    184.5320   -123.0263     24.2070     92.4503
   838.0000    204.2590   -105.3140     24.3488     91.8545
   838.2500    234.5513    -87.3955     24.4523     90.4451
   838.5000    253.1686    -70.4627     24.5029     88.4596
   838.7500    239.5597    -56.2530     24.4957     88.1440
   839.0000    192.9092    -46.9985     24.4574     89.3676
   839.2500    137.4305    -44.9493     24.4443     90.6439
   839.5000     99.4260    -51.2832     24.5140     91.8587
   839.7500     85.5469    -64.7411     24.6923     91.7559
   840.0000     88.6484    -81.1407     24.9603     90.2060
   840.2500     97.3952    -94.8227     25.2649     88.4528
   840.5000     97.5961   -101.3915     25.5453     85.2191
   840.7500     81.5756    -99.5683     25.7559     82.9942
   841.0000     56.1840    -90.7689     25.8756     80.1991
   841.2500     33.2233    -77.2648     25.9073     79.0441
   841.5000     18.0046    -60.6914     25.8754     78.7416
   841.7500     10.1168    -41.7039     25.8215     79.5356
   842.0000      7.8030    -20.4417     25.7884     82.0378
   842.2500      9.3183      2.8406     25.7955     84.3526
   842.5000     12.9597     27.3670     25.8262     88.1618
   842.7500     16.9060     51.6875     25.8384     90.4549
   843.0000     19.0556     73.6103     25.7940     92.9151
   843.2500     17.8736     90.1957     25.6826     93.9055
   843.5000     14.1028     98.1421     25.5238     94.9303
   843.7500     10.7424     94.9749     25.3550     95.5386
   844.0000     10.9517     80.8728     25.2165     96.2514
   844.2500     16.0393     59.9603     25.1405     96.4545
   844.5000     24.0362     39.5281     25.1418     96.2957
   844.7500     30.5124     26.9852     25.2157     95.8017
   845.0000     32.5299     26.5310     25.3451     94.0876
   845.2500     30.8989     37.9683     25.5156     92.2356
   845.5000     28.1301     58.0059     25.7265     89.1081
   845.7500     25.8801     82.3452     25.9892     87.4241
   846.0000     24.2032    106.9394     26.3081     86.0416
   846.2500     21.9611    128.2043     26.6548     85.7356
   846.5000     18.4826    142.8921     26.9595     85.5264
   846.7500     15.3294    148.3412     27.1412     85.1426
   847.0000     15.0675    143.2292     27.1659     83.7322
   847.2500     18.4752    128.2732     27.0817     82.1823
   847.5000     24.9069    106.1113     26.9902     79.2229
   847.7500     34.1356     80.2411     26.9890     77.1622
   848.0000     45.3692     53.7257     27.1369     74.5615
   848.2500     55.1142     28.3665     27.4533     73.3782
   848.5000     58.7406      4.3674     27.9254     72.5455
   848.7500     55.7382    -19.5197     28.4979     72.6550
   849.0000     51.7190    -44.8859     29.0621     73.7911
   849.2500     54.5191    -71.7418     29.4781     75.0264
   849.5000     68.2209    -97.3957     29.6378     77.1456
   849.7500     91.0380   -117.5719     29.5174     78.4936
   850.0000    121.7746   -128.9122     29.1617     80.0157
   850.2500    163.4305   -130.5401     28.6252     80.5200
   850.5000    213.4368   -123.6492     27.9344     80.8400
   850.7500    258.1867   -110.1542     27.1019     81.5053
