~Version Information
VERS.                      2.0: CWLS Log ASCII Standard - VERSION 2.0
WRAP.                       NO: One line per depth step
~Well Information Block
STRT.FT               460.0000: 
STOP.FT               961.2000: 
STEP.FT                 0.1000: 
NULL.                -999.2500: 
COMP.          Pioneer Natural Resources: COMPANY
WELL.                Pug 33-19: WELL
FLD.           Purgatoire River: FIELD
LOC.           1381' FSL & 2140' FEL: LOCATION
PROV.                 Colorado: PROVINCE
CNTY.               Las Animas: COUNTRY
SRVC.                Patterson: SERVICE COMPANY
DATE.          Wed Dec 15 07:19:20 2004: LOG DATE
UWI.           05 071 08193 00: UNIQUE WELL ID
~Curve Information Block
DEPT.FT            0 000 00 00: Depth
DCAL.in                       : CDL Caliper
RHOB.g/cc                     : CDL Bulk Density
RHOC.g/cc                     : CDL Density Correction
DPOR.pu                       : CDL Density Porosity
NPOR.pu                       : Neutron Porosity
GR.GAPI                       : Gamma Ray
~Parameter Information Block
~A  Depth       DCAL        RHOB        RHOC        DPOR        NPOR         GR     
# ...
   680.8000      7.9155      2.5155      0.0556      8.1528     13.5183     34.4146
   680.9000      7.9155      2.4818      0.0603     10.1914     13.1328     41.1627
   681.0000      7.9167      2.4605      0.0340     11.4856     13.5309     47.3494
   681.1000      7.9167      2.4599      0.0540     11.5198     14.6065     46.7555
   681.2000      7.9167      2.4744      0.0695     10.6398     15.4914     41.4968
   681.3000      7.9152      2.4941      0.0772      9.4505     16.2086     37.9358
   681.4000      7.9152      2.5091      0.0920      8.5403     17.1173     37.4929
   681.5000      7.9130      2.5038      0.1497      8.8633     17.9011     36.9108
   681.6000      7.9130      2.4649      0.0830     11.2160     18.4940     36.0365
   681.7000      7.9130      2.4002      0.0583     15.1394     19.5085     37.5613
   681.8000      7.9115      2.3287      0.0411     19.4698     21.2177     43.2625
   681.9000      7.9115      2.2703      0.0024     23.0147     22.9215     52.2933
   682.0000      7.9101      2.2335      0.0083     25.2406     24.1727     61.2542
   682.1000      7.9101      2.2099     -0.0355     26.6750     25.3817     69.9163
   682.2000      7.9101      2.1926     -0.0452     27.7200     26.8217     80.4132
   682.3000      7.9095      2.1847     -0.0301     28.1980     28.2011     90.6498
   682.4000      7.9095      2.1915     -0.0062     27.7878     28.7485     95.4568
   682.5000      7.9110      2.2158      0.0598     26.3165     28.0679     96.2935
   682.6000      7.9110      2.2544      0.1009     23.9758     27.2794     99.1348
   682.7000      7.9110      2.2982      0.1686     21.3240     27.5885    102.8875
   682.8000      7.9130      2.3358      0.1830     19.0435     28.9222    104.1744
   682.9000      7.9130      2.3602      0.1568     17.5641     30.2216    106.5362
   683.0000      7.9131      2.3709      0.1174     16.9125     30.4000    111.5860
   683.1000      7.9131      2.3712      0.0945     16.8973     29.6683    112.9546
   683.2000      7.9131      2.3680      0.0730     17.0883     29.1636    109.2588
   683.3000      7.9128      2.3728      0.0935     16.8022     29.3095    110.3543
   683.4000      7.9128      2.3890      0.0647     15.8210     29.4834    123.3751
   683.5000      7.9128      2.4081      0.0664     14.6593     29.0470    140.9032
   683.6000      7.9128      2.4168      0.0751     14.1307     28.2941    149.3775
   683.7000      7.9128      2.4080      0.0828     14.6655     28.2680    144.7740
   683.8000      7.9152      2.3909      0.0473     15.7040     29.1001    135.8951
   683.9000      7.9152      2.3834      0.0132     16.1559     29.9786    129.4193
   684.0000      7.9175      2.3896      0.0576     15.7807     30.2814    121.8742
   684.1000      7.9175      2.4004      0.0510     15.1265     29.7499    114.3158
   684.2000      7.9175      2.4129      0.0409     14.3686     28.5750    111.8074
   684.3000      7.9164      2.4229      0.0657     13.7614     27.7118    114.5836
   684.4000      7.9164      2.4190      0.0820     14.0014     27.9750    124.0588
   684.5000      7.9153      2.3963      0.0348     15.3772     28.7827    136.4493
   684.6000      7.9153      2.3615      0.0050     17.4838     29.2675    140.0264
   684.7000      7.9153      2.3207      0.0306     19.9581     29.3487    132.2660
   684.8000      7.9159      2.2790      0.0129     22.4842     29.0139    124.2696
   684.9000      7.9159      2.2501     -0.0286     24.2367     28.4924    123.6822
   685.0000      7.9157      2.2413     -0.0064     24.7696     28.4639    124.5783
   685.1000      7.9157      2.2430     -0.0083     24.6664     28.9101    118.9321
   685.2000      7.9157      2.2451      0.0201     24.5399     28.9719    109.1708
   685.3000      7.9136      2.2468      0.0238     24.4364     28.2367    101.7139
   685.4000      7.9136      2.2519      0.0585     24.1294     27.3421     98.9453
   685.5000      7.9124      2.2648      0.0333     23.3444     26.7776    100.6226
   685.6000      7.9124      2.2878      0.0916     21.9500     26.0457    103.1603
   685.7000      7.9124      2.3173      0.0899     20.1666     25.1711    100.1421
   685.8000      7.9131      2.3462      0.1292     18.4141     24.8562     89.2184
   685.9000      7.9131      2.3685      0.1190     17.0596     24.7825     79.6451
   686.0000      7.9150      2.3862      0.0824     15.9884     24.2637     79.7757
   686.1000      7.9150      2.4112      0.0705     14.4728     23.4078     83.6003
   686.2000      7.9150      2.4551      0.0950     11.8106     22.7500     84.6086
   686.3000      7.9157      2.5075      0.1267      8.6353     22.2599     87.5599
   686.4000      7.9157      2.5431      0.1250      6.4810     21.4197     94.1201
   686.5000      7.9140      2.5567      0.1313      5.6554     20.1049     95.9813
   686.6000      7.9140      2.5647      0.1060      5.1713     18.8769     91.7283
   686.7000      7.9140      2.5736      0.1117      4.6290     18.3908     89.6064
   686.8000      7.9129      2.5761      0.0788      4.4810     18.5395     91.1467
   686.9000      7.9129      2.5686      0.0803      4.9352     18.5567     94.3135
   687.0000      7.9130      2.5533      0.0594      5.8612     18.1349    101.1782
   687.1000      7.9130      2.5379      0.0507      6.7919     17.7783    109.5066
   687.2000      7.9130      2.5324      0.0350      7.1264     17.6486    111.9552
   687.3000      7.9147      2.5339      0.0515      7.0353     17.3589    105.9492
   687.4000      7.9147      2.5235      0.0648      7.6664     16.9071     97.3350
   687.5000      7.9156      2.5017     -0.0424      8.9878     16.7181     90.3914
   687.6000      7.9156      2.4984      0.0074      9.1874     16.7580     84.8375
   687.7000      7.9156      2.5211      0.0350      7.8113     16.9640     84.0732
   687.8000      7.9155      2.5452      0.0761      6.3519     17.4250     88.1845
   687.9000      7.9155      2.5580      0.0553      5.5787     17.6693     89.4859
   688.0000      7.9142      2.5689      0.0655      4.9159     17.4815     85.1853
   688.1000      7.9142      2.5800      0.0564      4.2431     17.1876     82.5207
   688.2000      7.9142      2.5859      0.0634      3.8834     16.9613     84.3046
   688.3000      7.9114      2.5892      0.0880      3.6834     17.0492     85.9565
   688.4000      7.9114      2.5914      0.0878      3.5517     17.5588     86.6030
   688.5000      7.9103      2.5887      0.0912      3.7171     18.0519     88.0342
   688.6000      7.9103      2.5795      0.0603      4.2734     18.0398     88.8381
   688.7000      7.9103      2.5637      0.0812      5.2324     17.7500     87.1372
   688.8000      7.9138      2.5434      0.0572      6.4621     17.8500     85.4641
   688.9000      7.9138      2.5302      0.0222      7.2602     18.4322     87.2942
   689.0000      7.9166      2.5296      0.0575      7.2970     18.8432     91.3854
   689.1000      7.9166      2.5333      0.0475      7.0729     18.2307     92.2125
   689.2000      7.9166      2.5373      0.0222      6.8294     16.8804     87.3327
   689.3000      7.9166      2.5366      0.0628      6.8699     15.8213     82.0219
   689.4000      7.9166      2.5258      0.0325      7.5267     15.7026     85.0361
   689.5000      7.9170      2.5151      0.0126      8.1734     16.7239     94.6255
   689.6000      7.9170      2.5102      0.0337      8.4704     18.1861     97.0736
   689.7000      7.9170      2.5041      0.0101      8.8426     19.1954     91.0193
   689.8000      7.9163      2.4966      0.0230      9.2993     19.4826     87.6107
   689.9000      7.9163      2.4878      0.0196      9.8289     18.9608     89.7490
   690.0000      7.9133      2.4757      0.0011     10.5628     18.0813     92.1035
   690.1000      7.9133      2.4720     -0.0172     10.7905     17.4628     93.7746
   690.2000      7.9133      2.4937     -0.0096      9.4713     17.2451     95.7855
   690.3000      7.9106      2.5336      0.0632      7.0529     17.1857     95.6510
