~Version Information
VERS.                      2.0: CWLS Log ASCII Standard - VERSION 2.0
WRAP.                       NO: One line per depth step
~Well Information Block
STRT.FT               650.0000: 
STOP.FT              1080.5000: 
STEP.FT                 0.1000: 
NULL.                -999.2500: 
COMP.          Pioneer Natural Resources: COMPANY
WELL.            Galileo 21-11: WELL
FLD.           Purgatoire River: FIELD
LOC.           407' FNL & 2394' FWL: LOCATION
PROV.                 Colorado: PROVINCE
CNTY.               Las Animas: COUNTRY
SRVC.                Patterson: SERVICE COMPANY
DATE.          Mon Apr 11 16:20:08 2005: LOG DATE
UWI.           05 071 08353 00: UNIQUE WELL ID
~Curve Information Block
DEPT.FT            0 000 00 00: Depth
DCAL.in                       : CDL Caliper
RHOB.g/cc                     : CDL Bulk Density
RHOC.g/cc                     : CDL Density Correction
DPOR.pu                       : CDL Density Porosity
GR.GAPI                       : Gamma Ray
NPOR.pu                       : Neutron Porosity
~Parameter Information Block
~A  Depth       DCAL        RHOB        RHOC        DPOR         GR         NPOR    
# ...
   928.4000      7.8084      2.3660     -0.0081     17.2143    107.7536     20.5918
   928.5000      7.8130      2.3699     -0.0461     16.9772    109.6956     20.3710
   928.6000      7.8130      2.3887      0.0556     15.8391    103.8067     20.4698
   928.7000      7.8130      2.3950      0.0402     15.4558     98.0212     20.8353
   928.8000      7.8133      2.3842      0.0398     16.1112     97.2051     20.6126
   928.9000      7.8133      2.3737     -0.0280     16.7457     99.4837     19.4486
   929.0000      7.8144      2.3671      0.0601     17.1452    100.5424     18.4556
   929.1000      7.8144      2.3588      0.0116     17.6509     99.4074     18.5434
   929.2000      7.8144      2.3620     -0.0337     17.4561     98.7721     19.1929
   929.3000      7.8142      2.3837      0.0292     16.1368     99.1454     19.4364
   929.4000      7.8142      2.3983      0.1008     15.2556     99.9984     19.3442
   929.5000      7.8140      2.3885      0.0275     15.8501    102.5118     19.6186
   929.6000      7.8140      2.3732      0.0123     16.7751    107.7176     20.1436
   929.7000      7.8140      2.3687      0.0383     17.0484    113.7514     20.3725
   929.8000      7.8129      2.3746      0.0288     16.6909    118.5002     20.3566
   929.9000      7.8129      2.3921      0.0463     15.6289    120.8621     20.2219
   930.0000      7.8145      2.4179      0.0643     14.0639    119.5114     20.1364
   930.1000      7.8145      2.4377      0.0522     12.8663    115.6535     20.4417
   930.2000      7.8145      2.4474      0.0265     12.2778    110.3960     21.0657
   930.3000      7.8174      2.4575      0.0524     11.6656    104.1652     21.9029
   930.4000      7.8174      2.4737      0.0701     10.6824     99.6496     22.8964
   930.5000      7.8113      2.4957      0.0841      9.3503     99.5975     23.5374
   930.6000      7.8113      2.5190      0.0998      7.9394    104.3359     23.3760
   930.7000      7.8113      2.5378      0.1061      6.7998    110.3104     22.7692
   930.8000      7.8105      2.5428      0.1210      6.4951    113.1101     22.3709
   930.9000      7.8105      2.5219      0.0882      7.7614    111.7658     22.2946
   931.0000      7.8137      2.4830      0.0076     10.1200    106.4886     22.4653
   931.1000      7.8137      2.4536      0.0057     11.9005     99.2390     22.6813
   931.2000      7.8137      2.4466     -0.0020     12.3266     93.5264     22.5471
   931.3000      7.8139      2.4499      0.0109     12.1256     90.8861     22.0784
   931.4000      7.8139      2.4481     -0.0065     12.2376     92.3186     21.6309
   931.5000      7.8125      2.4365      0.0114     12.9367     97.5998     21.1309
   931.6000      7.8125      2.4216      0.0054     13.8440    100.5311     20.4933
   931.7000      7.8125      2.4172      0.0186     14.1072     98.7704     20.1529
   931.8000      7.8137      2.4274     -0.0042     13.4931     98.1487     20.1782
   931.9000      7.8137      2.4357      0.0445     12.9867     99.2943     20.3423
   932.0000      7.8125      2.4304      0.0104     13.3063     99.0962     20.5268
   932.1000      7.8125      2.4228      0.0183     13.7713    100.1853     20.3993
   932.2000      7.8125      2.4201      0.0713     13.9331    104.0483     20.0286
   932.3000      7.8101      2.4162      0.0049     14.1726    105.9326     20.1136
   932.4000      7.8101      2.4129     -0.0080     14.3713    105.0276     20.6630
   932.5000      7.8092      2.4135      0.0320     14.3308    106.7968     20.8259
   932.6000      7.8092      2.4119      0.0241     14.4333    113.7329     20.7275
   932.7000      7.8092      2.4077      0.0152     14.6876    120.8344     21.1780
   932.8000      7.8131      2.4108      0.0204     14.4973    121.8203     21.8651
   932.9000      7.8131      2.4223      0.0297     13.7992    116.5708     22.1233
   933.0000      7.8137      2.4316      0.0559     13.2356    109.1178     21.9528
   933.1000      7.8137      2.4330      0.0302     13.1539    104.0644     21.6769
   933.2000      7.8137      2.4324      0.0365     13.1850    102.7232     21.5810
   933.3000      7.8142      2.4339      0.0336     13.1000    103.6117     21.4464
   933.4000      7.8142      2.4363      0.0419     12.9531    106.0352     20.9361
   933.5000      7.8153      2.4408      0.0221     12.6794    108.2336     20.4532
   933.6000      7.8153      2.4527      0.0156     11.9570    107.8445     20.2960
   933.7000      7.8153      2.4678      0.0542     11.0445    103.8207     20.1685
   933.8000      7.8138      2.4714      0.0291     10.8266     97.2019     20.0889
   933.9000      7.8138      2.4602      0.0332     11.5048     91.2211     20.3795
   934.0000      7.8133      2.4417      0.0023     12.6235     87.7161     20.7161
   934.1000      7.8133      2.4245      0.0185     13.6648     86.1629     20.5798
   934.2000      7.8133      2.4150      0.0133     14.2449     86.0833     20.4045
   934.3000      7.8139      2.4130      0.0146     14.3618     86.8507     20.6323
   934.4000      7.8139      2.4113      0.0348     14.4684     87.4118     20.9495
   934.5000      7.8102      2.4046      0.0259     14.8727     88.8590     21.1153
   934.6000      7.8102      2.3949      0.0001     15.4580     92.8394     21.0451
   934.7000      7.8102      2.3826      0.0221     16.2081     97.8194     20.5734
   934.8000      7.8104      2.3719     -0.0001     16.8569    100.0589     20.0679
   934.9000      7.8104      2.3749      0.0078     16.6698     99.7854     19.8765
   935.0000      7.8103      2.3953     -0.0077     15.4352    101.3481     19.8817
   935.1000      7.8103      2.4226      0.0164     13.7834    103.3348     20.1026
   935.2000      7.8103      2.4416      0.0445     12.6319    100.8248     20.4738
   935.3000      7.8119      2.4482      0.0577     12.2322     97.0434     20.5482
   935.4000      7.8119      2.4484      0.0687     12.2169     97.8174     20.5547
   935.5000      7.8125      2.4457      0.0563     12.3835    102.8563     21.0206
   935.6000      7.8125      2.4404      0.0465     12.7002    109.6315     21.4192
   935.7000      7.8125      2.4323      0.0508     13.1951    112.8597     21.0359
   935.8000      7.8126      2.4241      0.0301     13.6918    108.1577     20.2434
   935.9000      7.8126      2.4162      0.0330     14.1703    101.1847     19.5971
   936.0000      7.8130      2.4038      0.0508     14.9192    100.0829     19.2563
   936.1000      7.8130      2.3917      0.0212     15.6532    101.8729     19.5510
   936.2000      7.8130      2.3904     -0.0058     15.7335    101.6526     20.1745
   936.3000      7.8159      2.3947      0.0324     15.4739    102.1513     20.3342
   936.4000      7.8159      2.3889      0.0261     15.8241    103.7760     20.3147
   936.5000      7.8140      2.3727      0.0476     16.8073    101.7385     20.6229
   936.6000      7.8140      2.3607      0.0333     17.5343     97.2013     20.8806
   936.7000      7.8140      2.3671      0.0144     17.1464     95.4809     20.8010
   936.8000      7.8140      2.3910      0.0396     15.6991     94.8983     20.5060
   936.9000      7.8140      2.4094      0.0873     14.5792     90.8383     20.3209
   937.0000      7.8137      2.4077      0.0269     14.6855     85.8635     20.4817
   937.1000      7.8137      2.3936      0.0577     15.5392     84.2690     20.8462
   937.2000      7.8137      2.3751      0.0265     16.6576     86.3325     21.2485
   937.3000      7.8137      2.3608      0.0034     17.5245     91.7415     21.8451
   937.4000      7.8137      2.3591     -0.0067     17.6311     97.9181     22.4442
   937.5000      7.8115      2.3685      0.0272     17.0618    100.0600     22.3291
   937.6000      7.8115      2.3801      0.0460     16.3598     95.6726     21.2218
   937.7000      7.8115      2.3862      0.0355     15.9857     89.4225     19.8059
   937.8000      7.8124      2.3861      0.0604     15.9953     89.3850     19.0604
   937.9000      7.8124      2.3840      0.0242     16.1206     94.2067     18.9195
