~Version Information
 VERS.                2.0:  CWLS LOG ASCII STANDARD -VERSION 2.0
 WRAP.                 NO:  ONE LINE PER DEPTH STEP
~WELL INFORMATION BLOCK
#MNEM.UNIT       DATA		            DESCRIPTION OF MNEMONIC
#---------    -------------            ------------------------
 STRT.FT  0.500                          :START DEPTH
 STOP.FT  1812.700                       :STOP DEPTH
 STEP.FT  0.100                          :STEP    UP_HOLE  
 NULL.    -999.25                        :NULL VALUE
 COMP.              EL PASO PRODUCTIONS  :COMPANY
 WELL.                     COREHOLE #38  :WELL
 FLD .                 PURGATOIRE RIVER  :FIELD
 LOC .      15   35S   65W               :LOCATION
 CNTY.                           COLFAX  :COUNTY
 STAT.                     NM            :STATE
 CTRY.                                   :
 SRVC.     O'DRISCOLL                    :SERVICE COMPANY
 DATE.   04/28/05                        :LOG DATE
 API .                                   :API NUMBER
 LIC .                                   :LICENSE NUMBER
~Curve Information Block
#MNEM.UNIT      API CODE     Curve Description
#---------    -------------  ------------------------
 DEPT     .FT        00 001 00 00          :  1  DEPTH   
 GAMMA    .API-GR    00 310 00 00          :  2                GAMMA
 TEMP     .DEG F     00 660 00 00          :  3                 TEMP
 RES(16N) .OHM-M     00 040 00 00          :  4             RES(16N)
 RES(64N) .OHM-M     00 060 00 00          :  5             RES(64N)
 RES      .OHM       00 000 00 00          :  6                  RES
 LATERAL  .OHM-M     00 070 00 00          :  7              LATERAL
 NEUTRON  .API-N     00 000 00 00          :  8              NEUTRON
 POR(NEU) .PERCENT   00 330 00 00          :  9             POR(NEU)
 SANGB    .DEG       00 631 00 00          : 10                SANGB
 DEL_TEMP .DEG F     00 000 00 00          : 11             DEL_TEMP
 SANG     .DEG       00 620 00 00          : 12                 SANG
 SP       .MV        00 010 00 00          : 13                   SP
 TIME     .MINUTES   00 000 00 00          : 14                 TIME
~Parameter Information Block
#MNEM.UNIT   Information     Description
#---------- ---------------  ------------------------
 FILE.      ORIGINAL           :File Type
 FIID.      9057A              :File Type Identifier
 VERS.      3.58G              :System Version
 SER .      1                  :System Serial Number
 TRUK.      .498775            :Truck Calibration Number
 TOOL.        1061             :Tool Serial Number
 TIME.      1335               :Time    HrHrMinMin
 LAT .       36 59'            :Latitude
 LON .       104 39'           :Longitude
 LMF .            GL           :Log Measured From
 DMF .            GL           :Driller Measured From
 PD  .            GL           :Permanent Data
 PDEV.                         :Elevation Permanent Data
 EKB .M                        :Elevation Kelly Bushing
 ELEV.DF                       :Elevation DF
 EGL .M        7777            :Elevation Ground Level
 DRDP.          1825           :Driller's Depth
 CASD.       10.               :Casing Diameter
 CASB.           300           :Casing Bottom
 CASX.         STEEL           :Casing Type
 CAST.                         :Casing Thickness
 TNOC.                         :Time Circulation Stopped
 LOGU.        108              :Logging Unit
 RECB.           R.SIPES       :Recorded By
 OSR1.          9139           :Other Services
 OSR2.                         :Other Services
 OSR3.                         :Other Services
 BS  .MM         3.5           :Bit Size
 MST .                         :Mean Surface Temperature
 TGRD.                         :Temperature Gradiant
 MAGN.            12           :Magnetic Declination
 MDEN.       2.7               :Density Matrix
 MATR.      SANDSTONE          :Neutron Matrix
 DTMT.            54           :Delta T Matrix
 DTFL.                         :Delta T Fluid
 MUDS.                         :Mud Sample Source
 MRS .                         :Mud Resistivity
 MTP .                         :Mud Temperature
 MFRS.                         :Resistivity Mud Filtrate
 MFTP.                         :Temperature Mud Filtrate
 MCRS.                         :Resistivity Mud Cake
 MCTP.                         :Temperature Mud Cake
 FTYP.                         :Fluid Type
 FD  .K/M3                     :Fluid Density
 DFV .S                        :Fluid Viscosity
 FPH .                         :Fuild PH
 ELCO.       50000             :Electron Cutoff
~Other Information
#MNEM.UNIT  Information      Description
#---------- ---------------  ------------------------
# -------------------------- 
~A DEPTH  GAMMA    TEMP  RES(16N) RES(64N) RES      LATERAL  NEUTRON  POR(NEU) SANGB  DEL_TEMP SANG   SP    TIME    
# ...
 727.100    111.7  67.3     -1.5      9.2      8.6     -3.6    841.3  37.5  320.92 -0.01  2.06  -1318.4 0.20000 
 727.200    112.8  67.3      1.2      9.5      8.6      0.2    860.1  36.9  338.59 0.00  2.06  -1318.4 0.20000 
 727.300    112.8  67.3      1.9      9.3      9.0      0.4    861.6  36.1  339.43 -0.03  2.06  -1318.4 0.20000 
 727.400    106.9  67.3     -1.0      9.2      8.7     -4.2    856.9  36.1  339.43 0.04  2.06  -1318.5 0.20000 
 727.500    113.3  67.3     -1.1      9.4      8.9     -5.3    875.7  35.9  330.42 -0.04  2.06  -1318.5 0.20000 
 727.600    113.8  67.3      1.8      9.3      9.5     -1.6    908.5  36.0  325.99 0.06  2.06  -1318.5 0.20000 
 727.700    109.6  67.3      2.1      9.2      8.3     -1.7    905.4  35.9  325.99 0.06  2.06  -1318.5 0.20000 
 727.800    113.3  67.3     -1.1      9.5      8.4     -5.0    922.6  35.8  325.99 -0.12  2.06  -1318.5 0.20000 
 727.900    108.5  67.3     -2.7      9.8      9.0     -6.9    927.3  35.6  338.89 0.00  2.06  -1318.5 0.20000 
 728.000    106.4  67.3      0.5     10.2      9.8     -1.7    914.8  35.5  334.17 -0.01  2.06  -1318.5 0.20000 
 728.100    112.8  67.3      1.5     10.4      8.4     -0.8    910.1  35.7  333.05 0.01  2.11  -1318.5 0.20000 
 728.200    117.5  67.3      0.4     10.7      8.7     -3.2    889.8  35.6  333.05 -0.01  2.11  -1318.2 0.20000 
 728.300    119.6  67.3     -1.0     10.6      8.9     -5.3    880.4  35.7  348.29 -0.01  2.11  -1318.2 0.20000 
 728.400    113.3  67.3      0.1     10.4      8.8     -3.9    882.0  35.8   7.88  0.00  2.11  -1318.2 0.20000 
 728.500    117.5  67.3      1.4     10.3      8.1     -1.4    894.5  36.1   7.39  0.01  2.09  -1318.2 0.20000 
 728.600    119.1  67.3      0.8     10.3      8.7     -2.1    874.1  35.9   7.39  -0.02  2.09  -1318.3 0.20000 
 728.700    114.3  67.4     -0.4     10.2      8.7     -3.9    880.4  36.3  353.99 -0.04  2.09  -1318.3 0.20000 
 728.800    120.7  67.3      2.5     10.4      9.5      0.1    883.5  36.4  351.13 0.02  2.09  -1318.3 0.20000 
 728.900    116.5  67.4      2.0     10.5      8.6     -1.9    866.3  35.9  351.54 0.07  2.10  -1318.3 0.20000 
 729.000    112.8  67.4     -0.6     10.4      9.2     -4.0    855.4  36.3  351.54 -0.05  2.10  -1318.3 0.20000 
 729.100    106.9  67.4     -1.5     10.2      8.6     -4.9    860.1  36.1  355.69 -0.06  2.10  -1318.2 0.20000 
 729.200    110.6  67.4      0.2      9.7      9.1     -3.7    888.2  36.1  349.30 0.02  2.10  -1318.2 0.20000 
 729.300    111.7  67.4      1.4      9.4      8.7     -1.7    865.3  35.8  349.01 -0.02  2.10  -1318.2 0.20000 
 729.400    109.0  67.4      1.3      9.1      9.4     -1.3    873.1  35.8  349.01 0.01  2.10  -1318.4 0.20000 
 729.500    108.5  67.4     -0.8      8.9      9.2     -4.2    910.6  35.7  348.74 -0.03  2.10  -1318.6 0.20000 
 729.600    108.5  67.4      0.8      8.7      8.9     -2.4    898.1  35.3  350.09 0.05  2.10  -1318.6 0.20000 
 729.700    106.4  67.4      2.0      8.4      8.7     -0.4    879.4  35.0  350.77 -0.07  2.08  -1318.6 0.20000 
 729.800    110.6  67.4      1.5      8.4      9.4     -1.3    897.6  34.3  350.77 0.07  2.08  -1318.4 0.20000 
 729.900    114.3  67.4     -0.8      8.9      9.2     -2.5    935.1  33.9  337.49 -0.05  2.08  -1318.2 0.20000 
 730.000    119.6  67.4     -0.1      9.1      8.8     -1.6    911.7  33.5  338.72 0.07  2.08  -1318.2 0.20000 
 730.100    114.9  67.4      1.7      9.6      9.4      0.5    925.7  33.3  340.87 -0.07  2.03  -1318.2 0.20000 
 730.200    109.6  67.4      1.4     10.2      9.1     -0.4    952.3  32.5  340.87 -0.03  2.03  -1318.3 0.20000 
 730.300    110.6  67.4     -0.6     10.6      9.2     -3.3    983.6  31.7  340.83 0.03  2.03  -1318.3 0.20000 
 730.400    109.0  67.4      0.3     10.7      9.3     -2.5   1011.8  31.6  351.30 0.01  2.03  -1318.3 0.20000 
 730.500    106.9  67.4      1.0     10.6      9.0     -1.9   1030.5  30.9  342.35 -0.01  2.03  -1318.3 0.20000 
 730.600    108.0  67.4      1.4     10.3      8.9     -3.4   1061.8  30.3  342.45 0.01  2.00  -1318.3 0.10000 
 730.700    101.6  67.4     -0.3     10.2      9.2     -5.5   1072.7  29.9  342.53 -0.01  2.00  -1318.3 0.19900 
 730.800     94.2  67.5      0.4     10.3      9.5     -5.3   1102.5  29.5  355.38 -0.01  2.00  -1318.3 0.20000 
 730.900     88.4  67.4      2.4     10.5      9.0     -2.8   1122.8  28.9  358.69 0.01  1.98  -1318.3 0.20100 
 731.000     85.8  67.4      1.6     10.5      9.6     -3.1   1143.1  28.3  358.85 0.05  1.95  -1318.3 0.20000 
 731.100     85.2  67.5     -1.3     10.0      9.0     -5.7   1157.2  28.1  358.84 -0.07  1.95  -1318.3 0.20000 
 731.200     77.8  67.5      1.0      9.5      8.7     -1.0   1188.5  28.2  337.39 0.01  1.95  -1318.3 0.20000 
 731.300     71.5  67.5      2.4      9.1      8.5      1.2   1165.0  28.3  339.01 0.01  1.94  -1318.3 0.20000 
 731.400     66.2  67.5      0.7      8.5      8.4      0.1   1171.3  28.2  339.05 -0.01  1.93  -1318.3 0.20000 
 731.500     59.3  67.5     -1.3      8.1      8.1     -3.8   1199.4  28.3  338.99 -0.05  1.93  -1318.3 0.20000 
 731.600     56.1  67.5     -0.1      7.2      7.7     -2.8   1218.2  28.9  330.55 -0.02  1.93  -1318.3 0.20000 
 731.700     58.2  67.5      0.3      6.0      8.0     -1.8   1205.7  30.1  304.96 0.12  1.94  -1318.3 0.20000 
 731.800     56.1  67.5      0.8      4.9      8.0      0.6   1183.8  31.0  304.94 -0.07  1.95  -1318.4 0.20000 
 731.900     58.8  67.5     -2.3      4.3      7.9     -3.4   1143.1  32.0  305.05 0.07  1.95  -1318.5 0.20000 
 732.000     59.8  67.4     -0.3      4.0      7.8     -1.5   1111.8  32.7  317.37 0.02  1.95  -1318.5 0.20000 
 732.100     60.3  67.5      0.5      4.0      7.8     -1.9   1068.0  33.8  324.00 -0.06  1.94  -1318.5 0.20000 
 732.200     66.2  67.5     -0.1      4.7      7.8     -3.3    993.0  35.1  324.07 -0.08  1.92  -1318.3 0.20000 
 732.300     67.8  67.5     -2.3      4.9      7.5     -4.1    935.1  36.4  323.91 0.02  1.92  -1318.2 0.20000 
 732.400     66.7  67.5     -0.7      4.7      8.0     -1.3    872.6  37.6  336.88 -0.04  1.92  -1318.2 0.20000 
 732.500     72.0  67.5      0.8      4.3      7.7      1.6    796.0  38.9  352.99 0.01  1.87  -1318.2 0.20000 
 732.600     70.9  67.5      2.0      4.6      7.5      1.8    756.9  40.0  353.63 0.04  1.80  -1318.2 0.19900 
 732.700     76.8  67.5      0.2      5.1      7.4     -0.7    744.4  41.2  353.61 -0.03  1.80  -1318.1 0.20000 
 732.800     83.1  67.5      2.4      5.4      7.7      1.2    728.7  42.7  28.56  0.01  1.80  -1318.1 0.20000 
 732.900     88.4  67.5      3.5      5.6      7.9      0.3    708.4  44.0  22.93  -0.02  1.88  -1318.1 0.20000 
 733.000     89.5  67.6      2.9      5.6      7.8      1.0    706.8  45.1  22.14  0.00  1.99  -1318.2 0.20000 
 733.100     90.0  67.6     -0.4      5.9      7.8     -2.2    681.8  45.6  22.17  -0.01  1.99  -1318.3 0.20100 
 733.200     95.3  67.6     -0.5      6.2      8.6     -1.2    672.4  45.3  345.15 -0.02  1.99  -1318.3 0.20000 
 733.300    100.6  67.6      0.8      6.6      8.6     -0.6    672.4  46.0  346.61 0.03  2.01  -1318.3 0.19900 
 733.400    107.5  67.6     -0.4      6.7      8.3     -3.5    652.1  45.7  346.48 -0.02  2.06  -1318.3 0.20100 
 733.500    110.6  67.6     -1.6      6.7      8.1     -4.7    633.3  46.1  346.39 -0.04  2.06  -1318.6 0.20000 
 733.600    109.6  67.6     -1.4      6.8      8.5     -5.6    625.5  46.7  337.75 0.05  2.06  -1318.6 0.19900 
 733.700    105.9  67.6      0.1      6.6      8.3     -3.0    617.7  46.7  330.68 0.02  2.08  -1318.6 0.20000 
 733.800    109.0  67.6     -0.1      6.7      7.9     -2.4    655.2  46.6  330.65 -0.05  2.12  -1318.6 0.20100 
 733.900    111.7  67.6     -1.9      7.3      8.1     -4.4    659.9  46.3  330.77 0.02  2.12  -1318.4 0.19900 
 734.000    112.2  67.6     -2.6      7.8      7.4     -4.9    692.7  46.5  309.92 -0.04  2.12  -1318.4 0.20000 
 734.100    114.3  67.6      0.2      7.9      8.2     -1.1    703.7  46.6  305.90 -0.01  2.10  -1318.4 0.20100 
 734.200    119.1  67.6      0.4      7.8      8.0     -0.7    691.2  46.1  305.92 -0.02  2.09  -1318.4 0.20000 
