~Version Information
VERS.                      2.0: CWLS Log ASCII Standard - VERSION 2.0
WRAP.                       NO: One line per depth step
~Well Information Block
STRT.FT               350.0000: 
STOP.FT              1391.5000: 
STEP.FT                 0.2500: 
NULL.                -999.2500: 
COMP.          Petrogulf Corporation: COMPANY
WELL.             Leier 17-42R: WELL
FLD.           Purgatorie River: FIELD
LOC.           2398' FNL & 1109' FEL: LOCATION
PROV.                 Colorado: PROVINCE
CNTY.               Las Animas: COUNTRY
SRVC.                Patterson: SERVICE COMPANY
DATE.          Mon Oct 17 09:42:26 2005: LOG DATE
UWI.                          : UNIQUE WELL ID
~Curve Information Block
DEPT.FT            0 000 00 00: Depth
SP.mV                         : DIL Spontaneous Potential
RILD.Ohm-m                    : DIL Deep Resistivity
RILM.Ohm-m                    : DIL Medium Resistivity
RLL3.Ohm-m                    : DIL Shallow Resistivity
GR.GAPI                       : Gamma Ray
~Parameter Information Block
~A  Depth        SP         RILD        RILM        RLL3         GR     
   350.0000   2000.0000      7.7463   -999.2500   2000.0000    101.7221
   350.2500   2000.0000      7.7501   -999.2500   2000.0000    100.7753
   350.5000   2000.0000      7.7526   -999.2500   2000.0000     97.1323
   350.7500   2000.0000      7.7561   -999.2500   2000.0000     92.8225
   351.0000   2000.0000      7.7611   -999.2500   2000.0000     84.3234
   351.2500   2000.0000      7.7641   -999.2500   2000.0000     78.8405
   351.5000   2000.0000      7.7573   -999.2500   2000.0000     73.6820
   351.7500   2000.0000      7.7339   -999.2500   2000.0000     73.1445
   352.0000   2000.0000      7.6981   -999.2500   2000.0000     76.7452
   352.2500   2000.0000      7.6737   -999.2500   2000.0000     81.4418
   352.5000   2000.0000      7.6995   -999.2500   2000.0000     89.6952
   352.7500   2000.0000      7.8126   -999.2500   2000.0000     94.4300
   353.0000   2000.0000      8.0275   -999.2500   2000.0000     98.6902
   353.2500   2000.0000      8.3230   -999.2500   2000.0000     99.6594
   353.5000   2000.0000      8.6419 100000.0000   2000.0000     99.5683
   353.7500   2000.0000      8.9109 100000.0000   2000.0000     99.3764
   354.0000   2000.0000      9.0765 100000.0000   2000.0000     99.9368
   354.2500   2000.0000      9.1347 100000.0000   2000.0000    101.0057
   354.5000   2000.0000      9.1347 100000.0000   2000.0000    103.1885
   354.7500   2000.0000      9.1615 100000.0000   2000.0000    104.5806
   355.0000   2000.0000      9.3136 100000.0000   2000.0000    105.8851
   355.2500   2000.0000      9.6800 100000.0000   2000.0000    105.9327
   355.5000   2000.0000     10.3047 100000.0000   2000.0000    103.9906
   355.7500   2000.0000     11.1165 100000.0000   2000.0000    100.5281
   356.0000   2000.0000     11.8393 100000.0000   2000.0000     90.8645
   356.2500   2000.0000     12.0418 100000.0000   2000.0000     81.7661
   356.5000   2000.0000     11.4931 100000.0000   2000.0000     66.7992
   356.7500   2000.0000     10.4392 100000.0000   2000.0000     57.8442
   357.0000   2000.0000      9.3296 100000.0000   2000.0000     48.2066
   357.2500   2000.0000      8.4513 100000.0000   2000.0000     44.8790
   357.5000   2000.0000      7.8889 100000.0000   2000.0000     44.3247
   357.7500   2000.0000      7.6396 100000.0000   2000.0000     46.0932
   358.0000   2000.0000      7.7051 100000.0000   2000.0000     49.8667
   358.2500   2000.0000      8.1374 100000.0000   2000.0000     52.1184
   358.5000   2000.0000      9.0333 100000.0000   2000.0000     54.4206
   358.7500   2000.0000     10.4117 100000.0000   2000.0000     55.3710
   359.0000   2000.0000     11.7940 100000.0000   2000.0000     56.6048
   359.2500   2000.0000     11.8572 100000.0000   2000.0000     57.8365
   359.5000   2000.0000      9.9967 100000.0000   2000.0000     61.2682
   359.7500   2000.0000      7.6151 100000.0000   2000.0000     64.9380
   360.0000   2000.0000      5.8774 100000.0000   2000.0000     72.0137
   360.2500   2000.0000      4.9051 100000.0000   2000.0000     76.8783
   360.5000   2000.0000      4.5091 100000.0000   2000.0000     82.9854
   360.7500   2000.0000      4.5347 100000.0000   2000.0000     86.2439
   361.0000   2000.0000      4.8779 100000.0000   2000.0000     91.0279
   361.2500   2000.0000      5.3914 100000.0000   2000.0000     94.5303
   361.5000   2000.0000      5.7436 100000.0000   2000.0000     99.3473
   361.7500   2000.0000      5.4959 100000.0000   2000.0000    101.3133
   362.0000   2000.0000      4.6450 100000.0000   2000.0000    101.6263
   362.2500   2000.0000      3.6964 100000.0000   2000.0000    100.3555
   362.5000   2000.0000      3.0231 100000.0000   2000.0000     97.2747
   362.7500   2000.0000      2.7040 100000.0000   2000.0000     95.1363
   363.0000   2000.0000      2.7342 100000.0000   2000.0000     93.1882
   363.2500   2000.0000      3.1738     25.3043   2000.0000     93.5627
   363.5000   2000.0000      4.2691     13.5771   2000.0000     97.3936
   363.7500   2000.0000      6.7874     10.8675   2000.0000    101.7277
   364.0000   2000.0000     13.8199     10.3771   2000.0000    108.5498
   364.2500   2000.0000     61.6850     11.0690   2000.0000    111.4409
   364.5000   2000.0000 100000.0000     12.7744   2000.0000    110.8847
   364.7500   2000.0000 100000.0000     15.6102   2000.0000    107.0695
   365.0000   2000.0000 100000.0000     19.8317   2000.0000     98.0913
   365.2500   2000.0000 100000.0000     25.6961   2000.0000     91.6832
   365.5000   2000.0000 100000.0000     33.0839   2000.0000     83.9037
   365.7500   2000.0000 100000.0000     40.6271   2000.0000     80.6416
   366.0000   2000.0000    255.8648     45.0896   2000.0000     78.8330
   366.2500   2000.0000     36.0593     43.7190   2000.0000     79.6288
   366.5000   2000.0000     22.2839     37.8666   2000.0000     83.9422
   366.7500   2000.0000     18.3497     31.0887   2000.0000     88.9552
   367.0000   2000.0000     17.1196     25.4768   2000.0000     98.9426
   367.2500   2000.0000     16.9252     21.4238   2000.0000    106.1104
   367.5000   2000.0000     17.1299     18.6677   2000.0000    115.1068
   367.7500   2000.0000     17.4357     16.8619   2000.0000    118.7328
   368.0000   2000.0000     17.6881     15.7309   2000.0000    119.6394
   368.2500   2000.0000     17.8089     15.0872   2000.0000    117.3856
   368.5000   2000.0000     17.7916     14.8143   2000.0000    111.3618
   368.7500   2000.0000     17.7070     14.8475   2000.0000    107.2197
   369.0000   2000.0000     17.6763     15.1583   2000.0000    103.5865
   369.2500   2000.0000     17.8129     15.7407   2000.0000    103.5396
   369.5000   2000.0000     18.1806     16.5993   2000.0000    105.6845
   369.7500   2000.0000     18.7843     17.7382   2000.0000    106.8938
   370.0000   2000.0000     19.5798     19.1505   2000.0000    105.9207
   370.2500   2000.0000     20.4933     20.8088   2000.0000    102.9750
   370.5000   2000.0000     21.4432     22.6564   2000.0000     95.9531
   370.7500   2000.0000     22.3613     24.6082   2000.0000     90.4793
   371.0000   2000.0000     23.2081     26.5608   2000.0000     82.9252
   371.2500   2000.0000     23.9770     28.4126   2000.0000     79.4090
   371.5000   2000.0000     24.6848     30.0867   2000.0000     77.5740
   371.7500   2000.0000     25.3550     31.5471   2000.0000     78.3641
   372.0000   2000.0000     25.9285     32.7981   2000.0000     80.5155
   372.2500   2000.0000     26.4716     33.8719   2000.0000     81.3625
   372.5000   2000.0000     27.0563     34.8100   2000.0000     81.2334
   372.7500   2000.0000     27.6070     35.6504   2000.0000     80.8575
   373.0000   2000.0000     28.0451     36.4197   2000.0000     81.2068
   373.2500   2000.0000     28.4599     37.1338   2000.0000     82.2794
   373.5000   2000.0000     28.9430     37.8005   2000.0000     84.3840
   373.7500   2000.0000     29.4026     38.4224   2000.0000     85.4156
   374.0000   2000.0000     29.8348     39.0008   2000.0000     85.8316
   374.2500   2000.0000     30.2499     39.5395   2000.0000     85.6837
   374.5000   2000.0000     30.6748     40.0493   2000.0000     85.9679
   374.7500   2000.0000     31.1441     40.5502   2000.0000     86.7919
   375.0000   2000.0000     31.6843     41.0706   2000.0000     88.0664
   375.2500   2000.0000     32.2995     41.6420   2000.0000     88.0330
   375.5000   2000.0000     32.9634     42.2910   2000.0000     86.1937
   375.7500   2000.0000     33.7700     43.0337   2000.0000     84.4496
   376.0000   2000.0000     34.3691     43.8713   2000.0000     82.5652
   376.2500   2000.0000     34.8492     44.7913   2000.0000     82.0937
   376.5000   2000.0000     35.1815     45.7688   2000.0000     82.0234
   376.7500   2000.0000     35.5232     46.7673   2000.0000     81.8998
   377.0000   2000.0000     35.5614     47.7374   2000.0000     80.9685
   377.2500   2000.0000     35.4680     48.6130   2000.0000     79.7705
   377.5000   2000.0000     35.2433     49.3101   2000.0000     77.6038
   377.7500   2000.0000     34.8729     49.7290   2000.0000     76.3202
