~Version Information
VERS.                      2.0: CWLS Log ASCII Standard - VERSION 2.0
WRAP.                       NO: One line per depth step
~Well Information Block
STRT.FT               665.0000: 
STOP.FT              1972.0000: 
STEP.FT                 0.2500: 
NULL.                -999.2500: 
COMP.          Petrogulf Corporation: COMPANY
WELL.          Great Plains 22-21V: WELL
FLD.           Purgatorie River: FIELD
LOC.           63' FNL & 1895' FWL: LOCATION
PROV.                 Colorado: PROVINCE
CNTY.               Las Animas: COUNTRY
SRVC.                Patterson: SERVICE COMPANY
DATE.          Thu Sep 01 07:36:33 2005: LOG DATE
UWI.                          : UNIQUE WELL ID
~Curve Information Block
DEPT.FT            0 000 00 00: Depth
SP.mV                         : DIL Spontaneous Potential
RILD.Ohm-m                    : DIL Deep Resistivity
RILM.Ohm-m                    : DIL Medium Resistivity
RLL3.Ohm-m                    : DIL Shallow Resistivity
GR.GAPI                       : Gamma Ray
~Parameter Information Block
~A  Depth        SP         RILD        RILM        RLL3         GR     
# ...
  1701.0000    154.3329     10.7527     10.9015     11.8439    121.8335
  1701.2500    154.5947     10.1431     10.2677     10.9795    135.8642
  1701.5000    154.6570      9.6995      9.5468     11.4272    133.8054
  1701.7500    154.5537      9.3042      9.1030     11.8575    132.2096
  1702.0000    154.3405      9.1252      8.5208     12.1005    143.4789
  1702.2500    154.0531      8.9758      8.1246     11.7279    141.8498
  1702.5000    153.5834      8.8575      7.5716      9.9618    130.5408
  1702.7500    153.0795      8.8527      7.3456      8.6532    131.8328
  1703.0000    152.4535      8.9671      7.3677      8.1852    102.2032
  1703.2500    151.7186      9.1310      7.6003      8.5854     96.8890
  1703.5000    150.9490      9.2986      8.0804      9.5825    131.1987
  1703.7500    150.1651      9.5667      8.6837     10.5669    108.5388
  1704.0000    149.4554      9.8062      9.3275     12.0460    105.1861
  1704.2500    148.6332     10.1189     10.3570     14.0823    100.1312
  1704.5000    147.6392     10.6120     11.4980     18.8231     79.6934
  1704.7500    146.7437     10.8987     12.5679     29.9326     63.7105
  1705.0000    145.7086     11.4905     13.4733     47.9582     69.1636
  1705.2500    144.6277     11.9293     14.7011     58.8246     72.4398
  1705.5000    143.3956     12.4735     15.7939     44.9544     79.5823
  1705.7500    142.0705     12.4507     17.2966     28.7200     68.3256
  1706.0000    140.5361     12.1883     18.4260     39.4135     64.9994
  1706.2500    138.8717     11.9183     18.2440     84.0113     78.7573
  1706.5000    137.2937     11.6463     16.9764    136.0111     88.1238
  1706.7500    135.9505     11.4315     15.4475    122.4402     93.0717
  1707.0000    134.9017     11.1272     13.2375     53.0273     88.2642
  1707.2500    133.8825     10.5596     11.3362     20.2822    107.3646
  1707.5000    133.0716     10.3738     10.0672     11.5490    123.7657
  1707.7500    132.4423     10.2093      9.0969      9.2351    122.2614
  1708.0000    131.8548     10.1727      8.5188      8.5470    115.7993
  1708.2500    131.3303     10.2674      8.1448      7.9553    104.1172
  1708.5000    130.8926     10.2658      8.1071      7.8185    121.9114
  1708.7500    130.3424      9.9939      8.2017      8.2040    124.1420
  1709.0000    129.7102      9.7808      8.5175      8.9354     82.6217
  1709.2500    129.1411      9.6324      8.9104     10.8782     69.7581
  1709.5000    128.5558      9.3463      9.4324     14.4435     67.2876
  1709.7500    127.9416      9.4365      9.8315     18.6659     63.1276
  1710.0000    127.2760      9.4995     10.1126     20.1549     63.3564
  1710.2500    126.5848      9.7262     10.1764     19.0494     67.7243
  1710.5000    125.7757     10.0728     10.2488     16.3542     60.4645
  1710.7500    124.8677     10.4589     10.7567     14.8603     57.3263
  1711.0000    123.9617     11.0881     11.2081     14.4326     57.4368
  1711.2500    123.0081     11.6070     11.7825     15.2954     59.8430
  1711.5000    121.7413     12.3843     12.2016     17.0018     64.1929
  1711.7500    120.5533     12.8635     12.7520     17.7248     64.0948
  1712.0000    119.2597     13.3807     13.0691     16.8290     57.8052
  1712.2500    117.8631     13.5177     13.1203     15.6624     54.5824
  1712.5000    116.2838     13.5592     13.5199     14.6587     51.6547
  1712.7500    114.4844     13.5174     13.6787     14.7858     56.6764
  1713.0000    112.5410     13.1023     13.9269     16.0722     52.0137
  1713.2500    110.6432     13.1166     13.9972     18.2299     45.1654
  1713.5000    108.6771     13.1195     13.6289     18.6120     50.2782
  1713.7500    106.8795     12.9521     13.4107     16.6445     52.5046
  1714.0000    105.2731     12.7193     13.2924     15.4089     58.9904
  1714.2500    103.8992     12.7369     12.9857     14.5394     72.5716
  1714.5000    102.5045     12.8667     12.9542     13.7291     63.9190
  1714.7500    101.1262     12.9716     12.6612     14.7413     56.7947
  1715.0000     99.8150     12.9832     12.3770     15.9561     73.7690
  1715.2500     98.5018     12.6870     12.3846     15.0441     79.5254
  1715.5000     97.1880     12.4610     12.2330     12.7459     76.9377
  1715.7500     95.7281     12.3956     12.0912     12.3545     71.7190
  1716.0000     94.3470     12.3989     12.0979     13.5796     69.8534
  1716.2500     92.6952     12.4993     12.2051     14.2814     67.6511
  1716.5000     90.9248     12.2924     12.1139     14.3649     67.6746
  1716.7500     89.1630     12.2646     12.0545     13.3004     70.5498
  1717.0000     87.4967     12.2137     11.8511     12.6907     73.8112
  1717.2500     85.7353     12.0939     11.8603     13.7698     62.2088
  1717.5000     84.0306     12.0016     11.7937     15.9075     62.9621
  1717.7500     82.5755     11.9518     11.9473     16.4237     62.6338
  1718.0000     81.1347     12.0308     11.8146     15.7665     60.8600
  1718.2500     79.8398     12.0054     11.7473     15.0946     44.9458
  1718.5000     78.6911     12.0190     11.5707     14.4997     52.2862
  1718.7500     77.8527     12.0777     11.4457     14.0709     53.6757
  1719.0000     77.0153     12.6584     11.4142     13.5166     59.7209
  1719.2500     76.0704     13.6155     11.4763     13.2530     62.5929
  1719.5000     74.9596     15.1838     11.4580     13.4086     70.4691
  1719.7500     73.8604     17.5358     11.4505     13.4137     63.9990
  1720.0000     72.5311     21.4657     11.6538     13.3256     56.8746
  1720.2500     70.9376     28.8127     11.9713     13.8375     55.6221
  1720.5000     69.0406     44.8502     12.0789     14.5250     60.3685
  1720.7500     66.9095    106.5183     12.2144     14.3973     47.4518
  1721.0000     64.6906 100000.0000     12.4558     13.1113     44.8295
  1721.2500     62.1830 100000.0000     12.9440     13.4476     47.6326
  1721.5000     59.5559 100000.0000     13.4017     16.6051     43.3097
  1721.7500     56.9491 100000.0000     14.1536     20.6508     43.1083
  1722.0000     54.3729 100000.0000     14.9150     23.4103     45.3958
  1722.2500     51.8606 100000.0000     15.7033     24.2675     52.0055
  1722.5000     49.6355 100000.0000     16.1678     22.3946     48.5248
  1722.7500     47.2898 100000.0000     16.5872     19.6785     55.0650
  1723.0000     44.9745 100000.0000     17.0643     19.6157     50.7492
  1723.2500     42.7478     88.6320     17.1858     19.6072     45.6612
  1723.5000     40.5605     35.0024     17.5785     18.0825     38.9637
  1723.7500     37.9697     20.2454     17.5365     16.8633     45.7886
  1724.0000     35.1038     13.2833     17.4177     16.2402     35.5902
  1724.2500     32.2116      9.1786     17.7613     15.8653     36.5873
  1724.5000     29.2256      6.6298     18.1841     16.1861     49.5470
  1724.7500     26.2607      4.9776     18.0644     18.1750     53.7736
  1725.0000     22.7671      4.0127     17.1658     21.6970     50.4872
  1725.2500     18.9749      3.5560     16.0318     26.5083     53.8903
  1725.5000     15.0351      3.2134     13.9418     27.5058     56.7496
  1725.7500     10.8993      2.8718     11.3064     25.4860     57.6933
  1726.0000      6.4773      2.5559      9.0885     23.5484     52.5921
  1726.2500      0.9913      2.2063      7.1354     20.1445     59.5457
  1726.5000     -5.8127      1.8856      5.3097     16.1483     52.0197
  1726.7500    -12.8536      1.6152      3.7349     14.8047     57.3190
  1727.0000    -20.1336      1.4216      2.6326     15.2757     63.1156
  1727.2500    -28.1441      1.3110      1.9518     16.6496     67.8672
  1727.5000    -36.1692      1.2317      1.4448     18.7378     58.3443
  1727.7500    -45.5656      1.0847      1.0924     23.5399     46.7112
  1728.0000    -55.6367      0.9492      0.8423     32.1609     40.3186
  1728.2500    -65.9382      0.8633      0.6654     35.4401     48.7201
  1728.5000    -75.9251      0.8312      0.5496     23.1122     60.5215
  1728.7500    -85.0276      0.8146      0.4704     10.4108     66.9258
