~Version Information
VERS.                      2.0: CWLS Log ASCII Standard - VERSION 2.0
WRAP.                       NO: One line per depth step
~Well Information Block
STRT.FT               420.0000: 
STOP.FT              1527.5000: 
STEP.FT                 0.1000: 
NULL.                -999.2500: 
COMP.          Evergreen Operating Corporation: COMPANY
WELL.              Chase 21-10: WELL
FLD.           Purgatoire River: FIELD
LOC.           1122' FNL & 1544' FWL: LOCATION
PROV.                       CO: PROVINCE
CNTY.               Las Animas: COUNTRY
SRVC.                         : SERVICE COMPANY
DATE.          Tue May 25 08:18:37 2004: LOG DATE
UWI.           05 071 08006 00: UNIQUE WELL ID
~Curve Information Block
DEPT.FT            0 000 00 00: Depth
DCAL.in                       : CDL Caliper
RHOB.g/cc                     : CDL Bulk Density
RHOC.g/cc                     : CDL Density Correction
DPOR.pu                       : CDL Density Porosity
GR.GAPI                       : Gamma Ray
NPOR.pu                       : Neutron Porosity
~Parameter Information Block
~A  Depth       DCAL        RHOB        RHOC        DPOR         GR         NPOR    
# ...
   496.8000      7.9433      2.5170      0.1940      8.0626    139.3046     26.9106
   496.9000      7.9433      2.4914      0.1737      9.6115    131.5502     26.5901
   497.0000      7.9503      2.4330      0.1795     13.1499    128.6768     26.0919
   497.1000      7.9503      2.3784      0.0796     16.4600    127.1132     25.8421
   497.2000      7.9503      2.3684      0.0876     17.0644    126.7000     25.8159
   497.3000      7.9677      2.4102      0.1428     14.5342    128.5369     25.7036
   497.4000      7.9677      2.4562      0.1990     11.7443    127.2508     25.5579
   497.5000      8.0104      2.4595      0.1683     11.5458    122.7540     25.5034
   497.6000      8.0104      2.4326      0.1279     13.1782    120.7038     25.3092
   497.7000      8.0104      2.4188      0.0969     14.0113    122.1227     25.0228
   497.8000      8.0162      2.4239      0.1583     13.7004    125.4784     24.9060
   497.9000      8.0162      2.4108      0.1667     14.4997    129.1709     25.0058
   498.0000      8.0385      2.3595      0.1883     17.6031    131.4267     25.5013
   498.1000      8.0385      2.2964      0.1040     21.4286    130.5088     26.3404
   498.2000      8.0385      2.2558      0.0416     23.8932    129.2215     27.0444
   498.3000      8.0662      2.2418      0.0823     24.7420    135.6669     27.4298
   498.4000      8.0662      2.2462      0.0563     24.4703    143.1847     27.4775
   498.5000      8.1174      2.2676      0.1005     23.1778    140.4317     27.0846
   498.6000      8.1174      2.3048      0.0854     20.9214    132.8490     26.6279
   498.7000      8.1174      2.3570      0.1415     17.7557    127.9428     26.7288
   498.8000      8.1528      2.4151      0.1403     14.2384    126.2822     27.1830
   498.9000      8.1528      2.4694      0.1258     10.9431    126.5137     27.3697
   499.0000      8.0989      2.5035      0.1607      8.8815    126.5901     27.0858
   499.1000      8.0989      2.4906      0.1162      9.6618    126.4754     26.3534
   499.2000      8.0989      2.4257      0.0434     13.5962    127.7971     25.4718
   499.3000      8.1136      2.3363     -0.0468     19.0120    123.8947     24.8655
   499.4000      8.1136      2.2599     -0.0947     23.6450    112.3540     24.5450
   499.5000      8.0858      2.2105     -0.0455     26.6389    105.7703     24.5446
   499.6000      8.0858      2.1722     -0.0506     28.9553    109.3730     24.9172
   499.7000      8.0858      2.1386     -0.0298     30.9940    112.0728     25.4494
   499.8000      8.1596      2.1321     -0.0242     31.3863    107.4808     26.0733
   499.9000      8.1596      2.1686      0.0215     29.1777    103.6951     26.6688
   500.0000      8.2256      2.2285      0.0748     25.5456    110.0742     27.2565
   500.1000      8.2256      2.2752      0.1172     22.7137    124.0498     28.0141
   500.2000      8.2256      2.2932      0.1084     21.6272    132.3115     28.7423
   500.3000      8.2591      2.3043      0.1044     20.9514    128.7327     29.1016
   500.4000      8.2591      2.3460      0.0716     18.4220    124.9451     29.0440
   500.5000      8.2830      2.4237      0.0911     13.7179    132.4232     28.7167
   500.6000      8.2830      2.4951      0.1459      9.3888    143.0494     28.4307
   500.7000      8.2830      2.5269      0.0913      7.4629    142.5710     28.5301
   500.8000      8.2003      2.5359      0.0186      6.9168    133.0016     28.9196
   500.9000      8.2003      2.5393      0.0564      6.7114    126.8198     29.1183
   501.0000      8.1362      2.5255     -0.0126      7.5480    126.5492     28.7446
   501.1000      8.1362      2.5048     -0.0598      8.7993    128.5133     28.1714
   501.2000      8.1362      2.5032      0.0068      8.8972    131.4932     28.0972
   501.3000      8.1177      2.5199      0.1047      7.8844    130.9038     28.3836
   501.4000      8.1177      2.5500     -0.0150      6.0590    123.9663     28.5555
   501.5000      8.1620      2.5834      0.0843      4.0348    117.2239     28.8021
   501.6000      8.1620      2.5882      0.1383      3.7470    120.0921     29.1634
   501.7000      8.1620      2.5703     -0.0237      4.8299    130.1552     29.2360
   501.8000      8.1358      2.5733      0.0450      4.6511    135.7414     28.9445
   501.9000      8.1358      2.6035      0.1039      2.8209    134.4565     28.4437
   502.0000      8.1575      2.6288      0.0949      1.2834    132.7704     27.8325
   502.1000      8.1575      2.6168      0.1027      2.0122    132.1679     27.4267
   502.2000      8.1575      2.5653     -0.0151      5.1352    131.4536     27.5708
   502.3000      8.1732      2.5100     -0.0264      8.4823    130.6513     27.8220
   502.4000      8.1732      2.4772     -0.0027     10.4697    128.9544     27.6324
   502.5000      8.1714      2.4616     -0.0020     11.4156    124.2266     27.2225
   502.6000      8.1714      2.4524     -0.0064     11.9736    115.9395     26.9130
   502.7000      8.1714      2.4480     -0.0311     12.2412    111.5537     26.6438
   502.8000      8.1797      2.4416      0.0386     12.6296    117.4820     26.3901
   502.9000      8.1797      2.4231      0.0391     13.7520    127.6835     26.2391
   503.0000      8.0722      2.4007     -0.0009     15.1070    132.8433     26.3351
   503.1000      8.0722      2.3895      0.0442     15.7894    130.9720     26.6815
   503.2000      8.0722      2.3972     -0.0055     15.3226    129.8968     26.9198
   503.3000      8.0692      2.4326      0.0456     13.1738    136.1103     26.9092
   503.4000      8.0692      2.4788      0.1451     10.3753    141.7066     26.8917
   503.5000      8.0704      2.4985      0.1286      9.1800    136.0460     26.8204
   503.6000      8.0704      2.4938      0.0580      9.4692    125.8036     26.4777
   503.7000      8.0704      2.4849      0.1220     10.0087    123.9978     26.0256
   503.8000      8.0467      2.4649      0.0954     11.2191    131.0130     25.8801
   503.9000      8.0467      2.4338      0.0326     13.1053    138.5100     26.0565
   504.0000      8.0730      2.4170     -0.0020     14.1238    139.4821     26.2535
   504.1000      8.0730      2.4242      0.0171     13.6872    135.9559     26.2617
   504.2000      8.0730      2.4331      0.0347     13.1462    136.4643     25.9771
   504.3000      8.0668      2.4304     -0.0050     13.3076    142.4886     25.5965
   504.4000      8.0668      2.4230     -0.0114     13.7552    145.1213     25.4302
   504.5000      8.0554      2.4036      0.0393     14.9315    141.4743     25.3456
   504.6000      8.0554      2.3740     -0.0169     16.7281    140.5126     25.0777
   504.7000      8.0554      2.3672     -0.0487     17.1411    143.7579     24.8575
   504.8000      8.0764      2.3890      0.0430     15.8185    143.5403     24.7744
   504.9000      8.0764      2.4016      0.1371     15.0575    139.1421     24.4870
   505.0000      8.1425      2.3883      0.0165     15.8617    134.5966     24.1820
   505.1000      8.1425      2.3600      0.0713     17.5740    131.2285     24.2566
   505.2000      8.1425      2.3265      0.0287     19.6070    127.4944     24.4652
   505.3000      8.1911      2.3188     -0.0098     20.0735    120.1667     24.4401
   505.4000      8.1911      2.3549      0.0757     17.8868    114.0566     24.4104
   505.5000      8.2192      2.3909      0.1310     15.7037    118.8321     24.6959
   505.6000      8.2192      2.3889      0.0601     15.8259    129.6935     25.1964
   505.7000      8.2192      2.3726     -0.0183     16.8103    134.8091     25.8438
   505.8000      8.2315      2.3757      0.0520     16.6234    134.5708     26.8596
   505.9000      8.2315      2.4002      0.0699     15.1397    134.7896     28.0041
   506.0000      8.2136      2.4242      0.0736     13.6825    138.5673     28.7781
   506.1000      8.2136      2.4305      0.0789     13.3033    143.0540     29.2284
   506.2000      8.2136      2.4338      0.0361     13.1021    141.4866     29.5030
   506.3000      8.1984      2.4591      0.0610     11.5678    133.0088     29.5534
