~Version Information
VERS.                      2.0: CWLS Log ASCII Standard - VERSION 2.0
WRAP.                       NO: One line per depth step
~Well Information Block
STRT.FT               588.6000: 
STOP.FT              2281.0000: 
STEP.FT                 0.1000: 
NULL.                -999.2500: 
COMP.          Petrogulf Corporation: COMPANY
WELL.             State 16-41V: WELL
FLD.           Purgatorie River: FIELD
LOC.           335' FNL & 823' FEL: LOCATION
CNTY.               Las Animas: COUNTY
SRVC.                         : SERVICE COMPANY
DATE.          Tue Aug 02 07:31:25 2005: LOG DATE
UWI.                          : UNIQUE WELL ID
STAT.                 Colorado: STATE
~Curve Information Block
DEPT.FT            0 000 00 00: Depth
DCAL.in                       : CDL Caliper
RHOB.g/cc                     : CDL Bulk Density
RHOC.g/cc                     : CDL Density Correction
DPOR.pu                       : CDL Density Porosity
GR.GAPI                       : Gamma Ray
NPOR.pu                       : Neutron Porosity
~Parameter Information Block
~A  Depth       DCAL        RHOB        RHOC        DPOR         GR         NPOR    
# ...
  1798.2000      7.9850      2.5498      0.0714      6.0707     91.8832     22.3500
  1798.3000      7.9773      2.5501      0.0556      6.0548     93.2543     22.2758
  1798.4000      7.9773      2.5499      0.0630      6.0639     94.8379     22.2067
  1798.5000      7.9898      2.5557      0.0880      5.7137     97.2548     22.1438
  1798.6000      7.9898      2.5678      0.0966      4.9842     97.5821     22.0864
  1798.7000      7.9898      2.5803      0.0981      4.2250     94.9013     22.0323
  1798.8000      7.9805      2.5894      0.0955      3.6737     91.8354     21.9778
  1798.9000      7.9805      2.5938      0.0959      3.4053     88.6158     21.9184
  1799.0000      7.9828      2.5901      0.1286      3.6306     85.6452     21.8496
  1799.1000      7.9828      2.5748      0.1094      4.5591     83.7865     21.7672
  1799.2000      7.9828      2.5528      0.0467      5.8912     82.0715     21.6681
  1799.3000      7.9950      2.5367      0.0263      6.8677     80.5559     21.5507
  1799.4000      7.9950      2.5383      0.0215      6.7687     79.9404     21.4150
  1799.5000      8.0173      2.5577      0.0514      5.5915     80.1898     21.2630
  1799.6000      8.0173      2.5789      0.0467      4.3115     80.6222     21.0983
  1799.7000      8.0173      2.5877      0.0523      3.7752     81.5891     20.9264
  1799.8000      8.0298      2.5815      0.0616      4.1511     83.5400     20.7542
  1799.9000      8.0298      2.5636      0.0572      5.2341     83.9931     20.5897
  1800.0000      8.0265      2.5438      0.0344      6.4357     83.3945     20.4420
  1800.1000      8.0265      2.5259      0.0523      7.5184     85.2957     20.3200
  1800.2000      8.0265      2.5049      0.0361      8.7916     88.3050     20.2317
  1800.3000      8.0315      2.4861      0.0449      9.9346     88.1945     20.1839
  1800.4000      8.0315      2.4814      0.0306     10.2171     85.0982     20.1807
  1800.5000      8.0435      2.4905      0.0424      9.6689     82.6690     20.2235
  1800.6000      8.0435      2.5036      0.0769      8.8744     82.2098     20.3104
  1800.7000      8.0435      2.5119      0.0933      8.3694     81.8513     20.4366
  1800.8000      8.0354      2.5136      0.0857      8.2689     81.0922     20.5943
  1800.9000      8.0354      2.5197      0.0691      7.8965     80.4395     20.7736
  1801.0000      8.0440      2.5425      0.0991      6.5146     80.0782     20.9629
  1801.1000      8.0440      2.5727      0.1375      4.6839     81.3183     21.1498
  1801.2000      8.0440      2.5934      0.1399      3.4301     83.6494     21.3221
  1801.3000      8.0168      2.6055      0.1250      2.6964     83.1037     21.4686
  1801.4000      8.0168      2.6160      0.1385      2.0624     78.7453     21.5801
  1801.5000      8.0283      2.6225      0.1610      1.6656     74.9019     21.6504
  1801.6000      8.0283      2.6243      0.1465      1.5574     73.6756     21.6768
  1801.7000      8.0283      2.6249      0.1447      1.5215     72.7871     21.6600
  1801.8000      8.0232      2.6220      0.1391      1.6951     70.9443     21.6043
  1801.9000      8.0232      2.6164      0.0962      2.0363     69.7089     21.5167
  1802.0000      8.0323      2.6184      0.1140      1.9124     70.5963     21.4057
  1802.1000      8.0323      2.6334      0.1312      1.0036     73.0205     21.2804
  1802.2000      8.0323      2.6554      0.1530     -0.3302     74.7546     21.1491
  1802.3000      8.0125      2.6716      0.1977     -1.3115     73.9424     21.0187
  1802.4000      8.0125      2.6735      0.1625     -1.4266     70.6473     20.8940
  1802.5000      8.0038      2.6632      0.1538     -0.8022     67.4056     20.7778
  1802.6000      8.0038      2.6412      0.1158      0.5308     66.1582     20.6711
  1802.7000      8.0038      2.6101      0.0831      2.4155     67.4139     20.5737
  1802.8000      7.9840      2.5860      0.0673      3.8807     70.0134     20.4849
  1802.9000      7.9840      2.5837      0.0723      4.0202     71.6610     20.4040
  1803.0000      7.9518      2.5968      0.0629      3.2253     71.3861     20.3306
  1803.1000      7.9518      2.6054      0.0658      2.7014     69.6572     20.2646
  1803.2000      7.9518      2.5986      0.0827      3.1167     67.2092     20.2064
  1803.3000      7.9826      2.5823      0.0646      4.1031     65.4910     20.1562
  1803.4000      7.9826      2.5656      0.0902      5.1163     66.5289     20.1135
  1803.5000      7.9724      2.5543      0.0103      5.8004     69.4253     20.0773
  1803.6000      7.9724      2.5587      0.0646      5.5317     70.9458     20.0457
  1803.7000      7.9724      2.5757      0.0769      4.5037     69.9744     20.0160
  1803.8000      7.9940      2.5894      0.0664      3.6721     68.2355     19.9853
  1803.9000      7.9940      2.5918      0.0912      3.5243     67.4935     19.9511
  1804.0000      8.0076      2.5893      0.0575      3.6769     66.2687     19.9114
  1804.1000      8.0076      2.5940      0.0754      3.3915     63.1231     19.8655
  1804.2000      8.0076      2.6033      0.1062      2.8288     59.2300     19.8137
  1804.3000      7.9914      2.6074      0.0759      2.5832     57.1241     19.7572
  1804.4000      7.9914      2.6064      0.0729      2.6401     58.3431     19.6979
  1804.5000      7.9919      2.5996      0.0739      3.0546     60.7323     19.6376
  1804.6000      7.9919      2.5859      0.0414      3.8823     61.7059     19.5781
  1804.7000      7.9919      2.5735      0.0497      4.6372     60.8801     19.5203
  1804.8000      7.9959      2.5644      0.0552      5.1881     59.5934     19.4644
  1804.9000      7.9959      2.5577      0.0316      5.5965     59.8839     19.4100
  1805.0000      8.0041      2.5590      0.0450      5.5182     61.2438     19.3562
  1805.1000      8.0041      2.5666      0.0407      5.0560     61.9865     19.3018
  1805.2000      8.0041      2.5673      0.0594      5.0148     62.0480     19.2459
  1805.3000      8.0043      2.5575      0.0376      5.6072     62.2908     19.1878
  1805.4000      8.0043      2.5535      0.0301      5.8486     62.7269     19.1276
  1805.5000      7.9965      2.5669      0.0512      5.0341     61.8743     19.0658
  1805.6000      7.9965      2.5858      0.1104      3.8921     60.8964     19.0034
  1805.7000      7.9965      2.5959      0.0872      3.2789     61.2356     18.9419
  1805.8000      7.9849      2.5977      0.1237      3.1705     61.7207     18.8821
  1805.9000      7.9849      2.5892      0.1444      3.6872     62.1083     18.8246
  1806.0000      7.9704      2.5711      0.1120      4.7804     62.8489     18.7683
  1806.1000      7.9704      2.5590      0.0872      5.5175     63.6560     18.7106
  1806.2000      7.9704      2.5586      0.1147      5.5364     63.5886     18.6469
  1806.3000      7.9642      2.5595      0.0976      5.4858     62.7438     18.5707
  1806.4000      7.9642      2.5590      0.0414      5.5170     62.4887     18.4733
  1806.5000      8.0048      2.5622      0.0569      5.3204     63.8396     18.3451
  1806.6000      8.0048      2.5709      0.0597      4.7966     66.2423     18.1757
  1806.7000      8.0048      2.5883      0.0590      3.7392     67.3830     17.9556
  1806.8000      7.9956      2.6065      0.1337      2.6335     66.1232     17.6772
  1806.9000      7.9956      2.6067      0.1375      2.6265     64.5058     17.3368
  1807.0000      7.9506      2.5931      0.0839      3.4487     65.0666     16.9358
  1807.1000      7.9506      2.5842      0.1150      3.9904     67.9653     16.4818
  1807.2000      7.9506      2.5766      0.1169      4.4474     71.0886     15.9894
  1807.3000      7.9456      2.5561      0.1043      5.6915     72.4189     15.4791
  1807.4000      7.9456      2.5208      0.0555      7.8292     72.4397     14.9761
  1807.5000      7.9820      2.4696      0.0691     10.9322     71.9846     14.5079
  1807.6000      7.9820      2.3925      0.0876     15.6052     71.0383     14.1018
  1807.7000      7.9820      2.2993     -0.0039     21.2560     71.4753     13.7826
