~Version Information
VERS.                      2.0: CWLS Log ASCII Standard - VERSION 2.0
WRAP.                       NO: One line per depth step
~Well Information Block
STRT.FT               460.5000: 
STOP.FT              2197.0000: 
STEP.FT                 0.2500: 
NULL.                -999.2500: 
COMP.          Petrogulf Corporation: COMPANY
WELL.              Silva 1-43R: WELL
FLD.           Purgatorie River: FIELD
LOC.           1971' FSL & 526' FEL: LOCATION
CNTY.               Las Animas: COUNTY
SRVC.                Patterson: SERVICE COMPANY
DATE.          Sun Jun 18 03:37:26 2006: LOG DATE
UWI.           05 071 08372 00: UNIQUE WELL ID
STAT.                 Colorado: STATE
~Curve Information Block
DEPT.FT            0 000 00 00: Depth
SN.Ohm-m                      : IEL Short Normal
SP.mV                         : IEL Spontaneous Potential
DIR.Ohm-m                     : IEL Induction Resistivity
GR.GAPI                       : Gamma Ray
~Parameter Information Block
~A  Depth        SN          SP         DIR          GR     
# ...
  1063.5000   2000.0000   2000.0000     22.2489     57.2587
  1063.7500   2000.0000   2000.0000     23.1994     52.0923
  1064.0000   2000.0000   2000.0000     24.3069     49.5394
  1064.2500   2000.0000   2000.0000     25.5529     50.8657
  1064.5000   2000.0000   2000.0000     26.8689     55.1613
  1064.7500   2000.0000   2000.0000     28.1435     57.9311
  1065.0000   2000.0000   2000.0000     29.2396     60.0756
  1065.2500   2000.0000   2000.0000     30.0132     60.0905
  1065.5000   2000.0000   2000.0000     30.3378     59.4556
  1065.7500   2000.0000   2000.0000     30.1356     59.9023
  1066.0000   2000.0000   2000.0000     29.4099     63.7134
  1066.2500   2000.0000   2000.0000     28.2544     68.5940
  1066.5000   2000.0000   2000.0000     26.8234     78.0913
  1066.7500   2000.0000   2000.0000     25.2791     84.5332
  1067.0000   2000.0000   2000.0000     23.7510     92.6348
  1067.2500   2000.0000   2000.0000     22.3225     96.8504
  1067.5000   2000.0000   2000.0000     21.0353    102.3433
  1067.7500   2000.0000   2000.0000     19.8952    106.0708
  1068.0000   2000.0000   2000.0000     18.8793    111.9463
  1068.2500   2000.0000   2000.0000     17.9487    115.6443
  1068.5000   2000.0000   2000.0000     17.0681    120.1651
  1068.7500   2000.0000   2000.0000     16.2233    122.5446
  1069.0000   2000.0000   2000.0000     15.4241    125.7570
  1069.2500   2000.0000   2000.0000     14.6945    127.7982
  1069.5000   2000.0000   2000.0000     14.0575    130.3783
  1069.7500   2000.0000   2000.0000     13.5246    131.6207
  1070.0000   2000.0000   2000.0000     13.0930    132.7999
  1070.2500   2000.0000   2000.0000     12.7492    133.0219
  1070.5000   2000.0000   2000.0000     12.4737    131.9718
  1070.7500   2000.0000   2000.0000     12.2450    130.1987
  1071.0000   2000.0000   2000.0000     12.0442    126.3776
  1071.2500   2000.0000   2000.0000     11.8590    123.5840
  1071.5000   2000.0000   2000.0000     11.6875    120.0618
  1071.7500   2000.0000   2000.0000     11.5395    118.7944
  1072.0000   2000.0000   2000.0000     11.4320    119.3368
  1072.2500   2000.0000   2000.0000     11.3791    121.2698
  1072.5000   2000.0000   2000.0000     11.3821    125.0555
  1072.7500   2000.0000   2000.0000     11.4243    126.8780
  1073.0000   2000.0000   2000.0000     11.4787    127.3598
  1073.2500   2000.0000   2000.0000     11.5229    126.6723
  1073.5000   2000.0000   2000.0000     11.5516    126.0428
  1073.7500   2000.0000   2000.0000     11.5752    126.5415
  1074.0000   2000.0000   2000.0000     11.6095    128.2984
  1074.2500   2000.0000   2000.0000     11.6664    129.5641
  1074.5000   2000.0000   2000.0000     11.7523    130.8915
  1074.7500   2000.0000   2000.0000     11.8696    131.2304
  1075.0000   2000.0000   2000.0000     12.0188    131.1019
  1075.2500   2000.0000   2000.0000     12.2008    130.9054
  1075.5000   2000.0000   2000.0000     12.4223    130.8950
  1075.7500   2000.0000   2000.0000     12.7018    131.1648
  1076.0000   2000.0000   2000.0000     13.0702    131.9731
  1076.2500   2000.0000   2000.0000     13.5613    132.6287
  1076.5000   2000.0000   2000.0000     14.1982    133.0533
  1076.7500   2000.0000   2000.0000     14.9807    132.3642
  1077.0000   2000.0000   2000.0000     15.8835    128.9081
  1077.2500   2000.0000   2000.0000     16.8660    124.5594
  1077.5000   2000.0000   2000.0000     17.8928    114.7886
  1077.7500   2000.0000   2000.0000     18.9524    106.5847
  1078.0000   2000.0000   2000.0000     20.0637     93.5680
  1078.2500   2000.0000   2000.0000     21.2649     85.6685
  1078.5000   2000.0000   2000.0000     22.5933     76.3418
  1078.7500   2000.0000   2000.0000     24.0695     71.8027
  1079.0000   2000.0000   2000.0000     25.6977     66.6832
  1079.2500   2000.0000   2000.0000     27.4755     64.0766
  1079.5000   2000.0000   2000.0000     29.4008     61.5499
  1079.7500   2000.0000   2000.0000     31.4564     60.9575
  1080.0000   2000.0000   2000.0000     33.5737     61.5308
  1080.2500   2000.0000   2000.0000     35.6007     62.6011
  1080.5000   2000.0000   2000.0000     37.3154     64.7674
  1080.7500   2000.0000   2000.0000     38.5104     66.3754
  1081.0000   2000.0000   2000.0000     39.1043     68.8913
  1081.2500   2000.0000   2000.0000     39.1841     70.8114
  1081.5000   2000.0000   2000.0000     38.9447     74.7320
  1081.7500   2000.0000   2000.0000     38.5914     78.2970
  1082.0000   2000.0000   2000.0000     38.2883     84.5477
  1082.2500   2000.0000   2000.0000     38.1575     88.5475
  1082.5000   2000.0000   2000.0000     38.2825     93.3029
  1082.7500   2000.0000   2000.0000     38.6817     95.6230
  1083.0000   2000.0000   2000.0000     39.2577     98.1822
  1083.2500   2000.0000   2000.0000     39.7800     99.3110
  1083.5000   2000.0000   2000.0000     39.9667    100.0515
  1083.7500   2000.0000   2000.0000     39.6546    100.0379
  1084.0000   2000.0000   2000.0000     38.9073     99.7699
  1084.2500   2000.0000   2000.0000     37.9412     99.6742
  1084.5000   2000.0000   2000.0000     36.9605     99.6805
  1084.7500   2000.0000   2000.0000     36.0550     99.5790
  1085.0000   2000.0000   2000.0000     35.2002     99.0055
  1085.2500   2000.0000   2000.0000     34.3071     98.5983
  1085.5000   2000.0000   2000.0000     33.2844     99.2758
  1085.7500   2000.0000   2000.0000     32.0953    101.5272
  1086.0000   2000.0000   2000.0000     30.7837    108.2911
  1086.2500   2000.0000   2000.0000     29.4497    114.4347
  1086.5000   2000.0000   2000.0000     28.1945    123.6376
  1086.7500   2000.0000   2000.0000     27.0797    128.4090
  1087.0000   2000.0000   2000.0000     26.1260    132.7611
  1087.2500   2000.0000   2000.0000     25.3315    134.1833
  1087.5000   2000.0000   2000.0000     24.6850    134.8447
  1087.7500   2000.0000   2000.0000     24.1636    134.2252
  1088.0000   2000.0000   2000.0000     23.7244    130.9382
  1088.2500   2000.0000   2000.0000     23.3084    126.9286
  1088.5000   2000.0000   2000.0000     22.8610    118.8823
  1088.7500   2000.0000   2000.0000     22.3598    113.1642
  1089.0000   2000.0000   2000.0000     21.8254    105.9918
  1089.2500   2000.0000   2000.0000     21.3041    102.9457
  1089.5000   2000.0000   2000.0000     20.8391    101.5791
  1089.7500   2000.0000   2000.0000     20.4510    102.8427
  1090.0000   2000.0000   2000.0000     20.1394    107.4216
  1090.2500   2000.0000   2000.0000     19.8956    111.3763
  1090.5000   2000.0000   2000.0000     19.7134    116.6869
  1090.7500   2000.0000   2000.0000     19.5892    119.0375
  1091.0000   2000.0000   2000.0000     19.5119    120.5928
  1091.2500   2000.0000   2000.0000     19.4545    120.5571
  1091.5000   2000.0000   2000.0000     19.3754    119.3989
  1091.7500   2000.0000   2000.0000     19.2336    118.3333
  1092.0000   2000.0000   2000.0000     19.0067    117.3902
  1092.2500   2000.0000   2000.0000     18.6988    117.7123
  1092.5000   2000.0000   2000.0000     18.3344    119.7062
  1092.7500   2000.0000   2000.0000     17.9441    121.6135
  1093.0000   2000.0000   2000.0000     17.5530    124.0359
  1093.2500   2000.0000   2000.0000     17.1738    124.5719
  1093.5000   2000.0000   2000.0000     16.8099    123.4226
  1093.7500   2000.0000   2000.0000     16.4628    122.1191
  1094.0000   2000.0000   2000.0000     16.1390    121.5239
  1094.2500   2000.0000   2000.0000     15.8496    122.8400
  1094.5000   2000.0000   2000.0000     15.6050    127.0735
  1094.7500   2000.0000   2000.0000     15.4070    130.5632
  1095.0000   2000.0000   2000.0000     15.2463    135.3736
  1095.2500   2000.0000   2000.0000     15.1058    137.7381
  1095.5000   2000.0000   2000.0000     14.9675    139.3722
  1095.7500   2000.0000   2000.0000     14.8217    138.9343
  1096.0000   2000.0000   2000.0000     14.6692    136.0236
  1096.2500   2000.0000   2000.0000     14.5187    133.0546
  1096.5000   2000.0000   2000.0000     14.3815    128.5009
  1096.7500   2000.0000   2000.0000     14.2681    126.1995
