~Version Information
VERS.                      2.0: CWLS Log ASCII Standard - VERSION 2.0
WRAP.                       NO: One line per depth step
~Well Information Block
STRT.FT               954.4000: 
STOP.FT              2380.0000: 
STEP.FT                 0.1000: 
NULL.                -999.2500: 
COMP.          Petrogulf Corporation: COMPANY
WELL.             State 16-24V: WELL
FLD.           Purgatorie River: FIELD
LOC.           481' FSL & 2419' FWL: LOCATION
CNTY.               Las Animas: COUNTY
SRVC.                         : SERVICE COMPANY
DATE.          Tue May 04 07:31:25 2004: LOG DATE
UWI.           05 071 08014 00: UNIQUE WELL ID
STAT.                 Colorado: STATE
~Curve Information Block
DEPT.FT            0 000 00 00: Depth
DCAL.in                       : CDL Caliper
RHOB.g/cc                     : CDL Bulk Density
RHOC.g/cc                     : CDL Density Correction
DPOR.pu                       : CDL Density Porosity
GR.GAPI                       : Gamma Ray
~Parameter Information Block
~A  Depth       DCAL        RHOB        RHOC        DPOR         GR     
# ...
  1156.0000      8.0798      2.4993      0.0755      9.1310    138.4608
  1156.1000      8.0798      2.5158      0.0431      8.1348    139.9539
  1156.2000      8.0798      2.5380      0.0359      6.7877    149.7225
  1156.3000      8.0799      2.5463      0.1314      6.2867    160.6041
  1156.4000      8.0799      2.5430      0.0926      6.4862    170.0214
  1156.5000      8.0776      2.5416      0.1705      6.5709    172.7706
  1156.6000      8.0776      2.5157      0.1791      8.1423    165.2731
  1156.7000      8.0776      2.4305      0.0728     13.3006    154.1590
  1156.8000      8.0828      2.3112      0.0028     20.5354    149.7309
  1156.9000      8.0828      2.2183      0.0043     26.1658    153.2511
  1157.0000      8.0872      2.1808      0.0178     28.4356    157.4987
  1157.1000      8.0872      2.1867      0.0128     28.0810    153.1117
  1157.2000      8.0872      2.2171      0.0168     26.2361    141.7733
  1157.3000      8.0817      2.2657      0.0555     23.2920    138.0899
  1157.4000      8.0817      2.3204      0.1096     19.9729    143.7595
  1157.5000      8.0993      2.3530      0.2287     18.0020    143.2335
  1157.6000      8.0993      2.3548      0.1669     17.8910    137.4026
  1157.7000      8.0993      2.3506      0.1618     18.1442    137.4589
  1157.8000      8.0949      2.3460      0.2278     18.4253    138.5068
  1157.9000      8.0949      2.3294      0.0886     19.4321    138.5041
  1158.0000      8.0935      2.3072      0.1858     20.7771    141.7239
  1158.1000      8.0935      2.2827      0.1682     22.2586    143.5136
  1158.2000      8.0935      2.2677      0.0219     23.1673    141.4874
  1158.3000      8.0969      2.2784      0.0442     22.5242    141.0804
  1158.4000      8.0969      2.2954      0.1048     21.4928    147.2475
  1158.5000      8.0904      2.3023      0.0320     21.0728    158.3111
  1158.6000      8.0904      2.3071      0.0783     20.7816    166.7022
  1158.7000      8.0904      2.3113      0.0824     20.5296    161.8940
  1158.8000      8.0560      2.3207      0.0638     19.9581    144.8403
  1158.9000      8.0560      2.3414      0.1007     18.7010    132.5410
  1159.0000      8.0221      2.3723      0.0564     16.8309    134.3649
  1159.1000      8.0221      2.4164      0.1185     14.1602    143.5699
  1159.2000      8.0221      2.4589      0.2037     11.5819    151.0252
  1159.3000      7.9788      2.4733      0.2065     10.7110    153.8240
  1159.4000      7.9788      2.4646      0.1261     11.2375    150.1651
  1159.5000      7.9548      2.4599      0.1610     11.5217    138.6615
  1159.6000      7.9548      2.4696      0.0459     10.9347    125.7927
  1159.7000      7.9548      2.4900      0.1107      9.6997    115.6254
  1159.8000      7.9466      2.5129      0.1368      8.3082    107.7018
  1159.9000      7.9466      2.5354      0.0910      6.9456    107.6462
  1160.0000      7.9129      2.5535      0.2199      5.8471    117.2220
  1160.1000      7.9129      2.5671      0.0929      5.0245    129.4319
  1160.2000      7.9129      2.5904      0.2053      3.6101    137.7190
  1160.3000      7.9130      2.6131      0.2962      2.2335    144.5775
  1160.4000      7.9130      2.6064      0.2925      2.6409    153.7679
  1160.5000      7.8976      2.5706      0.1839      4.8102    155.7937
  1160.6000      7.8976      2.5328      0.1376      7.1051    144.6269
  1160.7000      7.8976      2.5166      0.0361      8.0872    131.7108
  1160.8000      7.8908      2.5226      0.1373      7.7221    122.3624
  1160.9000      7.8908      2.5337      0.1506      7.0478    113.4711
  1161.0000      7.8862      2.5570      0.0377      5.6393    113.8894
  1161.1000      7.8862      2.6000      0.1732      3.0327    128.1836
  1161.2000      7.8862      2.6284      0.1825      1.3102    141.3460
  1161.3000      7.8910      2.6291      0.0834      1.2679    143.7061
  1161.4000      7.8910      2.6249      0.1408      1.5225    141.5214
  1161.5000      7.8888      2.6253      0.1062      1.4998    136.9286
  1161.6000      7.8888      2.6172      0.1882      1.9857    134.1270
  1161.7000      7.8888      2.5864      0.1095      3.8555    139.2500
  1161.8000      7.8876      2.5469     -0.0022      6.2491    146.5885
  1161.9000      7.8876      2.5200      0.0131      7.8787    147.9040
  1162.0000      7.8823      2.5043      0.0212      8.8283    143.2920
  1162.1000      7.8823      2.4987      0.0713      9.1710    138.7489
  1162.2000      7.8823      2.5158      0.0448      8.1329    139.5548
  1162.3000      7.8845      2.5543      0.1174      5.8020    140.3360
  1162.4000      7.8845      2.5781      0.1036      4.3570    136.6403
  1162.5000      7.8773      2.5551      0.0430      5.7535    133.6156
  1162.6000      7.8773      2.5102     -0.0358      8.4733    136.3461
  1162.7000      7.8773      2.4920     -0.0032      9.5751    140.2542
  1162.8000      7.8702      2.4992      0.0521      9.1384    136.8287
  1162.9000      7.8702      2.5075      0.0778      8.6338    126.7858
  1163.0000      7.8690      2.5181      0.0596      7.9925    114.8590
  1163.1000      7.8690      2.5317      0.0856      7.1723    108.0339
  1163.2000      7.8690      2.5352      0.0465      6.9557    112.6675
  1163.3000      7.8787      2.5203      0.1122      7.8628    121.9876
  1163.4000      7.8787      2.5032      0.0130      8.8994    129.8150
  1163.5000      7.8680      2.5167      0.0676      8.0776    134.8321
  1163.6000      7.8680      2.5499      0.1560      6.0673    130.8778
  1163.7000      7.8680      2.5749      0.1755      4.5516    122.8297
  1163.8000      7.8748      2.6179      0.0813      1.9452    119.7118
  1163.9000      7.8748      2.7195      0.1777     -4.2122    112.1625
  1164.0000      7.8495      2.8511      0.2266    -12.1863     95.0646
  1164.1000      7.8495      2.9348      0.3391    -17.2577     81.9911
  1164.2000      7.8495      2.9381      0.2146    -17.4622     82.2043
  1164.3000      7.7665      2.8934      0.2754    -14.7500     91.1383
  1164.4000      7.7665      2.8282      0.1536    -10.7992     98.0224
  1164.5000      7.7546      2.7543      0.0638     -6.3227     99.9005
  1164.6000      7.7546      2.6906      0.0690     -2.4584    103.8139
  1164.7000      7.7546      2.6526      0.0693     -0.1553    108.1299
  1164.8000      7.7559      2.6363      0.0514      0.8321    104.4472
  1164.9000      7.7559      2.6320      0.0396      1.0899     95.3561
  1165.0000      7.8262      2.6354      0.0754      0.8874     92.5444
  1165.1000      7.8262      2.6328      0.1238      1.0431    100.4757
  1165.2000      7.8262      2.6179      0.0442      1.9446    113.4935
  1165.3000      7.9139      2.6049      0.0244      2.7331    124.7603
  1165.4000      7.9139      2.5868      0.0577      3.8328    129.4856
  1165.5000      7.9085      2.5401      0.0207      6.6579    130.8318
  1165.6000      7.9085      2.4807      0.0063     10.2629    137.3574
  1165.7000      7.9085      2.4392      0.0344     12.7737    145.9304
  1165.8000      7.9091      2.4189      0.0925     14.0082    146.8696
  1165.9000      7.9091      2.4097      0.0610     14.5607    141.8195
  1166.0000      7.9206      2.4036      0.0294     14.9353    139.9243
  1166.1000      7.9206      2.3895      0.0833     15.7888    142.4688
  1166.2000      7.9206      2.3725      0.0024     16.8202    143.8553
  1166.3000      7.9742      2.3702      0.0477     16.9555    145.2128
  1166.4000      7.9742      2.3779      0.0319     16.4913    151.9145
  1166.5000      8.0792      2.3805      0.1090     16.3345    159.4378
  1166.6000      8.0792      2.3775      0.0686     16.5166    161.0314
  1166.7000      8.0792      2.3780      0.0073     16.4821    152.4125
  1166.8000      8.0862      2.3839      0.1044     16.1297    133.2931
  1166.9000      8.0862      2.3913     -0.0116     15.6789    124.0896
  1167.0000      7.9804      2.4115      0.0109     14.4530    137.9547
  1167.1000      7.9804      2.4343      0.1093     13.0729    152.3687
