~Version Information
VERS.                      2.0: CWLS Log ASCII Standard - VERSION 2.0
WRAP.                       NO: One line per depth step
~Well Information Block
STRT.FT                -9.7500: 
STOP.FT              2158.2500: 
STEP.FT                 0.2500: 
NULL.                -999.2500: 
COMP.          Petrogulf Corporation: COMPANY
WELL.             State 16-41V: WELL
FLD.           Purgatoire River: FIELD
LOC.           335' FNL & 823' FEL--: LOCATION
PROV.                 Colorado: PROVINCE
CNTY.               Las Animas: COUNTRY
SRVC.                Patterson: SERVICE COMPANY
DATE.          Wed Aug 17 12:15:10 2005: LOG DATE
UWI.           05 071 08344 00: UNIQUE WELL ID
~Curve Information Block
DEPT.FT            0 000 00 00: Depth
CCL.                          : Casing Collar Locator
TT3.usec                      : CBL 3' Travel Time
AMP3.mV                       : CBL 3' Amplitude
GR.GAPI                       : Gamma Ray
~Parameter Information Block
~A  Depth       CCL         TT3         AMP3         GR     
# ...
   291.7500      0.0000    318.4863      8.9463     83.8589
   292.0000      0.0000    320.8298      8.9582     84.7162
   292.2500      0.0000    325.0670      8.9661     83.8791
   292.5000      0.0000    331.1458      8.9803     82.4564
   292.7500      0.0000    337.9745      9.0170     82.1450
   293.0000      0.0000    343.9355      9.0829     83.6847
   293.2500      0.0000    347.9413      9.1675     86.4236
   293.5000      0.0000    349.9734      9.2509     89.1117
   293.7500      0.0000    350.7119      9.3171     90.8719
   294.0000      0.0000    350.8717      9.3603     91.6464
   294.2500      0.0000    350.8696      9.3850     92.0257
   294.5000      0.0000    350.8518      9.4012     92.5841
   294.7500      0.0000    350.8347      9.4138     93.1803
   295.0000      0.0000    350.8042      9.4136     93.0851
   295.2500      0.0000    350.7622      9.3846     92.0176
   295.5000      0.0000    350.7319      9.3227     90.7705
   295.7500      0.0000    350.7359      9.2426     90.3714
   296.0000      0.0000    350.7651      9.1660     90.8215
   296.2500      0.0000    350.7815      9.1066     91.1361
   296.5000      0.0000    350.7619      9.0671     90.4536
   296.7500      0.0000    350.7343      9.0445     88.6864
   297.0000      0.0000    350.7534      9.0336     86.3361
   297.2500      0.0000    350.8372      9.0282     84.0901
   297.5000      0.0000    350.9380      9.0255     82.3473
   297.7500      0.0000    350.9902      9.0286     80.7683
   298.0000      0.0000    350.9739      9.0419     78.4418
   298.2500      0.0000    350.9199      9.0650     74.6883
   298.5000      0.0000    350.8625      9.0942     69.6519
   298.7500      0.0000    350.8139      9.1269     64.1658
   299.0000      0.0000    350.7861      9.1634     59.2755
   299.2500      0.0000    350.8091      9.2035     55.9459
   299.5000      0.0000    350.9144      9.2456     54.9789
   299.7500      0.0000    351.1088      9.2863     56.8353
   300.0000      0.0000    351.3672      9.3192     61.4343
   300.2500      0.0000    351.6451      9.3361     68.3277
   300.5000      0.0000    351.8991      9.3301     76.9805
   300.7500      0.0000    352.1092      9.2993     86.4918
   301.0000      0.0000    352.2863      9.2455     95.1631
   301.2500      0.0000    352.4572      9.1710    101.0239
   301.5000      0.0000    352.6363      9.0795    103.0659
   301.7500      0.0000    352.8115      8.9815    101.7482
   302.0000      0.0000    352.9580      8.8936     98.4793
   302.2500      0.0000    353.0674      8.8291     95.0407
   302.5000      0.0000    353.1580      8.7900     93.1696
   302.7500      0.0000    353.2538      8.7703     93.7727
   303.0000      0.0000    353.3574      8.7651     96.1296
   303.2500      0.0000    353.4479      8.7726     98.2329
   303.5000      0.0000    353.5063      8.7935     98.4153
   303.7500      0.0000    353.5303      8.8284     96.8505
   304.0000      0.0000    353.5247      8.8739     95.4231
   304.2500      0.0000    353.4839      8.9194     96.0489
   304.5000      0.0000    353.3926      8.9524     98.9578
   304.7500      0.0000    353.2408      8.9683    102.4341
   305.0000      0.0000    353.0357      8.9730    104.2030
   305.2500      0.0000    352.8016      8.9739    103.3270
   305.5000      0.0000    352.5725      8.9735    101.0164
   305.7500      0.0000    352.3809      8.9753     99.5635
   306.0000      0.0000    352.2470      8.9915    100.2643
   306.2500      0.0000    352.1693      9.0366    102.3180
   306.5000      0.0000    352.1223      9.1139    103.8136
   306.7500      0.0000    352.0680      9.2138    103.5424
   307.0000      0.0000    351.9769      9.3226    101.5175
   307.2500      0.0000    351.8365      9.4287     98.1427
   307.5000      0.0000    351.6422      9.5207     93.6794
   307.7500      0.0000    351.3949      9.5878     88.5463
   308.0000      0.0000    351.1178      9.6258     83.5935
   308.2500      0.0000    350.8661      9.6399     80.0173
   308.5000      0.0000    350.7028      9.6388     79.1398
   308.7500      0.0000    350.6602      9.6284     81.8935
   309.0000      0.0000    350.7249      9.6100     87.9773
   309.2500      0.0000    350.8521      9.5841     95.5236
   309.5000      0.0000    350.9939      9.5526    102.0329
   309.7500      0.0000    351.1209      9.5168    106.0453
   310.0000      0.0000    351.2273      9.4762    108.0002
   310.2500      0.0000    351.3145      9.4318    109.4069
   310.5000      0.0000    351.3699      9.3891    111.1648
   310.7500      0.0000    351.3632      9.3559    112.6737
   311.0000      0.0000    351.2638      9.3353    112.5218
   311.2500      0.0000    351.0664      9.3240    110.0639
   311.5000      0.0000    350.8023      9.3188    106.2986
   311.7500      0.0000    350.5300      9.3238    103.0510
   312.0000      0.0000    350.3133      9.3465    101.2388
   312.2500      0.0000    350.1991      9.3871    100.1007
   312.5000      0.0000    350.2044      9.4352     98.2016
   312.7500      0.0000    350.3189      9.4833     95.0499
   313.0000      0.0000    350.5246      9.5439     91.6463
   313.2500      0.0000    350.8172      9.6461     89.5190
   313.5000      0.0000    351.2144      9.8057     89.2133
   313.7500      0.0000    351.7625      9.9888     89.6976
   314.0000      0.0000    352.5319     10.1047     89.2698
   314.2500      0.0000    353.5567     10.0549     87.0853
   314.5000      0.0000    354.7256      9.8088     83.8084
   314.7500      0.0000    355.7571      9.4364     80.8229
   315.0000      0.0000    356.3540      9.0622     78.9397
   315.2500      0.0000    356.4157      8.7921     77.9997
   315.5000      0.0000    356.1203      8.6668     77.7483
   315.7500      0.0000    355.8685      8.6590     78.8216
   316.0000      2.0000    356.3205      8.7085     82.2659
   316.2500     -2.0000    358.6434      8.7725     87.8620
   316.5000      0.0000    364.7531      8.8536     93.4898
   316.7500      0.0000    376.6805      8.9999     96.5514
   317.0000      0.0000    394.5555      9.2750     95.7734
   317.2500      0.0000    414.8326      9.6909     91.6166
   317.5000      0.0000    431.6454     10.1426     85.5117
   317.7500      0.0000    440.8872     10.4427     78.9910
   318.0000      0.0000    442.5239     10.4675     73.2290
   318.2500      0.0000    438.9373     10.2601     69.0992
   318.5000      0.0000    432.3952      9.9760     67.3241
   318.7500      0.0000    424.3948      9.7590     68.1362
   319.0000      0.0000    415.8893      9.6768     70.8081
   319.2500      0.0000    407.2322      9.7294     73.9108
   319.5000      0.0000    398.4826      9.8772     76.1800
   319.7500      0.0000    390.1860     10.0645     77.0969
   320.0000      0.0000    383.5811     10.2378     76.6576
   320.2500      0.0000    380.0046     10.3574     74.8457
   320.5000      0.0000    380.7459     10.3986     71.7131
   320.7500      0.0000    387.8578     10.3457     67.8969
   321.0000      0.0000    404.9577     10.1900     64.4922
   321.2500      0.0000    436.6739      9.9391     62.1788
   321.5000      0.0000    485.9515      9.6272     60.7764
   321.7500      0.0000    549.9887      9.3082     59.7476
   322.0000      0.0000    618.3019      9.0321     58.8857
   322.2500      0.0000    677.0038      8.8231     58.4826
   322.5000      0.0000    717.3879      8.6771     58.9892
   322.7500      0.0000    740.5357      8.5758     60.4833
   323.0000      0.0000    753.5823      8.5028     62.3914
   323.2500      0.0000    762.8424      8.4539     63.8580
   323.5000      0.0000    770.9679      8.4393     64.3591
   323.7500      0.0000    778.5387      8.4730     63.8005
   324.0000      0.0000    785.6940      8.5541     62.2493
   324.2500      0.0000    792.0601      8.6579     60.0447
   324.5000      0.0000    796.8438      8.7454     58.0746
   324.7500      0.0000    799.6826      8.7853     57.4172
   325.0000      0.0000    800.9884      8.7691     58.5070
