~Version Information
 VERS.                                  2.0 : CWLS LAS VERSION
 WRAP.                                   NO : WRAPING MODE
 SWARE .                 MController 2.5.0J : SOFTWARE VERSION
~Well Information
 WELL.                           State 16-14: WELL
 COMP.                       Petrogulf Corp : COMPANY
 FLD.                       Purgatoire River: FIELD
 LOC.                  SW/SW Sec16 T33S R67W: LOCATION
 DATE.                             11/04/04 : DATE(S) LOGGED
 SRVC.        BLanco Geological Services LLC: SERVICE COMPANY
 STAT.                                    CO: STATE
 CNTY.                           Las Animas : COUNTY
 CTRY.                                   USA: COUNTRY
 API.                           05-071-08034: API NUMBER
 STRT.FT                             659.00 : START DEPTH
 STOP.FT                            1890.00 : STOP DEPTH
 STEP.FT                               1.00 : DEPTH INCREMENT
 NULL.                                -9999 : NULL VALUE
~Curve information
 DEPTH.FT                                   :
 ROP.MIN/FT                                 :
 GAS.UNITS                                  :
~ASCII Log data
# ...
      1059.0         0.13         17.5 
      1060.0         0.13         17.5 
      1061.0         0.17         18.2 
      1062.0         0.13         18.2 
      1063.0         0.13         20.3 
      1064.0         0.10         11.0 
      1065.0         0.13         13.3 
      1066.0         0.13         13.3 
      1067.0         0.18         16.8 
      1068.0         0.23         19.1 
      1069.0         0.23         20.9 
      1070.0         0.17         20.4 
      1071.0         0.13         19.5 
      1072.0         0.27         19.0 
      1073.0         0.20         17.5 
      1074.0         0.10         15.5 
      1075.0         0.23         14.7 
      1076.0         0.32         14.4 
      1077.0         0.23         12.3 
      1078.0         0.17         11.3 
      1079.0         0.30         11.7 
      1080.0         0.23         11.5 
      1081.0         0.20         10.7 
      1082.0         0.20         10.2 
      1083.0         0.20         10.1 
      1084.0         0.17          9.7 
      1085.0         0.17          9.7 
      1086.0         0.17          9.4 
      1087.0         0.17          9.1 
      1088.0         0.27          9.5 
      1089.0         0.20          8.7 
      1090.0         0.23          8.0 
      1091.0         0.22          7.8 
      1092.0         0.17          7.6 
      1093.0         0.17          7.9 
      1094.0         0.20          7.1 
      1095.0         0.17          7.1 
      1096.0         0.17          8.6 
      1097.0         0.30          9.7 
      1098.0         0.30          9.2 
      1099.0         0.23         18.2 
      1100.0         0.20         18.2 
      1101.0         0.27         19.7 
      1102.0         0.17         19.3 
      1103.0         0.27         18.8 
      1104.0         0.27         16.6 
      1105.0         0.27         14.7 
      1106.0         0.45         14.5 
      1107.0         0.27         11.7 
      1108.0         0.23         10.8 
      1109.0         0.30         11.0 
      1110.0         0.27         10.3 
      1111.0         0.17         11.4 
      1112.0         0.32         15.1 
      1113.0         0.17         19.9 
      1114.0         0.13         20.9 
      1115.0         0.13         22.5 
      1116.0         0.13         23.9 
      1117.0         0.20         23.4 
      1118.0         0.20         21.2 
      1119.0         0.13         21.2 
      1120.0         0.20         20.7 
      1121.0         0.13         17.7 
      1122.0         0.17         17.9 
      1123.0         0.13         18.0 
      1124.0         0.17         22.1 
      1125.0         0.13         22.1 
      1126.0         0.13         23.6 
      1127.0         0.13         24.8 
      1128.0         0.13         10.9 
      1129.0         0.20         13.5 
      1130.0         0.20         15.4 
      1131.0         0.20         17.2 
      1132.0         0.22         25.9 
      1133.0         0.17         27.8 
      1134.0         0.10         31.5 
      1135.0         0.27         31.6 
      1136.0         0.33         28.4 
      1137.0         0.23         27.4 
      1138.0         0.17         24.8 
      1139.0         0.13         25.8 
      1140.0         0.10         23.9 
      1141.0         0.10         23.7 
      1142.0         0.10         23.7 
      1143.0         0.15         22.5 
      1144.0         0.27         21.5 
      1145.0         0.23         20.8 
      1146.0         0.27         20.0 
      1147.0         0.40         19.4 
      1148.0         0.33         18.7 
      1149.0         0.27         17.3 
      1150.0         0.27         16.4 
      1151.0         0.23         15.3 
      1152.0         0.23         12.8 
      1153.0         0.20         12.1 
      1154.0         0.17         11.9 
      1155.0         0.20         11.8 
      1156.0         0.17         16.5 
      1157.0         0.22         16.5 
      1158.0         0.17         20.4 
      1159.0         0.17         24.7 
      1160.0         0.17         24.7 
      1161.0         0.20         26.4 
      1162.0         0.17         26.4 
      1163.0         0.17         25.9 
      1164.0         0.23         24.2 
      1165.0         0.13         22.0 
      1166.0         0.10         22.0 
      1167.0         0.13         20.6 
      1168.0         0.30         17.5 
      1169.0         0.27         16.4 
      1170.0         0.23         13.5 
      1171.0         0.20         12.4 
      1172.0         0.20         12.0 
      1173.0         0.20         12.0 
      1174.0         0.20         11.7 
      1175.0         0.30         11.0 
      1176.0         0.35          9.6 
      1177.0         0.37          9.7 
      1178.0         0.20          9.0 
      1179.0         0.20          9.1 
      1180.0         0.23          8.5 
      1181.0         0.23          8.9 
      1182.0         0.27          8.7 
      1183.0         0.23          9.3 
      1184.0         0.23          9.5 
      1185.0         0.23          9.3 
      1186.0         0.23          9.1 
      1187.0         0.23          9.1 
      1188.0         0.27          7.8 
      1189.0         0.23          7.8 
      1190.0         0.32         13.7 
      1191.0         0.27         13.7 
      1192.0         0.33         14.9 
      1193.0         0.27         16.1 
      1194.0         0.27         14.6 
      1195.0         0.27         11.8 
      1196.0         0.53         11.2 
      1197.0         0.27         10.3 
      1198.0         0.33         10.1 
      1199.0         0.23         10.0 
      1200.0         0.27          8.5 
      1201.0         0.27          8.3 
      1202.0         0.38          9.6 
      1203.0         0.40          9.5 
      1204.0         0.30          9.5 
      1205.0         0.27          8.4 
      1206.0         0.27          8.8 
      1207.0         0.17          8.8 
      1208.0         0.20          9.0 
      1209.0         0.20          9.0 
      1210.0         0.17          8.9 
      1211.0         0.20          9.5 
      1212.0         0.17          9.5 
      1213.0         0.17          9.2 
      1214.0         0.17          9.2 
      1215.0         0.17          9.5 
      1216.0         0.13         12.8 
      1217.0         0.13         12.1 
      1218.0         0.18         12.6 
      1219.0         0.13         13.4 
      1220.0         0.10         13.4 
      1221.0         0.13         15.7 
      1222.0         0.13         15.7 
      1223.0         0.27         17.7 
      1224.0         0.27         20.4 
      1225.0         0.27         23.3 
      1226.0         0.27         25.0 
      1227.0         0.20         24.8 
      1228.0         0.27         23.2 
      1229.0         0.17         21.9 
      1230.0         0.25         20.8 
      1231.0         0.27         21.1 
      1232.0         0.23         18.2 
      1233.0         0.30         16.7 
      1234.0         0.43         14.8 
      1235.0         0.47         13.3 
      1236.0         0.37         13.9 
      1237.0         0.30         14.9 
      1238.0         0.30         13.0 
      1239.0         0.27         12.4 
      1240.0         0.23         11.6 
      1241.0         0.18         10.5 
      1242.0         0.17          9.8 
      1243.0         0.13          9.7 
      1244.0         0.13          9.4 
      1245.0         0.13          9.6 
      1246.0         0.17         13.0 
      1247.0         0.17          9.1 
      1248.0         0.17          9.1 
      1249.0         0.23          9.2 
      1250.0         0.23          7.4 
      1251.0         0.20          7.8 
      1252.0         0.20          8.6 
      1253.0         0.17          9.5 
      1254.0         0.17          9.5 
      1255.0         0.17         11.1 
      1256.0         0.17         13.2 
      1257.0         0.20         15.9 
      1258.0         0.30         17.3 
