~Version Information
VERS.                      2.0: CWLS Log ASCII Standard - VERSION 2.0
WRAP.                       NO: One line per depth step
~Well Information Block
STRT.FT                -3.0000: 
STOP.FT              1828.0000: 
STEP.FT                 0.2500: 
NULL.                -999.2500: 
COMP.          Pioneer Natural Resources: COMPANY
WELL.           Guajardo 24-16: WELL
FLD.           Purgatorie River: FIELD
LOC.           883' FSL & 2147' FWL--: LOCATION
PROV.                       CO: PROVINCE
CNTY.               Las Animas: COUNTRY
SRVC.          Patterson Wireline: SERVICE COMPANY
DATE.          Wed Aug 10 11:02:25 2005: LOG DATE
UWI.           05 071 08377 00: UNIQUE WELL ID
~Curve Information Block
DEPT.FT            0 000 00 00: Depth
CCL.                          : Casing Collar Locator
TT3.usec                      : CBL 3' Travel Time
AMP3.mV                       : CBL 3' Amplitude
GR.GAPI                       : Gamma Ray
~Parameter Information Block
~A  Depth       CCL         TT3         AMP3         GR     
# ...
  1571.5000      0.0000    671.0156      8.1294     59.7911
  1571.7500      0.0000    669.3224      8.1238     58.0956
  1572.0000      0.0000    668.4065      8.1202     56.9515
  1572.2500      0.0000    668.0106      8.1293     55.8444
  1572.5000      0.0000    667.8684      8.1503     54.9978
  1572.7500      0.0000    667.8704      8.1720     55.2744
  1573.0000      0.0000    668.1297      8.1779     56.9045
  1573.2500      0.0000    669.0554      8.1559     59.0371
  1573.5000      0.0000    671.2767      8.1067     60.8505
  1573.7500      0.0000    675.1475      8.0435     62.5842
  1574.0000      0.0000    680.0323      7.9801     65.1127
  1574.2500      0.0000    684.3561      7.9187     68.8774
  1574.5000      0.0000    686.9749      7.8498     73.5416
  1574.7500      0.0000    688.4897      7.7672     78.4004
  1575.0000      0.0000    690.6897      7.6854     82.8499
  1575.2500      0.0000    694.8621      7.6400     86.4403
  1575.5000      0.0000    701.1891      7.6630     88.6089
  1575.7500      0.0000    709.3383      7.7532     88.7326
  1576.0000      0.0000    718.8768      7.8757     86.7414
  1576.2500      0.0000    729.4215      7.9920     83.5303
  1576.5000      0.0000    740.7230      8.0831     80.5998
  1576.7500      0.0000    751.8970      8.1432     79.3499
  1577.0000      0.0000    760.4577      8.1616     80.6515
  1577.2500      0.0000    763.3589      8.1207     84.7467
  1577.5000      0.0000    759.6912      8.0158     91.2613
  1577.7500      0.0000    751.7463      7.8732     99.1882
  1578.0000      0.0000    743.0160      7.7479    106.9145
  1578.2500      0.0000    735.6099      7.6931    112.5048
  1578.5000      0.0000    729.7523      7.7235    114.3846
  1578.7500      0.0000    724.9826      7.8087    112.1874
  1579.0000      0.0000    721.3297      7.8996    107.0020
  1579.2500      0.0000    719.5305      7.9617    100.6732
  1579.5000      0.0000    720.2625      7.9875     94.9729
  1579.7500      0.0000    722.9024      7.9876     91.2786
  1580.0000      0.0000    725.0847      7.9763     90.1749
  1580.2500      0.0000    723.9039      7.9649     90.6779
  1580.5000      0.0000    717.9808      7.9612     90.4403
  1580.7500      0.0000    708.3573      7.9685     87.7316
  1581.0000      0.0000    697.3110      7.9848     83.1121
  1581.2500      0.0000    685.9910      8.0037     78.5133
  1581.5000      0.0000    672.6597      8.0162     75.1913
  1581.7500      0.0000    653.5494      8.0122     73.3396
  1582.0000      0.0000    626.8199      7.9842     73.1626
  1582.2500      0.0000    596.3386      7.9350     75.2820
  1582.5000      0.0000    570.8331      7.8793     79.9809
  1582.7500      0.0000    558.8764      7.8361     86.4259
  1583.0000      0.0000    564.5233      7.8182     92.7223
  1583.2500      0.0000    586.2057      7.8274     96.8226
  1583.5000      0.0000    617.7499      7.8581     97.7021
  1583.7500      0.0000    650.5569      7.9046     95.8264
  1584.0000      0.0000    677.0283      7.9669     92.6240
  1584.2500      0.0000    693.5876      8.0484     89.5944
  1584.5000      0.0000    701.0078      8.1494     87.5914
  1584.7500      0.0000    702.2941      8.2631     86.4370
  1585.0000      0.0000    700.4440      8.3764     85.2045
  1585.2500      0.0000    697.2378      8.4768     83.0980
  1585.5000      0.0000    692.9690      8.5574     80.2578
  1585.7500      0.0000    687.2556      8.6208     77.7741
  1586.0000      0.0000    680.6593      8.6756     76.7916
  1586.2500      0.0000    675.2506      8.7307     77.4581
  1586.5000      0.0000    672.5927      8.7918     78.7735
  1586.7500      0.0000    670.3362      8.8621     79.4413
  1587.0000      0.0000    661.0155      8.9432     78.8533
  1587.2500      0.0000    635.8845      9.0314     77.3617
  1587.5000      0.0000    592.0809      9.1147     75.7928
  1587.7500      0.0000    536.5807      9.1765     74.8310
  1588.0000      0.0000    482.0912      9.2045     74.8705
  1588.2500      0.0000    438.5695      9.1947     76.1596
  1588.5000      0.0000    408.7709      9.1459     78.7053
  1588.7500      0.0000    390.4298      9.0511     81.9798
  1589.0000      0.0000    380.6618      8.9029     84.9981
  1589.2500      0.0000    378.6783      8.7115     86.8582
  1589.5000      0.0000    387.0103      8.5165     87.2226
  1589.7500      0.0000    411.3843      8.3684     86.4063
  1590.0000      0.0000    457.0043      8.2827     85.1600
  1590.2500      0.0000    521.4226      8.2102     84.2687
  1590.5000      0.0000    591.0901      8.0812     83.9706
  1590.7500      0.0000    647.9205      7.8947     83.5495
  1591.0000      0.0000    680.7953      7.7346     81.7977
  1591.2500      0.0000    691.0400      7.6700     78.2085
  1591.5000      0.0000    689.3034      7.6696     73.6538
  1591.7500      2.0000    688.7843      7.6428     69.7897
  1592.0000     -2.0000    698.4322      7.5453     67.9846
  1592.2500      0.0000    718.5648      7.4310     68.7988
  1592.5000      0.0000    741.9418      7.4033     72.0118
  1592.7500      0.0000    759.3103      7.5036     76.6733
  1593.0000      0.0000    763.9813      7.6450     81.4661
  1593.2500      0.0000    751.8700      7.6960     85.5763
  1593.5000      0.0000    719.6461      7.6507     88.9962
  1593.7500      0.0000    666.1025      7.6570     91.6910
  1594.0000      0.0000    597.4874      7.8407     93.0004
  1594.2500      0.0000    530.8285      8.1577     92.2336
  1594.5000      0.0000    488.7361      8.4592     89.3746
  1594.7500      0.0000    487.2210      8.6475     85.0713
  1595.0000      0.0000    525.9058      8.7302     80.4957
  1595.2500      0.0000    588.7026      8.7658     77.1163
  1595.5000      0.0000    654.4099      8.7973     75.9037
  1595.7500      0.0000    708.1987      8.8268     76.5855
  1596.0000      0.0000    745.1566      8.8260     77.8998
  1596.2500      0.0000    766.2925      8.7670     78.5498
  1596.5000      0.0000    773.9221      8.6479     77.9075
  1596.7500      0.0000    770.3396      8.4977     76.1231
  1597.0000      0.0000    758.6924      8.3621     73.9181
  1597.2500      0.0000    743.5126      8.2830     72.2323
  1597.5000      0.0000    729.5742      8.2782     71.7533
  1597.7500      0.0000    719.8502      8.3372     72.5550
  1598.0000      0.0000    714.6138      8.4431     74.2358
  1598.2500      0.0000    712.4262      8.5879     76.3520
  1598.5000      0.0000    711.6470      8.7395     78.5536
  1598.7500      0.0000    711.1727      8.8087     80.4889
  1599.0000      0.0000    710.3493      8.7030     82.0464
  1599.2500      0.0000    708.5508      8.4335     83.5458
  1599.5000      0.0000    704.6979      8.1446     85.2116
  1599.7500      0.0000    697.0804      8.0184     86.6525
  1600.0000      0.0000    683.6763      8.1337     87.4199
  1600.2500      0.0000    663.2264      8.3853     87.8243
  1600.5000      0.0000    637.1863      8.5386     88.5996
  1600.7500      0.0000    611.2216      8.4188     89.9156
  1601.0000      0.0000    593.2344      8.0732     91.2095
  1601.2500      0.0000    587.9372      7.7139     91.8263
  1601.5000      0.0000    593.4756      7.4997     91.3521
  1601.7500      0.0000    602.9697      7.4313     89.5217
  1602.0000      0.0000    607.3567      7.4473     86.3469
  1602.2500      0.0000    598.3898      7.5284     82.4048
  1602.5000      0.0000    575.0475      7.6703     78.8420
  1602.7500      0.0000    549.1558      7.8260     77.0362
  1603.0000      0.0000    539.3416      7.9299     78.0605
  1603.2500      0.0000    554.1471      7.9589     82.1027
  1603.5000      0.0000    581.3021      7.9409     88.2066
  1603.7500      0.0000    596.0608      7.9130     94.5618
  1604.0000      0.0000    580.8583      7.8922     99.1681
  1604.2500      0.0000    537.7717      7.8774    100.5337
  1604.5000      0.0000    484.4969      7.8635     98.2407
  1604.7500      0.0000    440.3010      7.8486     93.1550
