~Version Information
VERS.                      2.0: CWLS Log ASCII Standard - VERSION 2.0
WRAP.                       NO: One line per depth step
~Well Information Block
STRT.FT               250.0000: 
STOP.FT              1573.7000: 
STEP.FT                 0.1000: 
NULL.                -999.2500: 
COMP.          Pioneer Natural Resources: COMPANY
WELL.          Big Cat Federal 44-1: WELL
FLD.           Purgatoire River: FIELD
LOC.           197' FSL & 973' FEL--: LOCATION
CNTY.               Las Animas: COUNTY
SRVC.                Patterson: SERVICE COMPANY
DATE.          Mon Apr 24 08:33:37 2006: LOG DATE
UWI.           05 071 08042 00: UNIQUE WELL ID
STAT.                 Colorado: STATE
~Curve Information Block
DEPT.FT            0 000 00 00: Depth
DCAL.in                       : CDL Caliper
RHOB.g/cc                     : CDL Bulk Density
RHOC.g/cc                     : CDL Density Correction
DPOR.pu                       : CDL Density Porosity
NPOR.pu                       : Neutron Porosity
GR.GAPI                       : Gamma Ray
~Parameter Information Block
~A  Depth       DCAL        RHOB        RHOC        DPOR        NPOR         GR     
# ...
   941.2000      7.8786      2.5916      0.1079      3.5393     25.0694    137.1310
   941.3000      7.8833      2.5839      0.0596      4.0064     25.0115    135.2651
   941.4000      7.8833      2.5602      0.0218      5.4403     24.6436    134.0659
   941.5000      7.8889      2.5491      0.0096      6.1179     23.9161    131.5721
   941.6000      7.8889      2.5620      0.0602      5.3308     23.3936    130.5540
   941.7000      7.8889      2.5843      0.0840      3.9834     23.5425    133.2053
   941.8000      7.8926      2.6042      0.0466      2.7735     23.9267    135.7892
   941.9000      7.8926      2.6129      0.1250      2.2457     24.0564    135.1560
   942.0000      7.8922      2.5976      0.0952      3.1739     23.8377    129.6453
   942.1000      7.8922      2.5724     -0.0002      4.7017     23.2976    118.8757
   942.2000      7.8922      2.5642      0.0424      5.1975     22.7002    108.3315
   942.3000      7.8898      2.5722      0.0336      4.7163     22.4812    101.9985
   942.4000      7.8898      2.5828      0.0280      4.0714     22.5918     96.8626
   942.5000      7.8886      2.5952      0.0115      3.3191     22.5416     90.2606
   942.6000      7.8886      2.6135      0.0475      2.2146     22.2693     86.4511
   942.7000      7.8886      2.6289      0.0623      1.2815     22.2496     89.5995
   942.8000      7.8867      2.6305      0.0637      1.1813     22.7783     95.2475
   942.9000      7.8867      2.6198      0.0648      1.8275     23.5350     98.0655
   943.0000      7.8834      2.6012      0.0578      2.9577     24.1425     99.1362
   943.1000      7.8834      2.5787      0.0493      4.3208     24.5406    100.1575
   943.2000      7.8834      2.5645      0.0175      5.1792     24.6499     99.8353
   943.3000      7.8829      2.5701      0.0483      4.8399     24.5619    100.1060
   943.4000      7.8829      2.5886      0.0593      3.7211     24.4216    103.8523
   943.5000      7.8859      2.6016      0.0919      2.9318     24.1550    109.1248
   943.6000      7.8859      2.6003      0.0437      3.0138     23.8354    112.7533
   943.7000      7.8859      2.5924      0.0353      3.4901     23.6426    114.1236
   943.8000      7.8900      2.5916      0.0197      3.5406     23.4426    116.3347
   943.9000      7.8900      2.6021      0.0358      2.9058     23.0151    120.2717
   944.0000      7.8920      2.6131      0.0614      2.2391     22.7422    122.1124
   944.1000      7.8920      2.6093      0.0524      2.4673     23.0283    121.8391
   944.2000      7.8920      2.5910      0.0276      3.5777     23.3518    121.8635
   944.3000      7.8942      2.5728     -0.0174      4.6770     23.0097    122.7586
   944.4000      7.8942      2.5604      0.0301      5.4319     22.2862    122.7429
   944.5000      7.8963      2.5532     -0.0069      5.8641     21.9572    117.3618
   944.6000      7.8963      2.5554      0.0027      5.7313     22.1375    107.9012
   944.7000      7.8963      2.5555      0.0460      5.7248     22.2551    101.8682
   944.8000      7.8957      2.5420      0.0039      6.5483     22.3732    100.1278
   944.9000      7.8957      2.5299     -0.0022      7.2783     22.8134     98.8204
   945.0000      7.8934      2.5314      0.0011      7.1898     23.1494     99.3510
   945.1000      7.8934      2.5393      0.0150      6.7105     23.0530    104.0805
   945.2000      7.8934      2.5469      0.0042      6.2481     22.7870    109.4066
   945.3000      7.8916      2.5504      0.0610      6.0388     22.7174    112.9243
   945.4000      7.8916      2.5591      0.0246      5.5119     22.8350    113.7914
   945.5000      7.8931      2.5896      0.0505      3.6629     23.0771    109.8250
   945.6000      7.8931      2.6232      0.1173      1.6233     23.6128    102.2278
   945.7000      7.8931      2.6257      0.1062      1.4737     24.3822     94.9722
   945.8000      7.8964      2.6048      0.0506      2.7368     24.8179     92.7022
   945.9000      7.8964      2.5940      0.0298      3.3910     24.4276     94.1811
   946.0000      7.8992      2.5979      0.0273      3.1586     23.8076     94.3606
   946.1000      7.8992      2.5951      0.0469      3.3297     23.8406     95.9721
   946.2000      7.8992      2.5779      0.0414      4.3713     24.3179    102.8837
   946.3000      7.8996      2.5555      0.0555      5.7268     24.3427    109.4253
   946.4000      7.8996      2.5393      0.0164      6.7110     23.9028    110.0183
   946.5000      7.8967      2.5387     -0.0099      6.7440     23.7230    107.7565
   946.6000      7.8967      2.5553      0.0320      5.7402     23.9748    106.7258
   946.7000      7.8967      2.5875      0.0245      3.7871     24.3226    108.3031
   946.8000      7.8950      2.6317      0.0931      1.1121     24.6073    111.3715
   946.9000      7.8950      2.6720      0.1232     -1.3354     24.8774    115.1576
   947.0000      7.8950      2.6953      0.1214     -2.7446     25.1834    119.1716
   947.1000      7.8950      2.6998      0.1493     -3.0200     25.3978    119.5835
   947.2000      7.8950      2.6938      0.1198     -2.6549     25.5658    111.8268
   947.3000      7.8935      2.6965      0.0741     -2.8212     26.1214     97.6593
   947.4000      7.8935      2.7171      0.0926     -4.0691     27.2441     85.4784
   947.5000      7.8921      2.7329      0.1577     -5.0236     28.5683     81.5534
   947.6000      7.8921      2.7168      0.1301     -4.0501     29.6427     83.8113
   947.7000      7.8921      2.6678      0.0798     -1.0781     30.0719     88.1656
   947.8000      7.8930      2.6070     -0.0033      2.6062     29.6856     93.4056
   947.9000      7.8930      2.5619     -0.0123      5.3423     28.7291     98.0671
   948.0000      7.8943      2.5445     -0.0325      6.3926     27.9410    100.5403
   948.1000      7.8943      2.5532     -0.0055      5.8668     27.9332    102.3383
   948.2000      7.8943      2.5820      0.0781      4.1210     28.0594    104.5571
   948.3000      7.8937      2.6183      0.1212      1.9201     27.4656    105.5238
   948.4000      7.8937      2.6466      0.1143      0.2061     26.5881    102.1960
   948.5000      7.8934      2.6550      0.0929     -0.3027     26.0229     92.7294
   948.6000      7.8934      2.6391      0.0588      0.6598     25.7267     82.9973
   948.7000      7.8934      2.6119      0.0400      2.3061     25.5854     79.7832
   948.8000      7.8948      2.5994     -0.0271      3.0693     25.5904     82.5443
   948.9000      7.8948      2.6094      0.0445      2.4626     25.7871     88.5315
   949.0000      7.8954      2.6218      0.0729      1.7095     26.2325     96.6034
   949.1000      7.8954      2.6213      0.0064      1.7373     26.5733    105.8489
   949.2000      7.8954      2.6085      0.0424      2.5149     26.4974    114.3774
   949.3000      7.8964      2.5882      0.0481      3.7478     26.2600    121.7234
   949.4000      7.8964      2.5759      0.0015      4.4922     26.0916    126.6941
   949.5000      7.8953      2.5791      0.0177      4.2957     25.8865    125.6389
   949.6000      7.8953      2.5825      0.0327      4.0880     25.4654    121.1327
   949.7000      7.8953      2.5805      0.0351      4.2124     24.7058    118.1363
   949.8000      7.8919      2.5850      0.0301      3.9392     23.8757    114.9996
   949.9000      7.8919      2.5942      0.0507      3.3833     23.3611    113.0547
   950.0000      7.8899      2.5910      0.0756      3.5732     23.0163    117.8284
   950.1000      7.8899      2.5718      0.0562      4.7395     22.6553    123.2519
   950.2000      7.8899      2.5548     -0.0025      5.7700     22.7257    121.1969
   950.3000      7.8904      2.5588      0.0163      5.5300     23.2403    116.8155
   950.4000      7.8904      2.5812      0.0464      4.1673     23.4533    115.0885
   950.5000      7.8914      2.6063      0.0571      2.6466     23.3400    114.2021
   950.6000      7.8914      2.6220      0.0802      1.6985     23.3226    114.0968
   950.7000      7.8914      2.6249      0.0435      1.5198     23.2925    117.7035
