~Version Information
VERS.                      2.0: CWLS Log ASCII Standard - VERSION 2.0
WRAP.                       NO: One line per depth step
~Well Information Block
STRT.FT                -7.5000: 
STOP.FT              1877.2500: 
STEP.FT                 0.2500: 
NULL.                -999.2500: 
COMP.          Pioneer Natural Resources: COMPANY
WELL.            Nova 11-14 Tr: WELL
FLD.           Purgatorie River: FIELD
LOC.           706' FNL & 1109' FWL--: LOCATION
PROV.                       CO: PROVINCE
CNTY.               Las Animas: COUNTRY
SRVC.          Patterson Wireline: SERVICE COMPANY
DATE.          Tue Jul 26 15:08:01 2005: LOG DATE
UWI.           05 071 08434 00: UNIQUE WELL ID
~Curve Information Block
DEPT.FT            0 000 00 00: Depth
CCL.                          : Casing Collar Locator
TT3.usec                      : CBL 3' Travel Time
AMP3.mV                       : CBL 3' Amplitude
GR.GAPI                       : Gamma Ray
~Parameter Information Block
~A  Depth       CCL         TT3         AMP3         GR     
# ...
   595.5000      0.0000    740.6357      8.7128     82.4817
   595.7500      0.0000    740.2906      9.0609     81.2680
   596.0000      0.0000    749.8734      9.4843     80.2723
   596.2500      0.0000    763.2725      9.9160     80.0327
   596.5000      0.0000    775.1429     10.2713     80.7536
   596.7500      0.0000    782.7654     10.4898     82.1930
   597.0000      0.0000    785.5144     10.5674     84.0690
   597.2500      0.0000    783.9618     10.5539     86.4174
   597.5000      0.0000    779.4886     10.5180     89.1173
   597.7500      0.0000    774.0014     10.5110     91.1002
   598.0000      0.0000    769.7733     10.5568     90.7475
   598.2500      0.0000    769.6625     10.6605     87.5147
   598.5000      0.0000    776.9071     10.8100     82.7788
   598.7500      0.0000    793.3546     10.9628     78.7236
   599.0000      0.0000    816.6360     11.0365     76.5204
   599.2500      0.0000    840.1044     10.9328     75.7118
   599.5000      0.0000    857.9895     10.5964     75.0978
   599.7500      0.0000    869.6311     10.0667     73.9418
   600.0000      0.0000    875.6539      9.4706     72.3909
   600.2500      0.0000    872.4622      8.9514     71.1577
   600.5000      0.0000    855.5306      8.5902     70.9500
   600.7500      0.0000    826.0726      8.3864     71.9173
   601.0000      0.0000    789.6283      8.3073     73.5753
   601.2500      0.0000    750.5058      8.3416     75.4186
   601.5000      0.0000    711.9080      8.5010     77.5426
   601.7500      0.0000    678.7687      8.7744     80.5335
   602.0000      0.0000    656.1013      9.0929     84.6555
   602.2500      0.0000    645.4005      9.3483     88.9873
   602.5000      0.0000    644.2986      9.4607     91.6004
   602.7500      0.0000    648.7138      9.4336     91.2015
   603.0000      0.0000    654.6805      9.3443     88.5289
   603.2500      0.0000    659.5305      9.2818     85.6256
   603.5000      0.0000    662.4745      9.2909     83.9382
   603.7500      0.0000    664.1321      9.3605     83.4391
   604.0000      0.0000    665.6584      9.4500     83.0557
   604.2500      0.0000    668.2996      9.5206     81.5674
   604.5000      0.0000    673.1308      9.5528     78.5855
   604.7500      0.0000    680.5436      9.5432     75.0434
   605.0000      0.0000    689.5575      9.4922     72.5864
   605.2500      0.0000    696.9844      9.3986     72.3760
   605.5000      0.0000    697.3713      9.2641     74.3497
   605.7500      0.0000    685.4517      9.1011     77.4224
   606.0000      0.0000    660.6074      8.9384     80.3381
   606.2500      0.0000    629.4315      8.8212     82.4004
   606.5000      0.0000    602.6563      8.7986     83.6174
   606.7500      0.0000    588.1558      8.8890     84.4561
   607.0000      0.0000    586.8038      9.0493     85.3543
   607.2500      0.0000    595.4540      9.1864     86.0677
   607.5000      0.0000    612.7951      9.2249     85.5554
   607.7500      0.0000    640.0615      9.1643     83.0453
   608.0000      0.0000    675.8611      9.0571     79.4076
   608.2500      0.0000    713.1611      8.9356     77.0292
   608.5000      0.0000    743.3915      8.7858     77.8970
   608.7500      0.0000    762.4413      8.5943     81.8312
   609.0000      0.0000    771.8480      8.3966     86.5979
   609.2500      0.0000    775.5587      8.2665     89.3257
   609.5000      0.0000    776.8077      8.2678     87.7654
   609.7500      0.0000    777.2558      8.4154     81.2500
   610.0000      0.0000    777.4893      8.6648     71.4423
   610.2500      0.0000    777.6453      8.9324     61.8341
   610.5000      0.0000    777.7385      9.1419     55.5974
   610.7500      0.0000    777.7919      9.2620     53.4990
   611.0000      0.0000    777.8674      9.3031     53.8006
   611.2500      0.0000    778.0272      9.2897     54.0088
   611.5000      0.0000    778.2799      9.2477     52.6808
   611.7500      0.0000    778.5707      9.2085     49.9038
   612.0000      0.0000    778.8182      9.2031     46.6561
   612.2500      0.0000    778.9637      9.2450     44.0117
   612.5000      0.0000    779.0023      9.3266     42.6739
   612.7500      0.0000    778.9710      9.4298     42.9226
   613.0000      0.0000    778.9152      9.5343     44.7832
   613.2500      0.0000    778.8772      9.6173     47.9532
   613.5000      0.0000    778.9094      9.6569     51.5288
   613.7500      0.0000    779.0651      9.6444     54.2323
   614.0000      0.0000    779.3676      9.5956     55.2698
   614.2500      0.0000    779.7943      9.5437     55.0179
   614.5000      0.0000    780.4882      9.5190     54.7150
   614.7500      0.0000    782.1219      9.5287     55.5199
   615.0000      0.0000    786.0176      9.5532     58.0352
   615.2500      0.0000    792.8402      9.5636     62.3670
   615.5000      0.0000    799.5135      9.5459     67.9849
   615.7500      0.0000    797.6587      9.5114     73.6717
   616.0000      0.0000    778.5547      9.4811     78.2170
   616.2500      0.0000    742.4233      9.4666     81.1399
   616.5000      0.0000    701.1883      9.4713     82.6077
   616.7500      0.0000    670.4155      9.5048     83.1770
   617.0000      0.0000    659.5403      9.5765     83.8343
   617.2500      0.0000    668.9323      9.6552     85.5314
   617.5000      0.0000    692.5652      9.6290     88.1577
   617.7500      0.0000    723.0899      9.3232     90.4884
   618.0000      0.0000    756.0563      8.6096     91.5266
   618.2500      0.0000    787.6065      7.5399     91.4866
   618.5000      0.0000    807.9543      6.3624     91.1157
   618.7500      0.0000    804.3168      5.3728     90.4251
   619.0000      0.0000    776.4717      4.7333     88.4864
   619.2500      2.0000    745.1392      4.4322     84.3242
   619.5000      0.0000    737.6362      4.3894     77.8208
   619.7500      0.0000    763.6140      4.5798     70.0503
   620.0000      0.0000    805.9077      5.0675     62.9799
   620.2500      0.0000    834.7392      5.9241     58.5847
   620.5000      0.0000    831.3712      7.0889     57.9342
   620.7500      0.0000    799.9274      8.3024     60.9713
   621.0000      0.0000    758.2568      9.2242     66.8513
   621.2500      0.0000    720.8372      9.6551     74.2264
   621.5000      0.0000    692.0094      9.6432     81.4215
   621.7500      0.0000    670.8737      9.3886     86.7601
   622.0000      0.0000    656.5437      9.0814     88.9218
   622.2500      0.0000    648.4420      8.8228     87.3195
   622.5000      0.0000    644.7953      8.6365     82.7657
   622.7500      0.0000    642.7535      8.5037     77.9266
   623.0000      0.0000    640.1407      8.3886     76.2268
   623.2500      0.0000    636.6835      8.2624     79.2671
   623.5000      0.0000    633.4186      8.1194     85.2663
   623.7500      0.0000    631.2209      7.9775     90.6267
   624.0000      0.0000    630.1554      7.8602     93.2022
   624.2500      0.0000    629.8093      7.7806     93.7709
   624.5000      0.0000    629.7609      7.7338     94.5212
   624.7500      0.0000    629.7646      7.7028     96.8431
   625.0000      0.0000    629.7178      7.6706    100.6694
   625.2500      0.0000    629.5893      7.6303    105.0393
   625.5000      0.0000    629.3657      7.5870    108.6173
   625.7500      0.0000    629.0339      7.5521    109.9770
   626.0000      0.0000    628.5333      7.5344    108.0485
   626.2500      0.0000    627.5943      7.5324    102.8381
   626.5000      0.0000    625.5763      7.5374     96.0096
   626.7500      0.0000    621.8278      7.5460     90.3727
   627.0000      0.0000    617.2515      7.5715     87.9220
   627.2500      0.0000    616.3124      7.6453     87.9782
   627.5000      0.0000    626.4052      7.8010     87.5878
   627.7500      0.0000    652.7162      8.0459     84.2805
   628.0000      0.0000    692.6837      8.3434     78.6355
   628.2500      0.0000    736.4590      8.6315     73.8374
   628.5000      0.0000    773.0493      8.8654     72.4388
   628.7500      0.0000    795.8943      9.0408     73.8389
