~Version Information
VERS.                      2.0: CWLS Log ASCII Standard - VERSION 2.0
WRAP.                       NO: One line per depth step
~Well Information Block
STRT.FT               748.2500: 
STOP.FT              2498.5000: 
STEP.FT                 0.2500: 
NULL.                -999.2500: 
COMP.          Petrogulf Corporation: COMPANY
WELL.           Montoya 13-41V: WELL
FLD.           Purgatorie River: FIELD
LOC.           449' FNL & 891' FEL: LOCATION
CNTY.               Las Animas: COUNTY
SRVC.                         : SERVICE COMPANY
DATE.          Tue Aug 17 13:22:31 2004: LOG DATE
UWI.           05 071 08021 00: UNIQUE WELL ID
STAT.                 Colorado: STATE
~Curve Information Block
DEPT.FT            0 000 00 00: Depth
SP.mV                         : DIL Spontaneous Potential
RILD.Ohm-m                    : DIL Deep Resistivity
RILM.Ohm-m                    : DIL Medium Resistivity
RLL3.Ohm-m                    : DIL Shallow Resistivity
GR.GAPI                       : Gamma Ray
~Parameter Information Block
~A  Depth        SP         RILD        RILM        RLL3         GR     
# ...
  2120.2500     70.1753     28.5647     32.1397     39.3013     50.7173
  2120.5000     69.8779     28.7304     32.7761     38.3828     51.1632
  2120.7500     69.5958     28.6282     33.2196     37.5507     50.6980
  2121.0000     69.3191     28.3562     33.4807     36.8016     49.3004
  2121.2500     69.0455     28.0122     33.5802     36.1859     48.6827
  2121.5000     68.7799     27.6661     33.5420     35.7388     49.5913
  2121.7500     68.5320     27.3547     33.3901     35.4369     51.5774
  2122.0000     68.3136     27.0920     33.1473     35.2070     55.2797
  2122.2500     68.1348     26.8826     32.8368     34.9705     56.9539
  2122.5000     68.0018     26.7302     32.4838     34.6810     56.8796
  2122.7500     67.9147     26.6381     32.1168     34.3274     55.3308
  2123.0000     67.8678     26.6087     31.7655     33.9127     52.4678
  2123.2500     67.8508     26.6439     31.4596     33.4380     51.1595
  2123.5000     67.8503     26.7490     31.2252     32.9112     50.5848
  2123.7500     67.8537     26.9325     31.0844     32.3639     50.8237
  2124.0000     67.8510     27.2019     31.0537     31.8551     51.4187
  2124.2500     67.8376     27.5556     31.1454     31.4564     51.6851
  2124.5000     67.8148     27.9768     31.3692     31.2351     51.4895
  2124.7500     67.7895     28.4353     31.7331     31.2478     50.8027
  2125.0000     67.7718     28.9003     32.2446     31.5504     49.1392
  2125.2500     67.7726     29.3583     32.9112     32.2169     48.0708
  2125.5000     67.8010     29.8248     33.7388     33.3610     47.3793
  2125.7500     67.8622     30.3436     34.7301     35.1472     47.6333
  2126.0000     67.9575     30.9748     35.8810     37.7830     48.3683
  2126.2500     68.0843     31.7826     37.1768     41.4834     48.4832
  2126.5000     68.2381     32.8261     38.5873     46.4020     47.6623
  2126.7500     68.4138     34.1546     40.0645     52.5229     46.7901
  2127.0000     68.6061     35.7983     41.5419     59.5252     46.0983
  2127.2500     68.8096     37.7533     42.9399     66.6795     46.5228
  2127.5000     69.0187     39.9594     44.1757     72.8827     48.6020
  2127.7500     69.2259     42.2847     45.1773     76.9158     50.7490
  2128.0000     69.4222     44.5304     45.8973     77.8806     54.6481
  2128.2500     69.5973     46.4689     46.3198     75.6046     57.3175
  2128.5000     69.7404     47.9115     46.4592     70.7542     60.4288
  2128.7500     69.8424     48.7706     46.3511     64.5547     61.3076
  2129.0000     69.8976     49.0781     46.0387     58.2826     60.5079
  2129.2500     69.9053     48.9469     45.5621     52.8366     58.9633
  2129.5000     69.8703     48.5118     44.9508     48.6011     56.3502
  2129.7500     69.8028     47.8863     44.2231     45.5762     54.9805
  2130.0000     69.7165     47.1491     43.3900     43.5890     53.6536
  2130.2500     69.6266     46.3509     42.4614     42.4275     52.8708
  2130.5000     69.5475     45.5225     41.4524     41.8688     50.9513
  2130.7500     69.4904     44.6815     40.3863     41.6707     49.0051
  2131.0000     69.4625     43.8414     39.2950     41.5881     45.8074
  2131.2500     69.4660     43.0213     38.2151     41.4188     44.1838
  2131.5000     69.4988     42.2535     37.1839     41.0476     43.2349
  2131.7500     69.5555     41.5777     36.2349     40.4687     43.4895
  2132.0000     69.6293     41.0287     35.3945     39.7836     44.3017
  2132.2500     69.7132     40.6274     34.6808     39.1768     44.5442
  2132.5000     69.8015     40.3828     34.1021     38.8650     44.1237
  2132.7500     69.8908     40.2998     33.6575     39.0259     43.6172
  2133.0000     69.9810     40.3797     33.3366     39.7312     43.1481
  2133.2500     70.0752     40.6120     33.1207     40.9179     43.0224
  2133.5000     70.1797     40.9638     32.9846     42.4065     42.5409
  2133.7500     70.3026     41.3817     32.9003     43.9470     41.7787
  2134.0000     70.4520     41.8077     32.8408     45.2611     40.0899
  2134.2500     70.6332     42.1990     32.7844     46.0717     38.8496
  2134.5000     70.8469     42.5353     32.7178     46.1360     37.2917
  2134.7500     71.0878     42.8104     32.6369     45.3003     36.7776
  2135.0000     71.3444     43.0190     32.5451     43.5674     37.4693
  2135.2500     71.6010     43.1560     32.4512     41.1443     39.2114
  2135.5000     71.8399     43.2234     32.3652     38.4343     43.6592
  2135.7500     72.0445     43.2344     32.2965     35.9568     47.3321
  2136.0000     72.2018     43.2016     32.2516     34.2009     52.4947
  2136.2500     72.3045     43.1191     32.2333     33.4505     54.9664
  2136.5000     72.3512     42.9501     32.2408     33.6558     56.8435
  2136.7500     72.3463     42.6372     32.2695     34.4319     57.2755
  2137.0000     72.2987     42.1275     32.3102     35.2186     57.9232
  2137.2500     72.2206     41.3981     32.3478     35.5369     58.9992
  2137.5000     72.1261     40.4622     32.3595     35.2148     61.9824
  2137.7500     72.0307     39.3540     32.3126     34.4610     64.5030
  2138.0000     71.9506     38.1045     32.1632     33.7534     67.6333
  2138.2500     71.9018     36.7231     31.8573     33.6125     68.5530
  2138.5000     71.8990     35.1952     31.3364     34.3733     68.0393
  2138.7500     71.9551     33.4966     30.5465     36.0534     66.8904
  2139.0000     72.0794     31.6189     29.4529     38.3530     64.6877
  2139.2500     72.2771     29.5916     28.0534     40.7733     63.0415
  2139.5000     72.5486     27.4880     26.3881     42.8104     60.4892
  2139.7500     72.8887     25.4082     24.5356     44.1378     59.0624
  2140.0000     73.2872     23.4482     22.5990     44.6617     58.1011
  2140.2500     73.7281     21.6747     20.6845     44.3950     58.5551
  2140.5000     74.1915     20.1150     18.8818     43.2474     61.0974
  2140.7500     74.6543     18.7636     17.2536     40.9505     64.1823
  2141.0000     75.0931     17.5961     15.8330     37.2480     71.5259
  2141.2500     75.4871     16.5825     14.6288     32.2290     78.6596
  2141.5000     75.8212     15.6953     13.6321     26.4985     92.5190
  2141.7500     76.0883     14.9120     12.8232     20.9941    102.7929
  2142.0000     76.2905     14.2147     12.1772     16.5666    116.8678
  2142.2500     76.4381     13.5905     11.6678     13.6310    123.9520
  2142.5000     76.5475     13.0325     11.2690     12.1017    130.4234
  2142.7500     76.6381     12.5412     10.9573     11.5791    132.3953
  2143.0000     76.7287     12.1227     10.7123     11.6084    132.7804
  2143.2500     76.8350     11.7855     10.5175     11.8572    131.7224
  2143.5000     76.9665     11.5364     10.3607     12.1659    129.2970
  2143.7500     77.1263     11.3778     10.2343     12.5029    128.2034
  2144.0000     77.3100     11.3070     10.1348     12.8797    128.8883
  2144.2500     77.5066     11.3173     10.0630     13.2718    131.0753
  2144.5000     77.6999     11.3996     10.0233     13.5867    136.2609
  2144.7500     77.8705     11.5441     10.0223     13.6961    140.4766
  2145.0000     77.9987     11.7418     10.0684     13.5202    147.4352
  2145.2500     78.0670     11.9851     10.1705     13.1072    152.2922
  2145.5000     78.0632     12.2688     10.3367     12.6413    158.8237
  2145.7500     77.9823     12.5888     10.5739     12.3609    161.4404
  2146.0000     77.8271     12.9416     10.8873     12.4462    160.7907
  2146.2500     77.6077     13.3238     11.2795     12.9592    157.1687
  2146.5000     77.3391     13.7333     11.7506     13.8657    148.6677
  2146.7500     77.0387     14.1706     12.2983     15.0970    142.2603
  2147.0000     76.7219     14.6406     12.9174     16.5890    132.6226
  2147.2500     76.4004     15.1509     13.6004     18.2799    126.0826
  2147.5000     76.0797     15.7106     14.3374     20.0924    115.9704
  2147.7500     75.7588     16.3267     15.1161     21.9273    109.4393
  2148.0000     75.4317     17.0020     15.9217     23.6702    100.8899
