~Version Information
VERS.                      2.0: CWLS Log ASCII Standard - VERSION 2.0
WRAP.                       NO: One line per depth step
~Well Information Block
STRT.FT               240.0000: 
STOP.FT               966.2000: 
STEP.FT                 0.1000: 
NULL.                -999.2500: 
COMP.          Pioneer Natural Resources: COMPANY
WELL.          New Mexico 21-5: WELL
FLD.           Purgatoire River: FIELD
LOC.           175' FNL & 1700' FWL: LOCATION
PROV.                 Colorado: PROVINCE
CNTY.               Las Animas: COUNTRY
SRVC.                Patterson: SERVICE COMPANY
DATE.          Mon Dec 13 06:55:26 2004: LOG DATE
UWI.           05 071 08234 00: UNIQUE WELL ID
~Curve Information Block
DEPT.FT            0 000 00 00: Depth
DCAL.in                       : CDL Caliper
RHOB.g/cc                     : CDL Bulk Density
RHOC.g/cc                     : CDL Density Correction
DPOR.pu                       : CDL Density Porosity
NPOR.pu                       : Neutron Porosity
GR.GAPI                       : Gamma Ray
~Parameter Information Block
~A  Depth       DCAL        RHOB        RHOC        DPOR        NPOR         GR     
# ...
   470.4000      8.0095      2.5204      0.0916      7.8515     21.7852    127.9773
   470.5000      8.0033      2.5482      0.1161      6.1706     21.9829    125.4634
   470.6000      8.0033      2.5699      0.1053      4.8570     22.2504    121.2472
   470.7000      8.0033      2.5808      0.1205      4.1918     22.4924    116.0617
   470.8000      7.9941      2.5794      0.1266      4.2816     22.5218    109.2164
   470.9000      7.9941      2.5690      0.0973      4.9115     22.1402    101.7356
   471.0000      7.9894      2.5574      0.0761      5.6114     21.7781     96.3215
   471.1000      7.9894      2.5523      0.0306      5.9185     21.8515     95.4771
   471.2000      7.9894      2.5574      0.0420      5.6107     21.9839     98.9086
   471.3000      7.9888      2.5702      0.0655      4.8336     21.9408    102.6423
   471.4000      7.9888      2.5879      0.0620      3.7619     22.2324    103.9801
   471.5000      7.9894      2.6011      0.1190      2.9648     22.8635    103.8849
   471.6000      7.9894      2.5979      0.0671      3.1549     23.3478    105.8006
   471.7000      7.9894      2.5836      0.0568      4.0253     23.6831    110.6252
   471.8000      7.9909      2.5747      0.0372      4.5664     23.7360    112.9848
   471.9000      7.9909      2.5773      0.0666      4.4041     23.2881    111.0507
   472.0000      7.9929      2.5803      0.0828      4.2218     22.8312    108.0375
   472.1000      7.9929      2.5762      0.0543      4.4703     22.7163    104.8562
   472.2000      7.9929      2.5722      0.0274      4.7157     22.7004    102.6339
   472.3000      7.9943      2.5743      0.0771      4.5883     22.6536    101.9380
   472.4000      7.9943      2.5807      0.0638      4.1995     22.4164    100.8020
   472.5000      7.9946      2.5845      0.0754      3.9674     21.9434     98.0576
   472.6000      7.9946      2.5777      0.0451      4.3846     21.5564     96.1502
   472.7000      7.9946      2.5569      0.0695      5.6413     21.6401     97.1402
   472.8000      7.9857      2.5287      0.0271      7.3519     22.2642     98.4185
   472.9000      7.9857      2.5045      0.0530      8.8206     22.9440     96.2322
   473.0000      7.9675      2.4832      0.0461     10.1092     23.1474     91.4048
   473.1000      7.9675      2.4667      0.0337     11.1099     22.9255     88.2829
   473.2000      7.9675      2.4689      0.0480     10.9734     22.7203     88.5563
   473.3000      7.9543      2.4879      0.0541      9.8258     22.7571     90.5245
   473.4000      7.9543      2.5089      0.0842      8.5485     23.0678     92.3185
   473.5000      7.9500      2.5317      0.0701      7.1667     23.5696     93.6140
   473.6000      7.9500      2.5623      0.1214      5.3142     24.0515     93.4459
   473.7000      7.9500      2.5939      0.1297      3.4030     24.3165     90.6401
   473.8000      7.9494      2.6098      0.1502      2.4357     24.1282     85.7883
   473.9000      7.9494      2.5975      0.1441      3.1844     23.6580     82.4911
   474.0000      7.9510      2.5651      0.0839      5.1477     23.3355     84.1654
   474.1000      7.9510      2.5357      0.0508      6.9275     23.1875     89.3957
   474.2000      7.9510      2.5260      0.0411      7.5137     23.0611     94.4170
   474.3000      7.9616      2.5396      0.0458      6.6907     23.0382     97.1303
   474.4000      7.9616      2.5625      0.0756      5.3012     23.2588     98.0019
   474.5000      7.9839      2.5784      0.0778      4.3391     23.4887     98.1369
   474.6000      7.9839      2.5904      0.0475      3.6104     23.4893     98.1143
   474.7000      7.9839      2.6072      0.0913      2.5934     23.3184     96.5982
   474.8000      8.0003      2.6244      0.0765      1.5493     23.1802     94.8615
   474.9000      8.0003      2.6317      0.0853      1.1067     23.4324     98.4974
   475.0000      8.0037      2.6241      0.0395      1.5696     23.8804    106.5451
   475.1000      8.0037      2.6091      0.0411      2.4786     23.8754    111.2918
   475.2000      8.0037      2.5980      0.0264      3.1502     23.4276    111.0841
   475.3000      8.0047      2.5959      0.0248      3.2760     22.9964    109.4546
   475.4000      8.0047      2.5970      0.0223      3.2138     22.8335    108.5698
   475.5000      8.0063      2.5919      0.0331      3.5183     22.8739    106.8915
   475.6000      8.0063      2.5824      0.0487      4.0998     22.9523    102.3654
   475.7000      8.0063      2.5770     -0.0362      4.4253     22.9737     96.0217
   475.8000      8.0065      2.5752      0.0390      4.5316     23.0280     90.1267
   475.9000      8.0065      2.5701     -0.0194      4.8437     23.3385     87.0496
   476.0000      8.0073      2.5683      0.0235      4.9487     23.7210     87.8153
   476.1000      8.0073      2.5758      0.0150      4.4948     23.8896     90.0833
   476.2000      8.0073      2.5854      0.0361      3.9165     23.8492     91.4807
   476.3000      8.0098      2.5839      0.0405      4.0066     23.5516     90.8421
   476.4000      8.0098      2.5638      0.0336      5.2256     23.0512     89.3225
   476.5000      8.0105      2.5321      0.0193      7.1442     22.6981     90.0719
   476.6000      8.0105      2.5026      0.0029      8.9309     22.7586     91.5686
   476.7000      8.0105      2.4810     -0.0070     10.2420     23.1864     88.5425
   476.8000      8.0062      2.4683     -0.0165     11.0097     23.7466     81.1360
   476.9000      8.0062      2.4649     -0.0148     11.2192     24.1405     76.3719
   477.0000      7.9954      2.4621      0.0131     11.3862     24.2049     78.7089
   477.1000      7.9954      2.4568      0.0079     11.7098     24.2064     86.8148
   477.2000      7.9954      2.4548      0.0509     11.8285     24.3576     98.7893
   477.3000      7.9768      2.4547      0.0305     11.8357     24.4469    109.4236
   477.4000      7.9768      2.4584      0.0338     11.6131     24.2254    113.9905
   477.5000      7.9569      2.4733      0.0639     10.7067     23.7336    113.6921
   477.6000      7.9569      2.4979      0.1074      9.2168     23.2019    112.4395
   477.7000      7.9569      2.5248      0.1217      7.5880     22.7583    113.4171
   477.8000      7.9465      2.5472      0.1700      6.2303     22.4707    115.3437
   477.9000      7.9465      2.5617      0.1576      5.3539     22.5297    113.0866
   478.0000      7.9505      2.5755      0.1529      4.5173     22.7446    107.9013
   478.1000      7.9505      2.5949      0.1580      3.3421     22.6294    107.0583
   478.2000      7.9505      2.5986      0.2178      3.1175     22.2350    109.7739
   478.3000      7.9629      2.5634      0.1331      5.2513     21.9551    109.0507
   478.4000      7.9629      2.5143      0.0280      8.2212     21.9994    103.1144
   478.5000      7.9800      2.4941      0.0394      9.4455     22.2065     95.6550
   478.6000      7.9800      2.5060      0.0878      8.7278     22.1933     92.4467
   478.7000      7.9800      2.5256      0.0944      7.5419     21.9401     93.6761
   478.8000      7.9930      2.5301      0.1063      7.2656     21.8189     94.8553
   478.9000      7.9930      2.5160      0.0744      8.1211     21.8002     94.6387
   479.0000      7.9882      2.5009      0.0836      9.0336     21.3049     93.4826
   479.1000      7.9882      2.4999      0.0518      9.0979     20.3173     91.8557
   479.2000      7.9882      2.5107      0.1122      8.4423     19.5363     89.9066
   479.3000      7.9802      2.5185      0.1221      7.9708     19.2963     86.6996
   479.4000      7.9802      2.5146      0.1007      8.2072     19.3239     84.3366
   479.5000      7.9782      2.5048      0.0579      8.7975     19.3789     87.1308
   479.6000      7.9782      2.4968      0.0551      9.2822     19.2497     92.2714
   479.7000      7.9782      2.4930      0.0593      9.5138     18.9077     92.1553
   479.8000      7.9794      2.4954      0.0289      9.3717     18.4255     86.7647
   479.9000      7.9794      2.4987      0.0719      9.1684     17.7686     81.2785
