~Version Information
VERS.                      2.0: CWLS Log ASCII Standard - VERSION 2.0
WRAP.                       NO: One line per depth step
~Well Information Block
STRT.FT               -11.2500: 
STOP.FT              1767.0000: 
STEP.FT                 0.2500: 
NULL.                -999.2500: 
COMP.          Petrogulf Corporation: COMPANY
WELL.             McLeod 9-42R: WELL
FLD.           Purgatoire River: FIELD
LOC.           1748' FNL & 372' FEL--: LOCATION
PROV.                 Colorado: PROVINCE
CNTY.               Las Animas: COUNTRY
SRVC.                         : SERVICE COMPANY
DATE.          Thu Sep 29 13:28:07 2005: LOG DATE
UWI.                          : UNIQUE WELL ID
~Curve Information Block
DEPT.FT            0 000 00 00: Depth
GR.GAPI                       : Gamma Ray
CCL.                          : Casing Collar Locator
AMP3.mV                       : CBL 3' Amplitude
AMP5.mV                       : CBL 5' Amplitude
~Parameter Information Block
~A  Depth        GR         CCL         AMP3        AMP5    
# ...
  1630.2500     70.4556      0.0000      1.2227      0.2150
  1630.5000     76.9798      0.0000      1.3098      0.2106
  1630.7500     84.4061      0.0000      1.4322      0.1946
  1631.0000     92.7220      0.0000      1.6251      0.1746
  1631.2500    101.9624      0.0000      1.9150      0.1616
  1631.5000    111.9489      0.0000      2.2896      0.1635
  1631.7500    122.1279      0.0000      2.6976      0.1812
  1632.0000    131.4959      0.0000      3.0741      0.2111
  1632.2500    138.6764      0.0000      3.3707      0.2473
  1632.5000    142.4174      0.0000      3.5727      0.2817
  1632.7500    142.5811      0.0000      3.6983      0.3079
  1633.0000    140.7711      0.0000      3.7794      0.3275
  1633.2500    139.5972      0.0000      3.8396      0.3478
  1633.5000    140.9940      0.0000      3.8841      0.3717
  1633.7500    145.1630      0.0000      3.9096      0.3933
  1634.0000    151.0092      0.0000      3.9157      0.4047
  1634.2500    157.3720      0.0000      3.9072      0.4041
  1634.5000    163.8546      0.0000      3.8917      0.3958
  1634.7500    170.7283      0.0000      3.8759      0.3861
  1635.0000    178.1450      0.0000      3.8607      0.3801
  1635.2500    185.3296      0.0000      3.8408      0.3786
  1635.5000    190.5036      0.0000      3.8135      0.3793
  1635.7500    191.7905      0.0000      3.7862      0.3789
  1636.0000    188.4344      0.0000      3.7710      0.3756
  1636.2500    181.3924      0.0000      3.7713      0.3667
  1636.5000    173.0044      0.0000      3.7790      0.3521
  1636.7500    165.9771      0.0000      3.7822      0.3381
  1637.0000    162.0525      0.0000      3.7721      0.3336
  1637.2500    161.1396      0.0000      3.7453      0.3420
  1637.5000    161.7243      0.0000      3.7048      0.3608
  1637.7500    162.2238      0.0000      3.6593      0.3857
  1638.0000    162.0214      0.0000      3.6184      0.4114
  1638.2500    161.5182      0.0000      3.5845      0.4290
  1638.5000    161.5060      0.0000      3.5534      0.4321
  1638.7500    162.2769      0.0000      3.5244      0.4239
  1639.0000    162.9750      0.0000      3.5079      0.4157
  1639.2500    162.0082      0.0000      3.5202      0.4141
  1639.5000    158.4182      0.0000      3.5674      0.4147
  1639.7500    152.6626      0.0000      3.6317      0.4063
  1640.0000    145.8396      0.0000      3.6781      0.3827
  1640.2500    138.4593      0.0000      3.6802      0.3485
  1640.5000    130.2601      0.0000      3.6398      0.3152
  1640.7500    121.0450      0.0000      3.5818      0.2907
  1641.0000    111.3462      0.0000      3.5326      0.2739
  1641.2500    102.1838      0.0000      3.5076      0.2596
  1641.5000     94.4150      0.0000      3.5090      0.2453
  1641.7500     88.3880      0.0000      3.5286      0.2308
  1642.0000     83.9331      0.0000      3.5525      0.2137
  1642.2500     80.5791      0.0000      3.5759      0.1884
  1642.5000     78.0172      0.0000      3.6159      0.1520
  1642.7500     76.2505      0.0000      3.6991      0.1128
  1643.0000     75.0883      0.0000      3.8241      0.0921
  1643.2500     73.8693      0.0000      3.9518      0.1099
  1643.5000     72.1237      0.0000      4.0543      0.1666
  1643.7500     70.3427      0.0000      4.1503      0.2397
  1644.0000     69.9352      0.0000      4.2682      0.3020
  1644.2500     72.6868      0.0000      4.3987      0.3400
  1644.5000     80.1345      0.0000      4.5062      0.3555
  1644.7500     92.7031      1.7596      4.5665      0.3552
  1645.0000    108.9420      0.0000      4.5766      0.3438
  1645.2500    125.8329      0.0000      4.5437      0.3249
  1645.5000    140.3476      0.0000      4.4785      0.3035
  1645.7500    151.0219      0.0000      4.3935      0.2852
  1646.0000    158.2294      0.0000      4.3044      0.2732
  1646.2500    163.1838      0.0000      4.2302      0.2668
  1646.5000    166.8203      0.0000      4.1770      0.2641
  1646.7500    169.3660      0.0000      4.1224      0.2649
  1647.0000    170.5368      0.0000      4.0391      0.2705
  1647.2500    169.9802      0.0000      3.9327      0.2805
  1647.5000    167.6221      0.0000      3.8376      0.2925
  1647.7500    163.5989      0.0000      3.7787      0.3048
  1648.0000    158.0525      0.0000      3.7515      0.3212
  1648.2500    151.4475      0.0000      3.7361      0.3483
  1648.5000    145.0869      0.0000      3.7222      0.3857
  1648.7500    140.7259      0.0000      3.7162      0.4217
  1649.0000    139.2535      0.0000      3.7274      0.4402
  1649.2500    139.8484      0.0000      3.7508      0.4331
  1649.5000    140.5858      0.0000      3.7714      0.4057
  1649.7500    139.8506      0.0000      3.7803      0.3726
  1650.0000    137.2649      0.0000      3.7792      0.3493
  1650.2500    133.6405      0.0000      3.7700      0.3440
  1650.5000    130.4100      0.0000      3.7522      0.3552
  1650.7500    129.0454      0.0000      3.7299      0.3741
  1651.0000    130.5936      0.0000      3.7153      0.3900
  1651.2500    135.2867      0.0000      3.7205      0.3965
  1651.5000    142.3542      0.0000      3.7485      0.3943
  1651.7500    150.3203      0.0000      3.7909      0.3888
  1652.0000    157.8408      0.0000      3.8301      0.3835
  1652.2500    164.3784      0.0000      3.8481      0.3767
  1652.5000    169.8250      0.0000      3.8376      0.3661
  1652.7500    173.6478      0.0000      3.8081      0.3541
  1653.0000    175.3445      0.0000      3.7817      0.3450
  1653.2500    175.9885      0.0000      3.7838      0.3398
  1653.5000    178.1440      0.0000      3.8294      0.3335
  1653.7500    183.2587      0.0000      3.9105      0.3198
  1654.0000    189.3826      0.0000      3.9978      0.2979
  1654.2500    192.1027      0.0000      4.0611      0.2757
  1654.5000    187.9580      0.0000      4.0887      0.2657
  1654.7500    176.9284      0.0000      4.0874      0.2730
  1655.0000    161.9658      0.0000      4.0700      0.2922
  1655.2500    146.8016      0.0000      4.0468      0.3147
  1655.5000    134.2648      0.0000      4.0274      0.3361
  1655.7500    125.7323      0.0000      4.0199      0.3551
  1656.0000    121.1508      0.0000      4.0271      0.3702
  1656.2500    119.4413      0.0000      4.0442      0.3810
  1656.5000    119.2341      0.0000      4.0602      0.3886
  1656.7500    119.2803      0.0000      4.0635      0.3922
  1657.0000    118.3200      0.0000      4.0447      0.3884
  1657.2500    115.1501      0.0000      3.9954      0.3751
  1657.5000    109.2588      0.0000      3.9124      0.3557
  1657.7500    101.3358      0.0000      3.8073      0.3362
  1658.0000     92.9972      0.0000      3.7068      0.3202
  1658.2500     85.8680      0.0000      3.6356      0.3097
  1658.5000     80.5889      0.0000      3.5989      0.3064
  1658.7500     76.4791      0.0000      3.5846      0.3086
  1659.0000     72.3521      0.0000      3.5794      0.3119
  1659.2500     67.7572      0.0000      3.5774      0.3125
  1659.5000     63.3636      0.0000      3.5776      0.3090
  1659.7500     60.1827      0.0000      3.5770      0.3018
  1660.0000     58.5333      0.0000      3.5711      0.2927
  1660.2500     57.7867      0.0000      3.5553      0.2842
  1660.5000     57.0764      0.0000      3.5282      0.2753
  1660.7500     56.0960      0.0000      3.4933      0.2621
  1661.0000     55.0962      0.0000      3.4584      0.2444
  1661.2500     54.2492      0.0000      3.4299      0.2284
  1661.5000     53.3804      0.0000      3.4094      0.2210
  1661.7500     52.3919      0.0000      3.3984      0.2234
  1662.0000     51.5695      0.0000      3.3988      0.2313
  1662.2500     51.3243      0.0000      3.4050      0.2396
  1662.5000     51.8412      0.0000      3.4041      0.2502
  1662.7500     52.9950      0.0000      3.3897      0.2726
  1663.0000     54.3745      0.0000      3.3711      0.3136
  1663.2500     55.3771      0.0000      3.3606      0.3635
  1663.5000     55.5255      0.0000      3.3600      0.4019
