~Version Information
VERS.                      2.0: CWLS Log ASCII Standard - VERSION 2.0
WRAP.                       NO: One line per depth step
~Well Information Block
STRT.FT               -11.2500: 
STOP.FT              1767.0000: 
STEP.FT                 0.2500: 
NULL.                -999.2500: 
COMP.          Petrogulf Corporation: COMPANY
WELL.             McLeod 9-42R: WELL
FLD.           Purgatoire River: FIELD
LOC.           1748' FNL & 372' FEL--: LOCATION
PROV.                 Colorado: PROVINCE
CNTY.               Las Animas: COUNTRY
SRVC.                         : SERVICE COMPANY
DATE.          Thu Sep 29 13:28:07 2005: LOG DATE
UWI.                          : UNIQUE WELL ID
~Curve Information Block
DEPT.FT            0 000 00 00: Depth
GR.GAPI                       : Gamma Ray
CCL.                          : Casing Collar Locator
AMP3.mV                       : CBL 3' Amplitude
AMP5.mV                       : CBL 5' Amplitude
~Parameter Information Block
~A  Depth        GR         CCL         AMP3        AMP5    
# ...
   323.7500     81.4135      0.0000      2.2862      0.2467
   324.0000     81.7102      0.0000      2.0721      0.2334
   324.2500     82.9579      0.0000      1.9375      0.2196
   324.5000     84.5705      0.0000      1.8380      0.1951
   324.7500     85.8904      0.0000      1.7279      0.1638
   325.0000     86.7178      0.0000      1.5829      0.1371
   325.2500     87.2041      0.0000      1.3951      0.1245
   325.5000     87.4430      0.0000      1.1811      0.1288
   325.7500     87.3120      0.0000      0.9936      0.1447
   326.0000     86.5518      0.0000      0.8991      0.1599
   326.2500     84.9952      0.0000      0.9322      0.1627
   326.5000     82.9814      0.0000      1.0707      0.1500
   326.7500     81.4906      0.0000      1.2535      0.1261
   327.0000     81.4697      0.0000      1.4165      0.0956
   327.2500     82.9532      0.0000      1.5212      0.0622
   327.5000     85.0205      0.0000      1.5638      0.0327
   327.7500     86.4317      0.0000      1.5691      0.0158
   328.0000     86.2227      0.0000      1.5739      0.0154
   328.2500     84.2215      0.0000      1.6100      0.0291
   328.5000     81.3558      0.0000      1.6888      0.0537
   328.7500     79.1132      0.0000      1.7942      0.0880
   329.0000     78.4270      0.0000      1.8974      0.1292
   329.2500     79.1316      0.0000      1.9827      0.1695
   329.5000     80.4003      0.0000      2.0578      0.2010
   329.7500     81.5230      0.0000      2.1367      0.2231
   330.0000     82.2948      0.0000      2.2221      0.2436
   330.2500     82.7914      0.0000      2.3048      0.2709
   330.5000     82.9112      0.0000      2.3729      0.3077
   330.7500     82.3626      0.0000      2.4190      0.3504
   331.0000     81.1534      0.0000      2.4472      0.3913
   331.2500     79.8167      0.0000      2.4753      0.4215
   331.5000     78.9970      0.0000      2.5215      0.4371
   331.7500     79.0042      0.0000      2.5845      0.4437
   332.0000     79.8215      0.0000      2.6472      0.4513
   332.2500     81.2561      0.0000      2.7026      0.4650
   332.5000     82.8566      0.0000      2.7639      0.4810
   332.7500     83.8711      0.0000      2.8476      0.4937
   333.0000     83.6924      0.0000      2.9533      0.5038
   333.2500     82.4780      0.0000      3.0671      0.5191
   333.5000     81.0858      0.0000      3.1748      0.5466
   333.7500     80.2190      0.0000      3.2640      0.5825
   334.0000     79.7435      0.0000      3.3191      0.6123
   334.2500     78.9575      0.0000      3.3278      0.6220
   334.5000     77.3946      0.0000      3.2903      0.6138
   334.7500     75.1310      0.0000      3.2196      0.6072
   335.0000     72.2967      0.0000      3.1346      0.6226
   335.2500     68.7443      0.0000      3.0567      0.6617
   335.5000     64.6197      0.0000      3.0050      0.7050
   335.7500     60.9035      0.0000      2.9851      0.7301
   336.0000     58.6509      0.0000      2.9846      0.7288
   336.2500     57.7752      0.0000      2.9830      0.7065
   336.5000     57.2600      0.0000      2.9646      0.6710
   336.7500     56.6597      0.0000      2.9222      0.6272
   337.0000     56.7810      0.0000      2.8550      0.5802
   337.2500     58.6686      0.0000      2.7660      0.5384
   337.5000     62.3460      0.0000      2.6601      0.5107
   337.7500     66.7414      0.0000      2.5415      0.5023
   338.0000     70.5508      0.0000      2.4197      0.5139
   338.2500     73.1032      0.0000      2.3203      0.5428
   338.5000     74.7603      0.0000      2.2793      0.5806
   338.7500     76.5190      0.0000      2.3125      0.6145
   339.0000     78.9146      0.0000      2.3891      0.6341
   339.2500     81.3407      0.0000      2.4417      0.6377
   339.5000     82.6752      0.0000      2.4102      0.6311
   339.7500     82.5018      0.0000      2.2831      0.6211
   340.0000     81.4495      0.0000      2.1021      0.6102
   340.2500     80.3486      0.0000      1.9346      0.5962
   340.5000     79.3890      0.0000      1.8356      0.5759
   340.7500     78.2605      0.0000      1.8235      0.5513
   341.0000     76.8472      0.0000      1.8752      0.5308
   341.2500     75.4380      0.0000      1.9412      0.5234
   341.5000     74.2012      0.0000      1.9700      0.5292
   341.7500     72.7786      0.0000      1.9324      0.5389
   342.0000     70.7107      0.0000      1.8321      0.5423
   342.2500     68.0716      0.0000      1.6984      0.5386
   342.5000     65.3156      0.0000      1.5682      0.5372
   342.7500     62.5160      0.0000      1.4696      0.5490
   343.0000     59.2508      0.0000      1.4168      0.5750
   343.2500     55.4807      0.0000      1.4098      0.6050
   343.5000     52.1367      0.0000      1.4368      0.6250
   343.7500     50.4742      0.0000      1.4814      0.6260
   344.0000     51.0309      0.0000      1.5282      0.6075
   344.2500     53.3251      0.0000      1.5618      0.5769
   344.5000     56.2670      0.0000      1.5682      0.5461
   344.7500     58.7138      0.0000      1.5434      0.5233
   345.0000     59.8516      0.0000      1.4969      0.5067
   345.2500     59.3111      0.0000      1.4423      0.4886
   345.5000     57.1495      0.0000      1.3878      0.4668
   345.7500     53.8804      0.0000      1.3367      0.4509
   346.0000     50.4670      0.0000      1.2931      0.4534
   346.2500     47.9828      0.0000      1.2644      0.4754
   346.5000     47.0425      0.0000      1.2625      0.5034
   346.7500     47.5625      0.0000      1.3016      0.5224
   347.0000     49.0241      0.0000      1.3869      0.5297
   347.2500     50.8300      0.0000      1.5033      0.5333
   347.5000     52.5198      0.0000      1.6200      0.5403
   347.7500     53.9007      0.0000      1.7122      0.5499
   348.0000     55.0744      0.0000      1.7821      0.5581
   348.2500     56.3346      0.0000      1.8555      0.5617
   348.5000     57.8920      0.0000      1.9535      0.5591
   348.7500     59.5002      0.0000      2.0638      0.5502
   349.0000     60.4503      0.0000      2.1488      0.5390
   349.2500     60.1997      0.0000      2.1804      0.5327
   349.5000     59.0148      0.0000      2.1612      0.5346
   349.7500     57.8720      0.0000      2.1099      0.5401
   350.0000     57.7325      0.0000      2.0399      0.5418
   350.2500     58.8969      0.0000      1.9560      0.5369
   350.5000     60.9600      0.0000      1.8631      0.5256
   350.7500     63.3373      0.0000      1.7743      0.5065
   351.0000     65.7808      0.0000      1.7096      0.4787
   351.2500     68.2555      0.0000      1.6849      0.4482
   351.5000     70.4980      0.0000      1.6974      0.4255
   351.7500     72.1102      0.0000      1.7250      0.4160
   352.0000     73.1199      0.0000      1.7444      0.4155
   352.2500     74.1729      0.0000      1.7548      0.4168
   352.5000     76.1926      0.0000      1.7857      0.4176
   352.7500     79.8990      0.0000      1.8795      0.4199
   353.0000     85.2513      0.0000      2.0535      0.4227
   353.2500     91.0956      0.0000      2.2784      0.4231
   353.5000     95.7554      0.0000      2.4947      0.4237
   353.7500     98.3097      0.0000      2.6556      0.4316
   354.0000     99.0855      0.0000      2.7539      0.4475
   354.2500     98.8434      0.0000      2.8140      0.4606
   354.5000     97.9790      0.0000      2.8614      0.4579
   354.7500     96.7543      0.0000      2.9079      0.4365
   355.0000     95.8201      0.0000      2.9607      0.4053
   355.2500     95.9928      0.0000      3.0350      0.3776
   355.5000     97.5096      0.0000      3.1462      0.3597
   355.7500     99.6542      0.0000      3.2933      0.3479
   356.0000    101.2183      0.0000      3.4567      0.3339
   356.2500    101.4077      0.0000      3.6148      0.3135
   356.5000    100.1986      0.0000      3.7548      0.2904
   356.7500     97.8089      0.0000      3.8670      0.2738
   357.0000     94.3755      0.0000      3.9385      0.2725
