~Version Information
 VERS.                                  2.0 : CWLS LAS VERSION
 WRAP.                                   NO : WRAPING MODE
 SWARE .                 MController 2.5.0J : SOFTWARE VERSION
~Well Information
 WELL.                       Ei-Ei-Oh 31-24 : WELL
 COMP.    Pioneer Natural Resources USA Inc : COMPANY
 FLD.                      Purgatoire River : FIELD
 LOC.                NW/NE Sec 24 T32S R67W : LOCATION
 DATE.                         6/12-13/2005 : DATE(S) LOGGED
 SRVC.       Blanco Geological Services LLC : SERVICE COMPANY
 STAT.                                   CO : STATE
 CNTY.                           Las Animas : COUNTY
 CTRY.                                  USA : COUNTRY
 API.                       05-071-08403-00 : API NUMBER
 STRT.FT                             436.00 : START DEPTH
 STOP.FT                            2853.00 : STOP DEPTH
 STEP.FT                               1.00 : DEPTH INCREMENT
 NULL.                                -9999 : NULL VALUE
~Curve information
 DEPTH.FT                                   :
 ROP.MIN/FT                                 :
 GAS.UNITS                                  :
~ASCII Log data
# ...
      2436.0         0.33         98.4 
      2437.0         0.33        103.8 
      2438.0         0.37        118.1 
      2439.0         0.48        161.7 
      2440.0         0.30        197.9 
      2441.0         0.40        248.0 
      2442.0         0.53        294.9 
      2443.0         0.33        293.9 
      2444.0         0.17        293.9 
      2445.0         0.13        306.6 
      2446.0       386.70        334.0 
      2447.0         1.37        122.6 
      2448.0         0.27        168.7 
      2449.0         0.47        241.5 
      2450.0         0.47        249.1 
      2451.0         0.33        205.9 
      2452.0         0.35        129.9 
      2453.0         0.40         80.7 
      2454.0         0.30         50.9 
      2455.0         0.40         43.3 
      2456.0         0.47         37.2 
      2457.0         0.20         38.2 
      2458.0         0.20         40.0 
      2459.0         0.20         43.0 
      2460.0         0.20         44.9 
      2461.0         0.17         45.3 
      2462.0         0.17         46.5 
      2463.0         0.17         47.3 
      2464.0         0.22         47.8 
      2465.0         0.17         48.1 
      2466.0         0.17         47.8 
      2467.0         0.17         46.8 
      2468.0         0.13         45.8 
      2469.0         0.17         45.2 
      2470.0         0.13         44.3 
      2471.0         0.13         43.6 
      2472.0         0.17         43.5 
      2473.0         0.17         43.4 
      2474.0         0.17         43.0 
      2475.0         0.17         43.4 
      2476.0         0.17         43.0 
      2477.0         9.35        347.5 
      2478.0         0.20        156.2 
      2479.0         0.13         96.2 
      2480.0         0.17         72.6 
      2481.0         0.13         54.9 
      2482.0         0.17         47.4 
      2483.0         0.13         43.0 
      2484.0         0.13         38.5 
      2485.0         0.13         36.3 
      2486.0         0.17         35.3 
      2487.0         0.17         35.4 
      2488.0         0.17         36.5 
      2489.0         0.18         37.1 
      2490.0         0.17         39.9 
      2491.0         0.10         41.5 
      2492.0         0.13         43.0 
      2493.0         0.13         43.7 
      2494.0         0.17         44.3 
      2495.0         0.17         44.2 
      2496.0         0.17         44.1 
      2497.0         0.20         42.2 
      2498.0         0.20         42.5 
      2499.0         0.17         42.3 
      2500.0         0.20         42.2 
      2501.0         0.20         41.8 
      2502.0         0.17         40.9 
      2503.0         0.17         40.1 
      2504.0         0.23         39.1 
      2505.0         0.23         40.4 
      2506.0         0.20         42.5 
      2507.0        10.40        355.7 
      2508.0         0.13        201.3 
      2509.0         0.20        162.0 
      2510.0         0.20        117.4 
      2511.0         0.20         86.4 
      2512.0         0.17         67.2 
      2513.0         0.20         55.9 
      2514.0         0.17         47.1 
      2515.0         0.13         42.1 
      2516.0         0.23         39.4 
      2517.0         0.23         36.1 
      2518.0         0.23         34.2 
      2519.0         0.27         32.1 
      2520.0         0.23         32.0 
      2521.0         0.35         31.9 
      2522.0         0.27         32.8 
      2523.0         0.30         34.0 
      2524.0         0.40         34.6 
      2525.0         0.33         34.6 
      2526.0         0.40         36.4 
      2527.0         0.33         37.8 
      2528.0         0.27         37.4 
      2529.0         0.30         36.7 
      2530.0         0.30         35.5 
      2531.0         0.32         34.2 
      2532.0         0.27         33.1 
      2533.0         0.23         32.7 
      2534.0         0.20         32.2 
      2535.0         0.17         33.2 
      2536.0         0.27         34.4 
      2537.0        10.58        365.6 
      2538.0         0.13        304.7 
      2539.0         0.13        223.8 
      2540.0         0.20        146.7 
      2541.0         0.17         70.0 
      2542.0         0.13         37.1 
      2543.0         0.13         21.6 
      2544.0         0.13         13.4 
      2545.0         0.13          9.2 
      2546.0         0.18          4.7 
      2547.0         0.13          2.5 
      2548.0         0.17          1.3 
      2549.0         0.30          0.7 
      2550.0         0.47          1.8 
      2551.0         0.30          1.0 
      2552.0         0.33          1.3 
      2553.0         0.40          1.3 
      2554.0         0.33          8.9 
      2555.0         0.40         42.0 
      2556.0         0.42         62.0 
      2557.0         0.43         94.1 
      2558.0         0.40        114.2 
      2559.0         0.43        121.2 
      2560.0         0.40        121.3 
      2561.0         0.47        115.8 
      2562.0         0.50        105.7 
      2563.0         0.65         93.3 
      2564.0         0.77         76.1 
      2565.0         0.43         54.7 
      2566.0         0.83         49.6 
      2567.0         5.23        115.0 
      2568.0         0.20        117.2 
      2569.0         0.33        129.2 
      2570.0         0.30        157.0 
      2571.0         0.37        202.6 
      2572.0         0.37        260.6 
      2573.0         0.37        305.0 
      2574.0         0.33        323.0 
      2575.0         0.38        324.4 
      2576.0         0.30        334.9 
      2577.0         0.20        345.5 
      2578.0         0.27        348.7 
      2579.0         0.30        344.0 
      2580.0         0.23        276.9 
      2581.0         0.30        196.6 
      2582.0         0.20        129.9 
      2583.0         0.27        101.7 
      2584.0         0.27         75.7 
      2585.0         0.27         55.7 
      2586.0         0.23         42.4 
      2587.0         0.35         33.5 
      2588.0         0.30         24.9 
      2589.0         0.23         20.7 
      2590.0         0.27         24.8 
      2591.0         0.27         30.8 
      2592.0         0.27         36.1 
      2593.0         0.30         39.7 
      2594.0         0.30         45.2 
      2595.0         0.27         49.5 
      2596.0         0.30         52.6 
      2597.0         8.75        120.0 
      2598.0         0.30        158.2 
      2599.0         0.30        213.3 
      2600.0         0.17        247.2 
      2601.0         0.27        296.6 
      2602.0         0.30        335.7 
      2603.0         0.35        346.6 
      2604.0         0.40        345.0 
      2605.0         0.47        359.0 
      2606.0         0.53        428.2 
      2607.0         0.33        425.0 
      2608.0         0.30        304.4 
      2609.0         0.27        177.7 
      2610.0         0.30        113.7 
      2611.0         0.30         70.2 
      2612.0         0.35         44.4 
      2613.0         0.23         27.7 
      2614.0         0.20         22.7 
      2615.0         0.27         20.1 
      2616.0         0.37         21.1 
      2617.0         0.33         28.3 
      2618.0         0.23         33.1 
      2619.0         0.23         39.1 
      2620.0         0.27         45.6 
      2621.0         0.13         48.5 
      2622.0         0.20         50.7 
      2623.0         0.27         53.6 
      2624.0         0.28         55.7 
      2625.0         0.30         57.6 
      2626.0         0.23         57.4 
      2627.0         7.17        123.5 
      2628.0         0.23        163.9 
      2629.0         0.30        233.0 
      2630.0         0.30        313.4 
      2631.0         0.37        409.4 
      2632.0         0.37        467.1 
      2633.0         0.33        477.1 
      2634.0         0.38        474.0 
      2635.0         0.37        445.5 
