~Version Information
 VERS.                                  2.0 : CWLS LAS VERSION
 WRAP.                                   NO : WRAPING MODE
 SWARE .                 MController 2.5.0E : SOFTWARE VERSION
~Well Information
 WELL.                                  N/A : WELL
 COMP.                                  N/A : COMPANY
 FLD.                                   N/A : FIELD
 LOC.                                   N/A : LOCATION
 DATE.                                  N/A : DATE(S) LOGGED
 SRVC.                                  N/A : SERVICE COMPANY
 STAT.                                  N/A : STATE
 CNTY.                                  N/A : COUNTY
 CTRY.                                  N/A : COUNTRY
 API.                                   N/A : API NUMBER
 STRT.FT                             951.00 : START DEPTH
 STOP.FT                            2600.00 : STOP DEPTH
 STEP.FT                               1.00 : DEPTH INCREMENT
 NULL.                                -9999 : NULL VALUE
~Curve information
 DEPTH.FT                                   :
 ROP.MIN/FT                                 :
 GAS.UNITS                                  :
~ASCII Log data
# ...
     2351.00        0.200         30.0 
     2352.00        0.467         29.8 
     2353.00        0.900         24.4 
     2354.00        0.583         13.1 
     2355.00        0.833         18.5 
     2356.00        0.967         50.6 
     2357.00        1.033        102.6 
     2358.00        1.050         97.5 
     2359.00        0.567         26.7 
     2360.00        0.100         13.6 
     2361.00        5.267         44.7 
     2362.00        0.467         47.6 
     2363.00        0.133         47.2 
     2364.00        0.033         46.6 
     2365.00        0.167         46.2 
     2366.00        0.333         45.9 
     2367.00        0.100         44.5 
     2368.00        0.167         43.3 
     2369.00        0.133         41.9 
     2370.00        0.100         41.0 
     2371.00        0.367         41.7 
     2372.00        0.133         41.9 
     2373.00        0.133         43.0 
     2374.00        0.367         46.1 
     2375.00        0.167         48.8 
     2376.00        0.167         52.2 
     2377.00        0.483         70.1 
     2378.00        0.267         84.6 
     2379.00        0.367        103.7 
     2380.00        0.167        110.5 
     2381.00        0.100        113.7 
     2382.00        0.333        139.4 
     2383.00        0.200        162.3 
     2384.00        0.533        168.6 
     2385.00        0.033        125.6 
     2386.00        0.367        121.0 
     2387.00        0.100         79.1 
     2388.00        0.167         69.3 
     2389.00        0.417         57.5 
     2390.00        0.167         42.1 
     2391.00        1.833         38.6 
     2392.00        1.000         40.5 
     2393.00        0.850         40.3 
     2394.00        0.867         38.9 
     2395.00        0.567         38.9 
     2396.00        0.200         39.1 
     2397.00        0.600         39.5 
     2398.00        0.300         39.6 
     2399.00        0.417         41.1 
     2400.00        0.333         41.8 
     2401.00        0.367         41.4 
     2402.00        0.167         41.5 
     2403.00        0.233         41.3 
     2404.00        0.433         42.5 
     2405.00        0.233         41.8 
     2406.00        0.200         40.1 
     2407.00        0.300         39.8 
     2408.00        0.067         38.7 
     2409.00        0.133         39.2 
     2410.00        0.233         39.4 
     2411.00        0.417         41.0 
     2412.00        0.300         42.5 
     2413.00        0.400         43.9 
     2414.00        0.300         44.2 
     2415.00        0.167         44.5 
     2416.00        0.667         51.9 
     2417.00        0.300         60.1 
     2418.00        0.600         86.3 
     2419.00        0.300        100.6 
     2420.00        0.183        107.7 
     2421.00        3.033        147.5 
     2422.00        0.483         35.2 
     2423.00        0.267         36.1 
     2424.00        0.467         38.1 
     2425.00        0.200         39.0 
     2426.00        0.467         40.2 
     2427.00        0.433         42.8 
     2428.00        0.200         43.0 
     2429.00        0.467         43.0 
     2430.00        0.133         42.7 
     2431.00        0.483         42.9 
     2432.00        0.100         41.5 
     2433.00        0.567         41.6 
     2434.00        0.500         40.5 
     2435.00        0.367         40.0 
     2436.00        0.700         40.1 
     2437.00        0.433         40.2 
     2438.00        0.550         41.3 
     2439.00        0.200         42.4 
     2440.00        0.467         42.2 
     2441.00        0.633         43.0 
     2442.00        0.533         43.0 
     2443.00        0.467         39.7 
     2444.00        0.800         21.5 
     2445.00        0.617         24.4 
     2446.00        0.700         31.9 
     2447.00        0.533         43.7 
     2448.00        0.367         60.0 
     2449.00        0.500        107.7 
     2450.00        0.817        173.7 
     2451.00        3.100        201.5 
     2452.00        0.483         24.6 
     2453.00        0.167         25.1 
     2454.00        0.567         25.7 
     2455.00        0.600         29.6 
     2456.00        0.300         33.4 
     2457.00        0.433         33.9 
     2458.00        0.167         32.8 
     2459.00        0.367         31.3 
     2460.00        0.550         30.0 
     2461.00        0.267         28.4 
     2462.00        0.433         27.2 
     2463.00        0.100         26.1 
     2464.00        0.333         25.7 
     2465.00        0.767         19.4 
     2466.00        0.633          8.2 
     2467.00        0.550          4.1 
     2468.00        0.567          3.9 
     2469.00        0.433          4.2 
     2470.00        0.300          5.1 
     2471.00        0.533          5.3 
     2472.00        0.167          4.9 
     2473.00        0.467         27.2 
     2474.00        0.200         31.7 
     2475.00        0.500         35.3 
     2476.00        0.450         38.5 
     2477.00        0.367         45.6 
     2478.00        0.167         51.2 
     2479.00        0.400         69.0 
     2480.00        0.100         74.0 
     2481.00        4.417        184.7 
     2482.00        0.700         26.2 
     2483.00        0.850         29.2 
     2484.00        0.633         28.6 
     2485.00        0.633         27.6 
     2486.00        0.667         26.9 
     2487.00        0.467         26.1 
     2488.00        0.283         24.8 
     2489.00        0.400         25.0 
     2490.00        0.200         26.4 
     2491.00        0.267         28.1 
     2492.00        0.400         33.0 
     2493.00        0.133         34.3 
     2494.00        0.233         34.9 
     2495.00        0.367         33.8 
     2496.00        0.133         32.5 
     2497.00        0.200         33.4 
     2498.00        0.433         34.1 
     2499.00        0.550         33.5 
     2500.00        0.267         33.2 
     2501.00        0.533         38.7 
     2502.00        0.200         41.0 
     2503.00        0.467         47.2 
     2504.00        0.233         48.9 
     2505.00        0.567         57.8 
     2506.00        0.467         64.4 
     2507.00        0.167         65.2 
     2508.00        0.483         64.9 
     2509.00        0.167         59.8 
     2510.00        0.367         57.6 
     2511.00        6.933        251.6 
     2512.00        1.000         27.4 
     2513.00        0.500         26.9 
     2514.00        0.233         24.9 
     2515.00        0.617         25.6 
     2516.00        0.400         26.0 
     2517.00        0.467         25.8 
     2518.00        0.133         25.0 
     2519.00        0.333         25.2 
     2520.00        0.467         24.8 
     2521.00        0.133         24.1 
     2522.00        0.300         23.9 
     2523.00        0.500         24.5 
     2524.00        0.100         24.2 
     2525.00        0.517         28.4 
     2526.00        0.333         32.7 
     2527.00        0.433         34.0 
     2528.00        0.167         33.7 
     2529.00        0.433         34.3 
     2530.00        0.267         34.9 
     2531.00        0.400         40.3 
     2532.00        0.200         42.9 
     2533.00        0.267         47.0 
     2534.00        0.433         49.4 
     2535.00        0.233         49.7 
     2536.00        0.517         50.9 
     2537.00        0.533         52.1 
     2538.00        0.367         56.9 
     2539.00        0.433         72.3 
     2540.00        0.300         87.8 
     2541.00        4.933        263.2 
     2542.00        0.367         20.7 
     2543.00        0.433         22.8 
     2544.00        0.667         24.1 
     2545.00        0.367         23.7 
     2546.00        0.750         22.7 
     2547.00        1.000         22.8 
     2548.00        0.567         23.7 
     2549.00        0.400         22.7 
     2550.00        0.467         26.2 
