~Version Information
VERS.                      2.0: CWLS Log ASCII Standard - VERSION 2.0
WRAP.                       NO: One line per depth step
~Well Information Block
STRT.FT               840.0000: 
STOP.FT              2448.5000: 
STEP.FT                 0.2500: 
NULL.                -999.2500: 
COMP.          Petrogulf Corporation: COMPANY
WELL.             Leier 17-42V: WELL
FLD.           Purgatorie River: FIELD
LOC.           2309' FNL & 1062' FEL SENE 17 33S 67W: LOCATION
PROV.                 Colorado: PROVINCE
CNTY.               Las Animas: COUNTRY
SRVC.                Patterson: SERVICE COMPANY
DATE.          Thu Sep 22 09:40:29 2005: LOG DATE
UWI.                 071 08409: UNIQUE WELL ID
~Curve Information Block
DEPT.FT            0 000 00 00: Depth
SP.mV                         : DIL Spontaneous Potential
RILD.Ohm-m                    : DIL Deep Resistivity
RILM.Ohm-m                    : DIL Medium Resistivity
RLL3.Ohm-m                    : DIL Shallow Resistivity
GR.GAPI                       : Gamma Ray
~Parameter Information Block
~A  Depth        SP         RILD        RILM        RLL3         GR     
# ...
  1148.0000    180.2499     18.6335     15.2583     18.8691    141.1316
  1148.2500    180.2718     18.9894     15.3282     18.5840    145.1857
  1148.5000    180.4925     19.6606     15.6877     18.8699    130.2952
  1148.7500    180.9467     20.7857     16.6001     18.8880    112.2827
  1149.0000    181.7550     22.4163     18.2064     19.8063    130.6510
  1149.2500    182.9978     23.7099     20.5219     25.4688    131.5700
  1149.5000    184.5368     25.4478     23.3716     41.9646    111.4794
  1149.7500    186.3342     27.2648     27.3010     80.7501    118.1997
  1150.0000    188.2049     29.9065     31.6749    147.7107    111.5368
  1150.2500    189.9995     32.1916     35.8047    249.1617    127.6154
  1150.5000    191.1326     35.3640     40.4026    405.4504    103.6707
  1150.7500    191.7036     39.6508     45.0057    618.1951     87.9012
  1151.0000    191.7092     44.6684     52.7571    796.3845     58.6411
  1151.2500    191.2867     51.2198     61.6495    997.7461     52.7377
  1151.5000    190.7003     56.9282     76.0617   1195.4548     24.9240
  1151.7500    189.9412     65.9795     93.1866   1290.0895     23.6430
  1152.0000    189.1953     75.9212    104.1909   1337.0349     11.3907
  1152.2500    188.4209     82.9343    137.7493   1336.5846      5.4037
  1152.5000    187.8173     79.4799    132.1844   1296.1505     11.8474
  1152.7500    187.2706     73.2597    148.4781   1260.4161     14.8727
  1153.0000    186.6471     68.9225    154.8624   1245.2942     24.4134
  1153.2500    185.9512     62.1836    155.0245   1172.2791     26.3843
  1153.5000    185.3768     53.4884    149.4910    971.6274     30.7990
  1153.7500    184.8890     43.8896    111.0497    661.8080     24.1048
  1154.0000    184.4270     37.0667     73.2636    515.9486     13.0301
  1154.2500    184.2369     32.0575     54.9285    404.8917     10.1718
  1154.5000    184.4516     27.8279     41.3601    214.0128     15.1585
  1154.7500    184.7552     24.5271     31.2407     79.5032     21.2726
  1155.0000    185.3504     22.4954     24.0968     39.4357     36.3393
  1155.2500    186.0696     20.7904     19.6626     30.0887     41.7707
  1155.5000    186.8295     19.2053     16.3492     21.8272     62.8470
  1155.7500    187.4324     17.6299     14.4501     16.4949     79.6472
  1156.0000    187.9066     16.6411     13.3579     15.3482     80.9499
  1156.2500    188.2629     15.6759     12.7390     15.7725     98.0611
  1156.5000    188.6223     14.7273     12.3205     16.7931     99.1753
  1156.7500    188.9411     13.8528     11.9199     17.3886    117.5058
  1157.0000    189.1461     13.3578     11.5514     18.4353    123.7000
  1157.2500    189.3200     13.0213     11.1411     19.0997    119.8619
  1157.5000    189.4620     12.7836     10.7751     18.8412    116.0766
  1157.7500    189.4986     12.9282     10.6641     18.1396    118.7720
  1158.0000    189.6235     13.2419     10.7715     16.9369    122.5311
  1158.2500    189.8858     13.9241     11.0837     17.6227    132.5775
  1158.5000    190.1427     14.8746     11.6527     18.8289    152.0919
  1158.7500    190.4410     15.6279     12.7153     18.6098    157.8194
  1159.0000    190.7731     16.6548     14.3388     21.2945    144.8115
  1159.2500    191.1865     17.8093     16.4408     35.6021    145.3224
  1159.5000    191.4492     18.6856     18.7590     81.1499    121.1309
  1159.7500    191.6180     19.8052     21.4680    207.9938    109.9035
  1160.0000    191.5444     21.0624     24.7011    454.0888     91.1191
  1160.2500    191.2835     22.8646     27.1921    639.3459     74.7010
  1160.5000    190.9477     25.2098     28.8048    532.6375     30.4210
  1160.7500    190.5714     27.7818     30.2433    259.7780     31.8901
  1161.0000    190.1532     31.3562     31.4713    109.3618     22.4283
  1161.2500    189.7226     36.6514     33.8420     57.1987     29.8099
  1161.5000    189.3434     41.4903     35.8494     47.1884     52.1580
  1161.7500    189.0140     47.5827     40.4589     67.9064     64.1597
  1162.0000    188.8391     52.2218     49.3523    141.7345     53.2942
  1162.2500    188.6315     57.2576     61.9981    331.3718     57.1721
  1162.5000    188.3921     56.5340     72.0064    678.8588     71.2148
  1162.7500    188.1678     59.0938     91.9875   1162.3387     62.1728
  1163.0000    187.8411     59.6856    100.6230   1553.1671     37.5836
  1163.2500    187.2028     60.1298    101.7532   1598.8395     29.3081
  1163.5000    186.1134     64.4454    115.5290   1598.9523     16.1569
  1163.7500    184.6089     65.5307    119.9906   1598.9523     21.4094
  1164.0000    183.0680     67.0614    127.2887   1598.9523     16.1526
  1164.2500    181.5150     71.3315    180.2163   1598.9523     18.2694
  1164.5000    179.9409     67.7892    239.8359   1598.9174     20.0801
  1164.7500    178.6360     61.3527    257.0655   1584.6700     11.2648
  1165.0000    177.8058     55.7753    206.0322   1429.8707     13.2623
  1165.2500    177.4799     51.1507    204.2763   1012.8466     20.3622
  1165.5000    177.5549     44.1259    160.1454    744.5633     28.0780
  1165.7500    178.0006     37.4433    108.0094    780.4465     24.1847
  1166.0000    178.5732     32.8276     71.5801    753.8899     28.8853
  1166.2500    179.1079     28.6104     51.1158    499.1680     29.8718
  1166.5000    179.7856     24.4405     35.8042    203.1768     31.1592
  1166.7500    180.4394     22.1683     25.9165     76.7041     40.8733
  1167.0000    181.0565     20.2408     20.7687     31.8101     44.1656
  1167.2500    181.5413     18.6006     16.9063     17.6639     73.7357
  1167.5000    181.9481     16.8784     14.6117     14.2789     87.6345
  1167.7500    182.3104     15.6375     13.6170     13.4585     88.5836
  1168.0000    182.6220     14.5793     12.8302     13.9155    120.8133
  1168.2500    183.0010     13.5129     12.1031     14.2798    122.5471
  1168.5000    183.3453     12.4700     11.4676     14.2708    149.7952
  1168.7500    183.5574     11.6561     10.8502     14.4576    141.3780
  1169.0000    183.7069     11.1718     10.2888     14.4856    126.3897
  1169.2500    183.8436     10.7814      9.9096     14.2220    120.0487
  1169.5000    184.0931     10.6131      9.5633     14.1701    135.1598
  1169.7500    184.4256     10.4379      9.4316     14.0703    131.4110
  1170.0000    184.8363     10.5819      9.3450     14.1387    125.5790
  1170.2500    185.1901     10.6634      9.4095     13.9292    122.0660
  1170.5000    185.5261     10.8773      9.6261     14.0146    117.4201
  1170.7500    185.9402     11.0998      9.8643     14.6634    122.2337
  1171.0000    186.2664     11.4811     10.1014     15.2249    130.3486
  1171.2500    186.5316     11.6725     10.5914     15.1102    129.5025
  1171.5000    186.8141     11.7875     11.2375     14.7536    124.8620
  1171.7500    187.1764     11.7219     12.1539     16.6956    138.8151
  1172.0000    187.5858     11.7081     12.7710     25.1810    129.4370
  1172.2500    187.9295     11.4120     13.3119     42.5307    106.4710
  1172.5000    188.0468     11.3210     13.3411     53.8814    102.4530
  1172.7500    188.0455     11.3564     12.9597     39.8020     89.9638
  1173.0000    187.9909     11.3302     12.2654     27.1139     71.3788
  1173.2500    187.8212     11.6255     11.5417     19.8096     65.8411
  1173.5000    187.4828     11.9929     10.8265     15.2445     93.1547
  1173.7500    186.9217     12.3521     10.3649     13.0754    105.8085
  1174.0000    186.2530     12.6782     10.3190     12.0412    109.9728
  1174.2500    185.5641     13.1923     10.6118     11.6622    111.7108
  1174.5000    184.9161     13.3089     11.1671     12.5889    135.9014
  1174.7500    184.3410     13.2437     12.0191     14.3197    149.5654
  1175.0000    183.9316     13.0973     12.9765     17.4542    126.9498
  1175.2500    183.7861     13.0358     14.2452     21.5166    109.8583
  1175.5000    183.9038     12.7852     15.1967     33.1658    105.0401
  1175.7500    184.1419     12.4281     15.8057     59.4575    107.4114
