~Version Information
VERS.                      2.0: CWLS Log ASCII Standard - VERSION 2.0
WRAP.                       NO: One line per depth step
~Well Information Block
STRT.FT                -7.5000: 
STOP.FT              1702.2500: 
STEP.FT                 0.2500: 
NULL.                -999.2500: 
COMP.          Pioneer Natural Resources: COMPANY
WELL.          Warrior 33-1 Tr: WELL
FLD.           Purgatoire River: FIELD
LOC.           2648' FSL & 2341' FEL--: LOCATION
PROV.                 Colorado: PROVINCE
CNTY.               Las Animas: COUNTRY
SRVC.                Patterson: SERVICE COMPANY
DATE.          Wed Jun 22 12:18:08 2005: LOG DATE
UWI.           05 071 08412 00: UNIQUE WELL ID
~Curve Information Block
DEPT.FT            0 000 00 00: Depth
CCL.                          : Casing Collar Locator
TT3.usec                      : CBL 3' Travel Time
AMP3.mV                       : CBL 3' Amplitude
GR.GAPI                       : Gamma Ray
~Parameter Information Block
~A  Depth       CCL         TT3         AMP3         GR     
# ...
  1667.5000      0.0000    557.4874      5.6065     45.1791
  1667.7500      0.0000    542.5898      5.5589     42.6344
  1668.0000      0.0000    532.5630      5.5328     38.8210
  1668.2500      0.0000    524.7414      5.5232     35.0680
  1668.5000      0.0000    518.1407      5.5186     32.7907
  1668.7500      0.0000    512.9935      5.5106     32.5801
  1669.0000      0.0000    509.0701      5.4974     33.9349
  1669.2500      0.0000    505.1955      5.4837     35.9147
  1669.5000      0.0000    500.1645      5.4772     37.9143
  1669.7500      0.0000    494.0348      5.4850     39.6737
  1670.0000      0.0000    488.6475      5.5079     40.8464
  1670.2500      0.0000    486.5749      5.5403     41.0105
  1670.5000      0.0000    489.2109      5.5745     40.1290
  1670.7500      0.0000    496.0239      5.6088     38.7241
  1671.0000      0.0000    506.0775      5.6518     37.5534
  1671.2500      0.0000    520.1220      5.7179     37.2073
  1671.5000      0.0000    540.2908      5.8190     37.8889
  1671.7500      0.0000    566.9712      5.9595     39.3207
  1672.0000      0.0000    596.3803      6.1375     40.9151
  1672.2500      0.0000    622.3781      6.3454     42.3171
  1672.5000      0.0000    640.9771      6.5681     43.8527
  1672.7500      0.0000    652.7278      6.7843     46.2457
  1673.0000      0.0000    660.9426      6.9720     49.8405
  1673.2500      0.0000    668.1057      7.1157     54.2375
  1673.5000      0.0000    673.7094      7.2085     58.6340
  1673.7500      0.0000    675.3267      7.2461     62.1919
  1674.0000      0.0000    671.9408      7.2179     63.9527
  1674.2500      0.0000    665.8312      7.1074     62.8920
  1674.5000      0.0000    660.1703      6.9064     58.6959
  1674.7500      0.0000    654.5649      6.6303     52.4519
  1675.0000      0.0000    644.1131      6.3191     46.1344
  1675.2500      0.0000    624.2115      6.0223     41.2993
  1675.5000      0.0000    596.3494      5.7813     38.3445
  1675.7500      0.0000    568.0386      5.6205     36.7574
  1676.0000      0.0000    546.9834      5.5459     35.7520
  1676.2500      0.0000    536.5405      5.5499     34.7615
  1676.5000      0.0000    536.5925      5.6203     33.6925
  1676.7500      0.0000    546.5241      5.7494     32.9094
  1677.0000      0.0000    565.6436      5.9350     32.8911
  1677.2500      0.0000    591.2082      6.1738     33.8610
  1677.5000      0.0000    617.7177      6.4531     35.8468
  1677.7500      0.0000    639.3800      6.7564     38.9562
  1678.0000      0.0000    653.2967      7.0748     43.2830
  1678.2500      0.0000    660.0468      7.4093     48.5395
  1678.5000      0.0000    661.8362      7.7563     53.9739
  1678.7500      0.0000    660.9760      8.0954     58.7156
  1679.0000      0.0000    659.7930      8.3918     62.3765
  1679.2500      0.0000    660.5067      8.6130     65.6477
  1679.5000      0.0000    664.0043      8.7404     70.2514
  1679.7500      0.0000    668.9133      8.7705     77.7605
  1680.0000      0.0000    672.7435      8.7076     88.0900
  1680.2500      0.0000    674.3198      8.5595     99.1551
  1680.5000      0.0000    674.7177      8.3409    108.0469
  1680.7500      0.0000    675.6230      8.0776    112.5036
  1681.0000      0.0000    677.4715      7.8023    111.5599
  1681.2500      0.0000    680.0865      7.5442    105.2712
  1681.5000      0.0000    684.6913      7.3200     94.0006
  1681.7500      0.0000    693.4979      7.1346     78.1165
  1682.0000      0.0000    706.5938      6.9878     58.7410
  1682.2500      0.0000    720.3939      6.8769     38.6566
  1682.5000      0.0000    730.1464      6.7924     21.5785
  1682.7500      0.0000    733.7979      6.7184      9.9649
  1683.0000      0.0000    733.3400      6.6412      3.7374
  1683.2500      0.0000    732.5080      6.5597      1.1236
  1683.5000      0.0000    732.8903      6.4817      0.2681
  1683.7500      0.0000    732.1658      6.4141      0.0499
  1684.0000      0.0000    726.3875      6.3557      0.0069
  1684.2500      0.0000    714.0500      6.3001      0.0000
  1684.5000      0.0000    697.8189      6.2424   -999.2500
  1684.7500      0.0000    682.4813      6.1833   -999.2500
  1685.0000      0.0000    671.4914      6.1296   -999.2500
  1685.2500      0.0000    665.3922      6.0916   -999.2500
  1685.5000      0.0000    662.7954      6.0768   -999.2500
  1685.7500      0.0000    662.0110      6.0835   -999.2500
  1686.0000      0.0000    661.7434      6.1014   -999.2500
  1686.2500      0.0000    660.4810      6.1127   -999.2500
  1686.5000      0.0000    654.8138      6.0814   -999.2500
  1686.7500      0.0000    636.9682      5.9310   -999.2500
  1687.0000      0.0000    594.0782      5.5389   -999.2500
  1687.2500      0.0000    513.9685      4.7928   -999.2500
  1687.5000      0.0000    397.4022      3.7041   -999.2500
  1687.7500      0.0000    265.2761      2.4711   -999.2500
  1688.0000      0.0000    148.6359      1.3838   -999.2500
  1688.2500      0.0000     68.4470      0.6370   -999.2500
  1688.5000      0.0000     25.5151      0.2374   -999.2500
  1688.7500      0.0000      7.6154      0.0708   -999.2500
  1689.0000      0.0000      1.8034      0.0168   -999.2500
  1689.2500      0.0000      0.3338      0.0031   -999.2500
  1689.5000      0.0000      0.0444      0.0004   -999.2500
  1689.7500      0.0000   -999.2500   -999.2500   -999.2500
  1690.0000      0.0000   -999.2500   -999.2500   -999.2500
  1690.2500      0.0000   -999.2500   -999.2500   -999.2500
  1690.5000      0.0000   -999.2500   -999.2500   -999.2500
  1690.7500      0.0000   -999.2500   -999.2500   -999.2500
  1691.0000      0.0000   -999.2500   -999.2500   -999.2500
  1691.2500      0.0000   -999.2500   -999.2500   -999.2500
  1691.5000      0.0000   -999.2500   -999.2500   -999.2500
  1691.7500      0.0000   -999.2500   -999.2500   -999.2500
  1692.0000      0.0000   -999.2500   -999.2500   -999.2500
  1692.2500      0.0000   -999.2500   -999.2500   -999.2500
  1692.5000      0.0000   -999.2500   -999.2500   -999.2500
  1692.7500      0.0000   -999.2500   -999.2500   -999.2500
  1693.0000      0.0000   -999.2500   -999.2500   -999.2500
  1693.2500      0.0000   -999.2500   -999.2500   -999.2500
  1693.5000      0.0000   -999.2500   -999.2500   -999.2500
  1693.7500      0.0000   -999.2500   -999.2500   -999.2500
  1694.0000      0.0000   -999.2500   -999.2500   -999.2500
  1694.2500      0.0000   -999.2500   -999.2500   -999.2500
  1694.5000     -2.0000   -999.2500   -999.2500   -999.2500
  1694.7500      2.0000   -999.2500   -999.2500   -999.2500
  1695.0000     -2.0000   -999.2500   -999.2500   -999.2500
  1695.2500      0.0000   -999.2500   -999.2500   -999.2500
  1695.5000   -999.2500   -999.2500   -999.2500   -999.2500
  1695.7500   -999.2500   -999.2500   -999.2500   -999.2500
  1696.0000   -999.2500   -999.2500   -999.2500   -999.2500
  1696.2500   -999.2500   -999.2500   -999.2500   -999.2500
  1696.5000   -999.2500   -999.2500   -999.2500   -999.2500
  1696.7500   -999.2500   -999.2500   -999.2500   -999.2500
  1697.0000   -999.2500   -999.2500   -999.2500   -999.2500
  1697.2500   -999.2500   -999.2500   -999.2500   -999.2500
  1697.5000   -999.2500   -999.2500   -999.2500   -999.2500
  1697.7500   -999.2500   -999.2500   -999.2500   -999.2500
  1698.0000   -999.2500   -999.2500   -999.2500   -999.2500
  1698.2500   -999.2500   -999.2500   -999.2500   -999.2500
  1698.5000   -999.2500   -999.2500   -999.2500   -999.2500
  1698.7500   -999.2500   -999.2500   -999.2500   -999.2500
  1699.0000   -999.2500   -999.2500   -999.2500   -999.2500
  1699.2500   -999.2500   -999.2500   -999.2500   -999.2500
  1699.5000   -999.2500   -999.2500   -999.2500   -999.2500
  1699.7500   -999.2500   -999.2500   -999.2500   -999.2500
  1700.0000   -999.2500   -999.2500   -999.2500   -999.2500
  1700.2500   -999.2500   -999.2500   -999.2500   -999.2500
  1700.5000   -999.2500   -999.2500   -999.2500   -999.2500
  1700.7500   -999.2500   -999.2500   -999.2500   -999.2500
