~Version Information
VERS.                      2.0: CWLS Log ASCII Standard - VERSION 2.0
WRAP.                       NO: One line per depth step
~Well Information Block
STRT.FT               375.0000: 
STOP.FT              1727.7000: 
STEP.FT                 0.1000: 
NULL.                -999.2500: 
COMP.          Pioneer Natural Resources: COMPANY
WELL.          Warrior 33-1 Tr: WELL
FLD.           Purgatoire River: FIELD
LOC.           2648' FSL & 2341' FEL--: LOCATION
PROV.                 Colorado: PROVINCE
CNTY.               Las Animas: COUNTRY
SRVC.                Patterson: SERVICE COMPANY
DATE.          Sat Jun 18 07:53:12 2005: LOG DATE
UWI.           05 071 08412 00: UNIQUE WELL ID
~Curve Information Block
DEPT.FT            0 000 00 00: Depth
DCAL.in                       : CDL Caliper
RHOB.g/cc                     : CDL Bulk Density
RHOC.g/cc                     : CDL Density Correction
DPOR.pu                       : CDL Density Porosity
NPOR.pu                       : Neutron Porosity
GR.GAPI                       : Gamma Ray
~Parameter Information Block
~A  Depth       DCAL        RHOB        RHOC        DPOR        NPOR         GR     
# ...
  1613.4000      7.9430      2.5496      0.0849      6.0842     19.5584     71.0697
  1613.5000      7.9490      2.5174      0.0483      8.0335     18.7553     68.6043
  1613.6000      7.9490      2.4945      0.0548      9.4225     18.3677     67.0896
  1613.7000      7.9490      2.5012      0.0519      9.0183     18.7675     66.3024
  1613.8000      7.9597      2.5258      0.1009      7.5248     19.1165     64.7633
  1613.9000      7.9597      2.5454      0.0342      6.3371     18.9579     62.4803
  1614.0000      7.9663      2.5491      0.0884      6.1148     18.6060     61.2353
  1614.1000      7.9663      2.5344      0.0436      7.0067     18.2811     61.0246
  1614.2000      7.9663      2.5126      0.0414      8.3267     18.2845     59.8123
  1614.3000      7.9680      2.5002      0.0193      9.0798     18.6267     57.8495
  1614.4000      7.9680      2.5076      0.0339      8.6332     19.0185     56.8362
  1614.5000      7.9682      2.5307      0.0556      7.2303     19.3072     56.9688
  1614.6000      7.9682      2.5478      0.1186      6.1917     19.2763     55.8298
  1614.7000      7.9682      2.5522      0.0115      5.9246     19.0772     51.4645
  1614.8000      7.9680      2.5627      0.0717      5.2902     18.8937     46.9747
  1614.9000      7.9680      2.5733      0.1015      4.6457     18.4785     48.5059
  1615.0000      7.9688      2.5637      0.1055      5.2317     17.8075     55.7084
  1615.1000      7.9688      2.5426      0.0537      6.5098     17.5263     60.5073
  1615.2000      7.9688      2.5317      0.0449      7.1695     18.1910     57.9847
  1615.3000      7.9691      2.5372      0.0450      6.8350     19.4334     51.6112
  1615.4000      7.9691      2.5426      0.1032      6.5114     20.6396     48.2504
  1615.5000      7.9679      2.5273      0.0730      7.4363     21.7117     48.5013
  1615.6000      7.9679      2.5033      0.0322      8.8907     22.3351     48.8729
  1615.7000      7.9679      2.4981      0.0193      9.2045     21.8266     49.3241
  1615.8000      7.9671      2.5117      0.0783      8.3800     20.5804     49.3658
  1615.9000      7.9671      2.5231      0.0478      7.6897     19.8423     46.6001
  1616.0000      7.9679      2.5231      0.0557      7.6921     20.0168     42.4030
  1616.1000      7.9679      2.5128      0.0702      8.3150     20.3990     40.2325
  1616.2000      7.9679      2.4931      0.0650      9.5095     20.4001     41.0440
  1616.3000      7.9678      2.4685      0.0597     11.0024     20.1804     43.3769
  1616.4000      7.9678      2.4504      0.0349     12.0958     19.8259     45.2824
  1616.5000      7.9685      2.4509      0.0315     12.0646     19.3915     44.9364
  1616.6000      7.9685      2.4693      0.0632     10.9524     19.1567     44.0307
  1616.7000      7.9685      2.4912      0.0649      9.6239     19.0578     45.9863
  1616.8000      7.9713      2.5054      0.0805      8.7641     18.6966     48.6938
  1616.9000      7.9713      2.5132      0.0987      8.2907     18.1497     48.5429
  1617.0000      7.9723      2.5155      0.0896      8.1534     18.0239     46.7562
  1617.1000      7.9723      2.5068      0.0783      8.6814     18.2830     44.4258
  1617.2000      7.9723      2.4908      0.0337      9.6480     18.3895     41.4009
  1617.3000      7.9699      2.4795      0.0185     10.3337     18.2757     39.2901
  1617.4000      7.9699      2.4767      0.0502     10.5053     18.1888     36.6203
  1617.5000      7.9671      2.4827      0.0327     10.1420     18.1252     30.5649
  1617.6000      7.9671      2.5045      0.0324      8.8193     17.9871     24.6016
  1617.7000      7.9671      2.5345      0.0844      6.9986     17.9392     23.2310
  1617.8000      7.9672      2.5481      0.0937      6.1730     18.0131     25.4170
  1617.9000      7.9672      2.5397      0.0615      6.6873     18.1338     27.4033
  1618.0000      7.9697      2.5229      0.0730      7.7013     18.2582     27.4952
  1618.1000      7.9697      2.5115      0.0362      8.3968     18.4568     28.5436
  1618.2000      7.9697      2.5117      0.0635      8.3839     18.8102     32.1902
  1618.3000      7.9720      2.5176      0.0365      8.0253     19.0382     34.8606
  1618.4000      7.9720      2.5182      0.0455      7.9895     18.9740     34.9925
  1618.5000      7.9730      2.5084      0.0173      8.5808     19.1317     34.9846
  1618.6000      7.9730      2.4936      0.0213      9.4782     19.7465     34.1533
  1618.7000      7.9730      2.4821      0.0175     10.1744     20.2316     30.6565
  1618.8000      7.9725      2.4830      0.0157     10.1236     20.5715     28.0421
  1618.9000      7.9725      2.4978      0.0615      9.2263     20.9743     30.7996
  1619.0000      7.9720      2.5127      0.0510      8.3228     21.0353     36.9514
  1619.1000      7.9720      2.5103      0.0858      8.4680     20.6498     41.5756
  1619.2000      7.9720      2.4935     -0.0030      9.4833     20.2316     43.4876
  1619.3000      7.9709      2.4866      0.0221      9.9018     20.0988     43.4624
  1619.4000      7.9709      2.4935      0.0362      9.4873     20.3637     41.8817
  1619.5000      7.9691      2.4939      0.0536      9.4603     21.0868     40.4912
  1619.6000      7.9691      2.4805      0.0456     10.2740     21.9538     41.8598
  1619.7000      7.9691      2.4623      0.0287     11.3740     22.4199     45.7242
  1619.8000      7.9668      2.4481      0.0334     12.2356     22.5605     49.9930
  1619.9000      7.9668      2.4405      0.0205     12.6943     22.9903     54.9805
  1620.0000      7.9620      2.4333      0.0424     13.1347     23.9105     61.0792
  1620.1000      7.9620      2.4213      0.0349     13.8595     24.9562     65.6651
  1620.2000      7.9620      2.4196      0.0199     13.9661     25.7665     69.3683
  1620.3000      7.9577      2.4387      0.0721     12.8037     26.3350     75.7755
  1620.4000      7.9577      2.4599      0.1031     11.5232     26.5797     84.3339
  1620.5000      7.9610      2.4706      0.0787     10.8705     26.2657     93.0808
  1620.6000      7.9610      2.4815      0.1336     10.2143     25.7034    101.9777
  1620.7000      7.9610      2.4941      0.1365      9.4456     25.5419    108.9413
  1620.8000      7.9654      2.4997      0.1403      9.1118     25.7714    112.7257
  1620.9000      7.9654      2.4944      0.0948      9.4275     26.2201    117.0075
  1621.0000      7.9684      2.4864      0.0785      9.9124     26.7144    122.3522
  1621.1000      7.9684      2.4926      0.0202      9.5366     26.8686    124.7963
  1621.2000      7.9684      2.5191      0.1205      7.9351     26.7025    124.4052
  1621.3000      7.9689      2.5511      0.1015      5.9931     26.5785    123.6457
  1621.4000      7.9689      2.5765      0.1225      4.4535     26.7677    121.2786
  1621.5000      7.9695      2.5894      0.1329      3.6701     27.0378    119.0635
  1621.6000      7.9695      2.5885      0.0973      3.7288     26.8339    122.2154
  1621.7000      7.9695      2.5825      0.0436      4.0891     26.2279    128.5082
  1621.8000      7.9746      2.5768      0.1309      4.4382     25.9198    132.0701
  1621.9000      7.9746      2.5673      0.0985      5.0119     26.1985    133.4124
  1622.0000      7.9818      2.5605      0.0797      5.4225     26.6843    134.3802
  1622.1000      7.9818      2.5597      0.0474      5.4739     27.2566    131.7290
  1622.2000      7.9818      2.5454      0.0801      6.3386     28.1879    125.2069
  1622.3000      7.9813      2.5072     -0.0087      8.6517     29.0586    121.6131
  1622.4000      7.9813      2.4631      0.0312     11.3272     29.3501    124.0642
  1622.5000      7.9740      2.4227      0.0216     13.7745     29.2554    129.6145
  1622.6000      7.9740      2.3750      0.0385     16.6660     29.2247    136.2932
  1622.7000      7.9740      2.3145     -0.0058     20.3337     29.3620    140.1904
  1622.8000      7.9707      2.2562     -0.0153     23.8691     29.6611    135.3769
  1622.9000      7.9707      2.2187     -0.0276     26.1395     30.1554    124.6156
