~Version Information
VERS.                      2.0: CWLS Log ASCII Standard - VERSION 2.0
WRAP.                       NO: One line per depth step
~Well Information Block
STRT.FT                 0.0000: 
STOP.FT              1390.5000: 
STEP.FT                 0.2500: 
NULL.                -999.2500: 
COMP.          Petrogulf Corporation: COMPANY
WELL.             Leier 17-42R: WELL
FLD.           Purgatorie River: FIELD
LOC.           2398' FNL & 1109' FEL: LOCATION
PROV.                 Colorado: PROVINCE
CNTY.               Las Animas: COUNTRY
SRVC.                Patterson: SERVICE COMPANY
DATE.          Thu Nov 10 14:34:29 2005: LOG DATE
UWI.                          : UNIQUE WELL ID
~Curve Information Block
DEPT.FT            0 000 00 00: Depth
CCL.                          : Casing Collar Locator
TT3.usec                      : CBL 3' Travel Time
AMP3.mV                       : CBL 3' Amplitude
GR.GAPI                       : Gamma Ray
~Parameter Information Block
~A  Depth       CCL         TT3         AMP3         GR     
# ...
   268.0000      0.0000    334.6442     10.8274     79.0219
   268.2500      0.0000    334.8108     10.8527     77.0705
   268.5000      0.0000    335.1718     10.8593     74.6736
   268.7500      0.0000    335.9129     10.8523     72.8367
   269.0000      0.0000    337.9427     10.7837     72.0516
   269.2500      0.0000    343.0526     10.5743     72.0192
   269.5000      0.0000    352.2637     10.1981     72.1370
   269.7500      0.0000    363.3358      9.7448     72.0333
   270.0000      0.0000    372.0843      9.3538     71.5420
   270.2500      0.0000    376.7261      9.0889     70.5476
   270.5000      0.0000    378.5092      8.9036     69.0919
   270.7500      0.0000    379.0412      8.7293     67.3422
   271.0000      0.0000    379.1215      8.5731     65.2427
   271.2500      0.0000    379.1015      8.5068     62.4928
   271.5000      0.0000    379.1446      8.5606     59.1121
   271.7500      0.0000    379.2442      8.6700     55.9322
   272.0000      0.0000    379.2607      8.7498     54.4353
   272.2500      0.0000    379.1118      8.7710     55.9455
   272.5000      0.0000    378.8766      8.7555     60.6227
   272.7500      0.0000    378.6555      8.7346     67.0583
   273.0000      0.0000    378.4608      8.7234     73.0689
   273.2500      0.0000    378.2461      8.7129     77.0417
   273.5000      0.0000    378.0002      8.6779     78.5578
   273.7500      0.0000    377.7661      8.6173     78.0849
   274.0000      0.0000    377.5331      8.5687     76.4030
   274.2500      0.0000    377.2327      8.5600     74.1505
   274.5000      0.0000    376.8729      8.5759     71.7301
   274.7500      0.0000    376.5782      8.5855     69.6072
   275.0000      0.0000    376.4907      8.5783     68.4393
   275.2500      0.0000    376.6526      8.5777     68.7020
   275.5000      0.0000    376.9929      8.6204     70.2401
   275.7500      0.0000    377.3974      8.7087     72.2514
   276.0000      0.0000    377.7549      8.7922     73.7939
   276.2500      0.0000    377.9879      8.8216     74.4338
   276.5000      0.0000    378.0625      8.8220     74.3029
   276.7500      0.0000    377.9439      8.8674     73.4381
   277.0000      0.0000    377.6516      8.9779     71.5577
   277.2500      0.0000    377.3593      9.0953     68.8711
   277.5000      0.0000    377.2941      9.1587     66.5368
   277.7500      0.0000    377.5875      9.1732     65.5743
   278.0000      0.0000    378.2341      9.2064     65.5729
   278.2500      0.0000    379.0336      9.3230     65.1573
   278.5000      0.0000    379.6482      9.5089     63.6595
   278.7500      0.0000    379.8845      9.6747     61.7798
   279.0000      0.0000    379.8029      9.7618     60.6000
   279.2500      0.0000    379.5262      9.8121     60.4120
   279.5000      0.0000    379.1577      9.9092     60.6011
   279.7500      0.0000    378.8478     10.0830     60.3260
   280.0000      0.0000    378.7593     10.2838     59.1585
   280.2500      0.0000    378.9498     10.4471     57.2869
   280.5000      0.0000    379.3032     10.5682     55.3635
   280.7500      0.0000    379.5945     10.6901     54.1554
   281.0000      0.0000    379.6302     10.8301     54.1366
   281.2500      0.0000    379.3473     10.9256     55.3187
   281.5000      0.0000    378.8516     10.8896     57.6331
   281.7500      0.0000    378.4454     10.7320     61.3957
   282.0000      0.0000    378.9923     10.5667     67.0404
   282.2500      0.0000    382.9451     10.4928     74.4024
   282.5000      0.0000    394.3053     10.5081     82.5645
   282.7500      0.0000    413.8084     10.5398     90.3743
   283.0000      0.0000    434.2364     10.5230     96.9329
   283.2500      0.0000    445.1442     10.4504    101.7177
   283.5000      0.0000    439.7448     10.3703    104.3827
   283.7500      0.0000    419.6241     10.3405    104.6610
   284.0000      0.0000    396.8636     10.3827    102.7901
   284.2500      0.0000    382.5610     10.4722     99.8119
   284.5000      0.0000    376.9745     10.5611     96.8530
   284.7500      0.0000    375.3991     10.6141     94.1565
   285.0000      0.0000    374.9152     10.6279     91.2297
   285.2500      0.0000    374.5830     10.6214     87.8302
   285.5000      0.0000    374.1379     10.6080     84.4893
   285.7500      0.0000    373.5252     10.5793     82.0642
   286.0000      0.0000    372.8406     10.5139     80.8762
   286.2500      0.0000    372.2638     10.4087     80.4065
   286.5000      0.0000    371.9551     10.3015     79.9709
   286.7500      0.0000    371.9250     10.2253     79.5219
   287.0000      0.0000    372.0039     10.1497     79.5778
   287.2500      0.0000    371.9942     10.0289     80.5287
   287.5000      0.0000    371.8095      9.8820     82.2344
   287.7500      0.0000    371.3249      9.7615     84.2281
   288.0000      0.0000    370.0058      9.6825     86.0695
   288.2500      0.0000    367.0857      9.6289     87.3869
   288.5000      0.0000    363.2150      9.6033     87.6905
   288.7500      0.0000    361.3470      9.6537     86.4751
   289.0000      0.0000    363.0079      9.8660     83.7636
   289.2500      0.0000    365.3835     10.2764     80.3612
   289.5000      0.0000    368.4279     10.7255     77.2655
   289.7500      0.0000    385.0845     10.9171     74.8790
   290.0000      0.0000    434.8221     10.7003     73.0019
   290.2500      0.0000    515.3822     10.1977     71.4375
   290.5000      0.0000    589.3817      9.6928     70.1861
   290.7500      0.0000    616.5500      9.4266     69.0858
   291.0000      0.0000    588.2498      9.3795     67.7671
   291.2500     -2.0000    527.0718      9.3386     66.0904
   291.5000      0.0000    470.1492      9.2431     64.4167
   291.7500      2.0000    444.2910      9.1745     63.5294
   292.0000      0.0000    449.7950      9.0754     64.3056
   292.2500      0.0000    468.3305      8.8225     67.0838
   292.5000      0.0000    482.1857      8.5171     71.2245
   292.7500      0.0000    484.6971      8.4474     75.5729
   293.0000      0.0000    471.4897      8.6823     79.3934
   293.2500      0.0000    438.8741      8.9401     82.7101
   293.5000      0.0000    396.9163      9.0139     85.9490
   293.7500      0.0000    362.9176      8.9904     89.5288
   294.0000      0.0000    344.0111      8.9979     93.5919
   294.2500      0.0000    336.4683      9.0605     97.7728
   294.5000      0.0000    334.2693      9.1429    101.2945
   294.7500      0.0000    333.6886      9.2056    103.4697
   295.0000      0.0000    333.3281      9.2500    103.9768
   295.2500      0.0000    332.9366      9.3032    102.6157
   295.5000      0.0000    332.6127      9.3672     99.2276
   295.7500      0.0000    332.4150      9.4131     94.1853
   296.0000      0.0000    332.2852      9.4202     88.7106
   296.2500      0.0000    332.1553      9.3947     84.4710
   296.5000      0.0000    332.0210      9.3469     82.8671
   296.7500      0.0000    331.8980      9.2725     84.4058
   297.0000      0.0000    331.7880      9.1677     88.2614
   297.2500      0.0000    331.6960      9.0518     92.5308
   297.5000      0.0000    331.6528      8.9675     95.3894
   297.7500      0.0000    331.7045      8.9546     96.1558
   298.0000      0.0000    331.8639      9.0095     95.1298
   298.2500      0.0000    332.0938      9.0851     92.7885
   298.5000      0.0000    332.3584      9.1433     89.7072
   298.7500      0.0000    332.7831      9.1866     86.8462
   299.0000      0.0000    333.9731      9.2268     85.0106
   299.2500      0.0000    336.8652      9.2434     84.1305
   299.5000      0.0000    340.9794      9.2050     83.7797
   299.7500      0.0000    343.2278      9.1318     84.1296
   300.0000      0.0000    341.3838      9.0717     85.7139
   300.2500      0.0000    337.6399      9.0174     88.4798
   300.5000      0.0000    335.9376      8.9438     91.6965
   300.7500      0.0000    338.4814      8.8894     94.8164
   301.0000      0.0000    344.9883      8.9014     97.9399
   301.2500      0.0000    352.1233      8.9554    101.2539
