~Version Information
VERS.                      2.0: CWLS Log ASCII Standard - VERSION 2.0
WRAP.                       NO: One line per depth step
~Well Information Block
STRT.FT               -12.5000: 
STOP.FT              1647.5000: 
STEP.FT                 0.2500: 
NULL.                -999.2500: 
COMP.          Pioneer Natural Resources: COMPANY
WELL.            Harlee L 34-9: WELL
FLD.           Purgatorie River`: FIELD
LOC.           600' FSL & 2125' FEL----: LOCATION
PROV.                       CO: PROVINCE
CNTY.               Las Animas: COUNTRY
SRVC.                Patterson: SERVICE COMPANY
DATE.          Sat Feb 12 09:31:33 2005: LOG DATE
UWI.           05 071 08009 00: UNIQUE WELL ID
~Curve Information Block
DEPT.FT            0 000 00 00: Depth
CCL.                          : Casing Collar Locator
TT3.usec                      : CBL 3' Travel Time
AMP3.mV                       : CBL 3' Amplitude
AMP5.mV                       : CBL 5' Amplitude
GR.GAPI                       : Gamma Ray
~Parameter Information Block
~A  Depth       CCL         TT3         AMP3        AMP5         GR     
# ...
   743.5000      0.0000    617.0452     10.6852      1.9994    126.4392
   743.7500      0.0000    617.0245     10.7364      2.1140    132.4153
   744.0000      0.0000    617.0276     10.7626      2.1140    137.8272
   744.2500      0.0000    617.0184     10.7736      2.1522    141.1224
   744.5000      0.0000    616.9697     10.7900      2.3431    141.3402
   744.7500      0.0000    616.8960     10.8327      2.2667    138.4166
   745.0000      0.0000    616.9302     10.9125      2.1140    132.9402
   745.2500      0.0000    617.4197     11.0208      2.1904    125.6993
   745.5000      0.0000    618.8154     11.1317      2.3431    117.5944
   745.7500      0.0000    621.1831     11.2208      2.1904    109.8136
   746.0000      0.0000    623.7090     11.2809      2.2667    103.8370
   746.2500      0.0000    625.0092     11.3176      2.4577    100.9365
   746.5000      0.0000    624.2929     11.3342      2.3813    101.3099
   746.7500      0.0000    622.1081     11.3250      2.6104    103.5919
   747.0000      0.0000    619.7505     11.2825      2.4959    105.6500
   747.2500      0.0000    618.1566     11.2031      2.5340    106.4539
   747.5000      0.0000    617.5125     11.0858      2.5340    107.1856
   747.7500      0.0000    617.5878     10.9335      2.6104    110.1439
   748.0000      0.0000    618.0828     10.7565      2.3431    116.4227
   748.2500      0.0000    618.7045     10.5730      2.4959    124.7276
   748.5000      0.0000    619.1702     10.4068      2.4195    132.3123
   748.7500      0.0000    619.3030     10.2882      2.5340    136.7321
   749.0000      0.0000    619.1185     10.2488      2.4959    136.6128
   749.2500      0.0000    618.7785     10.2976      2.4577    131.4670
   749.5000      0.0000    618.4635     10.4036      2.4577    121.8876
   749.7500      0.0000    618.2939     10.5090      2.4195    110.1192
   750.0000      0.0000    618.3191     10.5621      2.5340     99.7752
   750.2500      0.0000    618.5219     10.5416      2.4577     94.3696
   750.5000      0.0000    618.8154     10.4614      2.4959     95.5201
   750.7500      0.0000    619.0453     10.3590      2.4577    101.8769
   751.0000      0.0000    619.0261     10.2767      2.5340    109.9343
   751.2500      0.0000    618.4549     10.2546      2.5722    116.6193
   751.5000      0.0000    616.5049     10.3355      2.5722    121.2447
   751.7500      0.0000    611.0262     10.5553      2.4577    124.8725
   752.0000      0.0000    598.4031     10.9083      2.3813    128.3828
   752.2500      0.0000    575.7815     11.3256      2.2286    131.7598
   752.5000      0.0000    545.5249     11.7052      2.3813    134.7973
   752.7500      0.0000    517.5851     11.9723      2.2667    137.4483
   753.0000      0.0000    504.7972     12.1135      2.0758    139.1982
   753.2500      0.0000    512.8654     12.1614      2.1904    138.8725
   753.5000      0.0000    533.9025     12.1596      2.2286    135.7552
   753.7500      0.0000    550.4007     12.1374      2.2286    130.7139
   754.0000      0.0000    546.8438     12.1078      2.3049    125.8424
   754.2500      0.0000    519.5255     12.0838      2.3813    123.1306
   754.5000      0.0000    477.5568     12.0865      2.4577    123.5406
   754.7500      0.0000    435.5121     12.1286      2.4577    126.7649
   755.0000      0.0000    404.1760     12.1928      2.6868    131.2850
   755.2500      0.0000    386.2821     12.2349      2.8013    134.9687
   755.5000      0.0000    378.7812     12.2154      2.7632    136.3095
   755.7500      0.0000    377.4142     12.1286      2.8777    135.2796
   756.0000      0.0000    379.0625     12.0060      3.0305    133.0610
   756.2500      0.0000    381.2933     11.8952      2.9541    131.2595
   756.5000      0.0000    381.8497     11.8334      2.8777    131.1180
   756.7500      0.0000    379.6581     11.8331      2.8777    132.6805
   757.0000      0.0000    376.0113     11.8831      2.9923    134.5007
   757.2500      0.0000    374.2988     11.9599      2.9541    134.7319
   757.5000      0.0000    378.5934     12.0427      2.7632    132.8618
   757.7500      0.0000    392.3240     12.1245      2.9541    130.1965
   758.0000      0.0000    417.0405     12.2155      2.9159    128.5906
   758.2500      0.0000    450.4695     12.3385      2.4959    128.7720
   758.5000      0.0000    484.8463     12.5121      2.4577    129.6196
   758.7500      0.0000    508.7853     12.7398      2.6104    128.8817
   759.0000      0.0000    514.2288     13.0246      2.8395    124.8847
   759.2500      0.0000    502.7732     13.3940      2.7632    117.7351
   759.5000      0.0000    483.0872     13.8924      3.0687    108.7779
   759.7500      0.0000    461.2552     14.5335      3.4887     99.3859
   760.0000      0.0000    436.3778     15.2714      3.5651     90.8915
   760.2500      0.0000    406.7260     16.0290      3.9469     84.9539
   760.5000      0.0000    376.2074     16.7433      4.0997     82.6727
   760.7500      0.0000    351.7699     17.3675      4.2906     83.5389
   761.0000      0.0000    336.8708     17.8411      4.4434     86.1979
   761.2500      0.0000    329.9126     18.0882      4.4815     89.9378
   761.5000      0.0000    327.4070     18.0659      4.4052     94.7615
   761.7500      0.0000    326.7479     17.8113      4.4815    100.5568
   762.0000      0.0000    326.6939     17.4275      4.0233    106.8445
   762.2500      0.0000    326.8185     17.0101      3.9087    112.7658
   762.5000      0.0000    327.0883     16.5906      3.5651    116.9663
   762.7500      0.0000    327.8927     16.1465      3.1450    118.2728
   763.0000      0.0000    330.6462     15.6510      2.8013    116.9831
   763.2500      0.0000    338.7820     15.0995      2.8395    114.9575
   763.5000      0.0000    358.0063     14.5034      2.7632    114.1610
   763.7500      0.0000    393.7346     13.8780      2.7632    115.4686
   764.0000      0.0000    445.6923     13.2398      2.7632    118.5071
   764.2500      0.0000    504.6667     12.6049      2.8013    121.8025
   764.5000      0.0000    556.8181     11.9895      2.8013    123.3493
   764.7500      0.0000    592.7842     11.4174      2.7632    121.9656
   765.0000      0.0000    612.4768     10.9272      2.9923    118.2251
   765.2500      0.0000    621.8013     10.5666      2.9159    113.7587
   765.5000      0.0000    626.4460     10.3719      2.7250    109.8045
   765.7500      0.0000    628.7723     10.3442      2.4577    106.6495
   766.0000      0.0000    628.8083     10.4415      1.9994    104.2463
   766.2500      0.0000    626.6678     10.5980      1.9994    102.8801
   766.5000      0.0000    623.5651     10.7594      1.8467    102.7370
   766.7500      0.0000    620.9334     10.9067      1.7703    102.8730
   767.0000      0.0000    619.3057     11.0480      1.9612    101.5423
   767.2500      0.0000    618.3504     11.1914      2.4195     98.2652
   767.5000      0.0000    617.6282     11.3321      2.3813     95.1234
   767.7500      0.0000    617.0765     11.4627      2.0758     95.2972
   768.0000      0.0000    616.8662     11.5811      1.9994    100.3873
   768.2500      0.0000    617.0463     11.6780      2.3431    109.3415
   768.5000      0.0000    617.4132     11.7213      2.2286    119.4149
   768.7500      0.0000    617.6821     11.6651      1.9994    127.5952
   769.0000      0.0000    617.6995     11.4850      1.8849    131.7705
   769.2500      0.0000    617.4896     11.2112      1.8467    131.7503
   769.5000      0.0000    617.1578     10.9196      1.8467    129.3600
   769.7500      0.0000    616.7892     10.6826      2.0758    127.0047
   770.0000      0.0000    616.4375     10.5207      2.1522    126.0152
   770.2500      0.0000    616.1736     10.3996      2.3813    126.3206
   770.5000      0.0000    616.0984     10.2672      2.2286    127.1103
   770.7500      0.0000    616.2818     10.0970      2.2286    127.5167
   771.0000      0.0000    616.6937      9.9065      2.0758    127.0973
   771.2500      0.0000    617.2048      9.7443      1.9994    125.9792
