~Version Information
VERS.                      2.0: CWLS Log ASCII Standard - VERSION 2.0
WRAP.                       NO: One line per depth step
~Well Information Block
STRT.FT               395.0000: 
STOP.FT              1998.0000: 
STEP.FT                 0.1000: 
NULL.                -999.2500: 
COMP.          Pioneer Natural Resources: COMPANY
WELL.          Easton 12-30 Tr: WELL
FLD.           Purgatoire River: FIELD
LOC.           549' FWL & 2416' FNL--: LOCATION
PROV.                 Colorado: PROVINCE
CNTY.               Las Animas: COUNTRY
SRVC.                Patterson: SERVICE COMPANY
DATE.          Thu Jun 02 09:14:44 2005: LOG DATE
UWI.           05 071 08379 00: UNIQUE WELL ID
~Curve Information Block
DEPT.FT            0 000 00 00: Depth
DCAL.in                       : CDL Caliper
RHOB.g/cc                     : CDL Bulk Density
RHOC.g/cc                     : CDL Density Correction
DPOR.pu                       : CDL Density Porosity
NPOR.pu                       : Neutron Porosity
GR.GAPI                       : Gamma Ray
~Parameter Information Block
~A  Depth       DCAL        RHOB        RHOC        DPOR        NPOR         GR     
# ...
   711.8000      8.1199      2.6224      0.0370      1.6756     22.2929     73.8958
   711.9000      8.1199      2.6159      0.0307      2.0642     22.1793     74.2910
   712.0000      8.1196      2.6103     -0.0379      2.4040     22.2475     72.5619
   712.1000      8.1196      2.6115      0.0624      2.3317     22.6171     71.4097
   712.2000      8.1196      2.6127      0.0321      2.2623     23.0139     73.1066
   712.3000      8.1180      2.6133     -0.0022      2.2226     23.0322     76.1199
   712.4000      8.1180      2.6108      0.0687      2.3752     22.7280     77.3999
   712.5000      8.1167      2.6028      0.0039      2.8592     22.5121     76.8648
   712.6000      8.1167      2.6015      0.0412      2.9411     22.3812     75.8579
   712.7000      8.1167      2.6064      0.0350      2.6442     22.0458     73.6370
   712.8000      8.1175      2.6055      0.0388      2.6949     21.7093     68.4379
   712.9000      8.1175      2.6001      0.0259      3.0227     21.7732     63.1550
   713.0000      8.1179      2.6033      0.0273      2.8287     21.9036     63.0457
   713.1000      8.1179      2.6175      0.0378      1.9670     21.6597     67.6412
   713.2000      8.1179      2.6341      0.0543      0.9640     21.2946     71.1990
   713.3000      8.1166      2.6538      0.0331     -0.2331     21.2363     70.2708
   713.4000      8.1166      2.6740      0.0962     -1.4549     21.5410     66.7848
   713.5000      8.1156      2.6752      0.0836     -1.5286     21.7204     65.4658
   713.6000      8.1156      2.6570      0.0499     -0.4262     21.4788     68.2541
   713.7000      8.1156      2.6385      0.0489      0.6953     21.1826     72.1174
   713.8000      8.1177      2.6239      0.0637      1.5827     20.9913     73.6745
   713.9000      8.1177      2.6094      0.0176      2.4605     20.9824     73.2844
   714.0000      8.1204      2.5970      0.0364      3.2111     21.4862     72.0621
   714.1000      8.1204      2.5880      0.0097      3.7571     22.2404     70.5282
   714.2000      8.1204      2.5879      0.0126      3.7645     22.7049     70.4490
   714.3000      8.1217      2.5987      0.0575      3.1106     22.8837     70.2917
   714.4000      8.1217      2.6069      0.0404      2.6103     23.0301     69.1258
   714.5000      8.1217      2.6082      0.0358      2.5331     23.1457     71.5817
   714.6000      8.1217      2.6166      0.0237      2.0217     23.3264     78.6916
   714.7000      8.1217      2.6294      0.0826      1.2512     23.6963     86.1743
   714.8000      8.1218      2.6240      0.0836      1.5728     23.7542     90.4028
   714.9000      8.1218      2.6040      0.0365      2.7889     23.4305     91.2917
   715.0000      8.1220      2.5925      0.0608      3.4820     23.4986     90.4917
   715.1000      8.1220      2.5946      0.0887      3.3569     24.2512     88.1147
   715.2000      8.1220      2.6030      0.0588      2.8479     25.4044     84.4113
   715.3000      8.1201      2.6162      0.0423      2.0503     26.7394     81.1193
   715.4000      8.1201      2.6302      0.0708      1.2023     27.8403     80.1470
   715.5000      8.1189      2.6349      0.0845      0.9164     28.0043     80.4622
   715.6000      8.1189      2.6237      0.0847      1.5965     27.2896     79.4470
   715.7000      8.1189      2.6035      0.0341      2.8189     26.5952     79.7278
   715.8000      8.1216      2.5924      0.0244      3.4937     26.4195     84.8995
   715.9000      8.1216      2.5930      0.0949      3.4557     26.7991     92.6121
   716.0000      8.1301      2.5918      0.0496      3.5271     27.4665     99.3124
   716.1000      8.1301      2.5866      0.0641      3.8431     27.8081    102.9006
   716.2000      8.1301      2.5819      0.0515      4.1243     27.6826    104.0591
   716.3000      8.1401      2.5758      0.0378      4.4992     27.5075    106.0904
   716.4000      8.1401      2.5652      0.0498      5.1388     27.4698    109.9001
   716.5000      8.1433      2.5547      0.0670      5.7737     27.5318    114.7764
   716.6000      8.1433      2.5555      0.0272      5.7264     27.6280    119.0802
   716.7000      8.1433      2.5722      0.0854      4.7154     28.0435    122.7067
   716.8000      8.1415      2.5910      0.0930      3.5756     28.9504    126.2731
   716.9000      8.1415      2.5969      0.0793      3.2197     29.5843    125.2145
   717.0000      8.1436      2.5856      0.0833      3.9044     29.6614    117.6483
   717.1000      8.1436      2.5648      0.0219      5.1638     29.6915    110.8055
   717.2000      8.1436      2.5504      0.0206      6.0392     29.7449    112.3397
   717.3000      8.1532      2.5423      0.0658      6.5244     29.7795    121.1435
   717.4000      8.1532      2.5319      0.0327      7.1605     29.7764    129.5834
   717.5000      8.1650      2.5268     -0.0003      7.4661     29.5379    135.3820
   717.6000      8.1650      2.5369      0.0233      6.8556     29.2955    140.0768
   717.7000      8.1650      2.5523      0.0293      5.9224     29.4285    140.2038
   717.8000      8.1709      2.5551      0.0820      5.7504     29.5848    134.5818
   717.9000      8.1709      2.5430      0.0139      6.4838     29.4084    131.1671
   718.0000      8.1720      2.5354      0.0187      6.9446     29.0419    134.2990
   718.1000      8.1720      2.5434      0.0450      6.4621     28.5504    137.7069
   718.2000      8.1720      2.5559      0.0845      5.7024     28.1233    136.0820
   718.3000      8.1716      2.5622      0.0441      5.3194     28.2274    132.7411
   718.4000      8.1716      2.5618      0.0406      5.3452     28.8761    132.3852
   718.5000      8.1708      2.5554      0.0361      5.7329     29.5501    134.4418
   718.6000      8.1708      2.5434      0.0227      6.4588     30.0151    138.1203
   718.7000      8.1708      2.5290      0.0022      7.3348     30.4881    142.3507
   718.8000      8.1709      2.5115     -0.0041      8.3966     30.8731    143.1947
   718.9000      8.1709      2.4797      0.0163     10.3215     30.8627    141.9374
   719.0000      8.1712      2.4293     -0.0540     13.3777     30.5459    141.4094
   719.1000      8.1712      2.3659     -0.0270     17.2190     30.0688    138.8784
   719.2000      8.1712      2.2876     -0.0458     21.9617     29.3006    135.1758
   719.3000      8.1709      2.1976     -0.0850     27.4178     27.9446    133.7680
   719.4000      8.1709      2.1088     -0.1326     32.8009     25.9902    131.3583
   719.5000      8.1688      2.0232     -0.0919     37.9880     23.8498    124.4131
   719.6000      8.1688      1.9303     -0.1239     43.6183     21.6700    115.2915
   719.7000      8.1688      1.8209     -0.0775     50.2505     19.3611    106.3205
   719.8000      8.1660      1.6998     -0.1243     57.5867     16.9172     98.7916
   719.9000      8.1660      1.5883     -0.1095     64.3450     14.2635     94.7029
   720.0000      8.1674      1.4991     -0.0567     69.7505     11.7539     92.7540
   720.1000      8.1674      1.4317      0.0177     73.8369      9.9924     88.7057
   720.2000      8.1674      1.3945      0.0430     76.0928      9.0526     82.3055
   720.3000      8.1801      1.4025      0.0714     75.6079      8.4600     77.0926
   720.4000      8.1801      1.4558      0.0665     72.3728      7.9002     73.7621
   720.5000      8.2074      1.5389      0.1218     67.3391      7.6089     70.9374
   720.6000      8.2074      1.6352      0.1659     61.5018      7.7846     69.2735
   720.7000      8.2074      1.7314      0.2354     55.6718      8.3563     71.0708
   720.8000      8.2306      1.8214      0.2572     50.2207      9.3127     76.9376
   720.9000      8.2306      1.9125      0.2430     44.6967     10.6699     84.7012
   721.0000      8.2115      2.0082      0.2896     38.8975     12.1531     92.9297
   721.1000      8.2115      2.0984      0.2709     33.4296     13.3531    100.6621
   721.2000      8.2115      2.1735      0.2545     28.8814     14.3384    105.1254
   721.3000      8.1571      2.2257      0.1960     25.7178     15.4590    105.0955
