~Version Information
 VERS.                                  2.0 : CWLS LAS VERSION
 WRAP.                                   NO : WRAPING MODE
 SWARE .                 MController 2.5.0E : SOFTWARE VERSION
~Well Information
 WELL.                          Patten 22-2 : WELL
 COMP.           Pionneer Natural Resources : COMPANY
 FLD.                      Purgatoire River : FIELD
 LOC.                 SE/NW Sec 2 T35S R65W : LOCATION
 DATE.                             12/09/04 : DATE(S) LOGGED
 SRVC.                Blanco Geological LLC : SERVICE COMPANY
 STAT.                                   CO : STATE
 CNTY.                           Las Aminas : COUNTY
 CTRY.                                  USA : COUNTRY
 API.                          05-071-08168 : API NUMBER
 STRT.FT                             276.00 : START DEPTH
 STOP.FT                            1707.00 : STOP DEPTH
 STEP.FT                               1.00 : DEPTH INCREMENT
 NULL.                                -9999 : NULL VALUE
~Curve information
 DEPTH.FT                                   :
 ROP.MIN/FT                                 :
 GAS.UNITS                                  :
~ASCII Log data
      276.00    -9999.000          1.0 
      277.00        0.133          0.9 
      278.00        0.267          1.3 
      279.00        0.233          1.1 
      280.00        0.167          1.0 
      281.00        0.200          0.4 
      282.00        0.167          0.9 
      283.00        0.167          0.6 
      284.00        0.167          0.6 
      285.00        0.183          0.7 
      286.00        0.167          0.3 
      287.00        0.233          0.9 
      288.00        0.167          0.9 
      289.00        0.200          0.6 
      290.00        0.167          0.6 
      291.00        0.200          1.0 
      292.00        0.200          1.0 
      293.00        0.167          1.2 
      294.00        0.167          0.5 
      295.00        0.200          0.5 
      296.00        3.617          1.3 
      297.00        0.583          1.3 
      298.00        0.133          1.0 
      299.00        0.133          1.1 
      300.00        0.167          1.1 
      301.00        0.167          1.1 
      302.00        0.167          1.0 
      303.00        0.167          0.6 
      304.00        0.133          0.9 
      305.00        0.133          0.9 
      306.00        0.100          0.3 
      307.00        0.133          1.0 
      308.00        0.167          1.1 
      309.00        0.200          1.3 
      310.00        0.167          1.1 
      311.00        0.167          1.2 
      312.00        0.100          0.7 
      313.00        0.167          0.9 
      314.00        0.133          0.8 
      315.00        0.167          0.9 
      316.00        0.100          0.7 
      317.00        0.117          1.3 
      318.00        0.200          1.4 
      319.00        0.167          1.5 
      320.00        0.167          0.6 
      321.00        0.167          1.1 
      322.00        0.167          0.8 
      323.00        0.133          1.2 
      324.00        0.233          1.1 
      325.00        0.233          1.0 
      326.00        5.433          1.2 
      327.00        0.200          0.5 
      328.00        0.200          1.2 
      329.00        0.200          1.0 
      330.00        0.133          0.8 
      331.00        0.167          1.1 
      332.00        0.167          0.9 
      333.00        0.167          1.2 
      334.00        0.167          0.6 
      335.00        0.167          0.9 
      336.00        0.167          0.9 
      337.00        0.100          0.7 
      338.00        0.133          1.0 
      339.00        0.133          1.1 
      340.00        0.133          0.9 
      341.00        0.133          0.6 
      342.00        0.167          0.6 
      343.00        0.133          0.8 
      344.00        0.167          1.0 
      345.00        0.183          0.7 
      346.00        0.067          1.1 
      347.00        0.133          1.3 
      348.00        0.133          1.0 
      349.00        0.133          0.9 
      350.00        0.167          1.2 
      351.00        0.167          0.6 
      352.00        0.133          0.7 
      353.00        0.200          1.1 
      354.00        0.100          0.5 
      355.00        0.100          1.1 
      356.00        1.983          1.4 
      357.00        0.267          1.0 
      358.00        0.267          0.9 
      359.00        0.233          1.0 
      360.00        0.167          0.8 
      361.00        0.167          1.1 
      362.00        0.200          1.3 
      363.00        0.200          1.4 
      364.00        0.167          1.2 
      365.00        0.167          1.2 
      366.00        0.167          1.1 
      367.00        0.133          1.1 
      368.00        0.100          0.5 
      369.00        0.133          1.1 
      370.00        0.100          1.1 
      371.00        0.100          1.3 
      372.00        0.133          1.0 
      373.00        0.183          1.2 
      374.00        0.100          0.6 
      375.00        0.133          0.2 
      376.00        0.400          1.2 
      377.00        0.333          1.3 
      378.00        0.300          1.2 
      379.00        0.200          1.3 
      380.00        0.133          1.5 
      381.00        0.100          1.5 
      382.00        0.167          1.6 
      383.00        0.067          1.7 
      384.00        0.167          1.7 
      385.00        0.200          2.0 
      386.00        0.167         16.8 
      387.00        3.517         37.8 
      388.00        0.167          2.0 
      389.00        0.250          1.8 
      390.00        0.167          2.0 
      391.00        0.200          1.7 
      392.00        0.200          1.9 
      393.00        0.200          2.1 
      394.00        0.233          2.0 
      395.00        0.200          2.0 
      396.00        0.200          1.7 
      397.00        0.167          1.6 
      398.00        0.167          2.0 
      399.00        0.133          1.6 
      400.00        0.100          1.9 
      401.00        0.133          2.0 
      402.00        0.200          2.0 
      403.00        0.200          1.8 
      404.00        0.133          1.8 
      405.00        0.200          1.8 
      406.00        0.150          1.9 
      407.00        0.167          2.3 
      408.00        0.167          1.6 
      409.00        0.167          2.2 
      410.00        0.167          2.0 
      411.00        0.200          2.1 
      412.00        0.167          1.9 
      413.00        0.133          1.9 
      414.00        0.167          2.1 
      415.00        0.133          2.0 
      416.00        2.783          2.6 
      417.00        0.233          2.1 
      418.00        0.167          1.8 
      419.00        0.167          2.1 
      420.00        0.167          1.9 
      421.00        0.167          2.0 
      422.00        0.167          1.9 
      423.00        0.200          2.0 
      424.00        0.167          1.9 
      425.00        0.167          2.0 
      426.00        0.133          1.6 
      427.00        0.167          2.0 
      428.00        0.133          1.8 
      429.00        0.150          1.5 
      430.00        0.133          1.6 
      431.00        0.067          1.4 
      432.00        0.133          2.1 
      433.00        0.133          2.1 
      434.00        0.133          2.2 
      435.00        0.200          1.9 
      436.00        0.167          1.7 
      437.00        0.267          2.3 
      438.00        0.200          1.9 
      439.00        0.167          1.6 
      440.00        0.200          1.8 
      441.00        0.167          2.1 
      442.00        0.200          1.9 
      443.00        0.200          1.9 
      444.00        0.133          1.4 
      445.00        0.200          1.8 
      446.00        2.083          2.1 
      447.00        0.400          1.7 
      448.00        0.233          1.5 
      449.00        0.167          1.4 
      450.00        0.267          1.5 
      451.00        0.133          1.5 
      452.00        0.167          1.3 
      453.00        0.167          1.4 
      454.00        0.217          1.7 
      455.00        0.167          1.7 
      456.00        0.167          1.7 
      457.00        0.100          1.7 
      458.00        0.167          1.9 
      459.00        0.200          1.8 
      460.00        0.200          1.8 
      461.00        0.233          1.9 
      462.00        0.133          1.8 
      463.00        0.233          1.5 
      464.00        0.133          1.6 
      465.00        0.133          1.8 
      466.00        0.167          2.0 
      467.00        0.100          1.6 
      468.00        0.133          1.3 
      469.00        0.100          1.6 
      470.00        0.100          1.7 
      471.00        0.100          1.5 
      472.00        0.233          1.6 
      473.00        0.183          1.8 
      474.00        0.133          1.5 
      475.00        0.167          1.6 
