~Version Information
VERS.                      2.0: CWLS Log ASCII Standard - VERSION 2.0
WRAP.                       NO: One line per depth step
~Well Information Block
STRT.FT                -6.7500: 
STOP.FT               983.2500: 
STEP.FT                 0.2500: 
NULL.                -999.2500: 
COMP.          Pioneer Natural Resources: COMPANY
WELL.          Run-Away-Train 43-26: WELL
FLD.           Purgatorie River: FIELD
LOC.           1693' FSL & 1195' FWL------------: LOCATION
PROV.                       CO: PROVINCE
CNTY.               Las Animas: COUNTRY
SRVC.          Patterson Wireline: SERVICE COMPANY
DATE.          Thu Apr 14 12:30:00 2005: LOG DATE
UWI.           05 071 08188 00: UNIQUE WELL ID
~Curve Information Block
DEPT.FT            0 000 00 00: Depth
CCL.                          : Casing Collar Locator
TT3.usec                      : CBL 3' Travel Time
AMP3.mV                       : CBL 3' Amplitude
GR.GAPI                       : Gamma Ray
~Parameter Information Block
~A  Depth       CCL         TT3         AMP3         GR     
# ...
    60.2500      0.0000    979.9089      4.9069     77.0766
    60.5000      0.0000    946.3264      4.8656     81.2252
    60.7500      0.0000    906.0613      4.8588     85.4570
    61.0000      0.0000    863.8193      4.8682     88.4573
    61.2500      0.0000    827.3044      4.8704     88.9149
    61.5000      0.0000    802.3219      4.8519     86.6290
    61.7500      0.0000    790.0008      4.8139     83.0630
    62.0000      0.0000    787.6359      4.7655     80.4827
    62.2500      0.0000    790.9737      4.7159     80.3118
    62.5000      0.0000    795.9785      4.6713     82.2457
    62.7500      0.0000    799.8220      4.6374     84.8447
    63.0000      0.0000    801.1952      4.6189     86.7489
    63.2500      0.0000    799.7518      4.6133     87.3362
    63.5000      0.0000    795.6357      4.6067     86.7177
    63.7500      0.0000    789.8038      4.5831     85.6275
    64.0000      0.0000    784.1114      4.5436     85.2254
    64.2500      0.0000    780.4996      4.5095     86.4972
    64.5000      0.0000    780.4582      4.5013     89.4362
    64.7500      0.0000    785.5244      4.5176     92.7439
    65.0000      0.0000    797.4003      4.5387     94.5052
    65.2500      0.0000    815.8977      4.5487     93.5341
    65.5000      0.0000    836.0056      4.5473     90.3603
    65.7500      0.0000    848.5743      4.5427     86.8707
    66.0000      0.0000    846.7343      4.5405     84.6127
    66.2500      0.0000    832.5228      4.5424     83.4203
    66.5000      0.0000    816.0922      4.5558     82.0796
    66.7500      0.0000    807.9269      4.5955     80.3669
    67.0000      0.0000    811.6664      4.6728     79.8567
    67.2500      0.0000    823.2466      4.7834     82.2182
    67.5000      0.0000    836.1439      4.9068     86.8880
    67.7500      0.0000    847.9536      5.0147     91.1435
    68.0000      0.0000    861.8457      5.0843     92.7771
    68.2500      0.0000    881.5619      5.1110     92.1730
    68.5000      0.0000    905.8887      5.1096     91.3434
    68.7500      0.0000    927.7133      5.1021     91.3656
    69.0000      0.0000    937.3574      5.1044     91.3120
    69.2500      0.0000    927.9661      5.1204     89.4979
    69.5000      0.0000    900.2180      5.1430     85.3666
    69.7500      0.0000    862.7254      5.1628     80.1830
    70.0000      0.0000    827.0239      5.1795     76.0241
    70.2500      0.0000    800.9897      5.1961     74.2062
    70.5000      0.0000    786.0208      5.2012     74.6958
    70.7500      0.0000    779.0801      5.1688     76.6491
    71.0000      0.0000    776.3405      5.0837     78.9603
    71.2500      0.0000    775.2886      4.9634     80.4487
    71.5000      0.0000    774.8364      4.8533     80.3524
    71.7500      0.0000    774.6709      4.7976     79.0330
    72.0000      0.0000    774.7223      4.8130     77.7022
    72.2500      0.0000    774.9459      4.8876     77.0462
    72.5000      0.0000    775.2817      4.9948     76.4065
    72.7500      0.0000    775.6529      5.1043     74.5996
    73.0000      0.0000    775.9856      5.1880     71.4263
    73.2500      0.0000    776.2545      5.2285     68.1813
    73.5000      0.0000    776.5051      5.2282     66.6352
    73.7500      0.0000    776.8118      5.2095     67.4846
    74.0000      0.0000    777.2190      5.2041     69.8373
    74.2500      0.0000    777.8246      5.2323     72.1559
    74.5000      0.0000    779.0076      5.2851     73.4276
    74.7500      0.0000    781.6252      5.3297     73.2876
    75.0000      0.0000    786.6636      5.3368     71.4637
    75.2500      0.0000    793.9615      5.3038     67.7393
    75.5000      0.0000    800.9863      5.2518     62.5266
    75.7500      0.0000    803.8550      5.2014     57.0410
    76.0000      0.0000    800.7662      5.1571     52.5794
    76.2500      0.0000    794.2402      5.1162     49.6544
    76.5000      0.0000    789.5580      5.0856     47.9338
    76.7500      0.0000    791.4363      5.0821     46.8851
    77.0000      0.0000    801.8331      5.1135     46.1543
    77.2500      0.0000    819.0479      5.1689     45.3391
    77.5000      0.0000    837.9698      5.2270     43.8993
    77.7500      0.0000    852.2986      5.2666     41.6755
    78.0000      0.0000    857.8922      5.2694     39.3855
    78.2500      0.0000    854.8720      5.2246     38.2748
    78.5000      0.0000    847.3993      5.1363     39.1834
    78.7500      0.0000    841.6302      5.0196     41.8896
    79.0000      0.0000    842.4778      4.8861     45.1530
    79.2500      0.0000    850.5618      4.7342     47.4468
    79.5000      0.0000    861.8406      4.5504     48.0675
    79.7500      0.0000    870.8588      4.3263     47.6500
    80.0000      0.0000    875.3452      4.0780     47.3020
    80.2500      0.0000    878.3842      3.8414     47.2764
    80.5000      0.0000    886.6797      3.6404     46.9451
    80.7500      0.0000    906.4186      3.4776     46.0683
    81.0000      0.0000    939.2725      3.3672     45.4287
    81.2500      0.0000    979.6996      3.3530     45.9000
    81.5000      0.0000   1015.3662      3.4641     47.2164
    81.7500      0.0000   1033.5642      3.6743     48.0020
    82.0000     -2.0000   1031.2209      3.9258     47.0075
    82.2500     -2.0000   1018.2262      4.1846     44.1506
    82.5000      0.0000   1007.6172      4.4698     40.3491
    82.7500      0.0000   1002.3733      4.8355     36.6933
    83.0000      0.0000    994.6613      5.3108     34.0995
    83.2500      0.0000    977.7463      5.8481     33.4020
    83.5000      0.0000    954.3348      6.3550     35.0367
    83.7500      0.0000    931.9767      6.7922     38.4557
    84.0000      0.0000    914.7258      7.2079     42.2316
    84.2500      0.0000    901.8523      7.6454     44.9516
    84.5000      0.0000    891.6681      8.0481     45.9514
    84.7500      0.0000    883.5940      8.2875     45.3638
    85.0000      0.0000    877.4070      8.2796     43.9553
    85.2500      0.0000    872.0746      8.0540     42.9691
    85.5000      0.0000    865.5068      7.7169     43.3747
    85.7500      0.0000    855.2914      7.3735     44.7573
    86.0000      0.0000    840.5632      7.0866     45.4004
    86.2500      0.0000    824.0655      6.8838     43.9342
    86.5000      0.0000    811.7624      6.7762     40.7178
    86.7500      0.0000    808.7512      6.7581     37.5549
    87.0000      0.0000    814.6929      6.7946     36.4139
    87.2500      0.0000    823.6830      6.8250     38.2438
    87.5000      0.0000    828.8605      6.7956     42.3488
    87.7500      0.0000    827.2682      6.6953     46.6527
    88.0000      0.0000    820.9435      6.5574     48.9760
    88.2500      0.0000    814.0931      6.4287     48.5390
    88.5000      0.0000    809.4478      6.3344     46.3869
    88.7500      0.0000    806.8593      6.2688     44.3428
    89.0000      0.0000    804.1406      6.2124     43.5369
    89.2500      0.0000    798.4590      6.1560     43.8498
    89.5000      0.0000    788.1915      6.1046     44.5071
    89.7500      0.0000    774.8815      6.0651     44.9411
    90.0000      0.0000    762.7275      6.0375     45.0124
    90.2500      0.0000    755.3815      6.0186     44.6796
    90.5000      0.0000    753.7879      6.0035     43.9254
    90.7500      0.0000    756.7532      5.9807     43.0627
    91.0000      0.0000    762.2303      5.9357     42.7184
    91.2500      0.0000    768.0820      5.8658     43.3147
    91.5000      0.0000    772.9792      5.7890     44.6344
    91.7500      0.0000    777.0588      5.7349     45.9802
    92.0000      0.0000    781.2283      5.7310     46.8190
    92.2500      0.0000    785.8904      5.7945     47.0886
    92.5000      0.0000    790.6428      5.9259     46.6593
    92.7500      0.0000    794.6446      6.1034     44.9052
    93.0000      0.0000    796.6044      6.2914     41.4638
    93.2500      0.0000    794.8315      6.4562     37.2590
    93.5000      0.0000    788.3038      6.5747     34.0758
