~Version Information
VERS.                      2.0: CWLS Log ASCII Standard - VERSION 2.0
WRAP.                       NO: One line per depth step
~Well Information Block
STRT.FT                 3.7500: 
STOP.FT               979.7500: 
STEP.FT                 0.2500: 
NULL.                -999.2500: 
COMP.          Pioneer Natural Resources: COMPANY
WELL.          Rising Star 22-11: WELL
FLD.           Purgatoire River: FIELD
LOC.           2152' FNL & 2105' FWL: LOCATION
PROV.                 Colorado: PROVINCE
CNTY.               Las Animas: COUNTRY
SRVC.                Patterson: SERVICE COMPANY
DATE.          Sat Apr 16 09:17:01 2005: LOG DATE
UWI.           05 071 08354 00: UNIQUE WELL ID
~Curve Information Block
DEPT.FT            0 000 00 00: Depth
GR.GAPI                       : Gamma Ray
CCL.                          : Casing Collar Locator
TT3.usec                      : CBL 3' Travel Time
AMP3.mV                       : CBL 3' Amplitude
~Parameter Information Block
~A  Depth        GR         CCL         TT3         AMP3    
# ...
   874.7500    106.2044      0.0000    987.1423     12.0674
   875.0000    109.3542      0.0000    927.6941     12.6240
   875.2500    112.8509      0.0000    884.6691     13.2079
   875.5000    115.2303      0.0000    859.4642     13.7731
   875.7500    116.1030      0.0000    848.3616     14.2967
   876.0000    116.0571      0.0000    846.9841     14.7862
   876.2500    115.6757      0.0000    854.8547     15.2647
   876.5000    115.0979      0.0000    876.1344     15.7426
   876.7500    114.3783      0.0000    915.4019     16.1910
   877.0000    113.5054      0.0000    970.4191     16.5362
   877.2500    111.8020      0.0000   1028.0258     16.6908
   877.5000    108.1001      0.0000   1069.2838     16.6082
   877.7500    102.1211      0.0000   1080.5803     16.3201
   878.0000     95.3330      0.0000   1061.7631     15.9238
   878.2500     89.8572      0.0000   1026.1315     15.5235
   878.5000     86.4914      0.0000    992.7558     15.1771
   878.7500     84.0498      0.0000    975.3200     14.8921
   879.0000     80.8719      0.0000    975.8129     14.6578
   879.2500     76.9577      0.0000    988.0048     14.4719
   879.5000     74.2162      0.0000   1004.6457     14.3338
   879.7500     74.5144      0.0000   1020.5978     14.2243
   880.0000     78.1357      0.0000   1032.6975     14.1034
   880.2500     84.1052      0.0000   1039.8892     13.9399
   880.5000     90.8693      0.0000   1043.1462     13.7405
   880.7500     96.4972      0.0000   1044.2155     13.5444
   881.0000     99.5738      0.0000   1044.4810     13.3865
   881.2500    100.4178      0.0000   1044.9180     13.2698
   881.5000    100.6124      0.0000   1046.9686     13.1690
   881.7500    101.1101      0.0000   1053.1497     13.0541
   882.0000    101.5588      0.0000   1065.9442     12.9070
   882.2500    101.6056      0.0000   1085.4987     12.7211
   882.5000    101.8927      0.0000   1109.4302     12.4935
   882.7500    103.1007      0.0000   1135.4537     12.2270
   883.0000    104.5538      0.0000   1162.4550     11.9370
   883.2500    104.4910      0.0000   1188.1307     11.6530
   883.5000    101.6359      0.0000   1207.4325     11.4079
   883.7500     96.2546      0.0000   1215.3887     11.2253
   884.0000     89.9808      0.0000   1212.6866     11.1118
   884.2500     84.8853      0.0000   1207.4156     11.0562
   884.5000     82.4696      0.0000   1206.0316     11.0368
   884.7500     83.0190      0.0000   1200.4835     11.0306
   885.0000     85.5119      0.0000   1170.9869     11.0166
   885.2500     88.2054      0.0000   1107.7927     10.9742
   885.5000     89.7831      0.0000   1028.8263     10.8898
   885.7500     90.2743      0.0000    971.5944     10.7688
   886.0000     90.7231      0.0000    966.5660     10.6355
   886.2500     91.7439      0.0000   1017.0753     10.5171
   886.5000     92.6626      0.0000   1100.9144     10.4312
   886.7500     92.2922      0.0000   1188.1334     10.3837
   887.0000     90.2472      0.0000   1258.1154     10.3724
   887.2500     87.3790      0.0000   1304.5408     10.3882
   887.5000     85.1154      0.0000   1330.6448     10.4156
   887.7500     84.2874      0.0000   1343.0029     10.4368
   888.0000     84.5602      0.0000   1347.6071     10.4384
   888.2500     85.1901      0.0000   1348.0970     10.4181
   888.5000     85.9614      0.0000   1345.4199     10.3837
   888.7500     86.8749      0.0000   1338.6171     10.3441
   889.0000     87.3821      0.0000   1326.2563     10.3016
   889.2500     86.7305      0.0000   1307.0065     10.2553
   889.5000     84.8813      0.0000   1278.3956     10.2073
   889.7500     82.5302      0.0000   1236.5182     10.1628
   890.0000     80.3446      0.0000   1180.8662     10.1243
   890.2500     78.4268      0.0000   1119.7714     10.0862
   890.5000     76.4033      0.0000   1066.1141     10.0400
   890.7500     74.0390      0.0000   1025.2922      9.9870
   891.0000     71.9073      0.0000    991.0834      9.9427
   891.2500     71.2133      0.0000    955.6060      9.9252
   891.5000     72.6852      0.0000    920.8228      9.9379
   891.7500     75.8685      0.0000    898.1132      9.9705
   892.0000     79.6926      0.0000    897.4631     10.0125
   892.2500     83.3688      0.0000    917.9196     10.0621
   892.5000     86.6668      0.0000    947.0661     10.1190
   892.7500     89.8202      0.0000    968.3958     10.1777
   893.0000     93.3081      0.0000    970.8183     10.2308
   893.2500     97.2219      0.0000    955.0309     10.2746
   893.5000    100.6858      0.0000    933.2802     10.3102
   893.7500    102.4307      0.0000    920.6672     10.3371
   894.0000    102.1255      0.0000    922.3707     10.3467
   894.2500    100.8257      0.0000    928.8684     10.3244
   894.5000    100.0960      0.0000    926.7562     10.2649
   894.7500    100.8740      0.0000    914.4774     10.1869
   895.0000    102.8805      0.0000    903.2723     10.1288
   895.2500    104.6933      0.0000    901.5228     10.1204
   895.5000    104.6197      0.0000    903.2375     10.1599
   895.7500    102.0659      0.0000    895.5193     10.2213
   896.0000     98.0252      0.0000    874.3207     10.2850
   896.2500     93.9903      0.0000    848.8931     10.3475
   896.5000     90.8036      0.0000    832.9979     10.3993
   896.7500     88.7851      0.0000    835.5519     10.4015
   897.0000     88.2074      0.0000    857.7724     10.2954
   897.2500     88.9213      0.0000    894.1317     10.0373
   897.5000     89.9331      0.0000    936.0064      9.6330
   897.7500     89.9907      0.0000    978.6779      9.1445
   898.0000     88.5806      0.0000   1025.8723      8.6439
   898.2500     86.1700      0.0000   1084.2125      8.1468
   898.5000     83.4889      0.0000   1151.2927      7.6276
   898.7500     80.5916      0.0000   1211.8132      7.1261
   899.0000     76.7629      0.0000   1248.5215      6.7803
   899.2500     71.6497      0.0000   1257.0092      6.6991
   899.5000     66.3929      0.0000   1248.6718      6.8499
   899.7500     63.1433     -2.4158   1240.0774      7.1162
   900.0000     63.3255     -1.9678   1239.3776      7.4215
   900.2500     66.6903      0.0000   1241.1984      7.7652
   900.5000     71.9460      0.0000   1234.4343      8.1720
   900.7500     77.7033      0.0000   1216.0212      8.6301
   901.0000     82.6596      0.0000   1195.4879      9.0696
   901.2500     85.5460      0.0000   1184.1693      9.4216
   901.5000     85.6371      0.0000   1183.0140      9.7337
   901.7500     83.3864      0.0000   1183.7266     10.1789
   902.0000     80.2464      0.0000   1179.1290     10.8811
   902.2500     77.7436      0.0000   1169.1060     11.7534
   902.5000     76.8354      0.0000   1157.4716     12.5529
   902.7500     77.9066      0.0000   1146.4310     13.0770
   903.0000     80.7653      0.0000   1135.1575     13.2870
   903.2500     84.4055      0.0000   1122.1116     13.2729
   903.5000     87.3480      0.0000   1106.8020     13.1463
   903.7500     88.7765      0.0000   1089.4001     12.9744
   904.0000     89.2204      0.0000   1069.7385     12.7810
   904.2500     89.8280      0.0000   1047.1613     12.5801
   904.5000     91.1207      0.0000   1020.9611     12.3970
   904.7500     92.7153      0.0000    991.8298     12.2655
   905.0000     94.0905      0.0000    963.7629     12.2079
   905.2500     95.3668      0.0000    943.0175     12.2229
   905.5000     97.2893      0.0000    932.3057     12.2902
   905.7500    100.5872      0.0000    925.9791     12.3854
   906.0000    105.5112      0.0000    913.9198     12.4935
   906.2500    111.7785      0.0000    891.4171     12.6198
   906.5000    118.3621      0.0000    863.6259     12.7899
   906.7500    123.3304      0.0000    840.5290     13.0246
   907.0000    124.6901      0.0000    829.5853     13.3053
   907.2500    121.8180      0.0000    832.6873     13.5693
   907.5000    115.8665      0.0000    847.3118     13.7468
   907.7500    108.6989      0.0000    869.5386     13.8056
   908.0000    101.5874      0.0000    896.5332     13.7639
