~Version Information
VERS.                      2.0: CWLS Log ASCII Standard - VERSION 2.0
WRAP.                       NO: One line per depth step
~Well Information Block
STRT.FT                -6.0000: 
STOP.FT              2490.5000: 
STEP.FT                 0.2500: 
NULL.                -999.2500: 
COMP.          Pioneer Natural Resources: COMPANY
WELL.          Aztec Federal 41-15: WELL
FLD.           Purgatorie River: FIELD
LOC.           706' FNL & 1253' FEL--: LOCATION
CNTY.               Las Animas: COUNTY
SRVC.          Superior Well Services: SERVICE COMPANY
DATE.          Wed May 28 14-18-16 2008: LOG DATE
UWI.           05 071 08342 00: UNIQUE WELL ID
STAT.                       CO: STATE
~Curve Information Block
DEPT.FT            0 000 00 00: Depth
GR.GAPI                       : Gamma Ray
CCL.                          : Casing Collar Locator
AMP3FT.mV                     : AMP3FT Amplitude
TT3FT.usec                    : 3FT Travel Time
AMP5FT.mV                     : AMP5FT Amplitude
~Parameter Information Block
~A  Depth        GR         CCL        AMP3FT      TT3FT       AMP5FT   
# ...
  1814.0000     87.9760      0.0000      3.3865    448.1770      2.4347
  1814.2500     91.6570      0.0000      3.2717    441.3481      2.4150
  1814.5000     94.5803      0.0000      3.1341    440.4137      2.4082
  1814.7500     95.8664      0.0000      3.0195    442.7214      2.4011
  1815.0000     95.8756      0.0000      2.9576    445.5948      2.3775
  1815.2500     95.8751      0.0000      2.9494    448.3899      2.3277
  1815.5000     97.3857      0.0000      2.9744    453.4176      2.2565
  1815.7500    101.5598      0.0000      3.0090    464.6953      2.1799
  1816.0000    108.6820      0.0000      3.0393    484.6414      2.1130
  1816.2500    117.7796      0.0000      3.0582    510.6425      2.0598
  1816.5000    126.7740      0.0000      3.0591    535.5272      2.0154
  1816.7500    133.4969      0.0000      3.0367    553.6567      1.9752
  1817.0000    137.0423      0.0000      2.9952    566.5623      1.9408
  1817.2500    138.3905      0.0000      2.9496    580.3084      1.9201
  1817.5000    139.5762      0.0000      2.9156    597.4715      1.9215
  1817.7500    141.8413      0.0000      2.8993    614.0001      1.9450
  1818.0000    144.6301      0.0000      2.8952    623.2378      1.9780
  1818.2500    146.7391      0.0000      2.8939    620.4037      2.0021
  1818.5000    148.0713      0.0000      2.8897    604.1269      2.0080
  1818.7500    149.4782      0.0000      2.8832    577.4569      2.0033
  1819.0000    150.9966      0.0000      2.8795    548.8533      2.0038
  1819.2500    151.2263      0.0000      2.8851    529.9305      2.0196
  1819.5000    148.7704      0.0000      2.9058    529.3978      2.0496
  1819.7500    143.7940      0.0000      2.9443    547.5941      2.0854
  1820.0000    137.9014      0.0000      2.9989    576.3339      2.1182
  1820.2500    132.8402      0.0000      3.0637    604.4540      2.1425
  1820.5000    129.6665      0.0000      3.1289    624.5353      2.1588
  1820.7500    128.9096      0.0000      3.1809    635.4548      2.1706
  1821.0000    130.9076      0.0000      3.2054    640.0397      2.1812
  1821.2500    135.6335      0.0000      3.1948    641.5350      2.1923
  1821.5000    142.2675      0.0000      3.1542    641.9138      2.2031
  1821.7500    149.1675      0.0000      3.0997    641.9885      2.2089
  1822.0000    154.5534      0.0000      3.0489    642.0000      2.2040
  1822.2500    157.5269      0.0000      3.0099    642.0000      2.1853
  1822.5000    158.5877      0.0000      2.9792    642.0000      2.1552
  1822.7500    159.0301      0.0000      2.9496    642.0000      2.1204
  1823.0000    159.6228      0.0000      2.9189    642.0000      2.0898
  1823.2500    159.7634      0.0000      2.8953    642.0000      2.0693
  1823.5000    157.8756      0.0000      2.8917    642.0000      2.0589
  1823.7500    152.8137      0.0000      2.9138    642.0000      2.0537
  1824.0000    145.1722      0.0000      2.9541    641.9862      2.0478
  1824.2500    137.3832      0.0000      2.9933    641.8967      2.0385
  1824.5000    132.3318      0.0000      3.0083    641.4428      2.0302
  1824.7500    131.3056      0.0000      2.9852    639.6505      2.0353
  1825.0000    132.8740      0.0000      2.9331    634.1418      2.0654
  1825.2500    133.9950      0.0000      2.8800    620.9655      2.1171
  1825.5000    132.6347      0.0000      2.8532    596.4432      2.1691
  1825.7500    129.2351      0.0000      2.8636    560.9367      2.2008
  1826.0000    125.6011      0.0000      2.9038    520.9194      2.2122
  1826.2500    123.0142      0.0000      2.9547    485.7223      2.2231
  1826.5000    121.7910      0.0000      2.9927    461.3303      2.2533
  1826.7500    121.8362      0.0000      3.0012    447.6041      2.3045
  1827.0000    122.8204      0.0000      2.9816    440.8676      2.3608
  1827.2500    123.9784      0.0000      2.9530    437.7985      2.4035
  1827.5000    124.2216      0.0000      2.9385    437.0788      2.4240
  1827.7500    122.6709      0.0000      2.9483    439.1641      2.4220
  1828.0000    119.4206      0.0000      2.9733    445.9958      2.4019
  1828.2500    116.0139      0.0000      2.9943    460.8331      2.3722
  1828.5000    114.7884      0.0000      2.9967    486.6526      2.3420
  1828.7500    117.3961      0.0000      2.9778    522.7747      2.3106
  1829.0000    123.9737      0.0000      2.9466    562.8633      2.2644
  1829.2500    133.5541      0.0000      2.9163    597.8419      2.1884
  1829.5000    144.6581      0.0000      2.8981    621.7257      2.0860
  1829.7500    155.3036      0.0000      2.8988    634.4587      1.9847
  1830.0000    163.1678      0.0000      2.9221    639.7528      1.9176
  1830.2500    166.6170      0.0000      2.9670    641.4685      1.8958
  1830.5000    165.8327      0.0000      3.0248    641.9017      1.9020
  1830.7500    162.7451      0.0000      3.0815    641.9869      1.9091
  1831.0000    159.7681      0.0000      3.1256    642.0000      1.9034
  1831.2500    158.4733      0.0000      3.1568    642.0000      1.8930
  1831.5000    158.9414      0.0000      3.1900    642.0000      1.8956
  1831.7500    159.8295      0.0000      3.2468    642.0000      1.9218
  1832.0000    159.1411      0.0000      3.3297    642.0000      1.9684
  1832.2500    155.3094      0.0000      3.4033    642.0000      2.0206
  1832.5000    147.8672      0.0000      3.4133    642.0000      2.0581
  1832.7500    137.4454      0.0000      3.3370    642.0000      2.0650
  1833.0000    125.3191      0.0000      3.2086    642.0000      2.0423
  1833.2500    112.8810      0.0000      3.0885    642.0000      2.0093
  1833.5000    101.3591      0.0000      3.0194    642.0000      1.9872
  1833.7500     91.9274      0.0000      3.0125    642.0000      1.9811
  1834.0000     85.7052      2.7612      3.0576    642.0000      1.9810
  1834.2500     83.3070      0.0000      3.1354    642.0000      1.9765
  1834.5000     84.5429      0.0000      3.2281    641.9861      1.9663
  1834.7500     88.7358      0.0000      3.3209    641.8956      1.9556
  1835.0000     95.0463      0.0000      3.3954    641.4358      1.9488
  1835.2500    102.4243      0.0000      3.4303    639.6172      1.9445
  1835.5000    109.7442      0.0000      3.4187    634.0153      1.9389
  1835.7500    116.1942      0.0000      3.3829    620.5714      1.9335
  1836.0000    121.0707      0.0000      3.3577    595.4329      1.9392
  1836.2500    123.2259      0.0000      3.3605    558.7706      1.9693
  1836.5000    121.5963      0.0000      3.3806    516.9651      2.0302
  1836.7500    116.6303      0.0000      3.4006    479.4324      2.1190
  1837.0000    110.7040      0.0000      3.4164    452.4222      2.2272
  1837.2500    106.8029      0.0000      3.4342    436.2770      2.3420
  1837.5000    106.7699      0.0000      3.4526    428.0578      2.4468
  1837.7500    110.5433      0.0000      3.4590    425.0405      2.5281
  1838.0000    116.5109      0.0000      3.4422    425.4073      2.5861
  1838.2500    122.5120      0.0000      3.4055    427.3161      2.6325
  1838.5000    126.9273      0.0000      3.3632    428.9276      2.6749
  1838.7500    129.1778      0.0000      3.3301    429.5271      2.7046
  1839.0000    129.4470      0.0000      3.3128    430.2812      2.7048
  1839.2500    128.3463      0.0000      3.3065    433.8187      2.6698
  1839.5000    126.8956      0.0000      3.2983    443.1929      2.6106
  1839.7500    126.2999      0.0000      3.2783    461.1744      2.5417
  1840.0000    127.2705      0.0000      3.2483    489.3997      2.4687
  1840.2500    129.6111      0.0000      3.2157    526.3411      2.3880
  1840.5000    132.7655      0.0000      3.1809    565.8813      2.2962
  1840.7500    136.6753      0.0000      3.1373    599.7563      2.1987
  1841.0000    141.6998      0.0000      3.0825    622.6724      2.1116
  1841.2500    147.6458      0.0000      3.0294    634.8278      2.0523
  1841.5000    153.3752      0.0000      2.9985    639.8668      2.0296
  1841.7500    157.6850      0.0000      3.0008    641.4961      2.0414
