~Version Information
VERS.                      2.0: CWLS Log ASCII Standard - VERSION 2.0
WRAP.                       NO: One line per depth step
~Well Information Block
STRT.FT               550.0000: 
STOP.FT              1577.7000: 
STEP.FT                 0.1000: 
NULL.                -999.2500: 
COMP.          Pioneer Natural Resources: COMPANY
WELL.          Kristin 22-23 Tr: WELL
FLD.           Purgatoire River: FIELD
LOC.           2273' FNL & 2029' FWL: LOCATION
PROV.                 Colorado: PROVINCE
CNTY.               Las Animas: COUNTRY
SRVC.                Patterson: SERVICE COMPANY
DATE.          Fri Jan 21 06:58:50 2005: LOG DATE
UWI.           05 071 08259 00: UNIQUE WELL ID
~Curve Information Block
DEPT.FT            0 000 00 00: Depth
DCAL.in                       : CDL Caliper
RHOB.g/cc                     : CDL Bulk Density
RHOC.g/cc                     : CDL Density Correction
DPOR.pu                       : CDL Density Porosity
NPOR.pu                       : Neutron Porosity
GR.GAPI                       : Gamma Ray
~Parameter Information Block
~A  Depth       DCAL        RHOB        RHOC        DPOR        NPOR         GR     
# ...
   617.2000      8.0650      2.5759      0.1306      4.4879     29.3936    144.5406
   617.3000      8.0611      2.5502      0.0562      6.0484     29.7312    141.5345
   617.4000      8.0611      2.5241      0.0521      7.6308     30.1270    135.5420
   617.5000      8.0605      2.5038      0.0381      8.8577     30.1417    135.3270
   617.6000      8.0605      2.4859      0.0410      9.9429     29.6702    136.8689
   617.7000      8.0605      2.4797     -0.0014     10.3207     29.3756    134.0649
   617.8000      8.0624      2.4948      0.0518      9.4082     29.6497    133.3098
   617.9000      8.0624      2.5148      0.0881      8.1920     30.0122    140.5195
   618.0000      8.0628      2.5244      0.0700      7.6142     29.9317    147.9837
   618.1000      8.0628      2.5276      0.0682      7.4168     29.6411    146.5745
   618.2000      8.0628      2.5303      0.0586      7.2540     29.5060    139.5246
   618.3000      8.0558      2.5344      0.0697      7.0074     29.6475    132.5096
   618.4000      8.0558      2.5433      0.0766      6.4660     29.9922    128.1487
   618.5000      8.0382      2.5611      0.0651      5.3906     30.1222    129.4685
   618.6000      8.0382      2.5803      0.0928      4.2241     29.9178    134.9552
   618.7000      8.0382      2.5864      0.0849      3.8550     29.6879    136.3630
   618.8000      8.0141      2.5785      0.0892      4.3319     29.7309    132.5145
   618.9000      8.0141      2.5691      0.0482      4.9027     29.9288    129.4964
   619.0000      7.9968      2.5614      0.0744      5.3716     29.6691    128.3392
   619.1000      7.9968      2.5463      0.0585      6.2824     28.6290    129.4384
   619.2000      7.9968      2.5226      0.0624      7.7240     27.5245    133.0181
   619.3000      7.9878      2.4996      0.0027      9.1137     27.2645    137.2774
   619.4000      7.9878      2.4927     -0.0062      9.5355     27.7599    138.9644
   619.5000      7.9844      2.5036      0.0638      8.8736     28.2665    136.8572
   619.6000      7.9844      2.5160      0.0628      8.1191     28.6029    133.8304
   619.7000      7.9844      2.5268      0.0653      7.4649     28.9085    132.2152
   619.8000      7.9846      2.5419      0.0983      6.5531     29.0100    134.0224
   619.9000      7.9846      2.5554      0.1141      5.7328     29.1666    138.7597
   620.0000      7.9837      2.5621      0.1508      5.3272     29.8848    141.5687
   620.1000      7.9837      2.5664      0.1583      5.0640     30.5372    139.0311
   620.2000      7.9837      2.5782      0.1939      4.3496     30.2471    132.8031
   620.3000      7.9807      2.6007      0.2139      2.9877     29.6095    126.8126
   620.4000      7.9807      2.6254      0.2170      1.4897     29.5309    125.2350
   620.5000      7.9760      2.6343      0.2193      0.9505     29.8745    128.0608
   620.6000      7.9760      2.6200      0.0900      1.8191     30.1102    132.1329
   620.7000      7.9760      2.5983      0.0836      3.1335     30.2815    135.8767
   620.8000      7.9630      2.5809      0.0697      4.1876     30.5751    135.5036
   620.9000      7.9630      2.5765      0.0140      4.4540     30.7761    127.2482
   621.0000      7.9472      2.5947      0.0159      3.3494     30.6771    112.5953
   621.1000      7.9472      2.6218      0.0758      1.7101     30.2304     97.0690
   621.2000      7.9472      2.6372      0.0590      0.7747     29.7009     87.9109
   621.3000      7.9330      2.6458      0.0587      0.2543     29.3720     87.7394
   621.4000      7.9330      2.6597      0.0574     -0.5877     29.2596     91.1660
   621.5000      7.9219      2.6736      0.0591     -1.4295     29.5556     93.7367
   621.6000      7.9219      2.6717      0.0913     -1.3170     30.2470     97.4653
   621.7000      7.9219      2.6497      0.0384      0.0152     30.3923    100.4810
   621.8000      7.9243      2.6186      0.0678      1.9021     29.6046    100.6342
   621.9000      7.9243      2.5877      0.0214      3.7732     28.8549    100.9249
   622.0000      7.9330      2.5654      0.0134      5.1296     28.8516    102.8859
   622.1000      7.9330      2.5525      0.0889      5.9069     29.2834    108.9925
   622.2000      7.9330      2.5445      0.0723      6.3918     29.7140    118.1857
   622.3000      7.9375      2.5435      0.0973      6.4555     29.7601    125.8010
   622.4000      7.9375      2.5498      0.1028      6.0733     29.2152    129.6915
   622.5000      7.9380      2.5615      0.1506      5.3617     28.4188    131.8410
   622.6000      7.9380      2.5743      0.1785      4.5849     27.8690    139.2935
   622.7000      7.9380      2.5815      0.1550      4.1505     27.9194    152.4044
   622.8000      7.9383      2.5822      0.1423      4.1101     28.3839    161.3581
   622.9000      7.9383      2.5792      0.1231      4.2929     28.7584    164.5325
   623.0000      7.9384      2.5707      0.1218      4.8044     29.1784    170.9999
   623.1000      7.9384      2.5522      0.1039      5.9288     29.7065    179.1126
   623.2000      7.9384      2.5330      0.0707      7.0918     29.5279    177.9059
   623.3000      7.9366      2.5373      0.0297      6.8278     28.6250    169.1298
   623.4000      7.9366      2.5733      0.1249      4.6465     28.2567    161.9189
   623.5000      7.9366      2.6156      0.1435      2.0849     28.7640    158.0917
   623.6000      7.9366      2.6366      0.1328      0.8126     29.4602    156.1419
   623.7000      7.9366      2.6283      0.1498      1.3135     29.8278    158.6631
   623.8000      7.9384      2.6004      0.0695      3.0043     29.5772    169.3384
   623.9000      7.9384      2.5760      0.0313      4.4848     29.1210    182.3556
   624.0000      7.9397      2.5656      0.0782      5.1157     28.8154    189.6552
   624.1000      7.9397      2.5584      0.0763      5.5495     28.4006    189.9008
   624.2000      7.9397      2.5513      0.0295      5.9796     28.1926    182.4781
   624.3000      7.9411      2.5552      0.0285      5.7450     28.6362    170.9182
   624.4000      7.9411      2.5654      0.0912      5.1296     29.3270    163.2362
   624.5000      7.9424      2.5560      0.0879      5.6966     29.7301    161.6319
   624.6000      7.9424      2.5188      0.0130      7.9525     29.8929    162.8667
   624.7000      7.9424      2.4683      0.0229     11.0118     29.8835    163.0183
   624.8000      7.9431      2.4087      0.0447     14.6223     29.3112    158.2959
   624.9000      7.9431      2.3319      0.0214     19.2799     28.1792    148.6914
   625.0000      7.9382      2.2375     -0.0183     24.9977     27.3898    139.8049
   625.1000      7.9382      2.1492     -0.0854     30.3512     27.6246    136.5641
   625.2000      7.9382      2.1030     -0.0852     33.1541     28.1467    133.5844
   625.3000      7.9293      2.1047     -0.0371     33.0491     27.7870    124.4742
   625.4000      7.9293      2.1340     -0.0150     31.2712     26.4511    112.7087
   625.5000      7.9239      2.1829      0.0439     28.3087     24.9852    101.4646
   625.6000      7.9239      2.2538      0.0979     24.0105     23.8065     90.8559
   625.7000      7.9239      2.3384      0.1866     18.8849     22.4353     83.0780
   625.8000      7.9224      2.4219      0.2166     13.8259     20.8424     80.3553
   625.9000      7.9224      2.4992      0.2164      9.1398     19.7697     80.3767
   626.0000      7.9226      2.5731      0.2229      4.6618     19.5272     79.9309
   626.1000      7.9226      2.6462      0.2029      0.2310     19.2308     77.2666
   626.2000      7.9226      2.7116      0.2313     -3.7355     18.1908     72.5508
   626.3000      7.9238      2.7501      0.1736     -6.0638     17.0252     70.5609
   626.4000      7.9238      2.7591      0.1061     -6.6105     16.0202     74.2626
   626.5000      7.9242      2.7594      0.0960     -6.6286     15.0021     77.4967
   626.6000      7.9242      2.7627      0.0648     -6.8317     14.4654     78.2346
   626.7000      7.9242      2.7648      0.0805     -6.9606     14.5960     81.1354
