~Version Information
VERS.                      2.0: CWLS Log ASCII Standard - VERSION 2.0
WRAP.                       NO: One line per depth step
~Well Information Block
STRT.FT               240.0000: 
STOP.FT              1709.2000: 
STEP.FT                 0.1000: 
NULL.                -999.2500: 
COMP.          Pioneer Natural Resources: COMPANY
WELL.              Patten 22-2: WELL
FLD.           Purgatoire River: FIELD
LOC.           2157' FNL & 1528' FWL: LOCATION
PROV.                 Colorado: PROVINCE
CNTY.               Las Animas: COUNTRY
SRVC.                Patterson: SERVICE COMPANY
DATE.          Fri Dec 10 09:15:13 2004: LOG DATE
UWI.           05 071 08168 00: UNIQUE WELL ID
~Curve Information Block
DEPT.FT            0 000 00 00: Depth
DCAL.in                       : CDL Caliper
RHOB.g/cc                     : CDL Bulk Density
RHOC.g/cc                     : CDL Density Correction
DPOR.pu                       : CDL Density Porosity
NPOR.pu                       : Neutron Porosity
GR.GAPI                       : Gamma Ray
~Parameter Information Block
~A  Depth       DCAL        RHOB        RHOC        DPOR        NPOR         GR     
# ...
  1488.0000      7.9056      2.5502      0.0719      6.0508     21.2439    110.8429
  1488.1000      7.9056      2.5543      0.1006      5.8002     21.5204    106.9524
  1488.2000      7.9056      2.5439      0.0286      6.4296     21.4650    103.8844
  1488.3000      7.9150      2.5468      0.0509      6.2545     21.1974    102.8466
  1488.4000      7.9150      2.5699      0.0663      4.8564     21.0101    103.6082
  1488.5000      7.9243      2.5876      0.0858      3.7848     21.0960    101.8193
  1488.6000      7.9243      2.5819      0.0470      4.1294     21.1833    100.0308
  1488.7000      7.9243      2.5655      0.0121      5.1231     21.0150    104.6164
  1488.8000      7.9212      2.5551      0.0330      5.7507     20.7065    113.5320
  1488.9000      7.9212      2.5460      0.0269      6.3009     20.3503    117.6101
  1489.0000      7.9150      2.5325      0.0261      7.1228     20.0674    111.6885
  1489.1000      7.9150      2.5286      0.0115      7.3577     19.8800    103.8877
  1489.2000      7.9150      2.5491      0.0717      6.1163     19.5943    102.5751
  1489.3000      7.9129      2.5801      0.1185      4.2369     19.0517    104.2959
  1489.4000      7.9129      2.5936      0.1316      3.4212     18.3996    104.6782
  1489.5000      7.9186      2.5859      0.0824      3.8837     18.0696    102.9135
  1489.6000      7.9186      2.5764      0.0707      4.4605     18.2917     99.0126
  1489.7000      7.9186      2.5688      0.1003      4.9186     18.7214     97.0270
  1489.8000      7.9299      2.5534      0.0673      5.8532     18.9902     99.0375
  1489.9000      7.9299      2.5347      0.0242      6.9864     19.1240    100.3106
  1490.0000      7.9316      2.5304      0.0139      7.2464     19.2889     97.9440
  1490.1000      7.9316      2.5469      0.0286      6.2457     19.4560     95.1324
  1490.2000      7.9316      2.5647      0.0940      5.1685     19.5688     94.6146
  1490.3000      7.9272      2.5630      0.0643      5.2723     19.7244     98.1978
  1490.4000      7.9272      2.5495      0.0438      6.0889     19.9264    107.5252
  1490.5000      7.9311      2.5439      0.0475      6.4290     20.1078    116.9397
  1490.6000      7.9311      2.5477      0.1204      6.2015     20.0151    119.7311
  1490.7000      7.9311      2.5442      0.0808      6.4095     19.4855    116.7469
  1490.8000      7.9377      2.5300      0.0703      7.2728     18.9389    113.9310
  1490.9000      7.9377      2.5208      0.0317      7.8276     18.8044    115.2191
  1491.0000      7.9407      2.5202      0.0824      7.8658     18.7911    117.9190
  1491.1000      7.9407      2.5141      0.0355      8.2379     18.5491    118.3778
  1491.2000      7.9407      2.5059      0.0220      8.7354     18.3326    113.4308
  1491.3000      7.9407      2.5098      0.0337      8.4977     18.3901    103.2679
  1491.4000      7.9407      2.5176      0.0910      8.0247     18.6579     96.7795
  1491.5000      7.9390      2.5204      0.0573      7.8549     19.0203    100.3346
  1491.6000      7.9390      2.5294      0.0776      7.3117     19.3305    107.8021
  1491.7000      7.9390      2.5450      0.0540      6.3664     19.3379    110.4656
  1491.8000      7.9369      2.5525      0.0961      5.9083     19.0946    108.3766
  1491.9000      7.9369      2.5465      0.0674      6.2733     18.9564    105.4820
  1492.0000      7.9307      2.5401      0.0615      6.6582     19.1368    102.5008
  1492.1000      7.9307      2.5443      0.0783      6.4036     19.4788     99.7076
  1492.2000      7.9307      2.5534      0.0959      5.8538     19.6107     98.2887
  1492.3000      7.9207      2.5576      0.0851      5.5974     19.5020     99.0859
  1492.4000      7.9207      2.5546      0.0955      5.7809     19.5295    101.4577
  1492.5000      7.9146      2.5463      0.0742      6.2839     19.8942    104.8447
  1492.6000      7.9146      2.5409      0.0728      6.6132     20.3991    109.7766
  1492.7000      7.9146      2.5484      0.0746      6.1553     20.7489    111.7618
  1492.8000      7.9126      2.5618      0.0880      5.3468     20.5845    107.1727
  1492.9000      7.9126      2.5624      0.0539      5.3092     19.8662     99.5124
  1493.0000      7.9115      2.5469      0.0677      6.2505     19.1239     91.5815
  1493.1000      7.9115      2.5277      0.0234      7.4105     18.6971     85.4288
  1493.2000      7.9115      2.5161      0.0704      8.1144     18.5317     84.4532
  1493.3000      7.9113      2.5150      0.0212      8.1835     18.6186     87.4115
  1493.4000      7.9113      2.5298      0.0435      7.2838     18.7693     91.0643
  1493.5000      7.9126      2.5628      0.0432      5.2852     18.6249     91.9368
  1493.6000      7.9126      2.6028      0.0892      2.8627     18.2768     87.1153
  1493.7000      7.9126      2.6249      0.0966      1.5229     18.1000     79.9433
  1493.8000      7.9150      2.6183      0.0729      1.9186     18.1796     77.1718
  1493.9000      7.9150      2.6092      0.0484      2.4704     18.4989     79.6971
  1494.0000      7.9228      2.6152      0.0764      2.1103     18.8947     81.3519
  1494.1000      7.9228      2.6154      0.1218      2.0943     19.1616     78.8749
  1494.2000      7.9228      2.5981      0.0489      3.1465     19.5425     77.5048
  1494.3000      7.9403      2.5825      0.0477      4.0884     20.1631     80.1311
  1494.4000      7.9403      2.5741      0.0649      4.6028     20.6473     80.5901
  1494.5000      7.9564      2.5593      0.0180      5.4944     20.8770     76.2726
  1494.6000      7.9564      2.5382      0.0350      6.7735     21.0721     74.3127
  1494.7000      7.9564      2.5224      0.0286      7.7330     21.2164     78.1907
  1494.8000      7.9576      2.5168      0.0355      8.0731     21.1269     82.8069
  1494.9000      7.9576      2.5123      0.0427      8.3470     20.6504     84.1229
  1495.0000      7.9465      2.5021      0.0053      8.9636     19.8634     84.1289
  1495.1000      7.9465      2.4955      0.0137      9.3652     19.2574     85.4630
  1495.2000      7.9465      2.4983      0.0192      9.1938     19.1712     87.0611
  1495.3000      7.9310      2.5009      0.0455      9.0361     19.2713     88.3961
  1495.4000      7.9310      2.5017      0.0099      8.9854     19.0826     92.8565
  1495.5000      7.9172      2.5122      0.0275      8.3538     18.5587     99.1584
  1495.6000      7.9172      2.5308      0.0440      7.2267     18.0867    100.0110
  1495.7000      7.9172      2.5433      0.0947      6.4649     17.9734     93.8372
  1495.8000      7.9099      2.5422      0.0798      6.5357     17.9709     86.3661
  1495.9000      7.9099      2.5395      0.0700      6.6980     17.8550     82.0044
  1496.0000      7.9100      2.5544      0.0598      5.7944     17.8623     80.3011
  1496.1000      7.9100      2.5828      0.1389      4.0699     18.0241     77.2651
  1496.2000      7.9100      2.6005      0.1371      3.0013     18.1290     72.0433
  1496.3000      7.9189      2.5940      0.1253      3.3931     18.2861     71.8956
  1496.4000      7.9189      2.5714      0.0507      4.7612     18.5209     78.6867
  1496.5000      7.9324      2.5543      0.0110      5.7993     18.6195     83.2839
  1496.6000      7.9324      2.5589      0.0473      5.5201     18.7045     81.0781
  1496.7000      7.9324      2.5717      0.0978      4.7470     18.8214     74.9790
  1496.8000      7.9415      2.5717      0.0642      4.7455     18.8860     67.9788
  1496.9000      7.9415      2.5639      0.0604      5.2205     18.9271     61.7733
  1497.0000      7.9464      2.5577      0.0947      5.5931     18.9364     59.1192
  1497.1000      7.9464      2.5509      0.0614      6.0035     18.9198     61.7541
  1497.2000      7.9464      2.5440      0.0234      6.4228     18.8095     66.2791
  1497.3000      7.9486      2.5448      0.0470      6.3748     18.5084     71.4320
  1497.4000      7.9486      2.5598      0.0731      5.4642     18.0200     79.1453
  1497.5000      7.9471      2.5828      0.0746      4.0722     17.5981     85.2912
