~Version Information
VERS.                      2.0: CWLS Log ASCII Standard - VERSION 2.0
WRAP.                       NO: One line per depth step
~Well Information Block
STRT.FT                -6.2500: 
STOP.FT              2316.0000: 
STEP.FT                 0.2500: 
NULL.                -999.2500: 
COMP.          Pioneer Natural Resources: COMPANY
WELL.             Trimax 44-23: WELL
FLD.           Purgatorie River: FIELD
LOC.           527' FSL & 1064' FEL------: LOCATION
PROV.                       CO: PROVINCE
CNTY.               Las Animas: COUNTRY
SRVC.          Patterson Wireline: SERVICE COMPANY
DATE.          Sat Mar 19 11:18:53 2005: LOG DATE
UWI.           05 071 08326 00: UNIQUE WELL ID
~Curve Information Block
DEPT.FT            0 000 00 00: Depth
CCL.                          : Casing Collar Locator
TT3.usec                      : CBL 3' Travel Time
AMP3.mV                       : CBL 3' Amplitude
GR.GAPI                       : Gamma Ray
~Parameter Information Block
~A  Depth       CCL         TT3         AMP3         GR     
# ...
   161.2500      0.0000    732.5468      7.6366     63.9369
   161.5000      0.0000    755.3755      7.2999     65.4266
   161.7500      0.0000    773.5143      7.0193     65.3308
   162.0000      0.0000    784.1146      6.8126     64.0024
   162.2500      0.0000    789.2767      6.6818     62.4369
   162.5000      0.0000    792.8675      6.6222     60.9670
   162.7500      0.0000    797.3688      6.6267     58.9502
   163.0000      0.0000    802.8179      6.6827     55.8412
   163.2500      0.0000    807.8691      6.7720     52.2155
   163.5000      0.0000    811.9660      6.8791     49.4517
   163.7500      0.0000    815.9349      7.0007     48.6129
   164.0000      0.0000    819.9653      7.1444     49.8164
   164.2500      0.0000    821.8873      7.3140     52.4164
   164.5000      0.0000    818.0264      7.4955     55.4822
   164.7500      0.0000    805.4127      7.6639     58.1399
   165.0000      0.0000    783.8271      7.8011     59.8156
   165.2500      0.0000    756.8837      7.9061     60.4825
   165.5000      0.0000    730.7194      7.9890     60.7307
   165.7500      0.0000    710.4859      8.0633     61.4368
   166.0000      0.0000    697.5508      8.1395     63.1321
   166.2500      0.0000    689.8404      8.2148     65.5354
   166.5000      0.0000    684.5295      8.2720     67.6343
   166.7500      0.0000    680.1880      8.2932     68.2784
   167.0000      0.0000    676.7867      8.2723     66.8370
   167.2500      0.0000    674.5354      8.2138     63.4720
   167.5000      0.0000    673.2739      8.1266     58.9611
   167.7500      0.0000    672.6873      8.0207     54.3216
   168.0000      0.0000    672.6696      7.9050     50.3918
   168.2500      0.0000    673.4319      7.7855     47.4819
   168.5000      0.0000    675.3417      7.6665     45.3087
   168.7500      0.0000    678.5391      7.5529     43.3099
   169.0000      0.0000    682.5860      7.4479     41.1756
   169.2500      0.0000    686.6383      7.3501     39.2703
   169.5000      0.0000    690.3333      7.2548     38.7099
   169.7500      0.0000    694.6796      7.1579     40.9555
   170.0000      0.0000    701.8389      7.0630     47.0385
   170.2500      0.0000    713.5701      6.9843     56.7511
   170.5000      0.0000    730.0244      6.9376     68.2747
   170.7500      0.0000    750.4769      6.9258     78.7603
   171.0000      0.0000    774.1891      6.9350     85.8813
   171.2500      0.0000    798.4797      6.9466     89.3596
   171.5000      0.0000    816.2678      6.9508     90.9378
   171.7500      0.0000    818.7663      6.9461     92.6279
   172.0000      0.0000    802.7321      6.9315     95.0148
   172.2500      0.0000    774.7133      6.9064     97.2998
   172.5000      0.0000    747.6520      6.8705     98.7388
   172.7500      0.0000    732.9586      6.8186     99.7289
   173.0000      0.0000    734.2199      6.7414    101.2293
   173.2500      0.0000    746.6588      6.6378    103.2142
   173.5000      0.0000    762.0405      6.5238    104.3133
   173.7500      0.0000    774.4933      6.4211    103.2811
   174.0000      0.0000    782.5775      6.3397    100.1865
   174.2500      0.0000    787.1326      6.2780     95.8808
   174.5000      0.0000    788.3549      6.2362     91.0885
   174.7500      0.0000    785.2505      6.2165     86.3893
   175.0000      0.0000    777.3890      6.2083     82.4097
   175.2500      0.0000    766.4988      6.1820     79.5570
   175.5000      0.0000    756.3378      6.1054     77.7219
   175.7500      0.0000    751.3719      5.9658     76.4525
   176.0000      0.0000    754.6511      5.7780     75.4147
   176.2500      0.0000    765.3184      5.5762     74.6231
   176.5000      0.0000    778.1302      5.3977     74.2139
   176.7500      0.0000    786.5665      5.2670     74.1109
   177.0000      0.0000    787.0552      5.1898     73.9658
   177.2500      0.0000    780.7258      5.1551     73.3216
   177.5000      0.0000    771.6709      5.1466     71.8164
   177.7500      0.0000    763.0353      5.1537     69.4295
   178.0000      0.0000    753.9324      5.1750     66.5698
   178.2500      0.0000    740.8599      5.2123     63.8568
   178.5000      0.0000    722.8006      5.2614     61.8509
   178.7500      0.0000    703.6558      5.3085     60.9511
   179.0000      0.0000    688.9497      5.3367     61.2061
   179.2500      0.0000    681.5325      5.3380     62.0735
   179.5000      0.0000    680.9145      5.3191     62.6665
   179.7500      0.0000    685.4151      5.2962     62.4597
   180.0000      0.0000    694.4923      5.2859     61.7164
   180.2500      0.0000    709.2887      5.2982     61.1275
   180.5000      0.0000    730.2220      5.3294     61.1497
   180.7500      1.0000    753.6656      5.3612     61.7361
   181.0000      1.0000    772.5297      5.3748     62.4123
   181.2500      0.0000    781.4443      5.3662     62.4441
   181.5000      0.0000    781.0382      5.3535     61.3083
   181.7500      0.0000    776.6761      5.3776     59.2624
   182.0000      0.0000    773.2381      5.4791     57.1659
   182.2500      0.0000    771.2500      5.6478     55.5452
   182.5000      0.0000    768.4631      5.8013     54.1365
   182.7500      0.0000    765.0511      5.8497     52.5975
   183.0000      0.0000    765.0573      5.7825     51.3806
   183.2500      0.0000    771.5647      5.6684     51.5126
   183.5000      0.0000    782.7386      5.5796     53.4622
   183.7500      0.0000    794.3921      5.5435     56.2977
   184.0000      0.0000    804.5866      5.5506     58.1189
   184.2500      0.0000    813.8148      5.5802     57.5548
   184.5000      0.0000    822.2235      5.6157     54.9759
   184.7500      0.0000    828.8177      5.6522     52.1744
   185.0000      0.0000    832.8953      5.6981     50.8952
   185.2500      0.0000    834.8297      5.7674     51.7666
   185.5000      0.0000    835.5108      5.8666     54.3384
   185.7500      0.0000    835.6498      5.9902     57.5472
   186.0000      0.0000    835.6490      6.1290     60.1032
   186.2500      0.0000    835.7253      6.2775     61.0013
   186.5000      0.0000    835.9925      6.4306     60.1308
   186.7500      0.0000    836.4731      6.5772     58.4295
   187.0000      0.0000    837.1041      6.7009     57.1787
   187.2500      0.0000    837.7941      6.7871     56.9689
   187.5000      0.0000    838.4756      6.8278     57.3884
   187.7500      0.0000    839.1259      6.8268     57.6513
   188.0000      0.0000    839.7700      6.8047     57.3608
   188.2500      0.0000    840.4557      6.7921     56.6845
   188.5000      0.0000    841.1788      6.8108     55.9734
   188.7500      0.0000    841.8108      6.8598     55.4403
   189.0000      0.0000    842.1350      6.9148     55.2252
   189.2500      0.0000    841.9797      6.9436     55.4947
   189.5000      0.0000    841.3271      6.9290     56.2802
   189.7500      0.0000    840.3441      6.8793     57.3341
   190.0000      0.0000    839.3335      6.8171     58.2357
   190.2500      0.0000    838.5784      6.7621     58.6255
   190.5000      0.0000    838.0846      6.7272     58.4375
   190.7500      0.0000    837.3812      6.7230     57.9807
   191.0000      0.0000    835.4055      6.7554     57.6815
   191.2500      0.0000    830.5271      6.8178     57.8341
   191.5000      0.0000    821.0793      6.8830     58.8745
   191.7500      0.0000    806.6422      6.9092     61.6262
   192.0000      0.0000    789.4130      6.8626     66.5416
   192.2500      0.0000    774.0381      6.7418     72.6453
   192.5000      0.0000    765.1009      6.5798     77.8462
   192.7500      0.0000    764.1172      6.4197     80.5552
   193.0000      0.0000    768.9994      6.2912     80.7328
   193.2500      0.0000    776.2727      6.2071     79.3481
   193.5000      0.0000    783.4793      6.1701     77.1657
   193.7500      0.0000    790.3832      6.1731     74.2628
   194.0000      0.0000    798.6198      6.1963     70.6231
   194.2500      0.0000    809.2795      6.2158     66.9485
   194.5000      0.0000    820.5840      6.2200     64.5509
