~Version Information
VERS.                      2.0: CWLS Log ASCII Standard - VERSION 2.0
WRAP.                       NO: One line per depth step
~Well Information Block
STRT.FT               890.0000: 
STOP.FT              1589.0000: 
STEP.FT                 0.2500: 
NULL.                -999.2500: 
COMP.          Evergreen Operating Corporation: COMPANY
WELL.            Tomahawk 44-9: WELL
FLD.           Purgatorie River: FIELD
LOC.           434' FSL & 491' FEL: LOCATION
PROV.                 Colorado: PROVINCE
CNTY.               Las Animas: COUNTRY
SRVC.                         : SERVICE COMPANY
DATE.          Sat Sep 11 23:05:26 2004: LOG DATE
UWI.           05 071 08133 00: UNIQUE WELL ID
~Curve Information Block
DEPT.FT            0 000 00 00: Depth
LTEN.lb                       : Surface Line Tension
SN.Ohm-m                      : IEL Short Normal
SP.mV                         : IEL Spontaneous Potential
DIR.Ohm-m                     : IEL Induction Resistivity
GR.GAPI                       : Gamma Ray
~Parameter Information Block
~A  Depth       LTEN         SN          SP         DIR          GR     
# ...
   946.0000    827.6452   2000.0000   2040.0000     14.1522    173.9916
   946.2500    826.3762   2000.0000   2040.0000     14.3065    173.8419
   946.5000    825.5566   2000.0000   2040.0000     14.4065    171.5034
   946.7500    824.1910   2000.0000   2040.0000     14.4703    167.9833
   947.0000    821.9572   2000.0000   2040.0000     14.5389    159.7634
   947.2500    819.7427   2000.0000   2040.0000     14.6644    153.1324
   947.5000    818.5942   2000.0000   2040.0000     14.9045    143.4552
   947.7500    818.2336   2000.0000   2040.0000     15.3282    137.9811
   948.0000    817.3990   2000.0000   2040.0000     16.0204    131.1666
   948.2500    815.8795   2000.0000   2040.0000     17.0646    126.8182
   948.5000    815.4698   2000.0000   2040.0000     18.4880    119.3951
   948.7500    818.2130   2000.0000   2040.0000     20.1718    113.8059
   949.0000    823.8379   2000.0000   2040.0000     21.7824    105.2895
   949.2500    829.5705   2000.0000   2040.0000     22.8506     99.8676
   949.5000    832.7657   2000.0000   2040.0000     23.0484     91.9017
   949.7500    833.2021   2000.0000   2040.0000     22.4148     86.4639
   950.0000    832.5556   2000.0000   2040.0000     21.2692     78.4571
   950.2500    832.2869   2000.0000   2040.0000     19.9599     73.9653
   950.5000    832.5001   2000.0000   2040.0000     18.7125     70.1952
   950.7500    832.3594   2000.0000   2040.0000     17.6166     70.5544
   951.0000    831.0441   2000.0000   2040.0000     16.6724     76.3583
   951.2500    828.4388   2000.0000   2040.0000     15.8359     83.7922
   951.5000    825.1946   2000.0000   2040.0000     15.0540     99.2495
   951.7500    822.1913   2000.0000   2040.0000     14.2885    111.2521
   952.0000    819.9339   2000.0000   2040.0000     13.5270    129.5393
   952.2500    818.5152   2000.0000   2040.0000     12.7745    140.7800
   952.5000    818.0640   2000.0000   2040.0000     12.0380    154.6874
   952.7500    818.9867   2000.0000   2040.0000     11.3239    161.5812
   953.0000    821.6833   2000.0000   2040.0000     10.6486    169.2259
   953.2500    826.0682   2000.0000   2040.0000     10.0449    173.6911
   953.5000    831.1496   2000.0000   2040.0000      9.5475    180.6606
   953.7500    835.0777   2000.0000   2040.0000      9.1725    185.1279
   954.0000    836.1788   2000.0000   2040.0000      8.9081    189.9884
   954.2500    834.3883   2000.0000   2040.0000      8.7224    191.3639
   954.5000    831.6846   2000.0000   2040.0000      8.5806    190.6620
   954.7500    830.9661   2000.0000   2040.0000      8.4601    188.8202
   955.0000    834.1545   2000.0000   2040.0000      8.3587    184.6226
   955.2500    840.8658   2000.0000   2040.0000      8.2936    180.8566
   955.5000    848.5979   2000.0000   2040.0000      8.2931    173.6896
   955.7500    854.3488   2000.0000   2040.0000      8.3837    168.2640
   956.0000    856.5418   2000.0000   2040.0000      8.5765    160.2446
   956.2500    855.8947   2000.0000   2040.0000      8.8585    155.5475
   956.5000    854.5051   2000.0000   2040.0000      9.1890    150.3394
   956.7500    853.9194   2000.0000   2040.0000      9.5075    148.5902
   957.0000    853.8040   2000.0000   2040.0000      9.7532    148.7307
   957.2500    852.1700   2000.0000   2040.0000      9.8874    149.9827
   957.5000    847.0707   2000.0000   2040.0000      9.9039    151.5971
   957.7500    838.6926   2000.0000   2040.0000      9.8190    151.6866
   958.0000    829.7335   2000.0000   2040.0000      9.6559    150.3885
   958.2500    823.2686   2000.0000   2040.0000      9.4384    149.1804
   958.5000    820.4437   2000.0000   2040.0000      9.1950    148.2702
   958.7500    820.4098   2000.0000   2040.0000      8.9637    149.1293
   959.0000    821.8574   2000.0000   2040.0000      8.7865    153.4787
   959.2500    824.0656   2000.0000   2040.0000      8.6960    158.1337
   959.5000    826.6912   2000.0000   2040.0000      8.7018    166.3282
   959.7500    829.0664   2000.0000   2040.0000      8.7853    171.9735
   960.0000    830.1474   2000.0000   2040.0000      8.9095    180.7099
   960.2500    829.2886   2000.0000   2040.0000      9.0411    186.9197
   960.5000    826.7811   2000.0000   2040.0000      9.1688    196.1880
   960.7500    823.6140   2000.0000   2040.0000      9.3036    201.1561
   961.0000    821.1069   2000.0000   2040.0000      9.4657    204.5081
   961.2500    820.5806   2000.0000   2040.0000      9.6719    203.4213
   961.5000    822.5535   2000.0000   2040.0000      9.9336    197.3878
   961.7500    825.9886   2000.0000   2040.0000     10.2615    191.0053
   962.0000    828.8708   2000.0000   2040.0000     10.6687    178.2021
   962.2500    829.9586   2000.0000   2040.0000     11.1700    167.6441
   962.5000    829.7948   2000.0000   2040.0000     11.7758    150.2895
   962.7500    829.7323   2000.0000   2040.0000     12.4889    139.3613
   963.0000    830.3384   2000.0000   2040.0000     13.3119    126.6017
   963.2500    831.2958   2000.0000   2040.0000     14.2646    121.2036
   963.5000    832.6650   2000.0000   2040.0000     15.3897    117.0391
   963.7500    835.3038   2000.0000   2040.0000     16.7235    115.6433
   964.0000    839.5531   2000.0000   2040.0000     18.2306    113.3267
   964.2500    844.1069   2000.0000   2040.0000     19.7359    110.9116
   964.5000    846.8795   2000.0000   2040.0000     20.9392    106.2337
   964.7500    846.6872   2000.0000   2040.0000     21.5720    103.0985
   965.0000    843.8068   2000.0000   2040.0000     21.5878     99.5780
   965.2500    839.5974   2000.0000   2040.0000     21.1601     98.4647
   965.5000    836.1396   2000.0000   2040.0000     20.4981     98.8682
   965.7500    835.6073   2000.0000   2040.0000     19.7107    100.3542
   966.0000    838.9190   2000.0000   2040.0000     18.8246    103.9852
   966.2500    844.7370   2000.0000   2040.0000     17.8745    107.3662
   966.5000    850.2167   2000.0000   2040.0000     16.9465    114.6135
   966.7500    853.0701   2000.0000   2040.0000     16.1391    121.3583
   967.0000    852.9721   2000.0000   2040.0000     15.5107    134.3444
   967.2500    851.2158   2000.0000   2040.0000     15.0741    144.3137
   967.5000    849.2225   2000.0000   2040.0000     14.8239    159.4272
   967.7500    847.3244   2000.0000   2040.0000     14.7539    168.3989
   968.0000    844.8818   2000.0000   2040.0000     14.8402    178.7107
   968.2500    841.4470   2000.0000   2040.0000     15.0091    183.1956
   968.5000    837.5202   2000.0000   2040.0000     15.1439    186.0133
   968.7500    834.1092   2000.0000   2040.0000     15.1614    184.6484
   969.0000    831.9208   2000.0000   2040.0000     15.1003    176.5723
   969.2500    831.0480   2000.0000   2040.0000     15.1157    167.5126
   969.5000    831.0001   2000.0000   2040.0000     15.3832    151.2868
   969.7500    830.9655   2000.0000   2040.0000     16.0086    140.7371
   970.0000    830.5433   2000.0000   2040.0000     16.9888    127.3971
   970.2500    830.2870   2000.0000   2040.0000     18.2067    120.4831
   970.5000    831.0306   2000.0000   2040.0000     19.4524    113.2528
   970.7500    832.6389   2000.0000   2040.0000     20.4832    110.7239
   971.0000    833.8961   2000.0000   2040.0000     21.1083    110.1134
   971.2500    833.7695   2000.0000   2040.0000     21.2556    110.8771
   971.5000    832.5290   2000.0000   2040.0000     20.9739    111.3951
   971.7500    831.5505   2000.0000   2040.0000     20.3777    110.4411
   972.0000    832.1749   2000.0000   2040.0000     19.5876    107.4820
   972.2500    834.7645   2000.0000   2040.0000     18.7106    105.6495
   972.5000    838.5993   2000.0000   2040.0000     17.8462    105.4720
   972.7500    842.4860   2000.0000   2040.0000     17.0819    107.9176
   973.0000    845.6424   2000.0000   2040.0000     16.4597    115.0264
   973.2500    848.2076   2000.0000   2040.0000     15.9488    120.8683
   973.5000    850.6636   2000.0000   2040.0000     15.4632    129.0289
   973.7500    852.7325   2000.0000   2040.0000     14.9300    133.2847
