~Version Information
VERS.                      2.0: CWLS Log ASCII Standard - VERSION 2.0
WRAP.                       NO: One line per depth step
~Well Information Block
STRT.FT               375.0000: 
STOP.FT              2637.2500: 
STEP.FT                 0.2500: 
NULL.                -999.2500: 
COMP.          Pioneer Natural Resources: COMPANY
WELL.            Cortina 23-25: WELL
FLD.           Purgatoire River: FIELD
LOC.           2344' FWL & 2526' FSL----: LOCATION
PROV.                 Colorado: PROVINCE
CNTY.               Las Animas: COUNTRY
SRVC.                Patterson: SERVICE COMPANY
DATE.          Wed Mar 23 19:09:49 2005: LOG DATE
UWI.           05 071 08340 00: UNIQUE WELL ID
~Curve Information Block
DEPT.FT            0 000 00 00: Depth
DIR.Ohm-m                     : IEL Induction Resistivity
SN.Ohm-m                      : IEL Short Normal
SP.mV                         : IEL Spontaneous Potential
GR.GAPI                       : Gamma Ray
~Parameter Information Block
~A  Depth       DIR          SN          SP          GR     
# ...
   810.5000     30.5068   2000.0000   2000.0000     92.7658
   810.7500     30.4819   2000.0000   2000.0000     90.3243
   811.0000     30.3061   2000.0000   2000.0000     87.5880
   811.2500     30.0707   2000.0000   2000.0000     87.3287
   811.5000     29.8862   2000.0000   2000.0000     89.7182
   811.7500     29.8357   2000.0000   2000.0000     92.7785
   812.0000     29.9446   2000.0000   2000.0000     98.4290
   812.2500     30.1760   2000.0000   2000.0000    102.1781
   812.5000     30.4490   2000.0000   2000.0000    106.6747
   812.7500     30.6722   2000.0000   2000.0000    108.5161
   813.0000     30.7805   2000.0000   2000.0000    109.4246
   813.2500     30.7612   2000.0000   2000.0000    109.0799
   813.5000     30.6541   2000.0000   2000.0000    108.0982
   813.7500     30.5283   2000.0000   2000.0000    107.6731
   814.0000     30.4506   2000.0000   2000.0000    107.5537
   814.2500     30.4609   2000.0000   2000.0000    107.4971
   814.5000     30.5635   2000.0000   2000.0000    106.9843
   814.7500     30.7342   2000.0000   2000.0000    106.3894
   815.0000     30.9354   2000.0000   2000.0000    105.2750
   815.2500     31.1330   2000.0000   2000.0000    104.3194
   815.5000     31.3079   2000.0000   2000.0000    102.3587
   815.7500     31.4618   2000.0000   2000.0000    100.6805
   816.0000     31.6155   2000.0000   2000.0000     97.7541
   816.2500     31.7991   2000.0000   2000.0000     95.6803
   816.5000     32.0346   2000.0000   2000.0000     92.7084
   816.7500     32.3197   2000.0000   2000.0000     91.0113
   817.0000     32.6199   2000.0000   2000.0000     89.2754
   817.2500     32.8775   2000.0000   2000.0000     88.9903
   817.5000     33.0335   2000.0000   2000.0000     90.4588
   817.7500     33.0523   2000.0000   2000.0000     92.6947
   818.0000     32.9313   2000.0000   2000.0000     96.8298
   818.2500     32.6925   2000.0000   2000.0000     99.1157
   818.5000     32.3657   2000.0000   2000.0000    100.7831
   818.7500     31.9813   2000.0000   2000.0000    100.8245
   819.0000     31.5681   2000.0000   2000.0000    100.1189
   819.2500     31.1442   2000.0000   2000.0000     99.5585
   819.5000     30.7054   2000.0000   2000.0000     99.0103
   819.7500     30.2238   2000.0000   2000.0000     98.9967
   820.0000     29.6631   2000.0000   2000.0000     99.6103
   820.2500     28.9992   2000.0000   2000.0000    100.3693
   820.5000     28.2313   2000.0000   2000.0000    101.7741
   820.7500     27.3773   2000.0000   2000.0000    102.8310
   821.0000     26.4618   2000.0000   2000.0000    105.0164
   821.2500     25.5078   2000.0000   2000.0000    107.3628
   821.5000     24.5329   2000.0000   2000.0000    112.6003
   821.7500     23.5529   2000.0000   2000.0000    116.7212
   822.0000     22.5854   2000.0000   2000.0000    121.9499
   822.2500     21.6502   2000.0000   2000.0000    123.7980
   822.5000     20.7646   2000.0000   2000.0000    123.7213
   822.7500     19.9381   2000.0000   2000.0000    122.4149
   823.0000     19.1721   2000.0000   2000.0000    120.5127
   823.2500     18.4654   2000.0000   2000.0000    120.3441
   823.5000     17.8178   2000.0000   2000.0000    122.5910
   823.7500     17.2312   2000.0000   2000.0000    125.5573
   824.0000     16.7065   2000.0000   2000.0000    131.0652
   824.2500     16.2404   2000.0000   2000.0000    134.7197
   824.5000     15.8261   2000.0000   2000.0000    139.4690
   824.7500     15.4543   2000.0000   2000.0000    141.9817
   825.0000     15.1165   2000.0000   2000.0000    144.2771
   825.2500     14.8064   2000.0000   2000.0000    144.4433
   825.5000     14.5207   2000.0000   2000.0000    142.8590
   825.7500     14.2573   2000.0000   2000.0000    141.4752
   826.0000     14.0151   2000.0000   2000.0000    140.7160
   826.2500     13.7926   2000.0000   2000.0000    141.5555
   826.5000     13.5879   2000.0000   2000.0000    144.3071
   826.7500     13.3979   2000.0000   2000.0000    146.3929
   827.0000     13.2175   2000.0000   2000.0000    148.5841
   827.2500     13.0424   2000.0000   2000.0000    148.8685
   827.5000     12.8740   2000.0000   2000.0000    147.3555
   827.7500     12.7242   2000.0000   2000.0000    145.5301
   828.0000     12.6152   2000.0000   2000.0000    142.9914
   828.2500     12.5766   2000.0000   2000.0000    142.0570
   828.5000     12.6391   2000.0000   2000.0000    141.7530
   828.7500     12.8281   2000.0000   2000.0000    141.7148
   829.0000     13.1575   2000.0000   2000.0000    140.5509
   829.2500     13.6240   2000.0000   2000.0000    138.1489
   829.5000     14.2031   2000.0000   2000.0000    130.6840
   829.7500     14.8493   2000.0000   2000.0000    122.8268
   830.0000     15.5014   2000.0000   2000.0000    107.8649
   830.2500     16.0888   2000.0000   2000.0000     97.2678
   830.5000     16.5411   2000.0000   2000.0000     83.4397
   830.7500     16.8024   2000.0000   2000.0000     77.1798
   831.0000     16.8491   2000.0000   2000.0000     74.2338
   831.2500     16.6982   2000.0000   2000.0000     77.0624
   831.5000     16.3944   2000.0000   2000.0000     87.5878
   831.7500     15.9845   2000.0000   2000.0000     97.2007
   832.0000     15.4994   2000.0000   2000.0000    112.0038
   832.2500     14.9550   2000.0000   2000.0000    120.5802
   832.5000     14.3662   2000.0000   2000.0000    130.7579
   832.7500     13.7603   2000.0000   2000.0000    136.1340
   833.0000     13.1797   2000.0000   2000.0000    142.6787
   833.2500     12.6735   2000.0000   2000.0000    145.8270
   833.5000     12.2857   2000.0000   2000.0000    147.8063
   833.7500     12.0480   2000.0000   2000.0000    147.0719
   834.0000     11.9782   2000.0000   2000.0000    143.7239
   834.2500     12.0824   2000.0000   2000.0000    140.8241
   834.5000     12.3569   2000.0000   2000.0000    136.0081
   834.7500     12.7887   2000.0000   2000.0000    131.8458
   835.0000     13.3542   2000.0000   2000.0000    122.2197
   835.2500     14.0190   2000.0000   2000.0000    112.8699
   835.5000     14.7384   2000.0000   2000.0000     95.4323
   835.7500     15.4566   2000.0000   2000.0000     83.3241
   836.0000     16.1048   2000.0000   2000.0000     68.2240
   836.2500     16.5998   2000.0000   2000.0000     61.8852
   836.5000     16.8551   2000.0000   2000.0000     58.9881
   836.7500     16.8063   2000.0000   2000.0000     61.0608
   837.0000     16.4391   2000.0000   2000.0000     68.6606
   837.2500     15.7974   2000.0000   2000.0000     75.7922
   837.5000     14.9658   2000.0000   2000.0000     88.2607
   837.7500     14.0387   2000.0000   2000.0000     97.0402
   838.0000     13.0960   2000.0000   2000.0000    109.4752
   838.2500     12.1951   2000.0000   2000.0000    116.3571
   838.5000     11.3727   2000.0000   2000.0000    123.5072
   838.7500     10.6511   2000.0000   2000.0000    126.1401
   839.0000     10.0425   2000.0000   2000.0000    127.7636
   839.2500      9.5512   2000.0000   2000.0000    128.0448
   839.5000      9.1733   2000.0000   2000.0000    128.5298
   839.7500      8.8966   2000.0000   2000.0000    129.3972
   840.0000      8.7015   2000.0000   2000.0000    131.4984
   840.2500      8.5644   2000.0000   2000.0000    132.9518
   840.5000      8.4614   2000.0000   2000.0000    134.4251
   840.7500      8.3736   2000.0000   2000.0000    134.8903
   841.0000      8.2906   2000.0000   2000.0000    135.2253
   841.2500      8.2119   2000.0000   2000.0000    135.3317
   841.5000      8.1457   2000.0000   2000.0000    134.8663
   841.7500      8.1064   2000.0000   2000.0000    133.6035
   842.0000      8.1112   2000.0000   2000.0000    129.8180
   842.2500      8.1778   2000.0000   2000.0000    126.5564
   842.5000      8.3212   2000.0000   2000.0000    122.5962
   842.7500      8.5529   2000.0000   2000.0000    121.5556
   843.0000      8.8793   2000.0000   2000.0000    122.1432
   843.2500      9.3017   2000.0000   2000.0000    122.6637
   843.5000      9.8181   2000.0000   2000.0000    120.9385
   843.7500     10.4255   2000.0000   2000.0000    117.3356
