~Version Information
VERS.                      2.0: CWLS Log ASCII Standard - VERSION 2.0
WRAP.                       NO: One line per depth step
~Well Information Block
STRT.FT               520.0000: 
STOP.FT              2183.5000: 
STEP.FT                 0.1000: 
NULL.                -999.2500: 
COMP.          Pioneer Natural Resources: COMPANY
WELL.             Enzo 43-8 Tr: WELL
FLD.           Purgatoire River: FIELD
LOC.           2303' FSL & 604' FEL: LOCATION
PROV.                 Colorado: PROVINCE
CNTY.               Las Animas: COUNTRY
SRVC.                Patterson: SERVICE COMPANY
DATE.          Sun Oct 31 15:10:54 2004: LOG DATE
UWI.           05 071 08213 00: UNIQUE WELL ID
~Curve Information Block
DEPT.FT            0 000 00 00: Depth
DCAL.in                       : CDL Caliper
RHOB.g/cc                     : CDL Bulk Density
RHOC.g/cc                     : CDL Density Correction
DPOR.pu                       : CDL Density Porosity
NPOR.pu                       : Neutron Porosity
GR.GAPI                       : Gamma Ray
~Parameter Information Block
~A  Depth       DCAL        RHOB        RHOC        DPOR        NPOR         GR     
# ...
  1720.0000      8.1518      2.6137      0.0394      2.2028     22.7472     93.1920
  1720.1000      8.1518      2.6134      0.0329      2.2204     23.1639     95.6283
  1720.2000      8.1518      2.6086      0.0761      2.5100     23.7569     98.5610
  1720.3000      8.1534      2.5945      0.0399      3.3634     24.1712    102.0648
  1720.4000      8.1534      2.5868      0.0264      3.8327     24.1295    109.4539
  1720.5000      8.1554      2.5982      0.0298      3.1384     23.8060    119.8768
  1720.6000      8.1554      2.6208      0.0589      1.7700     23.5500    123.3747
  1720.7000      8.1554      2.6395      0.0778      0.6384     23.4380    118.3093
  1720.8000      8.1568      2.6426      0.1103      0.4470     23.4266    112.8360
  1720.9000      8.1568      2.6296      0.0344      1.2369     23.5106    110.9680
  1721.0000      8.1523      2.6164      0.0416      2.0394     23.7217    110.8668
  1721.1000      8.1523      2.6151      0.0103      2.1172     24.0586    111.7971
  1721.2000      8.1523      2.6228      0.0195      1.6501     24.5224    114.4065
  1721.3000      8.1465      2.6332      0.0301      1.0163     25.0860    117.4130
  1721.4000      8.1465      2.6454     -0.0071      0.2817     25.5359    118.9289
  1721.5000      8.1446      2.6529     -0.0092     -0.1759     25.8685    117.6309
  1721.6000      8.1446      2.6469     -0.0285      0.1868     26.0765    115.0473
  1721.7000      8.1446      2.6367     -0.0022      0.8065     25.9422    114.4219
  1721.8000      8.1452      2.6306      0.0411      1.1730     25.6478    116.4164
  1721.9000      8.1452      2.6199      0.0522      1.8261     25.4711    120.0921
  1722.0000      8.1471      2.6108     -0.0146      2.3777     25.2587    121.3952
  1722.1000      8.1471      2.6219      0.0525      1.7060     24.8238    117.9566
  1722.2000      8.1471      2.6441      0.0114      0.3554     24.3646    114.6505
  1722.3000      8.1478      2.6560      0.0631     -0.3606     24.0409    114.4084
  1722.4000      8.1478      2.6482      0.0353      0.1116     23.9111    114.1087
  1722.5000      8.1466      2.6237      0.0308      1.5915     24.0061    111.8947
  1722.6000      8.1466      2.5897      0.0197      3.6522     23.9997    109.3764
  1722.7000      8.1466      2.5601     -0.0219      5.4513     23.5544    107.7526
  1722.8000      8.1467      2.5501     -0.0180      6.0575     23.0399    106.1127
  1722.9000      8.1467      2.5595      0.0015      5.4867     22.8662    104.9279
  1723.0000      8.1461      2.5767      0.0421      4.4410     22.8798    106.0265
  1723.1000      8.1461      2.5971     -0.0289      3.2078     22.9364    107.1566
  1723.2000      8.1461      2.6205      0.0717      1.7904     23.2357    105.3983
  1723.3000      8.1468      2.6379      0.0010      0.7327     23.8108    104.9162
  1723.4000      8.1468      2.6418      0.0343      0.4955     24.4604    109.3785
  1723.5000      8.1508      2.6321      0.0344      1.0847     25.3284    115.1547
  1723.6000      8.1508      2.6229     -0.0052      1.6418     26.4733    120.2629
  1723.7000      8.1508      2.6251      0.0454      1.5121     27.2066    124.5051
  1723.8000      8.1492      2.6210      0.0409      1.7558     26.9908    123.9566
  1723.9000      8.1492      2.5985     -0.0013      3.1199     26.4895    118.7855
  1724.0000      8.1406      2.5818     -0.0525      4.1362     26.1761    112.6688
  1724.1000      8.1406      2.5966     -0.0326      3.2360     25.4625    108.0112
  1724.2000      8.1406      2.6258      0.0478      1.4689     24.3065    106.3881
  1724.3000      8.1360      2.6313      0.0242      1.1319     23.5344    106.6653
  1724.4000      8.1360      2.6074      0.0036      2.5835     23.3336    105.4229
  1724.5000      8.1432      2.5804     -0.0464      4.2212     23.0894    101.4695
  1724.6000      8.1432      2.5727     -0.0021      4.6825     22.4653     97.5936
  1724.7000      8.1432      2.5762      0.0081      4.4705     21.5802     96.6215
  1724.8000      8.1522      2.5708      0.0475      4.8006     20.5664     98.4519
  1724.9000      8.1522      2.5572     -0.0146      5.6262     19.8044     99.5192
  1725.0000      8.1571      2.5499      0.0293      6.0642     19.7387     98.2304
  1725.1000      8.1571      2.5487     -0.0006      6.1366     20.0796     97.9655
  1725.2000      8.1571      2.5423      0.0060      6.5266     20.0787     99.3780
  1725.3000      8.1575      2.5338     -0.0251      7.0427     19.6080     99.8533
  1725.4000      8.1575      2.5340     -0.0145      7.0304     19.2191     99.1599
  1725.5000      8.1541      2.5330      0.0201      7.0914     19.1685     98.7710
  1725.6000      8.1541      2.5170      0.0206      8.0629     19.2494     98.2360
  1725.7000      8.1541      2.5008     -0.0122      9.0421     19.4686     94.8676
  1725.8000      8.1520      2.5008     -0.0039      9.0400     19.8123     89.6271
  1725.9000      8.1520      2.5062      0.0011      8.7180     19.9652     87.4402
  1726.0000      8.1527      2.5071      0.0005      8.6580     19.8272     88.8726
  1726.1000      8.1527      2.5153     -0.0021      8.1657     19.6087     90.5116
  1726.2000      8.1527      2.5341      0.0307      7.0257     19.4010     91.1516
  1726.3000      8.1530      2.5491      0.0393      6.1153     19.2683     92.9260
  1726.4000      8.1530      2.5582     -0.0214      5.5616     19.2619     97.2947
  1726.5000      8.1511      2.5634      0.0411      5.2492     19.3218    102.0557
  1726.6000      8.1511      2.5572      0.0095      5.6271     19.5579    104.2317
  1726.7000      8.1511      2.5515     -0.0036      5.9716     19.9476    104.2002
  1726.8000      8.1482      2.5601      0.0251      5.4514     20.1760    102.1052
  1726.9000      8.1482      2.5670      0.0342      5.0300     20.1293     97.0882
  1727.0000      8.1466      2.5605      0.0016      5.4260     19.8627     90.2782
  1727.1000      8.1466      2.5528      0.0078      5.8902     19.4358     84.8708
  1727.2000      8.1466      2.5481      0.0277      6.1748     19.0549     82.8731
  1727.3000      8.1479      2.5411      0.0101      6.5977     19.0616     83.1057
  1727.4000      8.1479      2.5367      0.0099      6.8674     19.3529     84.3234
  1727.5000      8.1485      2.5417      0.0027      6.5644     19.5657     85.5661
  1727.6000      8.1485      2.5514      0.0386      5.9739     19.6028     85.2088
  1727.7000      8.1485      2.5520      0.0578      5.9374     19.4448     82.8202
  1727.8000      8.1479      2.5420      0.0272      6.5458     19.1947     79.4559
  1727.9000      8.1479      2.5310      0.0274      7.2122     19.0381     75.3032
  1728.0000      8.1475      2.5164      0.0177      8.0948     18.8979     72.5997
  1728.1000      8.1475      2.4928      0.0189      9.5275     18.6402     76.2964
  1728.2000      8.1475      2.4711     -0.0282     10.8431     18.4021     85.4931
  1728.3000      8.1484      2.4670     -0.0129     11.0900     18.2466     91.2730
  1728.4000      8.1484      2.4778      0.0097     10.4359     18.1891     89.1124
  1728.5000      8.1506      2.4844      0.0138     10.0369     18.3333     84.8706
  1728.6000      8.1506      2.4777     -0.0043     10.4434     18.5078     82.9295
  1728.7000      8.1506      2.4658     -0.0101     11.1663     18.5570     82.7352
  1728.8000      8.1536      2.4565     -0.0418     11.7284     18.5795     83.9530
  1728.9000      8.1536      2.4497     -0.0107     12.1387     18.5838     85.0960
  1729.0000      8.1564      2.4419     -0.0122     12.6116     18.3905     84.3726
  1729.1000      8.1564      2.4351     -0.0252     13.0227     17.9589     81.8867
  1729.2000      8.1564      2.4431     -0.0641     12.5416     17.6802     80.0496
  1729.3000      8.1571      2.4768      0.0052     10.4959     17.9229     81.6582
  1729.4000      8.1571      2.5136      0.0623      8.2685     18.4365     85.5627
  1729.5000      8.1550      2.5248      0.0561      7.5877     18.4340     87.5326
