~Version Information
 VERS.                                  2.0 : CWLS LAS VERSION
 WRAP.                                   NO : WRAPING MODE
 SWARE .                 MController 2.5.0N : SOFTWARE VERSION
~Well Information
 WELL.                          Bobsy 34-11 : WELL
 COMP.    Pioneer Natural Resources USA Inc : COMPANY
 FLD.                      Purgatoire River : FIELD
 LOC.                SW/SE Sec 11 T32S R66W : LOCATION
 DATE.                               4/7/05 : DATE(S) LOGGED
 SRVC.       Blanco Geological Services LLC : SERVICE COMPANY
 STAT.                                   CO : STATE
 CNTY.                           Las Animas : COUNTY
 CTRY.                                  USA : COUNTRY
 API.                       05-071-08330-00 : API NUMBER
 STRT.FT                             842.00 : START DEPTH
 STOP.FT                            2345.00 : STOP DEPTH
 STEP.FT                               1.00 : DEPTH INCREMENT
 NULL.                                -9999 : NULL VALUE
~Curve information
 DEPTH.FT                                   :
 ROP.MIN/FT                                 :
 GAS.UNITS                                  :
~ASCII Log data
# ...
      1642.0         0.27         99.2 
      1643.0         0.37         95.3 
      1644.0         0.40         90.3 
      1645.0         0.30         85.4 
      1646.0         2.38        202.1 
      1647.0         0.37        256.2 
      1648.0         0.27        276.4 
      1649.0         0.57        278.7 
      1650.0         0.37        237.1 
      1651.0         0.27        186.9 
      1652.0         0.27        157.9 
      1653.0         0.23        135.8 
      1654.0         0.18        120.6 
      1655.0         0.17        110.9 
      1656.0         0.27        104.8 
      1657.0         0.20         98.3 
      1658.0         0.17         96.7 
      1659.0         0.13         96.3 
      1660.0         0.13         95.6 
      1661.0         0.23         95.2 
      1662.0         0.40         96.8 
      1663.0         0.27        101.5 
      1664.0         0.27        106.4 
      1665.0         0.27        108.0 
      1666.0         0.23        107.8 
      1667.0         0.23        106.3 
      1668.0         0.28        104.2 
      1669.0         0.20        102.9 
      1670.0         0.13        103.8 
      1671.0         0.13        102.6 
      1672.0         0.30         99.6 
      1673.0         0.30         91.6 
      1674.0         0.30         85.8 
      1675.0         0.43         84.6 
      1676.0         2.12        164.4 
      1677.0         0.57        258.6 
      1678.0         0.23        277.3 
      1679.0         0.33        278.7 
      1680.0         0.37        266.0 
      1681.0         0.40        220.5 
      1682.0         0.37        172.6 
      1683.0         0.23        138.7 
      1684.0         0.42        123.3 
      1685.0         0.27        103.8 
      1686.0         0.30         99.9 
      1687.0         0.40         98.5 
      1688.0         0.40         98.0 
      1689.0         0.23         97.0 
      1690.0         0.20         95.6 
      1691.0         0.37         94.9 
      1692.0         0.23         92.5 
      1693.0         0.27         90.1 
      1694.0         0.27         89.0 
      1695.0         0.32         87.7 
      1696.0         0.40         85.1 
      1697.0         0.30         80.9 
      1698.0         0.40         79.5 
      1699.0         0.23         82.7 
      1700.0         0.27         83.6 
      1701.0         0.27         81.7 
      1702.0         0.20         78.3 
      1703.0         0.20         76.2 
      1704.0         0.13         74.3 
      1705.0         0.43         72.6 
      1706.0         2.75        254.1 
      1707.0         0.63        317.0 
      1708.0         0.52        315.9 
      1709.0         0.40        251.2 
      1710.0         0.27        191.8 
      1711.0         0.27        161.1 
      1712.0         0.27        139.1 
      1713.0         0.30        122.3 
      1714.0         0.27        112.1 
      1715.0         0.27        105.3 
      1716.0         0.47        101.0 
      1717.0         0.40         95.1 
      1718.0         0.35         92.3 
      1719.0         0.17         88.3 
      1720.0         0.27         86.5 
      1721.0         0.27         84.0 
      1722.0         0.27         82.2 
      1723.0         0.27         81.4 
      1724.0         0.30         80.0 
      1725.0         0.37         78.1 
      1726.0         0.30         74.6 
      1727.0         0.23         73.1 
      1728.0         0.27         73.5 
      1729.0         0.23         76.0 
      1730.0         0.23         77.6 
      1731.0         0.22         76.4 
      1732.0         0.23         73.5 
      1733.0         0.27         70.8 
      1734.0         0.33         68.6 
      1735.0         0.30         66.5 
      1736.0         2.28        167.3 
      1737.0         0.33        226.9 
      1738.0         0.30        267.7 
      1739.0         0.30        280.9 
      1740.0         0.23        279.3 
      1741.0         0.27        260.6 
      1742.0         0.27        230.6 
      1743.0         0.20        196.0 
      1744.0         0.20        171.2 
      1745.0         0.23        149.1 
      1746.0         0.23        128.6 
      1747.0         0.23        113.4 
      1748.0         0.30        102.4 
      1749.0         0.35         94.4 
      1750.0         0.37         92.2 
      1751.0         0.23         91.2 
      1752.0         0.23         89.9 
      1753.0         0.27         87.5 
      1754.0         0.23         83.6 
      1755.0         0.23         82.1 
      1756.0         0.23         80.5 
      1757.0         0.23         78.7 
      1758.0         0.20         76.6 
      1759.0         0.17         75.5 
      1760.0         0.23         78.1 
      1761.0         0.23         78.7 
      1762.0         0.25         77.4 
      1763.0         0.33         72.5 
      1764.0         0.30         66.2 
      1765.0         0.30         63.8 
      1766.0         2.17        125.5 
      1767.0         0.58        223.9 
      1768.0         0.40        256.9 
      1769.0         0.27        257.3 
      1770.0         0.27        244.0 
      1771.0         0.27        213.5 
      1772.0         0.20        182.9 
      1773.0         0.23        160.6 
      1774.0         0.37        138.5 
      1775.0         0.33        109.4 
      1776.0         0.37         95.8 
      1777.0         0.28         88.7 
      1778.0         0.30         87.1 
      1779.0         0.33         86.2 
      1780.0         0.27         84.4 
      1781.0         0.37         83.4 
      1782.0         0.33         81.5 
      1783.0         0.33         78.2 
      1784.0         0.30         75.3 
      1785.0         0.23         71.9 
      1786.0         0.27         70.1 
      1787.0         0.30         68.9 
      1788.0         0.35         66.7 
      1789.0         0.30         65.9 
      1790.0         0.30         68.3 
      1791.0         0.30         69.7 
      1792.0         0.27         69.0 
      1793.0         0.27         65.9 
      1794.0         0.23         63.5 
      1795.0         0.47         61.7 
      1796.0         2.72        207.3 
      1797.0         0.53        282.4 
      1798.0         0.50        300.6 
      1799.0         0.43        288.5 
      1800.0         0.42        229.8 
      1801.0         0.40        168.5 
      1802.0         0.37        130.1 
      1803.0         0.23        107.4 
      1804.0         0.30         97.0 
      1805.0         0.23         91.1 
      1806.0         0.27         89.4 
      1807.0         0.23         88.1 
      1808.0         0.23         86.9 
      1809.0         0.30         85.0 
      1810.0         0.33         81.1 
      1811.0         0.20         78.2 
      1812.0         0.18         76.4 
      1813.0         0.17         74.9 
      1814.0         0.27         73.9 
      1815.0         0.27         71.7 
      1816.0         0.20         70.7 
      1817.0         0.17         71.3 
      1818.0         0.30         72.0 
      1819.0         0.30         70.2 
      1820.0         0.33         65.4 
      1821.0         0.43         62.2 
      1822.0         0.13         60.5 
      1823.0         0.37         59.3 
      1824.0         0.33         54.9 
      1825.0         0.35         54.6 
      1826.0         3.78        246.5 
      1827.0         0.63        389.6 
      1828.0         0.60        458.7 
      1829.0         0.60        457.9 
      1830.0         0.50        347.8 
      1831.0         0.35        225.7 
      1832.0         0.23        163.3 
      1833.0         0.33        137.0 
      1834.0         0.43        109.0 
      1835.0         0.37         88.2 
      1836.0         0.40         80.3 
      1837.0         0.27         74.7 
      1838.0         0.23         72.6 
      1839.0         0.23         70.7 
      1840.0         0.27         68.3 
      1841.0         0.20         66.8 
