~Version Information
 VERS.                                  2.0 : CWLS LAS VERSION
 WRAP.                                   NO : WRAPING MODE
 SWARE .                 MController 2.5.0J : SOFTWARE VERSION
~Well Information
 WELL.                           Furu 6-23R : WELL
 COMP.                Petrogulf Corporation : COMPANY
 FLD.                       Purgatory River : FIELD
 LOC.                  NE/SW Sec6 T33S R67W : LOCATION
 DATE.                    6/19/06 - 6/21/06 : DATE(S) LOGGED
 SRVC.      Blanco Geological Services, LLC : SERVICE COMPANY
 STAT.                             Colorado : STATE
 CNTY.                           Las Animas : COUNTY
 CTRY.                                  USA : COUNTRY
 API.                       05-071-08266-00 : API NUMBER
 STRT.FT                             566.00 : START DEPTH
 STOP.FT                            2205.00 : STOP DEPTH
 STEP.FT                               1.00 : DEPTH INCREMENT
 NULL.                                -9999 : NULL VALUE
~Curve information
 DEPTH.FT                                   :
 ROP.MIN/FT                                 :
 GAS.UNITS                                  :
~ASCII Log data
# ...
       966.0         0.37         98.3 
       967.0         0.38        200.8 
       968.0         0.40        295.3 
       969.0         0.37        300.1 
       970.0         0.40        269.5 
       971.0         0.40        127.8 
       972.0         0.40         58.1 
       973.0         0.37         18.6 
       974.0         0.33          8.5 
       975.0         0.27          5.0 
       976.0         0.28          3.5 
       977.0         0.20          2.5 
       978.0         0.33          3.1 
       979.0         0.47          2.9 
       980.0         0.43          3.3 
       981.0         0.43          3.0 
       982.0         0.43          2.9 
       983.0         0.40          2.2 
       984.0         0.37          2.3 
       985.0         0.42          2.4 
       986.0         3.18       4002.7 
       987.0         0.20       2106.9 
       988.0         0.23       1590.9 
       989.0         0.13       1539.1 
       990.0         0.10       1543.6 
       991.0         0.37       1567.4 
       992.0         0.40       1549.9 
       993.0         0.37       1257.3 
       994.0         0.33        888.5 
       995.0         0.30        443.2 
       996.0         0.33        440.0 
       997.0         0.33        127.4 
       998.0         0.35        126.6 
       999.0         0.33        103.3 
      1000.0         0.30         53.6 
      1001.0         0.33         34.1 
      1002.0         0.30         15.8 
      1003.0         0.30         10.6 
      1004.0         0.30          8.0 
      1005.0         0.40          5.9 
      1006.0         0.43          5.0 
      1007.0         0.37         24.8 
      1008.0         0.32        106.2 
      1009.0         0.30        199.2 
      1010.0         0.23        275.6 
      1011.0         0.30        335.4 
      1012.0         0.27        361.8 
      1013.0         0.30        360.8 
      1014.0         0.30        308.0 
      1015.0         0.30        202.8 
      1016.0         3.48       2409.7 
      1017.0         0.37        487.7 
      1018.0         0.30        120.7 
      1019.0         0.35         71.5 
      1020.0         0.37         30.2 
      1021.0         0.47         12.4 
      1022.0         0.33          4.1 
      1023.0         0.40          2.9 
      1024.0         0.43          2.2 
      1025.0         0.43          2.1 
      1026.0         0.37          2.5 
      1027.0         0.43          2.6 
      1028.0         0.42          2.8 
      1029.0         0.40          2.5 
      1030.0         0.23          2.0 
      1031.0         0.57          2.4 
      1032.0         0.47          2.6 
      1033.0         0.50          2.6 
      1034.0         0.43          2.4 
      1035.0         0.52          2.6 
      1036.0         0.37          2.3 
      1037.0         0.10          2.1 
      1038.0         0.40          2.6 
      1039.0         0.27          2.9 
      1040.0         0.17          2.8 
      1041.0         0.30          2.5 
      1042.0         0.30          3.0 
      1043.0         0.23          3.0 
      1044.0         0.37          3.2 
      1045.0         0.20          2.6 
      1046.0         5.33       7412.3 
      1047.0         0.27       7478.6 
      1048.0         0.90       8025.5 
      1049.0         0.72       7342.8 
      1050.0         0.50       1548.3 
      1051.0         0.47        541.0 
      1052.0         0.63        115.0 
      1053.0         0.60         33.0 
      1054.0         0.63         11.5 
      1055.0         0.88          5.9 
      1056.0         0.47          4.5 
      1057.0         0.40          3.7 
      1058.0         0.37          4.2 
      1059.0         0.30          3.9 
      1060.0         0.33          4.1 
      1061.0         0.73          4.2 
      1062.0         0.65          4.1 
      1063.0         0.53          4.0 
      1064.0         0.43          3.7 
      1065.0         0.37          4.1 
      1066.0         0.40          4.2 
      1067.0         0.37          4.2 
      1068.0         0.27          4.4 
      1069.0         0.20          4.2 
      1070.0         0.23          3.7 
      1071.0         0.28          4.4 
      1072.0         0.53          4.5 
      1073.0         0.33          4.9 
      1074.0         0.37          5.0 
      1075.0         0.30          4.6 
      1076.0         3.15       3217.8 
      1077.0         0.30       3216.2 
      1078.0         0.23       2793.1 
      1079.0         0.40       2292.3 
      1080.0         0.53       1812.1 
      1081.0         0.58       1574.4 
      1082.0         0.80        906.9 
      1083.0         0.47        898.7 
      1084.0         0.37        919.3 
      1085.0         0.30        939.9 
      1086.0         0.43       1114.2 
      1087.0         0.40       1240.8 
      1088.0         0.40       1288.4 
      1089.0         0.42       1290.9 
      1090.0         0.47       1248.4 
      1091.0         0.40       1072.9 
      1092.0         0.37        639.7 
      1093.0         0.37        440.0 
      1094.0         0.23         74.4 
      1095.0         0.33         54.5 
      1096.0         0.30         24.4 
      1097.0         0.27         15.8 
      1098.0         0.38          9.8 
      1099.0         0.30          7.0 
      1100.0         0.23          6.3 
      1101.0         0.13          5.8 
      1102.0         0.17          6.3 
      1103.0         0.30          6.4 
      1104.0         0.37          7.0 
      1105.0         0.33          9.8 
      1106.0         3.38       2151.4 
      1107.0         0.57       1750.5 
      1108.0         0.43       1025.3 
      1109.0         0.38       1117.7 
      1110.0         0.37       1104.3 
      1111.0         0.43        901.2 
      1112.0         0.40        566.7 
      1113.0         0.30        602.9 
      1114.0         0.30        741.9 
      1115.0         0.30        851.4 
      1116.0         0.23        899.6 
      1117.0         0.27        925.3 
      1118.0         0.30        935.8 
      1119.0         0.30        908.5 
      1120.0         0.28        823.4 
      1121.0         0.23        733.6 
      1122.0         0.27        680.9 
      1123.0         0.30        635.2 
      1124.0         0.27        621.0 
      1125.0         0.23        585.7 
      1126.0         0.23        548.3 
      1127.0         0.30        516.5 
      1128.0         0.33        440.0 
      1129.0         0.30        165.0 
      1130.0         0.30        282.7 
      1131.0         0.33        453.6 
      1132.0         0.32       1032.0 
      1133.0         0.30       1131.9 
      1134.0         0.27       1165.3 
      1135.0         0.30       1171.9 
      1136.0         6.00       3986.8 
      1137.0         0.20         20.6 
      1138.0         0.20         47.0 
      1139.0         0.20        126.9 
      1140.0         0.63        454.4 
      1141.0         0.67        884.7 
      1142.0         0.27        611.4 
      1143.0         0.23        447.7 
      1144.0         0.30        440.0 
      1145.0         0.38        139.7 
      1146.0         0.33        237.6 
      1147.0         0.33        335.2 
      1148.0         0.27        388.8 
      1149.0         0.30        439.4 
      1150.0         0.47        988.5 
      1151.0         0.37       1218.9 
      1152.0         0.37       1351.9 
      1153.0         0.37       1372.8 
      1154.0         0.42       1361.4 
      1155.0         0.47       1358.2 
      1156.0         0.47       1339.8 
      1157.0         0.40       1157.6 
      1158.0         0.37        918.3 
      1159.0         0.20        671.4 
      1160.0         0.17        534.9 
      1161.0         0.30        495.6 
      1162.0         0.30        440.0 
      1163.0         0.40         70.0 
      1164.0         0.38         47.5 
      1165.0         0.23         35.0 
