~Version Information
VERS.                      2.0: CWLS Log ASCII Standard - VERSION 2.0
WRAP.                       NO: One line per depth step
~Well Information Block
STRT.FT               245.0000: 
STOP.FT              2464.2000: 
STEP.FT                 0.1000: 
NULL.                -999.2500: 
COMP.          Pioneer Natural Resources: COMPANY
WELL.          Oink Oink 14-36: WELL
FLD.           Purgatoire River: FIELD
LOC.           216' FSL & 263' FWL--: LOCATION
PROV.                 Colorado: PROVINCE
CNTY.               Las Animas: COUNTRY
SRVC.                Patterson: SERVICE COMPANY
DATE.          Wed Jun 08 16:53:09 2005: LOG DATE
UWI.           05 071 08394 00: UNIQUE WELL ID
~Curve Information Block
DEPT.FT            0 000 00 00: Depth
DCAL.in                       : CDL Caliper
RHOB.g/cc                     : CDL Bulk Density
RHOC.g/cc                     : CDL Density Correction
DPOR.pu                       : CDL Density Porosity
NPOR.pu                       : Neutron Porosity
GR.GAPI                       : Gamma Ray
~Parameter Information Block
~A  Depth       DCAL        RHOB        RHOC        DPOR        NPOR         GR     
# ...
  2145.8000      7.9655      2.5614      0.0769      5.3669     22.9525    135.3058
  2145.9000      7.9655      2.5628      0.1006      5.2819     22.5602    138.0811
  2146.0000      7.9652      2.5639      0.0779      5.2169     21.8411    141.3831
  2146.1000      7.9652      2.5669      0.0424      5.0356     21.1620    138.9632
  2146.2000      7.9652      2.5711      0.0874      4.7827     20.6802    128.9263
  2146.3000      7.9667      2.5652      0.1026      5.1388     20.7294    116.7632
  2146.4000      7.9667      2.5544      0.0307      5.7956     21.3670    108.1033
  2146.5000      7.9696      2.5559      0.0693      5.7056     21.8958    106.3060
  2146.6000      7.9696      2.5683      0.0823      4.9490     21.7172    109.7666
  2146.7000      7.9696      2.5732      0.0635      4.6517     21.0155    113.9571
  2146.8000      7.9714      2.5608      0.0504      5.4066     20.2062    118.2100
  2146.9000      7.9714      2.5438      0.0344      6.4366     19.5070    121.3380
  2147.0000      7.9705      2.5414      0.0396      6.5819     19.1124    119.8348
  2147.1000      7.9705      2.5620      0.0253      5.3320     19.2590    113.0860
  2147.2000      7.9705      2.5965      0.0830      3.2437     19.7336    104.8292
  2147.3000      7.9687      2.6187      0.0878      1.8952     19.9361     97.6856
  2147.4000      7.9687      2.6156      0.0922      2.0828     19.4619     93.9165
  2147.5000      7.9674      2.6026      0.0648      2.8704     18.6006     92.9021
  2147.6000      7.9674      2.5947      0.0749      3.3540     18.1694     92.0420
  2147.7000      7.9674      2.5916      0.0553      3.5403     18.4456     92.1752
  2147.8000      7.9666      2.5981      0.0463      3.1467     18.7216     90.8017
  2147.9000      7.9666      2.6108      0.1078      2.3774     18.4243     86.1316
  2148.0000      7.9670      2.6065      0.1052      2.6336     18.1319     84.0576
  2148.1000      7.9670      2.5801      0.0708      4.2337     18.2317     87.8272
  2148.2000      7.9670      2.5573      0.0393      5.6156     18.3314     94.0988
  2148.3000      7.9674      2.5580      0.0449      5.5736     18.3166     99.3100
  2148.4000      7.9674      2.5739      0.0327      4.6101     18.5111    102.4702
  2148.5000      7.9666      2.5853      0.0758      3.9216     18.8246    104.4847
  2148.6000      7.9666      2.5863      0.0498      3.8629     18.6202    105.8549
  2148.7000      7.9666      2.5879      0.0794      3.7636     17.9118    104.6113
  2148.8000      7.9669      2.5906      0.1036      3.6000     17.4582     97.6839
  2148.9000      7.9669      2.5824      0.0799      4.0962     17.5027     89.4706
  2149.0000      7.9677      2.5692      0.0278      4.8991     17.5900     89.9205
  2149.1000      7.9677      2.5647      0.0540      5.1720     17.4468     97.8563
  2149.2000      7.9677      2.5625      0.0564      5.3035     17.1347    101.7674
  2149.3000      7.9673      2.5565      0.0281      5.6646     16.8578     99.4370
  2149.4000      7.9673      2.5603      0.0381      5.4352     17.1052     98.3928
  2149.5000      7.9665      2.5829      0.0543      4.0660     17.9470     96.5406
  2149.6000      7.9665      2.6106      0.0888      2.3852     18.6460     89.8114
  2149.7000      7.9665      2.6246      0.0817      1.5380     18.5263     86.5404
  2149.8000      7.9655      2.6193      0.0861      1.8631     17.7799     90.0136
  2149.9000      7.9655      2.5997      0.0902      3.0508     17.1387     91.3988
  2150.0000      7.9654      2.5753      0.0917      4.5295     16.9837     87.9658
  2150.1000      7.9654      2.5591      0.0532      5.5098     17.0988     86.5114
  2150.2000      7.9654      2.5579      0.0449      5.5821     17.1552     90.3711
  2150.3000      7.9671      2.5652      0.0661      5.1418     17.1810     94.9679
  2150.4000      7.9671      2.5742      0.0449      4.5928     17.2811     99.1090
  2150.5000      7.9701      2.5824      0.0842      4.0961     17.4006    103.1993
  2150.6000      7.9701      2.5859      0.0581      3.8825     17.5682    103.3296
  2150.7000      7.9701      2.5822      0.0560      4.1112     17.7049    100.2001
  2150.8000      7.9719      2.5672      0.0529      5.0198     17.5945     98.5666
  2150.9000      7.9719      2.5496      0.0286      6.0854     17.4130     97.3349
  2151.0000      7.9716      2.5524      0.0303      5.9178     17.5378     92.0509
  2151.1000      7.9716      2.5747      0.0589      4.5662     17.8747     86.0918
  2151.2000      7.9716      2.5866      0.0670      3.8402     18.0158     84.8404
  2151.3000      7.9691      2.5763      0.0425      4.4666     17.7932     83.7064
  2151.4000      7.9691      2.5674      0.0242      5.0051     17.3031     80.4931
  2151.5000      7.9653      2.5842      0.0407      3.9898     16.8471     79.7282
  2151.6000      7.9653      2.6179      0.1111      1.9443     16.7649     81.9676
  2151.7000      7.9653      2.6423      0.0810      0.4681     17.0176     86.2333
  2151.8000      7.9630      2.6465      0.0816      0.2115     17.4725     90.6821
  2151.9000      7.9630      2.6373      0.0611      0.7672     18.2239     89.7555
  2152.0000      7.9634      2.6260      0.0670      1.4519     19.0651     86.2313
  2152.1000      7.9634      2.6200      0.0618      1.8204     19.5275     88.9589
  2152.2000      7.9634      2.6169      0.0554      2.0059     19.6413     96.1300
  2152.3000      7.9645      2.6096      0.0634      2.4497     19.8240    102.1123
  2152.4000      7.9645      2.5980      0.0429      3.1503     20.4385    105.0316
  2152.5000      7.9664      2.5909      0.0323      3.5803     21.3304    105.3400
  2152.6000      7.9664      2.5887      0.0545      3.7149     22.0784    106.6310
  2152.7000      7.9664      2.5842      0.0540      3.9902     22.6501    109.8278
  2152.8000      7.9735      2.5764      0.0523      4.4586     23.0166    111.5502
  2152.9000      7.9735      2.5666      0.0285      5.0573     23.0019    112.3277
  2153.0000      7.9830      2.5524      0.0464      5.9137     22.7063    115.4090
  2153.1000      7.9830      2.5367      0.0390      6.8682     22.4037    121.3474
  2153.2000      7.9830      2.5300      0.0376      7.2722     22.3617    126.7633
  2153.3000      7.9847      2.5326      0.0493      7.1159     22.8377    129.5139
  2153.4000      7.9847      2.5338      0.0842      7.0419     23.5838    132.8358
  2153.5000      7.9808      2.5291      0.0438      7.3297     24.0520    136.3691
  2153.6000      7.9808      2.5164      0.0287      8.0945     24.1984    135.9947
  2153.7000      7.9808      2.4969      0.0222      9.2768     24.2660    132.2131
  2153.8000      7.9792      2.4828     -0.0173     10.1335     24.2886    129.0468
  2153.9000      7.9792      2.4799      0.0544     10.3088     24.0093    126.1196
  2154.0000      7.9803      2.4796      0.0229     10.3297     23.4608    123.2315
  2154.1000      7.9803      2.4753      0.0370     10.5888     23.1130    129.0776
  2154.2000      7.9803      2.4700      0.0254     10.9075     23.2178    142.3993
  2154.3000      7.9837      2.4719      0.0617     10.7959     23.6108    149.6892
  2154.4000      7.9837      2.4784      0.0241     10.3971     23.7933    147.0126
  2154.5000      7.9849      2.4763      0.0766     10.5294     23.2993    141.8187
  2154.6000      7.9849      2.4597      0.0405     11.5321     22.4336    138.4339
  2154.7000      7.9849      2.4395      0.0617     12.7578     22.1216    137.6906
  2154.8000      7.9806      2.4322      0.0397     13.2020     22.8333    141.5414
  2154.9000      7.9806      2.4461      0.0703     12.3605     23.9560    143.4090
  2155.0000      7.9736      2.4701      0.1059     10.9027     24.5513    139.4842
  2155.1000      7.9736      2.4893      0.1127      9.7365     24.4636    133.0103
  2155.2000      7.9736      2.5006      0.1448      9.0551     24.0172    128.5446
  2155.3000      7.9683      2.5055      0.1314      8.7600     23.7040    130.8577
