~Version Information
VERS.                      2.0: CWLS Log ASCII Standard - VERSION 2.0
WRAP.                       NO: One line per depth step
~Well Information Block
STRT.FT                -0.2500: 
STOP.FT              2376.7500: 
STEP.FT                 0.2500: 
NULL.                -999.2500: 
COMP.          Petrogulf Corporation: COMPANY
WELL.             State 16-23V: WELL
FLD.           Purgatorie River: FIELD
LOC.           2414' FSL & 2215' FWL: LOCATION
PROV.                 Colorado: PROVINCE
CNTY.               Las Animas: COUNTRY
SRVC.          Patterson Wireline: SERVICE COMPANY
DATE.          Wed Jun 25 14:56:54 2003: LOG DATE
UWI.           05 071 07865 00: UNIQUE WELL ID
~Curve Information Block
DEPT.FT            0 000 00 00: Depth
CCL.                          : Casing Collar Locator
TT3.usec                      : CBL 3' Travel Time
AMP3.mV                       : CBL 3' Amplitude
GR.GAPI                       : Gamma Ray
~Parameter Information Block
~A  Depth       CCL         TT3         AMP3         GR     
# ...
  1708.2500      0.0000    257.0671     56.5122     62.4493
  1708.5000      0.0000    257.0362     56.2221     60.6770
  1708.7500      0.0000    257.0381     55.8985     59.3735
  1709.0000      0.0000    257.0762     55.6843     59.2271
  1709.2500      0.0000    257.1507     55.5926     60.8452
  1709.5000      0.0000    257.2501     55.5614     64.4739
  1709.7500      0.0000    257.3497     55.5409     69.5812
  1710.0000      0.0000    257.4257     55.5111     74.7463
  1710.2500      0.0000    257.4689     55.4710     78.3746
  1710.5000      0.0000    257.4838     55.4561     79.9408
  1710.7500      0.0000    257.4773     55.5407     80.3643
  1711.0000      0.0000    257.4531     55.7795     80.7439
  1711.2500      0.0000    257.4172     56.1511     80.9279
  1711.5000      0.0000    257.3825     56.5791     79.8773
  1711.7500      0.0000    257.3648     56.9860     77.3061
  1712.0000      0.0000    257.3767     57.3022     74.3317
  1712.2500      0.0000    257.4295     57.4455     72.4722
  1712.5000      0.0000    257.5300     57.3542     72.5295
  1712.7500      0.0000    257.6645     57.0686     74.4601
  1713.0000      0.0000    257.7939     56.7449     77.6368
  1713.2500      0.0000    257.8759     56.5482     80.9815
  1713.5000      0.0000    257.8875     56.5341     83.4376
  1713.7500      0.0000    257.8295     56.6392     84.7311
  1714.0000      0.0000    257.7181     56.7621     85.2342
  1714.2500      0.0000    257.5758     56.8389     84.8156
  1714.5000      0.0000    257.4237     56.8648     82.4977
  1714.7500      0.0000    257.2798     56.8821     77.7867
  1715.0000      0.0000    257.1621     56.9497     71.9274
  1715.2500      0.0000    257.0872     57.0974     67.2129
  1715.5000      0.0000    257.0655     57.2998     65.0084
  1715.7500      0.0000    257.1010     57.5114     64.7706
  1716.0000      0.0000    257.1880     57.7094     65.0181
  1716.2500      0.0000    257.2975     57.8704     64.8431
  1716.5000      0.0000    257.3756     57.9313     64.2497
  1716.7500      0.0000    257.3756     57.8368     63.4762
  1717.0000      0.0000    257.2975     57.6313     62.5286
  1717.2500      0.0000    257.1880     57.4519     61.3386
  1717.5000      0.0000    257.1006     57.4240     60.1669
  1717.7500      0.0000    257.0632     57.5910     59.8122
  1718.0000      0.0000    257.0780     57.9156     61.2491
  1718.2500      0.0000    257.1324     58.2894     64.7702
  1718.5000      0.0000    257.2036     58.5501     69.3600
  1718.7500      0.0000    257.2644     58.5681     73.1713
  1719.0000      0.0000    257.2975     58.3532     75.0684
  1719.2500      0.0000    257.2993     58.0387     75.7731
  1719.5000      0.0000    257.2735     57.7447     77.0690
  1719.7500      0.0000    257.2323     57.4775     79.7639
  1720.0000      0.0000    257.2037     57.1611     82.8711
  1720.2500      0.0000    257.2172     56.7467     85.0133
  1720.5000      0.0000    257.2771     56.2888     86.2310
  1720.7500      0.0000    257.3567     55.9143     87.9592
  1721.0000      0.0000    257.4214     55.7085     91.1499
  1721.2500      0.0000    257.4540     55.6439     94.8237
  1721.5000      0.0000    257.4648     55.5996     96.9562
  1721.7500      0.0000    257.5169     55.3766     96.6359
  1722.0000      0.0000    257.7819     54.6622     94.8176
  1722.2500      0.0000    258.6171     53.0568     93.0593
  1722.5000      0.0000    260.5464     50.2950     92.0733
  1722.7500      0.0000    264.0258     46.5407     91.3693
  1723.0000      0.0000    269.0968     42.4075     89.7158
  1723.2500      0.0000    275.2519     38.5629     86.0221
  1723.5000      0.0000    281.5735     35.3307     80.2930
  1723.7500      0.0000    286.8450     32.7465     73.7105
  1724.0000      0.0000    289.6803     30.8346     67.5112
  1724.2500      2.0000    289.1107     29.6405     62.0508
  1724.5000      0.0000    285.4966     29.0898     57.2239
  1724.7500      2.0000    280.8564     28.9995     53.2533
  1725.0000      0.0000    277.9992     29.2207     50.5428
  1725.2500      0.0000    278.7662     29.7734     49.1975
  1725.5000      0.0000    282.4597     30.8951     49.1682
  1725.7500      0.0000    285.8291     32.9269     50.4341
  1726.0000      0.0000    285.2923     36.0324     52.5401
  1726.2500      0.0000    279.8913     39.9930     54.2423
  1726.5000      0.0000    271.9745     44.3125     54.0861
  1726.7500      0.0000    264.8818     48.4513     51.4885
  1727.0000      0.0000    260.3744     51.9510     47.3262
  1727.2500      0.0000    258.2306     54.5310     43.3814
  1727.5000      0.0000    257.4296     56.2027     40.9981
  1727.7500      0.0000    257.1656     57.2171     40.3521
  1728.0000      0.0000    257.0688     57.8435     41.0460
  1728.2500      0.0000    257.0261     58.2211     42.8937
  1728.5000      0.0000    257.0085     58.3824     45.6589
  1728.7500      0.0000    257.0022     58.3508     48.4359
  1729.0000      0.0000    257.0005     58.1905     50.0445
  1729.2500      0.0000    257.0001     57.9939     50.0681
  1729.5000      0.0000    257.0000     57.8360     49.0565
  1729.7500      0.0000    257.0000     57.7485     47.7915
  1730.0000      0.0000    257.0000     57.7111     46.7776
  1730.2500      0.0000    257.0000     57.6621     46.2778
  1730.5000      0.0000    257.0000     57.5440     46.2969
  1730.7500      0.0000    257.0000     57.3527     46.5407
  1731.0000      0.0000    257.0000     57.1332     46.7342
  1731.2500      0.0000    257.0000     56.9256     46.9876
  1731.5000      0.0000    257.0000     56.7170     47.6841
  1731.7500      0.0000    257.0000     56.4515     49.0623
  1732.0000      0.0000    257.0001     56.0954     51.0082
  1732.2500      0.0000    257.0005     55.6921     53.1464
  1732.5000      0.0000    257.0027     55.3402     54.9336
  1732.7500      0.0000    257.0110     55.1113     55.8274
  1733.0000      0.0000    257.0358     54.9827     55.6961
  1733.2500      0.0000    257.0918     54.8607     55.1167
  1733.5000      0.0000    257.1858     54.6976     55.1095
  1733.7500      0.0000    257.2971     54.5870     56.4943
  1734.0000      0.0000    257.3755     54.7068     59.4231
  1734.2500      0.0000    257.3756     55.1444     63.3487
  1734.5000      0.0000    257.2975     55.7811     67.3679
  1734.7500      0.0000    257.1880     56.3584     70.8405
  1735.0000      0.0000    257.1010     56.6617     73.9989
  1735.2500      0.0000    257.0650     56.6448     78.0161
  1735.5000      0.0000    257.0846     56.4025     84.1852
  1735.7500      0.0000    257.1512     56.0644     92.8658
  1736.0000      0.0000    257.2440     55.7311    103.3840
  1736.2500      0.0000    257.3315     55.4802    114.9404
  1736.5000      0.0000    257.3878     55.3910    127.1393
  1736.7500      0.0000    257.4122     55.5224    139.4491
  1737.0000      0.0000    257.4266     55.8493    150.6616
  1737.2500      0.0000    257.4455     56.2228    159.5179
  1737.5000      0.0000    257.4513     56.4235    165.8064
  1737.7500      0.0000    257.4136     56.3058    170.2105
  1738.0000      0.0000    257.3336     55.9218    172.8921
  1738.2500      0.0000    257.2550     55.5042    172.7367
  1738.5000      0.0000    257.2220     55.3172    168.2948
  1738.7500      0.0000    257.2389     55.5015    159.2125
  1739.0000      0.0000    257.2752     56.0158    146.6733
  1739.2500      0.0000    257.2997     56.6946    132.7538
  1739.5000      0.0000    257.2975     57.3527    119.4734
  1739.7500      0.0000    257.2643     57.8480    108.3352
  1740.0000      0.0000    257.2030     58.0949    100.5838
  1740.2500      0.0000    257.1298     58.0718     97.4593
  1740.5000      0.0000    257.0671     57.8306     99.6021
  1740.7500      0.0000    257.0279     57.4718    106.2406
  1741.0000      0.0000    257.0111     57.0939    115.4761
  1741.2500      0.0000    257.0114     56.7666    125.5753
  1741.5000      0.0000    257.0297     56.5407    135.7048
