~Version Information
VERS.                      2.0: CWLS Log ASCII Standard - VERSION 2.0
WRAP.                       NO: One line per depth step
~Well Information Block
STRT.FT                -8.2500: 
STOP.FT               871.5000: 
STEP.FT                 0.2500: 
NULL.                -999.2500: 
COMP.          Pioneer Natural Resources: COMPANY
WELL.             Tomcat 32-10: WELL
FLD.           Purgatorie River: FIELD
LOC.           2286' FNL & 2463' FEL------: LOCATION
PROV.                       CO: PROVINCE
CNTY.               Las Animas: COUNTRY
SRVC.          Patterson Wireline: SERVICE COMPANY
DATE.          Mon Mar 28 09:03:25 2005: LOG DATE
UWI.           05 071 08301 00: UNIQUE WELL ID
~Curve Information Block
DEPT.FT            0 000 00 00: Depth
CCL.                          : Casing Collar Locator
TT3.usec                      : CBL 3' Travel Time
AMP3.mV                       : CBL 3' Amplitude
GR.GAPI                       : Gamma Ray
~Parameter Information Block
~A  Depth       CCL         TT3         AMP3         GR     
# ...
   561.2500      0.0000    805.8900      6.7719     77.0858
   561.5000      0.0000    805.4131      6.8227     79.8871
   561.7500      0.0000    806.3170      6.8653     81.0924
   562.0000      0.0000    808.1974      6.9069     81.5457
   562.2500      0.0000    810.0183      6.9495     82.0107
   562.5000      0.0000    810.8359      6.9926     82.2562
   562.7500      0.0000    809.9919      7.0359     81.4312
   563.0000      0.0000    807.2067      7.0760     79.1370
   563.2500      0.0000    803.0901      7.1064     76.0279
   563.5000      0.0000    799.2419      7.1234     73.4257
   563.7500      0.0000    797.2841      7.1289     72.4202
   564.0000      0.0000    797.7102      7.1286     73.1294
   564.2500      0.0000    799.7059      7.1292     74.6487
   564.5000      0.0000    801.9831      7.1354     75.8621
   564.7500      0.0000    803.8345      7.1436     76.4482
   565.0000      0.0000    805.5530      7.1411     77.0260
   565.2500      0.0000    808.1890      7.1175     78.3619
   565.5000      0.0000    813.1567      7.0767     80.5598
   565.7500      0.0000    821.5266      7.0324     82.9941
   566.0000      0.0000    832.8671      6.9944     84.9791
   566.2500      0.0000    844.8882      6.9605     86.4998
   566.5000      0.0000    854.8543      6.9229     88.1664
   566.7500      0.0000    861.4133      6.8811     90.4817
   567.0000      0.0000    864.9577      6.8462     93.4957
   567.2500      0.0000    866.5837      6.8315     97.1538
   567.5000      0.0000    867.0255      6.8379    101.4363
   567.7500      0.0000    866.2761      6.8535    106.0160
   568.0000      0.0000    863.7712      6.8643    110.1130
   568.2500      0.0000    858.9811      6.8650    112.6930
   568.5000      0.0000    852.1802      6.8622    112.8529
   568.7500      0.0000    844.7409      6.8713    110.4742
   569.0000      0.0000    838.4294      6.9049    106.5813
   569.2500      0.0000    834.2704      6.9593    102.7594
   569.5000      0.0000    832.1249      7.0172    100.1362
   569.7500      0.0000    831.1994      7.0645     98.8215
   570.0000      0.0000    830.6625      7.0941     97.9748
   570.2500      0.0000    829.7113      7.0946     96.3506
   570.5000      0.0000    827.3565      7.0491     93.2011
   570.7500      0.0000    822.6667      6.9565     89.0306
   571.0000      0.0000    815.8754      6.8473     85.3245
   571.2500      0.0000    809.5833      6.7609     83.2206
   571.5000      0.0000    808.1284      6.6966     82.5213
   571.7500      0.0000    814.0052      6.6066     82.3579
   572.0000      0.0000    824.1099      6.4590     82.7234
   572.2500      0.0000    831.2651      6.2864     84.8266
   572.5000      0.0000    831.3373      6.1463     89.8552
   572.7500      0.0000    827.5735      6.0514     97.7100
   573.0000      2.0000    825.9718      5.9672    106.9466
   573.2500      2.0000    827.8905      5.8667    115.6356
   573.5000      0.0000    829.8258      5.7711    122.2763
   573.7500      0.0000    829.2405      5.7344    126.2279
   574.0000      0.0000    827.5819      5.7831    127.5502
   574.2500      0.0000    827.6483      5.8710    126.7325
   574.5000      0.0000    830.6174      5.9129    124.7462
   574.7500      0.0000    836.0921      5.8712    123.0510
   575.0000      0.0000    842.8148      5.7840    123.0196
   575.2500      0.0000    848.3693      5.7055    125.2020
   575.5000      0.0000    849.8556      5.6542    129.0991
   575.7500      0.0000    846.2435      5.6273    133.2803
   576.0000      0.0000    839.6982      5.6345    135.4204
   576.2500      0.0000    833.5724      5.6968    132.7615
   576.5000      0.0000    828.8318      5.8191    123.5567
   576.7500      0.0000    823.4523      5.9740    108.6580
   577.0000      0.0000    815.9254      6.1174     91.7892
   577.2500      0.0000    808.0927      6.2169     78.0451
   577.5000      0.0000    803.5192      6.2618     71.5535
   577.7500      0.0000    803.8431      6.2509     73.7053
   578.0000      0.0000    807.5113      6.1852     82.6971
   578.2500      0.0000    811.4413      6.0768     94.3701
   578.5000      0.0000    813.1316      5.9592    104.1290
   578.7500      0.0000    811.7314      5.8756    109.2613
   579.0000      0.0000    808.3770      5.8507    110.0812
   579.2500      0.0000    805.8088      5.8746    108.8209
   579.5000      0.0000    806.7695      5.9177    107.5271
   579.7500      0.0000    811.8467      5.9621    107.1507
   580.0000      0.0000    818.8384      6.0139    107.9971
   580.2500      0.0000    824.3901      6.0824    110.0590
   580.5000      0.0000    825.8159      6.1495    112.7661
   580.7500      0.0000    821.3618      6.1678    115.0161
   581.0000      0.0000    810.1321      6.0952    115.8558
   581.2500      0.0000    793.2737      5.9265    115.1952
   581.5000      0.0000    775.0615      5.6934    113.8924
   581.7500      0.0000    761.1847      5.4420    112.9770
   582.0000      0.0000    754.7812      5.2144    112.3629
   582.2500      0.0000    754.4944      5.0424    110.3766
   582.5000      0.0000    756.8877      4.9468    105.1708
   582.7500      0.0000    760.0513      4.9352     96.7165
   583.0000      0.0000    763.9963      5.0023     87.0173
   583.2500      0.0000    768.5969      5.1327     78.5026
   583.5000      0.0000    773.1120      5.3047     72.5836
   583.7500      0.0000    777.8087      5.4945     69.5550
   584.0000      0.0000    784.8015      5.6881     69.2645
   584.2500      0.0000    796.5581      5.8895     71.5319
   584.5000      0.0000    813.0956      6.1149     76.1695
   584.7500      0.0000    830.2148      6.3822     82.8783
   585.0000      0.0000    841.3246      6.7014     91.0657
   585.2500      0.0000    842.2390      7.0638     99.5638
   585.5000      0.0000    834.7405      7.4320    106.6232
   585.7500      0.0000    825.6611      7.7478    110.4703
   586.0000      0.0000    822.1455      7.9583    110.1007
   586.2500      0.0000    826.4772      8.0326    105.8608
   586.5000      0.0000    834.4689      7.9640     99.4685
   586.7500      0.0000    839.0132      7.7744     92.9851
   587.0000      0.0000    835.5497      7.5176     87.3226
   587.2500      0.0000    824.3660      7.2627     82.0878
   587.5000      0.0000    808.9652      7.0626     77.0481
   587.7500      0.0000    794.1403      6.9334     73.1823
   588.0000      0.0000    785.1354      6.8574     71.8129
   588.2500      0.0000    785.4631      6.8035     72.9625
   588.5000      0.0000    793.9659      6.7491     75.0461
   588.7500      0.0000    805.3466      6.6861     76.1675
   589.0000      0.0000    814.4750      6.6122     75.4229
   589.2500      0.0000    819.5657      6.5227     73.1748
   589.5000      0.0000    821.6041      6.4145     70.7772
   589.7500      0.0000    822.1618      6.2948     70.0990
   590.0000      0.0000    822.1039      6.1812     72.5197
   590.2500      0.0000    821.5522      6.0910     77.8432
   590.5000      0.0000    820.4979      6.0347     84.3773
   590.7500      0.0000    819.4180      6.0186     90.2316
   591.0000      0.0000    819.3580      6.0456     94.3984
   591.2500      0.0000    821.5631      6.1072     96.6433
   591.5000      0.0000    826.9694      6.1818     96.9270
   591.7500      0.0000    835.2850      6.2456     95.4404
   592.0000      0.0000    843.9520      6.2848     93.1377
   592.2500      0.0000    848.4305      6.2973     91.6782
   592.5000      0.0000    844.3158      6.2865     92.2788
   592.7500      0.0000    829.9631      6.2606     94.5013
   593.0000      0.0000    808.0123      6.2350     96.5332
   593.2500      0.0000    784.6810      6.2281     96.8573
   593.5000      0.0000    766.6666      6.2488     95.4472
   593.7500      0.0000    757.5500      6.2901     93.3972
   594.0000      0.0000    756.3211      6.3364     91.7410
   594.2500      0.0000    758.8280      6.3763     90.6820
   594.5000      0.0000    760.8426      6.4124     89.7072
