~Version Information
VERS.                      2.0: CWLS Log ASCII Standard - VERSION 2.0
WRAP.                       NO: One line per depth step
~Well Information Block
STRT.FT               545.0000: 
STOP.FT              1920.5000: 
STEP.FT                 0.1000: 
NULL.                -999.2500: 
COMP.          Pioneer Natural Resources: COMPANY
WELL.            Summers 21-19: WELL
FLD.           Purgatoire River: FIELD
LOC.           900' FNL & 1950' FWL: LOCATION
PROV.                 Colorado: PROVINCE
CNTY.               Las Animas: COUNTRY
SRVC.                Patterson: SERVICE COMPANY
DATE.          Mon Oct 17 07:05:22 2005: LOG DATE
UWI.           05 071 08315 00: UNIQUE WELL ID
~Curve Information Block
DEPT.FT            0 000 00 00: Depth
DCAL.in                       : CDL Caliper
RHOB.g/cc                     : CDL Bulk Density
RHOC.g/cc                     : CDL Density Correction
DPOR.pu                       : CDL Density Porosity
GR.GAPI                       : Gamma Ray
NPOR.pu                       : Neutron Porosity
~Parameter Information Block
~A  Depth       DCAL        RHOB        RHOC        DPOR         GR         NPOR    
# ...
  1361.0000      7.9953      2.5904      0.0006      3.6096    100.8739     25.2117
  1361.1000      7.9953      2.5876      0.0276      3.7805    116.2976     27.0147
  1361.2000      7.9953      2.5880      0.0531      3.7549    127.1305     27.4521
  1361.3000      8.0010      2.5863      0.0298      3.8601    127.6520     27.4647
  1361.4000      8.0010      2.5864      0.0747      3.8536    127.9500     28.1583
  1361.5000      7.9947      2.5945      0.0532      3.3611    135.2208     29.3416
  1361.6000      7.9947      2.6071      0.1087      2.5982    145.3366     29.8171
  1361.7000      7.9947      2.6078      0.0983      2.5548    155.3045     28.9906
  1361.8000      7.9975      2.5978      0.0826      3.1618    165.4781     27.9300
  1361.9000      7.9975      2.5989      0.0591      3.0999    171.4184     27.8956
  1362.0000      8.0032      2.6109      0.0997      2.3674    168.3394     28.5079
  1362.1000      8.0032      2.6107      0.0818      2.3816    160.3308     29.1370
  1362.2000      8.0032      2.5964      0.0386      3.2512    155.9350     29.8217
  1362.3000      8.0084      2.5900      0.0435      3.6379    157.2058     30.2612
  1362.4000      8.0084      2.5936      0.0902      3.4161    158.2596     30.3762
  1362.5000      8.0041      2.5909      0.0544      3.5823    156.0615     30.3242
  1362.6000      8.0041      2.5807      0.0195      4.1992    153.8833     29.8363
  1362.7000      8.0041      2.5739      0.0317      4.6149    153.8004     28.9235
  1362.8000      7.9959      2.5766      0.0320      4.4490    153.7734     28.6278
  1362.9000      7.9959      2.5788      0.0416      4.3132    154.5464     29.2971
  1363.0000      8.0066      2.5633      0.0116      5.2552    159.3822     29.8401
  1363.1000      8.0066      2.5357      0.0024      6.9289    164.6320     29.7391
  1363.2000      8.0066      2.5180     -0.0233      8.0022    163.2222     29.5509
  1363.3000      7.9952      2.5172     -0.0347      8.0460    156.4691     29.5943
  1363.4000      7.9952      2.5171      0.0177      8.0547    151.5016     29.4482
  1363.5000      8.0167      2.4981      0.0350      9.2035    151.8589     28.7093
  1363.6000      8.0167      2.4596      0.0023     11.5399    155.5163     27.9500
  1363.7000      8.0167      2.4167     -0.0174     14.1382    158.4152     27.9630
  1363.8000      8.0196      2.3802     -0.0324     16.3498    160.0989     28.4658
  1363.9000      8.0196      2.3420     -0.0216     18.6694    162.3314     28.6215
  1364.0000      8.0250      2.2966     -0.0631     21.4182    165.0031     28.0875
  1364.1000      8.0250      2.2608     -0.0610     23.5862    167.6921     27.3580
  1364.2000      8.0250      2.2346      0.0213     25.1764    171.6622     27.6214
  1364.3000      8.0375      2.1926     -0.0331     27.7207    176.2882     29.0686
  1364.4000      8.0375      2.1368      0.0117     31.1019    173.8155     30.2150
  1364.5000      8.0229      2.1022      0.0389     33.2008    164.0447     30.5313
  1364.6000      8.0229      2.1100      0.2340     32.7258    160.1068     30.9282
  1364.7000      8.0229      2.1534      0.2461     30.0972    165.4938     31.8621
  1364.8000      8.0421      2.2312      0.2823     25.3817    170.3081     32.6964
  1364.9000      8.0421      2.3382      0.3292     18.8977    168.6552     32.7888
  1365.0000      8.1929      2.4403      0.3643     12.7114    162.8042     32.6800
  1365.1000      8.1929      2.5143      0.3696      8.2243    156.6133     32.8996
  1365.2000      8.1929      2.5693      0.3904      4.8934    153.8232     32.9944
  1365.3000      8.3036      2.6080      0.4285      2.5465    154.5423     32.4069
  1365.4000      8.3036      2.6190      0.3578      1.8800    150.2969     31.2408
  1365.5000      8.1681      2.6035      0.2357      2.8212    136.8790     30.4454
  1365.6000      8.1681      2.5745      0.1286      4.5733    125.1997     30.5175
  1365.7000      8.1681      2.5431      0.0447      6.4802    125.0407     30.9815
  1365.8000      8.1035      2.5289     -0.0317      7.3376    130.4052     31.4083
  1365.9000      8.1035      2.5442      0.0428      6.4134    131.9280     31.3962
  1366.0000      8.0503      2.5619      0.0303      5.3383    129.6324     30.8787
  1366.1000      8.0503      2.5505      0.0383      6.0328    127.0760     30.0229
  1366.2000      8.0503      2.5089      0.0390      8.5520    125.1363     28.9675
  1366.3000      8.1371      2.4594      0.0068     11.5504    124.6252     28.4721
  1366.4000      8.1371      2.4216     -0.0052     13.8401    126.3199     29.0668
  1366.5000      8.1967      2.3951     -0.0404     15.4512    127.9298     30.1792
  1366.6000      8.1967      2.3777     -0.0466     16.5030    130.0390     30.9629
  1366.7000      8.1967      2.3877     -0.0930     15.8953    134.4608     30.9563
  1366.8000      8.2127      2.4338      0.0112     13.1025    137.7569     30.1007
  1366.9000      8.2127      2.4775      0.1432     10.4546    137.5865     29.3443
  1367.0000      8.2057      2.4867      0.0460      9.8989    136.7282     29.5673
  1367.1000      8.2057      2.4796      0.1071     10.3289    135.2118     30.4819
  1367.2000      8.2057      2.4704      0.1701     10.8841    129.9633     31.4232
  1367.3000      8.2349      2.4581      0.0733     11.6286    123.6723     31.9259
  1367.4000      8.2349      2.4549      0.0411     11.8267    122.5716     32.0836
  1367.5000      8.0609      2.4707      0.0278     10.8651    125.0382     32.4493
  1367.6000      8.0609      2.5016      0.0754      8.9919    124.8407     32.7961
  1367.7000      8.0609      2.5388      0.1309      6.7385    121.2367     32.6304
  1367.8000      8.0026      2.5741      0.1537      4.5977    117.9141     32.2008
  1367.9000      8.0026      2.6056      0.1341      2.6927    116.0177     31.5208
  1368.0000      8.0548      2.6296      0.1863      1.2385    114.3827     30.4053
  1368.1000      8.0548      2.6360      0.1636      0.8459    113.8422     29.3637
  1368.2000      8.0548      2.6306      0.1392      1.1734    115.3573     28.4214
  1368.3000      8.0603      2.6249      0.1811      1.5216    119.7257     27.4501
  1368.4000      8.0603      2.6146      0.1330      2.1446    126.6711     26.8123
  1368.5000      8.1440      2.5960      0.1205      3.2713    132.6830     26.1180
  1368.6000      8.1440      2.5822      0.0206      4.1064    135.1693     25.5474
  1368.7000      8.1440      2.5826      0.0660      4.0868    133.9044     25.7795
  1368.8000      8.0525      2.5798      0.0327      4.2542    130.6618     26.2962
  1368.9000      8.0525      2.5690     -0.0211      4.9098    127.7861     26.4561
  1369.0000      7.9994      2.5630      0.0306      5.2714    124.5708     26.2927
  1369.1000      7.9994      2.5612      0.0161      5.3806    121.7853     26.0630
  1369.2000      7.9994      2.5663      0.0331      5.0725    123.2672     25.8370
  1369.3000      8.0083      2.5803      0.0458      4.2234    128.1851     25.5267
  1369.4000      8.0083      2.5889      0.0607      3.7041    133.5014     25.3807
  1369.5000      8.0247      2.5852      0.0247      3.9268    139.7863     25.8100
  1369.6000      8.0247      2.5779      0.0016      4.3685    144.8871     26.3454
  1369.7000      8.0247      2.5715      0.0143      4.7591    145.0489     26.1788
  1369.8000      8.0169      2.5580      0.0669      5.5739    140.1630     25.7268
  1369.9000      8.0169      2.5348      0.0560      6.9843    130.5221     25.7259
  1370.0000      8.0188      2.5287     -0.0169      7.3512    121.5500     26.1895
  1370.1000      8.0188      2.5550      0.0880      5.7600    119.4893     27.0364
  1370.2000      8.0188      2.5798      0.0713      4.2566    123.0636     28.0183
  1370.3000      8.0363      2.5771      0.0439      4.4162    127.1314     28.3750
  1370.4000      8.0363      2.5585      0.0098      5.5475    126.2413     27.6783
  1370.5000      8.0406      2.5466      0.0009      6.2673    119.6603     26.6196
