~Version Information
VERS.                      2.0: CWLS Log ASCII Standard - VERSION 2.0
WRAP.                       NO: One line per depth step
~Well Information Block
STRT.FT                30.0000: 
STOP.FT              2789.0000: 
STEP.FT                 0.1000: 
NULL.                -999.2500: 
COMP.          Pioneer Natural Resources: COMPANY
WELL.          Rabbit Bush Federal 44-19: WELL
FLD.           Purgatorie River: FIELD
LOC.           826' FSL & 1127' FEL: LOCATION
CNTY.               Las Animas: COUNTY
SRVC.                Patterson: SERVICE COMPANY
DATE.          Mon Aug 28 10:56:57 2006: LOG DATE
UWI.           05-071-08149-00: UNIQUE WELL ID
STAT.                 Colorado: STATE
~Curve Information Block
DEPT.FT            0 000 00 00: Depth
DCAL.in                       : CDL Caliper
RHOB.g/cc                     : CDL Bulk Density
RHOC.g/cc                     : CDL Density Correction
DPOR.pu                       : CDL Density Porosity
GR.GAPI                       : Gamma Ray
NPOR.pu                       : Neutron Porosity
~Parameter Information Block
~A  Depth       DCAL        RHOB        RHOC        DPOR         GR         NPOR    
# ...
  1124.4000      8.0458      2.5737      0.1191      4.6240    155.9398     28.2730
  1124.5000      8.0330      2.5590      0.0001      5.5182    157.3342     28.0084
  1124.6000      8.0330      2.5378      0.0241      6.8000    154.6338     27.8282
  1124.7000      8.0330      2.5222     -0.0126      7.7452    149.6372     27.8411
  1124.8000      8.0452      2.5257     -0.0220      7.5315    146.5502     27.7728
  1124.9000      8.0452      2.5518      0.0396      5.9514    148.2532     27.4604
  1125.0000      8.0605      2.5782      0.0360      4.3514    152.6907     27.2172
  1125.1000      8.0605      2.5833      0.0617      4.0428    156.1173     27.0711
  1125.2000      8.0605      2.5668      0.0386      5.0405    155.2793     26.7491
  1125.3000      8.0783      2.5397      0.0247      6.6856    151.1977     26.2358
  1125.4000      8.0783      2.5036      0.0194      8.8712    149.2610     25.8626
  1125.5000      8.0995      2.4558      0.0304     11.7714    152.8156     25.8042
  1125.6000      8.0995      2.4108     -0.0277     14.4994    160.1342     25.5699
  1125.7000      8.0995      2.3921     -0.0106     15.6291    166.0463     24.9286
  1125.8000      8.1216      2.4080     -0.0291     14.6643    167.3035     24.6194
  1125.9000      8.1216      2.4546      0.0141     11.8423    165.5254     24.9754
  1126.0000      8.1478      2.5161      0.0874      8.1164    164.1382     25.4467
  1126.1000      8.1478      2.5721      0.1252      4.7194    164.5888     25.7412
  1126.2000      8.1478      2.6111      0.2207      2.3546    165.4430     25.9195
  1126.3000      8.1705      2.6235      0.3232      1.6089    166.1028     25.9261
  1126.4000      8.1705      2.6062      0.3375      2.6548    167.2412     25.8372
  1126.5000      8.1668      2.5670      0.3454      5.0283    166.9696     25.8859
  1126.6000      8.1668      2.5226      0.2275      7.7196    165.1662     25.9448
  1126.7000      8.1668      2.4992      0.1111      9.1422    163.8713     25.5919
  1126.8000      8.1259      2.5052      0.1322      8.7740    163.8645     24.9203
  1126.9000      8.1259      2.5079      0.2301      8.6127    164.8816     24.4674
  1127.0000      8.0644      2.4714      0.2117     10.8236    165.9995     24.3933
  1127.1000      8.0644      2.4061      0.3448     14.7830    166.5604     24.3850
  1127.2000      8.0644      2.3439      0.3313     18.5501    166.1422     24.2394
  1127.3000      8.0158      2.3166      0.2674     20.2064    164.4052     23.9608
  1127.4000      8.0158      2.3659      0.2213     17.2184    160.6562     23.6119
  1127.5000      8.0286      2.5039      0.3765      8.8555    155.5903     23.5698
  1127.6000      8.0286      2.6689      0.6042     -1.1435    151.3647     24.0835
  1127.7000      8.0286      2.7723      0.7311     -7.4091    149.4199     24.8093
  1127.8000      8.0945      2.7731      0.7040     -7.4619    148.7401     25.5347
  1127.9000      8.0945      2.7005      0.4888     -3.0617    148.1455     26.4105
  1128.0000      8.1195      2.6149      0.2705      2.1259    146.9924     27.3230
  1128.1000      8.1195      2.5525      0.1152      5.9105    145.0791     27.8395
  1128.2000      8.1195      2.5181      0.0432      7.9965    146.0940     28.0366
  1128.3000      8.0822      2.5093     -0.0233      8.5268    151.0270     28.2887
  1128.4000      8.0822      2.5209      0.0116      7.8215    154.6623     28.5518
  1128.5000      8.0596      2.5375      0.0411      6.8191    153.9599     28.5626
  1128.6000      8.0596      2.5513     -0.0111      5.9836    151.6917     28.3740
  1128.7000      8.0596      2.5687      0.0228      4.9293    150.7835     28.2830
  1128.8000      8.0625      2.5876      0.0355      3.7790    151.0230     28.2985
  1128.9000      8.0625      2.5995      0.0634      3.0585    151.0988     28.1647
  1129.0000      8.0635      2.6046      0.0677      2.7520    150.9630     27.7916
  1129.1000      8.0635      2.6059      0.1153      2.6752    152.0083     27.5087
  1129.2000      8.0635      2.5972      0.1063      3.1994    152.4659     27.6218
  1129.3000      8.0498      2.5867      0.0545      3.8357    149.3690     27.9844
  1129.4000      8.0498      2.5961      0.0890      3.2683    146.1130     28.4218
  1129.5000      8.0274      2.6167      0.1152      2.0205    147.9612     28.7461
  1129.6000      8.0274      2.6227      0.0561      1.6519    153.3274     28.7169
  1129.7000      8.0274      2.6099      0.0418      2.4313    156.1803     28.5604
  1129.8000      8.0151      2.5809      0.0449      4.1872    154.7689     28.6685
  1129.9000      8.0151      2.5443     -0.0115      6.4049    152.4447     28.9402
  1130.0000      8.0105      2.5262     -0.0466      7.5056    151.1344     28.9583
  1130.1000      8.0105      2.5336      0.0529      7.0527    149.8542     28.6952
  1130.2000      8.0105      2.5431      0.0395      6.4798    147.8480     28.5516
  1130.3000      8.0023      2.5409      0.0793      6.6091    146.1920     28.4668
  1130.4000      8.0023      2.5331      0.0730      7.0848    145.8446     28.0212
  1130.5000      7.9942      2.5284      0.0601      7.3694    147.6039     27.2565
  1130.6000      7.9942      2.5328      0.0285      7.1019    153.7751     26.5419
  1130.7000      7.9942      2.5484      0.0886      6.1590    162.7263     26.0940
  1130.8000      7.9980      2.5769      0.0831      4.4287    170.0092     25.8200
  1130.9000      7.9980      2.6104      0.1345      2.4007    172.0632     25.6903
  1131.0000      8.0077      2.6197      0.1479      1.8355    167.6758     25.7357
  1131.1000      8.0077      2.5940      0.0818      3.3928    160.8113     25.7655
  1131.2000      8.0077      2.5579      0.0894      5.5844    154.9763     25.7569
  1131.3000      8.0115      2.5340      0.0215      7.0297    148.8674     25.7914
  1131.4000      8.0115      2.5223      0.1238      7.7412    144.5346     25.7949
  1131.5000      8.0151      2.5157      0.0580      8.1380    146.9200     25.6812
  1131.6000      8.0151      2.5277      0.0245      7.4096    153.9247     25.6309
  1131.7000      8.0151      2.5681      0.0840      4.9636    160.7929     25.8820
  1131.8000      8.0249      2.6223      0.0961      1.6781    166.3965     26.2350
  1131.9000      8.0249      2.6681      0.1780     -1.0989    168.6236     26.3691
  1132.0000      8.0316      2.6890      0.1604     -2.3646    165.1567     26.4386
  1132.1000      8.0316      2.6860      0.1799     -2.1798    159.0321     26.6114
  1132.2000      8.0316      2.6631      0.2372     -0.7960    156.2496     26.6602
  1132.3000      8.0315      2.6258      0.1081      1.4637    157.6318     26.4566
  1132.4000      8.0315      2.5915      0.0856      3.5425    159.7513     26.2634
  1132.5000      8.0305      2.5724      0.0310      4.7023    160.0780     26.3524
  1132.6000      8.0305      2.5724      0.0493      4.7026    157.8549     26.6100
  1132.7000      8.0305      2.5834      0.1019      4.0375    155.3000     26.7693
  1132.8000      8.0307      2.5887      0.1104      3.7161    155.6693     26.7701
  1132.9000      8.0307      2.5919      0.0986      3.5218    159.6294     26.5775
  1133.0000      8.0307      2.6120      0.0724      2.3058    163.7130     26.2287
  1133.1000      8.0307      2.6475      0.1112      0.1529    165.2727     25.7721
  1133.2000      8.0307      2.6660      0.1787     -0.9708    165.1911     25.2072
  1133.3000      8.0344      2.6450      0.1321      0.3055    163.8044     24.8580
  1133.4000      8.0344      2.6041      0.0879      2.7789    162.3513     25.0194
  1133.5000      8.0446      2.5707      0.1013      4.8074    162.5076     25.4121
  1133.6000      8.0446      2.5413      0.0752      6.5865    162.8470     25.5835
  1133.7000      8.0446      2.5040      0.0806      8.8468    163.2313     25.2418
  1133.8000      8.0560      2.4714      0.0219     10.8233    165.6886     24.6303
  1133.9000      8.0560      2.4683      0.0061     11.0128    168.7967     24.1861
