~Version Information
 VERS.                2.0:  CWLS LOG ASCII STANDARD -VERSION 2.0
 WRAP.                 NO:  ONE LINE PER DEPTH STEP
~WELL INFORMATION BLOCK
#MNEM.UNIT       DATA		            DESCRIPTION OF MNEMONIC
#---------    -------------            ------------------------
 STRT.FT  0.500                          :START DEPTH
 STOP.FT  1808.700                       :STOP DEPTH
 STEP.FT  0.100                          :STEP    UP_HOLE  
 NULL.    -999.25                        :NULL VALUE
 COMP.              EL PASO PRODUCTIONS  :COMPANY
 WELL.                     COREHOLE #38  :WELL
 FLD .                 PURGATOIRE RIVER  :FIELD
 LOC .      15   35S   65W               :LOCATION
 CNTY.                           COLFAX  :COUNTY
 STAT.                     NM            :STATE
 CTRY.                                   :
 SRVC.     O'DRISCOLL                    :SERVICE COMPANY
 DATE.   04/28/05                        :LOG DATE
 API .                                   :API NUMBER
 LIC .                                   :LICENSE NUMBER
~Curve Information Block
#MNEM.UNIT      API CODE     Curve Description
#---------    -------------  ------------------------
 DEPT     .FT        00 001 00 00          :  1  DEPTH   
 GAMMA    .API-GR    00 310 00 00          :  2                GAMMA
 VOLTAGE  .MV        00 000 00 00          :  3              VOLTAGE
 CALIPER  .INCH      00 280 00 00          :  4              CALIPER
 DEN(LS)  .G/CC      00 350 00 00          :  5              DEN(LS)
 DEN(SS)  .G/CC      00 350 00 00          :  6              DEN(SS)
 CURRENT  .UA        00 000 00 00          :  7              CURRENT
 RES(SG)  .OHM-M     00 220 00 00          :  8              RES(SG)
 POR(DEN) .PERCENT   00 890 00 00          :  9             POR(DEN)
 DEN(LS)  .CPS       00 350 00 00          : 10              DEN(LS)
 DEN(SS)  .CPS       00 350 00 00          : 11              DEN(SS)
 COMP     .G/CC      00 356 00 00          : 12                 COMP
 DEN(CDL) .G/CC      00 350 00 00          : 13             DEN(CDL)
 TEMP     .DEG F     00 660 00 00          : 14                 TEMP
 DEL_TEMP .DEG F     00 000 00 00          : 15             DEL_TEMP
 TIME     .MINUTES   00 000 00 00          : 16                 TIME
~Parameter Information Block
#MNEM.UNIT   Information     Description
#---------- ---------------  ------------------------
 FILE.      ORIGINAL           :File Type
 FIID.      9139A              :File Type Identifier
 VERS.      3.58G              :System Version
 SER .      1                  :System Serial Number
 TRUK.      .498775            :Truck Calibration Number
 TOOL.        1245             :Tool Serial Number
 TIME.      1507               :Time    HrHrMinMin
 LAT .       36 59'            :Latitude
 LON .       104 39'           :Longitude
 LMF .            GL           :Log Measured From
 DMF .            GL           :Driller Measured From
 PD  .            GL           :Permanent Data
 PDEV.                         :Elevation Permanent Data
 EKB .M                        :Elevation Kelly Bushing
 ELEV.DF                       :Elevation DF
 EGL .M        7777            :Elevation Ground Level
 DRDP.          1825           :Driller's Depth
 CASD.       10.               :Casing Diameter
 CASB.           300           :Casing Bottom
 CASX.         STEEL           :Casing Type
 CAST.                         :Casing Thickness
 TNOC.                         :Time Circulation Stopped
 LOGU.        108              :Logging Unit
 RECB.           R.SIPES       :Recorded By
 OSR1.          9057           :Other Services
 OSR2.                         :Other Services
 OSR3.                         :Other Services
 BS  .MM         3.5           :Bit Size
 MST .                         :Mean Surface Temperature
 TGRD.                         :Temperature Gradiant
 MAGN.            12           :Magnetic Declination
 MDEN.       2.7               :Density Matrix
 MATR.      SANDSTONE          :Neutron Matrix
 DTMT.            54           :Delta T Matrix
 DTFL.                         :Delta T Fluid
 MUDS.                         :Mud Sample Source
 MRS .                         :Mud Resistivity
 MTP .                         :Mud Temperature
 MFRS.                         :Resistivity Mud Filtrate
 MFTP.                         :Temperature Mud Filtrate
 MCRS.                         :Resistivity Mud Cake
 MCTP.                         :Temperature Mud Cake
 FTYP.                         :Fluid Type
 FD  .K/M3                     :Fluid Density
 DFV .S                        :Fluid Viscosity
 FPH .                         :Fuild PH
 ELCO.       50000             :Electron Cutoff
~Other Information
#MNEM.UNIT  Information      Description
#---------- ---------------  ------------------------
# -------------------------- 
~A DEPTH  GAMMA    VOLTAGE  CALIPER DEN(LS) DEN(SS) CURRENT  RES(SG)  POR(DEN) DEN(LS) DEN(SS) COMP  DEN(CDL) TEMP  DEL_TEMP TIME    
# ...
 964.000     62.4      0.4   3.0  2.88 3.20   136.6      0.2  29.6  320.31 2930.59 -0.687 2.26 33.3  0.00 0.20000 
 964.100     66.2      0.4   3.0  2.93 3.27   136.9      0.2  29.7  290.26 2757.78 -0.737 2.17 33.3  0.00 0.20000 
 964.200     72.8      0.3   3.0  2.96 3.26   137.2      0.2  22.7  275.23 2777.96 -0.643 2.09 33.3  0.00 0.20000 
 964.300     69.0      0.1   3.0  2.89 3.32   147.0      0.0  48.8  315.31 2635.72 -1.021 2.07 33.3  0.00 0.20000 
 964.400     69.0      0.5   3.0  2.79 3.19   143.6      0.2  48.3  385.45 2966.35 -0.914 2.07 33.3  0.00 0.20000 
 964.500     77.5      0.4   3.0  2.84 3.19   137.5      0.2  37.1  345.37 2955.99 -0.774 2.13 33.3  0.00 0.20000 
 964.600     78.4      0.1   3.0  2.85 3.14   139.5      0.1  27.3  340.35 3098.55 -0.614 2.20 33.3  0.00 0.20000 
 964.700     81.3      0.2   3.0  2.92 3.08   142.6      0.1   5.3  300.28 3266.71 -0.307 2.26 33.3  0.00 0.20000 
 964.800     92.6      0.3   3.0  2.87 3.17   139.6      0.2  29.2  330.33 3001.95 -0.662 2.28 33.3  0.00 0.20000 
 964.900    103.0      0.5   3.0  2.80 3.10   136.3      0.3  31.6  380.43 3215.73 -0.636 2.24 33.3  0.00 0.20000 
 965.000    103.9      0.1   3.0  2.82 3.13   135.6      0.1  31.0  360.39 3129.12 -0.652 2.01 33.3  0.00 0.20000 
 965.100     94.5      0.3   3.0  2.81 3.16   136.8      0.2  38.4  370.41 3052.71 -0.764 2.01 33.3  0.00 0.20000 
 965.200     92.6      0.6   3.0  2.70 3.20   137.1      0.3  74.2  465.66 2920.37 -1.265 2.01 33.3  0.00 0.20000 
 965.300     88.8      0.3   3.0  2.82 3.10   138.3      0.2  26.9  360.39 3200.60 -0.583 2.04 33.3  0.00 0.10000 
 965.400     81.3      0.5   3.0  2.80 3.11   136.6      0.3  33.3  380.45 3185.20 -0.666 1.98 33.3  0.00 0.20000 
 965.500     71.8      0.1   3.0  2.81 3.05   136.3      0.1  22.6  375.42 3363.60 -0.490 2.10 33.3  0.00 0.20000 
 965.600     85.1      0.8   3.0  2.73 3.13   136.5      0.4  53.7  440.58 3119.09 -0.943 2.03 33.3  0.00 0.20000 
 965.700     91.7      0.3   3.0  2.81 3.16   110.7      0.2  40.5  375.43 3042.53 -0.794 2.12 33.3  0.00 0.20000 
 965.800     90.7     -0.0   3.0  2.78 3.16    44.3     -0.1  47.0  395.47 3032.34 -0.880 2.05 33.3  0.00 0.20000 
 965.900     85.1      0.2   3.0  2.92 3.08   133.3      0.1   5.8  300.28 3256.51 -0.314 2.08 33.3  0.00 0.20000 
 966.000     90.7      0.3   3.0  2.77 3.14   136.4      0.2  44.0  400.49 3103.64 -0.822 2.04 33.3  0.00 0.20000 
 966.100     85.1     -0.0   3.0  2.82 3.20   132.4     -0.0  44.6  365.41 2930.66 -0.876 2.02 33.3  0.00 0.20000 
 966.200     82.2      0.1   3.0  2.70 3.08   123.4      0.0  51.3  470.67 3271.80 -0.872 1.88 33.3  0.00 0.20000 
 966.300     83.2      0.0   3.0  2.73 3.15   123.5      0.0  55.6  435.58 3073.18 -0.979 1.93 33.3  0.00 0.20000 
 966.400     93.6      0.1   3.0  2.79 3.17   120.9      0.1  45.8  390.46 3027.30 -0.866 1.97 33.3  0.00 0.20000 
 966.500     93.6      0.3   3.0  2.81 3.09   120.0      0.2  29.4  375.44 3231.11 -0.605 2.02 33.3  0.00 0.20000 
 966.600     85.1     -0.0   3.0  2.75 3.04   133.6     -0.0  33.3  420.55 3389.20 -0.615 2.17 33.3  0.00 0.20000 
 966.700     84.1      0.4   3.0  2.81 3.15   127.0      0.3  36.8  370.41 3078.30 -0.738 2.21 33.3  0.00 0.20000 
 966.800     75.6      0.3   3.0  2.90 3.11   112.4      0.2  11.8  310.29 3195.34 -0.400 2.17 33.3  0.00 0.20000 
 966.900     73.7      0.1   3.0  2.81 3.12   101.8      0.1  33.7  375.43 3154.63 -0.678 2.18 33.3  0.00 0.20000 
 967.000     76.6      0.2   3.0  2.83 3.20    99.9      0.1  41.6  355.38 2930.54 -0.838 2.18 33.3  0.00 0.20000 
 967.100     87.9     -0.2   3.0  2.84 3.13   105.4     -0.1  27.7  350.37 3139.30 -0.608 2.16 33.3  0.00 0.20000 
 967.200     88.8     -0.1   3.0  2.75 3.07   127.3     -0.1  38.0  420.53 3302.45 -0.695 2.13 33.3  0.00 0.20000 
 967.300    100.2      0.5   3.0  2.96 3.23   120.9      0.3  18.2  275.24 2849.19 -0.568 2.20 33.3  0.00 0.20000 
 967.400    100.2     -0.0   3.0  2.84 3.23   118.5     -0.0  43.2  345.36 2864.41 -0.877 2.17 33.3  0.00 0.20000 
 967.500     97.3      0.1   3.0  2.88 3.13   115.3      0.1  19.1  320.31 3118.97 -0.507 2.17 33.3  0.00 0.20000 
 967.600     89.8      0.3   3.0  2.82 3.16   111.3      0.2  36.1  360.39 3043.00 -0.738 2.13 33.3  0.00 0.20000 
 967.700     87.9     -0.0   3.0  2.82 3.16   125.8     -0.0  38.2  365.40 3032.34 -0.767 2.10 33.3  0.00 0.20000 
 967.800     84.1      0.4   3.0  2.78 3.07   150.6      0.2  30.5  395.47 3312.60 -0.599 2.05 33.3  0.00 0.20000 
 967.900     76.6      0.6   3.1  2.69 3.07   166.6      0.2  52.5  480.69 3292.35 -0.881 2.05 33.3  0.00 0.20000 
 968.000     83.2      0.3   3.1  2.77 3.06   178.8      0.1  32.7  405.49 3322.83 -0.624 2.04 33.3  0.00 0.20000 
 968.100     87.9      0.2   3.0  2.78 3.11   180.1      0.1  38.4  395.47 3169.86 -0.734 2.12 33.3  0.00 0.20000 
 968.200     90.7      0.3   3.0  2.74 3.08   161.5      0.1  41.1  425.54 3266.74 -0.743 2.29 33.3  0.00 0.20000 
 968.300     92.6      0.1   3.1  2.79 2.90   173.6      0.1   5.9  385.45 3828.51 -0.193 2.32 33.3  0.00 0.20000 
 968.400     97.3      0.1   3.0  2.84 2.95   195.4      0.0   2.5  345.36 3670.01 -0.186 2.36 33.3  0.00 0.20000 
 968.500     91.7      0.4   3.0  2.73 2.96   186.8      0.2  25.2  440.59 3639.33 -0.458 2.34 33.3  0.00 0.20000 
 968.600     91.7      0.4   3.0  2.70 2.93   169.1      0.2  26.3  465.65 3731.38 -0.452 2.23 33.3  0.00 0.19900 
 968.700     83.2      0.3   3.0  2.70 3.06   144.8      0.1  46.2  465.66 3338.10 -0.790 2.13 33.3  0.00 0.20000 
 968.800     77.5      0.3   3.0  2.66 2.94   137.0      0.1  37.1  510.78 3700.64 -0.590 2.16 33.3  0.00 0.20100 
 968.900     67.1      0.4   3.0  2.68 2.95   126.5      0.2  32.5  485.79 3685.50 -0.537 2.07 33.3  0.00 0.20000 
 969.000     64.3      0.9   3.0  2.72 2.89   114.6      0.5  17.3  445.60 3859.20 -0.318 2.15 33.3  0.00 0.20000 
 969.100     61.4      0.3   3.0  2.59 2.94   111.6      0.2  52.7  586.05 3705.81 -0.784 2.22 33.3  0.00 0.19900 
 969.200     58.6      0.3   3.0  2.70 2.91   111.6      0.2  23.0  465.67 3813.26 -0.395 2.32 33.3  0.00 0.20000 
 969.300     55.8      0.4   3.0  2.72 2.88   111.6      0.3  16.1  450.61 3915.57 -0.293 2.28 33.3  0.00 0.20100 
 969.400     62.4      0.4   3.0  2.79 2.89   111.8      0.3   4.2  385.45 3879.64 -0.164 2.32 33.3  0.00 0.20000 
 969.500     58.6      0.6   3.0  2.69 2.92   112.2      0.4  28.1  480.69 3762.00 -0.467 2.25 33.3  0.00 0.19900 
 969.600     52.0      0.5   3.0  2.63 2.93   112.7      0.3  40.9  535.86 3736.42 -0.630 2.22 33.3  0.00 0.20000 
 969.700     54.8      0.3   3.0  2.64 2.95   114.5      0.2  43.8  530.84 3654.64 -0.683 2.05 33.3  0.00 0.10100 
 969.800     52.0      0.4   3.0  2.65 2.84   119.7      0.2  25.1  520.81 4028.10 -0.377 2.11 33.3  0.00 0.30000 
 969.900     56.7      0.9   3.0  2.59 2.94   114.5      0.6  52.1  581.01 3700.63 -0.778 2.14 33.3  0.00 0.09900 
 970.000     61.4      0.5   3.0  2.71 2.83   114.8      0.3  11.4  455.63 4075.93 -0.207 2.18 33.3  0.00 0.20000 
 970.100     61.4      0.3   3.0  2.65 2.89   114.9      0.2  31.0  520.82 3884.75 -0.477 2.17 33.3  0.00 0.20100 
 970.200     59.6      0.3   3.0  2.65 2.90   118.5      0.2  32.6  520.82 3848.96 -0.503 2.24 33.3  0.00 0.19900 
 970.300     64.3      0.2   3.0  2.66 2.90   120.0      0.1  29.3  505.77 3854.06 -0.462 2.09 33.3  0.00 0.20000 
 970.400     53.9     -0.0   3.0  2.65 2.90   126.0     -0.0  32.4  515.80 3828.50 -0.506 2.10 33.3  0.00 0.20000 
 970.500     45.4     -0.1   3.0  2.56 2.91   118.8     -0.1  53.6  621.16 3802.90 -0.774 2.15 33.3  0.00 0.20000 
 970.600     39.7     -2.7   3.0  2.64 2.85   113.9     -1.7  27.9  530.86 4007.62 -0.414 2.20 33.3  0.00 0.20100 
 970.700     43.5     -7.8   3.0  2.65 2.81   111.3     -5.0  19.2  515.81 4166.45 -0.280 2.18 33.3  0.00 0.19900 
 970.800     36.9     -1.0   3.0  2.70 2.83   120.8     -0.6  12.9  465.65 4084.45 -0.223 2.23 33.3  0.00 0.20000 
 970.900     36.9     -0.4   3.0  2.57 2.83   131.0     -0.2  38.0  606.11 4084.44 -0.521 2.20 33.3  0.00 0.20000 
