~Version Information
VERS.                      2.0: CWLS Log ASCII Standard - VERSION 2.0
WRAP.                       NO: One line per depth step
~Well Information Block
STRT.FT               450.0000: 
STOP.FT              1642.0000: 
STEP.FT                 0.1000: 
NULL.                -999.2500: 
COMP.          Pioneer Natural Resources: COMPANY
WELL.           Buckhorn 12-21: WELL
FLD.           Purgatoire River: FIELD
LOC.           2450' FNL & 608' FWL: LOCATION
PROV.                 Colorado: PROVINCE
CNTY.               Las Animas: COUNTRY
SRVC.                Patterson: SERVICE COMPANY
DATE.          Wed Dec 01 15:08:21 2004: LOG DATE
UWI.           05 071 08129 00: UNIQUE WELL ID
~Curve Information Block
DEPT.FT            0 000 00 00: Depth
NPOR.pu                       : Neutron Porosity
CCL.                          : Casing Collar Locator
GR.GAPI                       : Gamma Ray
~Parameter Information Block
~A  Depth       NPOR        CCL          GR     
# ...
   834.1000     30.2452      0.0000    142.7761
   834.2000     30.2452      0.0000    142.7761
   834.3000     30.0278      0.0000    138.3752
   834.4000     30.0278      0.0000    138.3752
   834.5000     29.9521      0.0000    135.3838
   834.6000     29.9521      0.0000    135.3838
   834.7000     29.9521      0.0000    135.3838
   834.8000     29.9381      0.0000    134.0663
   834.9000     29.9381      0.0000    134.0663
   835.0000     29.9514      0.0000    134.7971
   835.1000     29.9514      0.0000    134.7971
   835.2000     29.9514      0.0000    134.7971
   835.3000     30.0766      0.0000    137.8985
   835.4000     30.0766      0.0000    137.8985
   835.5000     30.4284      0.0000    142.8340
   835.6000     30.4284      0.0000    142.8340
   835.7000     30.4284      0.0000    142.8340
   835.8000     30.9964      0.0000    147.9120
   835.9000     30.9964      0.0000    147.9120
   836.0000     31.6039      0.0000    151.3377
   836.1000     31.6039      0.0000    151.3377
   836.2000     31.6039      0.0000    151.3377
   836.3000     32.0300      0.0000    152.4994
   836.4000     32.0300      0.0000    152.4994
   836.5000     32.1637      0.0000    151.9131
   836.6000     32.1637      0.0000    151.9131
   836.7000     32.1637      0.0000    151.9131
   836.8000     32.0389      0.0000    150.2340
   836.9000     32.0389      0.0000    150.2340
   837.0000     31.7386      0.0000    147.8265
   837.1000     31.7386      0.0000    147.8265
   837.2000     31.7386      0.0000    147.8265
   837.3000     31.2922      0.0000    145.2963
   837.4000     31.2922      0.0000    145.2963
   837.5000     30.6807      0.0000    143.7503
   837.6000     30.6807      0.0000    143.7503
   837.7000     30.6807      0.0000    143.7503
   837.8000     29.9167      0.0000    144.0030
   837.9000     29.9167      0.0000    144.0030
   838.0000     29.0881      0.0000    145.8445
   838.1000     29.0881      0.0000    145.8445
   838.2000     29.0881      0.0000    145.8445
   838.3000     28.3185      0.0000    148.4587
   838.4000     28.3185      0.0000    148.4587
   838.5000     27.6970      0.0000    151.1650
   838.6000     27.6970      0.0000    151.1650
   838.7000     27.6970      0.0000    151.1650
   838.8000     27.2464      0.0000    153.3601
   838.9000     27.2464      0.0000    153.3601
   839.0000     26.9532      0.0000    154.1843
   839.1000     26.9532      0.0000    154.1843
   839.2000     26.9532      0.0000    154.1843
   839.3000     26.8278      0.0000    152.8081
   839.4000     26.8278      0.0000    152.8081
   839.5000     26.9312      0.0000    149.1257
   839.6000     26.9312      0.0000    149.1257
   839.7000     26.9312      0.0000    149.1257
   839.8000     27.3237      0.0000    143.9403
   839.9000     27.3237      0.0000    143.9403
   840.0000     27.9820      0.0000    138.3551
   840.1000     27.9820      0.0000    138.3551
   840.2000     27.9820      0.0000    138.3551
   840.3000     28.7955      0.0000    132.8960
   840.4000     28.7955      0.0000    132.8960
   840.5000     29.6455      0.0000    127.3270
   840.6000     29.6455      0.0000    127.3270
   840.7000     29.6455      0.0000    127.3270
   840.8000     30.4503      0.0000    121.5676
   840.9000     30.4503      0.0000    121.5676
   841.0000     31.1317      0.0000    116.4404
   841.1000     31.1317      0.0000    116.4404
   841.2000     31.1317      0.0000    116.4404
   841.3000     31.5966      0.0000    112.9658
   841.4000     31.5966      0.0000    112.9658
   841.5000     31.8015      0.0000    111.2418
   841.6000     31.8015      0.0000    111.2418
   841.7000     31.8015      0.0000    111.2418
   841.8000     31.8341      0.0000    110.6936
   841.9000     31.8341      0.0000    110.6936
   842.0000     31.8950      0.0000    111.1568
   842.1000     31.8950      0.0000    111.1568
   842.2000     31.8950      0.0000    111.1568
   842.3000     32.1552      0.0000    113.0560
   842.4000     32.1552      0.0000    113.0560
   842.5000     32.5982      0.0000    116.5748
   842.6000     32.5982      0.0000    116.5748
   842.7000     32.5982      0.0000    116.5748
   842.8000     32.9899      0.0000    121.1101
   842.9000     32.9899      0.0000    121.1101
   843.0000     33.0209      0.0000    125.6590
   843.1000     33.0209      0.0000    125.6590
   843.2000     33.0209      0.0000    125.6590
   843.3000     32.5069      0.0000    129.5119
   843.4000     32.5069      0.0000    129.5119
   843.5000     31.4851      0.0000    132.4799
   843.6000     31.4851      0.0000    132.4799
   843.7000     31.4851      0.0000    132.4799
   843.8000     30.1574      0.0000    134.7155
   843.9000     30.1574      0.0000    134.7155
   844.0000     28.7612      0.0000    136.5569
   844.1000     28.7612      0.0000    136.5569
   844.2000     28.7612      0.0000    136.5569
   844.3000     27.4686      0.0000    138.2152
   844.4000     27.4686      0.0000    138.2152
   844.5000     26.3381      0.0000    139.2190
   844.6000     26.3381      0.0000    139.2190
   844.7000     26.3381      0.0000    139.2190
   844.8000     25.2961      0.0000    138.5141
   844.9000     25.2961      0.0000    138.5141
   845.0000     24.1908      0.0000    135.6369
   845.1000     24.1908      0.0000    135.6369
   845.2000     24.1908      0.0000    135.6369
   845.3000     22.9575      0.0000    131.6700
   845.4000     22.9575      0.0000    131.6700
   845.5000     21.7452      0.0000    128.5236
   845.6000     21.7452      0.0000    128.5236
   845.7000     21.7452      0.0000    128.5236
   845.8000     20.8125      0.0000    127.0314
   845.9000     20.8125      0.0000    127.0314
   846.0000     20.2852      0.0000    125.9547
   846.1000     20.2852      0.0000    125.9547
   846.2000     20.2852      0.0000    125.9547
   846.3000     20.0485      0.0000    123.1261
   846.4000     20.0485      0.0000    123.1261
   846.5000     19.8444      0.0000    117.4738
   846.6000     19.8444      0.0000    117.4738
   846.7000     19.8444      0.0000    117.4738
   846.8000     19.4403      0.0000    109.7359
   846.9000     19.4403      0.0000    109.7359
   847.0000     18.7449      0.0000    101.4005
   847.1000     18.7449      0.0000    101.4005
   847.2000     18.7449      0.0000    101.4005
   847.3000     17.8564      0.0000     93.3846
   847.4000     17.8564      0.0000     93.3846
   847.5000     17.0322      0.0000     85.9364
   847.6000     17.0322      0.0000     85.9364
   847.7000     17.0322      0.0000     85.9364
   847.8000     16.5667      0.0000     79.4402
   847.9000     16.5667      0.0000     79.4402
   848.0000     16.6493      0.0000     74.6207
   848.1000     16.6493      0.0000     74.6207
   848.2000     16.6493      0.0000     74.6207
   848.3000     17.2976      0.0000     71.8702
   848.4000     17.2976      0.0000     71.8702
   848.5000     18.3585      0.0000     70.9185
   848.6000     18.3585      0.0000     70.9185
   848.7000     18.3585      0.0000     70.9185
   848.8000     19.5456      0.0000     71.3103
   848.9000     19.5456      0.0000     71.3103
   849.0000     20.5373      0.0000     72.8060
   849.1000     20.5373      0.0000     72.8060
   849.2000     20.5373      0.0000     72.8060
   849.3000     21.1411      0.0000     75.3430
   849.4000     21.1411      0.0000     75.3430
   849.5000     21.4027      0.0000     79.1110
   849.6000     21.4027      0.0000     79.1110
   849.7000     21.4027      0.0000     79.1110
   849.8000     21.5279      0.0000     84.6398
   849.9000     21.5279      0.0000     84.6398
   850.0000     21.6868      0.0000     92.1276
   850.1000     21.6868      0.0000     92.1276
   850.2000     21.6868      0.0000     92.1276
   850.3000     21.9098      0.0000    100.3943
   850.4000     21.9098      0.0000    100.3943
   850.5000     22.1355      0.0000    107.0207
   850.6000     22.1355      0.0000    107.0207
   850.7000     22.1355      0.0000    107.0207
