~Version Information
VERS.                      2.0: CWLS Log ASCII Standard - VERSION 2.0
WRAP.                       NO: One line per depth step
~Well Information Block
STRT.FT               588.6000: 
STOP.FT              2281.0000: 
STEP.FT                 0.1000: 
NULL.                -999.2500: 
COMP.          Petrogulf Corporation: COMPANY
WELL.             State 16-41V: WELL
FLD.           Purgatorie River: FIELD
LOC.           335' FNL & 823' FEL: LOCATION
CNTY.               Las Animas: COUNTY
SRVC.                         : SERVICE COMPANY
DATE.          Tue Aug 02 07:31:25 2005: LOG DATE
UWI.                          : UNIQUE WELL ID
STAT.                 Colorado: STATE
~Curve Information Block
DEPT.FT            0 000 00 00: Depth
DCAL.in                       : CDL Caliper
RHOB.g/cc                     : CDL Bulk Density
RHOC.g/cc                     : CDL Density Correction
DPOR.pu                       : CDL Density Porosity
GR.GAPI                       : Gamma Ray
NPOR.pu                       : Neutron Porosity
~Parameter Information Block
~A  Depth       DCAL        RHOB        RHOC        DPOR         GR         NPOR    
# ...
  1145.4000      8.0922      2.6125      0.2048      2.2756    131.8875     30.3243
  1145.5000      8.0990      2.6696      0.1721     -1.1878    122.3227     30.8542
  1145.6000      8.0990      2.7247      0.1428     -4.5265    113.4127     31.2973
  1145.7000      8.0990      2.7807      0.1148     -7.9235    104.4988     31.6317
  1145.8000      8.1469      2.8325      0.1402    -11.0605     95.8704     31.8400
  1145.9000      8.1469      2.8565      0.1825    -12.5145     89.1407     31.9108
  1146.0000      8.1025      2.8366      0.1447    -11.3097     86.9093     31.8404
  1146.1000      8.1025      2.7956      0.0229     -8.8257     90.8081     31.6336
  1146.2000      8.1025      2.7682      0.0127     -7.1614     97.6296     31.3044
  1146.3000      8.0410      2.7467      0.0519     -5.8580    103.2752     30.8747
  1146.4000      8.0410      2.7083     -0.0170     -3.5346    108.0578     30.3729
  1146.5000      8.0155      2.6676     -0.0602     -1.0653    113.2411     29.8320
  1146.6000      8.0155      2.6445     -0.0034      0.3353    119.0390     29.2859
  1146.7000      8.0155      2.6333     -0.0018      1.0120    125.8557     28.7668
  1146.8000      8.0474      2.6241      0.0352      1.5703    133.1095     28.3022
  1146.9000      8.0474      2.6137      0.1218      2.1975    138.6639     27.9134
  1147.0000      8.0994      2.6040      0.1368      2.7859    141.3976     27.6140
  1147.1000      8.0994      2.5983      0.2156      3.1353    143.1713     27.4096
  1147.2000      8.0994      2.5988      0.1908      3.1056    145.5869     27.2984
  1147.3000      8.1207      2.6082      0.2000      2.5329    147.0576     27.2721
  1147.4000      8.1207      2.6197      0.2070      1.8375    146.2794     27.3173
  1147.5000      8.0465      2.6245      0.1816      1.5477    142.9366     27.4171
  1147.6000      8.0465      2.6279      0.1483      1.3409    137.2443     27.5533
  1147.7000      8.0465      2.6317      0.1845      1.1096    133.0516     27.7071
  1147.8000      8.0644      2.6240      0.1723      1.5770    132.8867     27.8617
  1147.9000      8.0644      2.6052      0.1082      2.7154    135.5948     28.0022
  1148.0000      8.0911      2.5928      0.0719      3.4645    139.5514     28.1175
  1148.1000      8.0911      2.5910      0.0732      3.5730    142.6113     28.1996
  1148.2000      8.0911      2.5881      0.0915      3.7487    142.8430     28.2442
  1148.3000      8.1149      2.5786      0.0767      4.3271    139.2013     28.2500
  1148.4000      8.1149      2.5669      0.0527      5.0334    132.7463     28.2187
  1148.5000      8.0839      2.5604      0.0985      5.4312    127.7406     28.1541
  1148.6000      8.0839      2.5615      0.0912      5.3642    127.4076     28.0618
  1148.7000      8.0839      2.5695      0.1116      4.8805    130.0127     27.9486
  1148.8000      8.1025      2.5839      0.1158      4.0047    130.8826     27.8222
  1148.9000      8.1025      2.6053      0.0910      2.7108    129.6229     27.6902
  1149.0000      8.0863      2.6281      0.1273      1.3273    129.9641     27.5598
  1149.1000      8.0863      2.6357      0.1688      0.8639    130.8691     27.4370
  1149.2000      8.0863      2.6233      0.1312      1.6210    127.6857     27.3258
  1149.3000      8.0715      2.6076      0.1336      2.5689    120.9359     27.2283
  1149.4000      8.0715      2.5962      0.1527      3.2618    116.4805     27.1440
  1149.5000      8.0510      2.5864      0.0936      3.8571    117.0277     27.0700
  1149.6000      8.0510      2.5860      0.0926      3.8800    118.3924     27.0016
  1149.7000      8.0510      2.6014      0.1153      2.9468    117.4898     26.9331
  1149.8000      8.0065      2.6266      0.1407      1.4185    114.4337     26.8585
  1149.9000      8.0065      2.6495      0.1475      0.0309    110.7590     26.7732
  1150.0000      8.0105      2.6626      0.1418     -0.7656    109.0043     26.6745
  1150.1000      8.0105      2.6666      0.1559     -1.0036    108.0018     26.5626
  1150.2000      8.0105      2.6607      0.1691     -0.6469    106.1868     26.4406
  1150.3000      7.9759      2.6451      0.1557      0.2989    106.2240     26.3140
  1150.4000      7.9759      2.6269      0.1262      1.4029    108.8945     26.1900
  1150.5000      7.9532      2.6130      0.0903      2.2431    111.4494     26.0764
  1150.6000      7.9532      2.6033      0.0902      2.8294    112.5423     25.9799
  1150.7000      7.9532      2.5982      0.0497      3.1368    114.6230     25.9054
  1150.8000      8.0246      2.5993      0.1098      3.0705    118.4185     25.8554
  1150.9000      8.0246      2.6007      0.0482      2.9888    120.4004     25.8296
  1151.0000      8.0826      2.6026      0.0499      2.8722    119.3023     25.8258
  1151.1000      8.0826      2.6049      0.0780      2.7338    118.4237     25.8400
  1151.2000      8.0826      2.6005      0.0708      2.9998    118.9977     25.8678
  1151.3000      8.0761      2.5937      0.0583      3.4124    119.3296     25.9052
  1151.4000      8.0761      2.5931      0.0567      3.4509    119.5889     25.9484
  1151.5000      8.1075      2.5932      0.0733      3.4449    121.1984     25.9947
  1151.6000      8.1075      2.5824      0.0643      4.0995    123.4845     26.0426
  1151.7000      8.1075      2.5595      0.0643      5.4867    125.0693     26.0910
  1151.8000      8.1688      2.5342      0.0153      7.0165    126.7490     26.1391
  1151.9000      8.1688      2.5196      0.0108      7.9045    128.3268     26.1865
  1152.0000      8.1925      2.5215      0.0117      7.7887    128.6068     26.2327
  1152.1000      8.1925      2.5356     -0.0059      6.9313    129.4511     26.2770
  1152.2000      8.1925      2.5543      0.0332      5.7985    130.8664     26.3187
  1152.3000      8.1731      2.5673      0.0474      5.0120    130.4390     26.3566
  1152.4000      8.1731      2.5657      0.0665      5.1086    129.3004     26.3898
  1152.5000      8.1806      2.5542      0.0228      5.8042    128.5376     26.4169
  1152.6000      8.1806      2.5465      0.0175      6.2730    127.2526     26.4369
  1152.7000      8.1806      2.5466     -0.0014      6.2675    125.9774     26.4486
  1152.8000      8.1124      2.5432      0.0679      6.4738    125.0353     26.4510
  1152.9000      8.1124      2.5274      0.0061      7.4297    124.3821     26.4434
  1153.0000      8.1301      2.5117     -0.0036      8.3796    124.6483     26.4248
  1153.1000      8.1301      2.5098     -0.0061      8.4970    124.9915     26.3943
  1153.2000      8.1301      2.5154      0.0261      8.1588    124.6463     26.3500
  1153.3000      8.1395      2.5200      0.0298      7.8785    123.4903     26.2891
  1153.4000      8.1395      2.5291      0.0318      7.3246    121.5829     26.2078
  1153.5000      8.1687      2.5473      0.0499      6.2241    119.5076     26.1010
  1153.6000      8.1687      2.5697      0.0563      4.8691    116.4742     25.9627
  1153.7000      8.1687      2.5893      0.0771      3.6788    113.6940     25.7866
  1153.8000      8.1282      2.5982      0.1414      3.1422    113.8722     25.5667
  1153.9000      8.1282      2.5916      0.1377      3.5399    116.5533     25.2984
  1154.0000      7.9988      2.5741      0.1361      4.6016    121.3522     24.9788
  1154.1000      7.9988      2.5518      0.0796      5.9511    127.6003     24.6075
  1154.2000      7.9988      2.5246      0.0836      7.5992    131.2650     24.1872
  1154.3000      8.0079      2.4908      0.0784      9.6510    130.4212     23.7240
  1154.4000      8.0079      2.4588      0.0493     11.5886    128.2031     23.2270
  1154.5000      8.0464      2.4400      0.0769     12.7301    127.1972     22.7090
  1154.6000      8.0464      2.4315      0.0568     13.2426    128.9143     22.1852
  1154.7000      8.0464      2.4259      0.0670     13.5806    135.9678     21.6736
  1154.8000      8.0273      2.4306      0.0878     13.3000    147.0659     21.1935
  1154.9000      8.0273      2.4537      0.1659     11.8997    156.5077     20.7644
