~Version Information
VERS.                      2.0: CWLS Log ASCII Standard - VERSION 2.0
WRAP.                       NO: One line per depth step
~Well Information Block
STRT.FT               930.0000: 
STOP.FT              2783.2000: 
STEP.FT                 0.1000: 
NULL.                -999.2500: 
COMP.          Pioneer Natural Resources: COMPANY
WELL.           Desoto 13-7TR: WELL
FLD.           Purgatoire River: FIELD
LOC.           1404' FSL & 1115' FWL: LOCATION
PROV.                 Colorado: PROVINCE
CNTY.               Las Animas: COUNTRY
SRVC.                Patterson: SERVICE COMPANY
DATE.          Fri Jan 14 14:42:18 2005: LOG DATE
UWI.           05 071 08216 00: UNIQUE WELL ID
~Curve Information Block
DEPT.FT            0 000 00 00: Depth
DCAL.in                       : CDL Caliper
RHOB.g/cc                     : CDL Bulk Density
RHOC.g/cc                     : CDL Density Correction
DPOR.pu                       : CDL Density Porosity
NPOR.pu                       : Neutron Porosity
GR.GAPI                       : Gamma Ray
~Parameter Information Block
~A  Depth       DCAL        RHOB        RHOC        DPOR        NPOR         GR     
# ...
  1659.6000      8.2420      2.5752      0.0453      4.5340     25.1860    128.1329
  1659.7000      8.2420      2.5761      0.0402      4.4799     24.4270    134.4948
  1659.8000      8.2422      2.5901      0.0226      3.6286     24.0328    140.5290
  1659.9000      8.2422      2.6047      0.0946      2.7456     24.5420    140.0134
  1660.0000      8.2426      2.5933      0.0354      3.4336     25.6190    134.1242
  1660.1000      8.2426      2.5651     -0.0100      5.1472     26.3383    130.7895
  1660.2000      8.2426      2.5488      0.0020      6.1344     26.5935    131.3482
  1660.3000      8.2426      2.5386      0.0474      6.7518     26.9480    132.1114
  1660.4000      8.2426      2.5138      0.0034      8.2573     27.4916    133.5095
  1660.5000      8.2420      2.4804     -0.0066     10.2781     28.0256    134.3120
  1660.6000      8.2420      2.4533     -0.0151     11.9216     28.3182    131.0734
  1660.7000      8.2420      2.4421     -0.0654     12.6029     28.1122    125.8168
  1660.8000      8.2417      2.4548     -0.0415     11.8315     27.4040    124.7246
  1660.9000      8.2417      2.4840     -0.0116     10.0632     26.6115    129.6887
  1661.0000      8.2419      2.5058      0.0491      8.7393     26.2473    138.8369
  1661.1000      8.2419      2.5083      0.0297      8.5866     26.3292    147.1058
  1661.2000      8.2419      2.5081      0.0081      8.5992     26.5270    146.2840
  1661.3000      8.2418      2.5208      0.0479      7.8291     26.8388    138.4113
  1661.4000      8.2418      2.5407      0.0334      6.6261     27.3448    133.3922
  1661.5000      8.2434      2.5515      0.0550      5.9696     28.2166    132.2830
  1661.6000      8.2434      2.5434      0.0411      6.4614     29.1309    132.0072
  1661.7000      8.2434      2.5282      0.0256      7.3817     29.4602    133.2873
  1661.8000      8.2467      2.5223      0.0123      7.7400     29.2296    136.2838
  1661.9000      8.2467      2.5232      0.0559      7.6847     28.9289    139.0399
  1662.0000      8.2463      2.5151      0.0511      8.1762     28.8094    139.6844
  1662.1000      8.2463      2.4861      0.0650      9.9341     28.8462    141.3869
  1662.2000      8.2463      2.4370      0.0236     12.9074     29.0230    145.5520
  1662.3000      8.2434      2.3794     -0.0195     16.4028     29.4124    145.7016
  1662.4000      8.2434      2.3285     -0.0089     19.4869     30.1898    139.8575
  1662.5000      8.2419      2.2925     -0.0009     21.6688     31.1980    132.5929
  1662.6000      8.2419      2.2635      0.0026     23.4257     31.7758    127.0217
  1662.7000      8.2419      2.2311     -0.0043     25.3879     32.0404    127.2615
  1662.8000      8.2390      2.1977      0.0162     27.4129     32.5928    133.4043
  1662.9000      8.2390      2.1696     -0.0177     29.1138     33.1818    140.9652
  1663.0000      8.2327      2.1523     -0.0013     30.1608     33.6421    146.7565
  1663.1000      8.2327      2.1557      0.0297     29.9602     34.0006    147.2718
  1663.2000      8.2327      2.1806      0.0826     28.4475     33.9932    143.0131
  1663.3000      8.2331      2.2048      0.1555     26.9813     33.7845    138.9305
  1663.4000      8.2331      2.1983      0.1606     27.3731     33.6945    136.8326
  1663.5000      8.2451      2.1531      0.1180     30.1175     33.5599    133.4021
  1663.6000      8.2451      2.0998      0.0132     33.3439     33.2826    127.9929
  1663.7000      8.2451      2.0780      0.0247     34.6650     33.1003    125.3154
  1663.8000      8.2603      2.0811      0.1268     34.4815     33.2648    125.4524
  1663.9000      8.2603      2.0787      0.0948     34.6222     33.6292    123.9130
  1664.0000      8.2567      2.0714      0.0724     35.0676     34.0247    120.8801
  1664.1000      8.2567      2.0817      0.0564     34.4412     34.5216    118.9490
  1664.2000      8.2567      2.1163      0.1396     32.3464     34.6416    116.6564
  1664.3000      8.2306      2.1548      0.1735     30.0106     33.7257    113.7809
  1664.4000      8.2306      2.1860      0.1554     28.1230     32.3168    114.6404
  1664.5000      8.2138      2.2290      0.1440     25.5155     31.5495    119.6471
  1664.6000      8.2138      2.2991      0.1608     21.2658     31.3077    124.4847
  1664.7000      8.2138      2.3721      0.1759     16.8442     30.6311    129.0413
  1664.8000      8.2147      2.4127      0.1711     14.3841     29.3465    134.0275
  1664.9000      8.2147      2.4265      0.0961     13.5426     28.3404    137.0987
  1665.0000      8.2235      2.4413      0.1013     12.6489     28.1418    135.3058
  1665.1000      8.2235      2.4559      0.1396     11.7628     28.0969    128.9732
  1665.2000      8.2235      2.4571      0.0905     11.6894     27.5447    123.5848
  1665.3000      8.2341      2.4552      0.0261     11.8033     26.7497    124.9181
  1665.4000      8.2341      2.4667      0.0436     11.1073     26.2633    131.7727
  1665.5000      8.2364      2.4886      0.0589      9.7797     26.2975    136.9112
  1665.6000      8.2364      2.5087      0.0932      8.5632     26.5327    133.7746
  1665.7000      8.2364      2.5218      0.0905      7.7684     26.5325    122.4376
  1665.8000      8.2134      2.5244      0.1060      7.6140     26.5032    110.6144
  1665.9000      8.2134      2.5127      0.0401      8.3185     26.9416    109.2859
  1666.0000      8.1717      2.4972      0.0583      9.2586     27.7555    120.3742
  1666.1000      8.1717      2.4893      0.0731      9.7423     28.1670    133.2002
  1666.2000      8.1717      2.4861      0.0678      9.9309     27.7990    140.5917
  1666.3000      8.1459      2.4743      0.0770     10.6514     27.2234    140.4642
  1666.4000      8.1459      2.4480      0.0304     12.2410     27.0695    133.5057
  1666.5000      8.1374      2.4242      0.0218     13.6840     27.6176    127.6278
  1666.6000      8.1374      2.4145      0.0436     14.2715     28.4257    125.6165
  1666.7000      8.1374      2.4063      0.0341     14.7695     28.7562    123.4425
  1666.8000      8.1390      2.3976     -0.0497     15.2999     28.4582    120.1261
  1666.9000      8.1390      2.4070      0.0148     14.7247     28.0840    119.1555
  1667.0000      8.1476      2.4366      0.0042     12.9332     28.2771    120.1402
  1667.1000      8.1476      2.4735      0.0108     10.6961     28.9358    120.1935
  1667.2000      8.1476      2.5081      0.0685      8.6022     29.4712    120.1156
  1667.3000      8.1537      2.5152      0.1101      8.1693     29.9680    123.1610
  1667.4000      8.1537      2.4646      0.0968     11.2386     30.7403    131.0672
  1667.5000      8.1510      2.3631      0.0271     17.3884     31.3440    137.7762
  1667.6000      8.1510      2.2489     -0.0116     24.3111     31.5152    136.1560
  1667.7000      8.1510      2.1546     -0.0547     30.0226     31.5820    130.1959
  1667.8000      8.1384      2.0942     -0.0738     33.6831     31.7105    127.6578
  1667.9000      8.1384      2.0653     -0.0603     35.4365     31.6631    126.2060
  1668.0000      8.1249      2.0670     -0.1111     35.3363     31.0549    120.8420
  1668.1000      8.1249      2.1024     -0.0406     33.1874     29.6983    115.5560
  1668.2000      8.1249      2.1569      0.0452     29.8873     27.8059    113.5873
  1668.3000      8.1206      2.2128      0.0813     26.4953     25.7564    110.6290
  1668.4000      8.1206      2.2808      0.1038     22.3768     23.9424    104.2763
  1668.5000      8.1102      2.3767      0.2016     16.5656     22.8375     99.4824
  1668.6000      8.1102      2.4883      0.2480      9.7974     22.6181     98.8177
  1668.7000      8.1102      2.5793      0.2233      4.2856     22.8495     99.4415
  1668.8000      8.0914      2.6165      0.1736      2.0311     22.8992     99.4666
  1668.9000      8.0914      2.5992      0.0989      3.0760     22.7809     99.1446
  1669.0000      8.0768      2.5600      0.0260      5.4554     22.8761     98.7916
  1669.1000      8.0768      2.5352      0.0250      6.9606     23.2650     98.9707
