~Version Information
VERS.                      2.0: CWLS Log ASCII Standard - VERSION 2.0
WRAP.                       NO: One line per depth step
~Well Information Block
STRT.FT                 0.0000: 
STOP.FT              2006.5000: 
STEP.FT                 0.2500: 
NULL.                -999.2500: 
COMP.          Petrogulf Corporation: COMPANY
WELL.           Lavedure 7-44R: WELL
FLD.           Purgatorie River: FIELD
LOC.           946' FSL & 521' FEL: LOCATION
STAT.                 Colorado: State
CNTY.               Las Animas: COUNTY
CTRY. USA : Country
SECT. 7 : Section
TOWN. 33S : Township
RANG. 67W : Range
SRVC.                Patterson: SERVICE COMPANY
DATE.          Thu Nov 10 15:49:38 2005: LOG DATE
API. 05-071-08090       : UNIQUE WELL ID
~Curve Information Block
DEPT.FT            0 000 00 00: Depth
CCL.                          : Casing Collar Locator
TT3.usec                      : CBL 3' Travel Time
AMP3.mV                       : CBL 3' Amplitude
GR.GAPI                       : Gamma Ray
~Parameter Information Block
~A  Depth       CCL         TT3         AMP3         GR     
# ...
   938.0000      0.0000    335.6483     21.9673     66.8726
   938.2500      0.0000    337.4310     20.9221     71.1100
   938.5000      0.0000    333.8674     20.3345     79.0617
   938.7500      0.0000    324.6442     20.1839     89.5546
   939.0000      0.0000    318.3177     20.0779    100.8601
   939.2500      0.0000    327.9948     19.6310    111.2174
   939.5000      0.0000    362.3980     18.7892    119.4542
   939.7500      0.0000    410.8591     17.8789    125.1427
   940.0000      0.0000    439.0747     17.4125    128.3432
   940.2500      0.0000    423.4065     17.7607    129.5052
   940.5000      0.0000    379.7921     18.9589    129.5031
   940.7500      0.0000    338.7495     20.7561    129.1275
   941.0000      0.0000    313.9791     22.7719    128.1355
   941.2500      0.0000    303.0996     24.6083    125.3076
   941.5000      0.0000    299.5411     25.8976    119.9395
   941.7500      0.0000    298.9205     26.3770    112.8927
   942.0000      0.0000    300.0869     25.9448    105.7671
   942.2500      0.0000    303.9603     24.7175     99.3600
   942.5000      0.0000    311.2992     23.0837     93.4008
   942.7500      0.0000    320.3120     21.5221     87.7163
   943.0000      0.0000    327.5823     20.2665     83.1008
   943.2500      0.0000    331.6467     19.2313     80.6432
   943.5000      0.0000    333.9022     18.2133     80.4579
   943.7500      0.0000    337.7538     17.0685     81.6469
   944.0000      0.0000    350.4437     15.7873     83.4998
   944.2500      0.0000    383.6696     14.4839     86.0670
   944.5000      0.0000    443.4493     13.3476     89.3639
   944.7500      0.0000    516.4583     12.5740     92.6722
   945.0000      0.0000    577.7338     12.1859     95.1351
   945.2500      0.0000    612.6974     11.9385     96.5905
   945.5000      0.0000    621.8871     11.5285     97.2304
   945.7500      0.0000    615.1604     10.8976     96.8414
   946.0000      0.0000    607.7484     10.2539     95.0518
   946.2500      0.0000    608.7141      9.8014     92.0953
   946.5000      0.0000    614.5413      9.5433     88.8707
   946.7500      0.0000    620.7516      9.3748     86.4108
   947.0000      0.0000    629.2964      9.2746     85.3221
   947.2500      0.0000    639.7524      9.2999     85.4061
   947.5000      0.0000    647.8821      9.4326     85.7922
   947.7500      0.0000    654.7915      9.5260     85.5886
   948.0000      0.0000    663.7205      9.4332     84.5079
   948.2500      0.0000    671.1115      9.1679     83.1590
   948.5000      0.0000    672.2570      8.8997     82.8865
   948.7500      0.0000    669.2695      8.7923     84.8299
   949.0000      0.0000    666.6506      8.8905     88.7191
   949.2500      0.0000    665.6989      9.1425     92.7499
   949.5000      0.0000    665.4293      9.4859     94.9059
   949.7500      0.0000    664.3848      9.9123     94.4226
   950.0000      0.0000    661.4583     10.4462     91.9163
   950.2500      0.0000    658.2911     11.0627     88.2842
   950.5000      0.0000    658.9872     11.6672     83.9420
   950.7500      0.0000    658.7124     12.2019     79.4555
   951.0000      0.0000    635.1350     12.7272     76.4696
   951.2500      0.0000    571.0695     13.2895     77.0752
   951.5000      0.0000    488.3563     13.7457     81.9188
   951.7500      0.0000    436.8865     13.8824     89.3736
   952.0000      0.0000    447.1081     13.6816     96.7437
   952.2500      0.0000    506.6799     13.3123    101.9065
   952.5000      0.0000    575.5116     12.9195    103.7936
   952.7500      0.0000    617.3210     12.5493    102.0549
   953.0000      0.0000    626.6346     12.2077     96.9924
   953.2500      0.0000    626.3813     11.8758     89.9221
   953.5000      0.0000    635.9949     11.4954     83.2360
   953.7500      0.0000    651.5044     11.0191     79.6064
   954.0000      0.0000    660.5143     10.4698     80.8501
   954.2500      0.0000    658.7388      9.9351     87.3314
   954.5000      0.0000    648.4965      9.5001     97.8756
   954.7500      0.0000    635.0766      9.2109    109.8112
   955.0000      0.0000    624.5255      9.1203    119.4408
   955.2500      0.0000    619.2614      9.2894    123.4094
   955.5000      0.0000    617.1702      9.7094    120.5211
   955.7500      0.0000    614.7618     10.2751    112.5944
   956.0000      0.0000    610.5152     10.8406    103.4181
   956.2500      0.0000    607.2711     11.2854     96.5141
   956.5000      0.0000    609.8792     11.5614     93.3725
   956.7500      0.0000    616.9613     11.6910     93.2541
   957.0000      0.0000    618.0412     11.7336     94.2760
   957.2500      0.0000    604.2267     11.7411     94.7222
   957.5000      0.0000    578.6740     11.7103     93.8571
   957.7500      0.0000    548.8793     11.5966     92.1199
   958.0000      0.0000    515.9077     11.3798     90.7975
   958.2500      0.0000    488.9138     10.9899     91.1398
   958.5000      0.0000    491.6214     10.2190     93.2220
   958.7500      0.0000    529.8351      9.0925     95.5776
   959.0000      0.0000    581.8864      8.1086     96.3870
   959.2500      0.0000    625.5244      7.6419     95.2864
   959.5000     -2.0000    651.6188      7.5326     93.8909
   959.7500     -2.0000    666.4944      7.4641     94.3697
   960.0000      2.0000    681.1818      7.3231     97.5800
   960.2500      0.0000    691.7499      7.1432    102.6354
   960.5000      0.0000    685.7816      6.9753    108.0609
   960.7500      0.0000    665.2181      6.9467    113.0695
   961.0000      0.0000    645.1489      7.1777    117.8013
   961.2500      0.0000    634.5546      7.4791    122.6659
   961.5000      0.0000    629.1229      7.6049    127.5789
   961.7500      0.0000    620.0530      7.6766    131.6667
   962.0000      0.0000    606.8143      7.8091    133.7003
   962.2500      0.0000    597.9948      7.8518    133.0764
   962.5000      0.0000    601.5660      7.7493    130.5143
   962.7500      0.0000    618.5048      7.6258    127.6232
   963.0000      0.0000    639.6614      7.5518    125.6070
   963.2500      0.0000    650.2463      7.5221    124.3831
   963.5000      0.0000    646.5620      7.5415    122.9889
   963.7500      0.0000    640.9218      7.5803    120.7783
   964.0000      0.0000    642.2822      7.5600    118.2483
   964.2500      0.0000    644.9742      7.4551    116.6796
   964.5000      0.0000    643.3704      7.3432    116.6918
   964.7500      0.0000    643.8611      7.3316    117.0939
   965.0000      0.0000    654.0865      7.4664    115.6883
   965.2500      0.0000    668.6678      7.7134    111.5166
   965.5000      0.0000    673.9195      7.9812    106.0224
   965.7500      0.0000    664.5651      8.1745    101.8152
   966.0000      0.0000    648.9504      8.2960    100.5446
   966.2500      0.0000    636.2249      8.4664    102.0875
   966.5000      0.0000    628.5521      8.7785    105.2785
   966.7500      0.0000    627.2596      9.1844    108.7769
   967.0000      0.0000    634.0996      9.5746    111.2658
   967.2500      0.0000    645.9547      9.9039    111.7103
   967.5000      0.0000    656.3366     10.1998    110.2274
   967.7500      0.0000    661.8558     10.4892    108.4735
   968.0000      0.0000    663.4202     10.7662    108.4911
   968.2500      0.0000    661.8914     11.0151    111.0830
   968.5000      0.0000    653.4863     11.2302    115.4774
   968.7500      0.0000    630.1077     11.4139    120.2154
   969.0000      0.0000    592.5668     11.5523    123.8690
   969.2500      0.0000    563.3113     11.5937    125.3584
   969.5000      0.0000    565.9171     11.4797    124.4936
   969.7500      0.0000    595.0325     11.1972    122.1483
   970.0000      0.0000    626.0986     10.7816    119.2671
   970.2500      0.0000    640.8196     10.3056    115.8661
   970.5000      0.0000    632.9543      9.8764    111.5619
   970.7500      0.0000    604.2490      9.5720    106.8580
   971.0000      0.0000    566.4432      9.3357    103.1288
   971.2500      0.0000    541.8486      8.9869    101.2062
