~Version Information
VERS.                      2.0: CWLS Log ASCII Standard - VERSION 2.0
WRAP.                       NO: One line per depth step
~Well Information Block
STRT.FT               259.0000: 
STOP.FT              2379.0000: 
STEP.FT                 0.2500: 
NULL.                -999.2500: 
COMP.          Pioneer Natural Resources: COMPANY
WELL.          Foothills 12-36: WELL
FLD.           Purgatoire River: FIELD
LOC.           2450' FNL & 201' FWL: LOCATION
PROV.                 Colorado: PROVINCE
CNTY.               Las Animas: COUNTRY
SRVC.                Patterson: SERVICE COMPANY
DATE.          Thu Apr 21 09:19:57 2005: LOG DATE
UWI.           05 071 08339 00: UNIQUE WELL ID
~Curve Information Block
DEPT.FT            0 000 00 00: Depth
DCAL.in                       : CDL Caliper
RHOB.g/cc                     : CDL Bulk Density
RHOC.g/cc                     : CDL Density Correction
DPOR.pu                       : CDL Density Porosity
GR.GAPI                       : Gamma Ray
NPOR.pu                       : Neutron Porosity
~Parameter Information Block
~A  Depth       DCAL        RHOB        RHOC        DPOR         GR         NPOR    
# ...
  1243.0000      7.9234      2.8972      0.1191    -14.9803     68.6104     28.1086
  1243.2500      7.9243      2.9055      0.1036    -15.4838     68.6740     27.6213
  1243.5000      7.9441      2.9171      0.0269    -16.1866     74.3213     29.7664
  1243.7500      7.9832      2.8724      0.0112    -13.4789     72.3469     28.6028
  1244.0000      8.0081      2.8134     -0.0211     -9.9023     77.6512     27.5432
  1244.2500      8.0115      2.7147     -0.0569     -3.9224     77.9083     27.4115
  1244.5000      8.0250      2.6497     -0.0741      0.0196     78.2967     28.5875
  1244.7500      8.0495      2.6290      0.0099      1.2711     78.9199     30.0009
  1245.0000      8.0697      2.5854      0.0138      3.9168     90.9578     31.4195
  1245.2500      8.0838      2.5792      0.0462      4.2914     83.3819     30.6565
  1245.5000      8.1060      2.5482      0.0061      6.1705     90.0955     29.0858
  1245.7500      8.1309      2.5552      0.0463      5.7478     87.9033     28.8150
  1246.0000      8.1284      2.5812      0.0977      4.1713     95.0335     29.1288
  1246.2500      8.1029      2.5892      0.1020      3.6831     90.7743     28.4121
  1246.5000      8.0862      2.5569      0.0590      5.6454     88.2577     30.3826
  1246.7500      8.0657      2.5021     -0.0123      8.9647     90.9792     30.5085
  1247.0000      8.0180      2.5073      0.0757      8.6511     90.2620     29.8317
  1247.2500      7.9721      2.5420      0.0805      6.5485     87.5113     29.3745
  1247.5000      7.9668      2.5570      0.1890      5.6381    104.5993     30.5159
  1247.7500      7.9870      2.5128      0.2293      8.3131    100.1667     31.5104
  1248.0000      8.0092      2.4867      0.1130      9.8948    101.8564     27.8021
  1248.2500      8.0202      2.4980      0.1115      9.2140    103.2606     28.2072
  1248.5000      8.0170      2.6811      0.3233     -1.8820     89.5187     28.0540
  1248.7500      7.9968      2.7078      0.3141     -3.5001     93.3958     30.7093
  1249.0000      7.9689      2.6474      0.2058      0.1594     93.0290     29.5169
  1249.2500      7.9559      2.5850      0.1027      3.9389     91.2006     26.9656
  1249.5000      7.9716      2.5368      0.0762      6.8601     92.1256     28.9250
  1249.7500      8.0099      2.5616      0.0638      5.3577     84.8687     29.0029
  1250.0000      8.0709      2.6347      0.0938      0.9247     80.7257     30.1232
  1250.2500      8.1664      2.6237      0.0811      1.5937     83.2326     28.6870
  1250.5000      8.2403      2.5744      0.0187      4.5816     79.0040     29.1375
  1250.7500      8.2422      2.5791      0.0061      4.2991     85.0553     30.2309
  1251.0000      8.2206      2.5604      0.0246      5.4308     81.2189     30.3765
  1251.2500      8.2160      2.5664      0.0665      5.0691     86.0355     28.1249
  1251.5000      8.2189      2.4979     -0.0159      9.2188     93.4704     27.6951
  1251.7500      8.2223      2.4622     -0.0099     11.3843     91.8421     28.3708
  1252.0000      8.2249      2.5461      0.0915      6.3000     95.3415     32.0487
  1252.2500      8.2227      2.5436      0.0224      6.4504    103.8475     31.1234
  1252.5000      8.2264      2.4749      0.0111     10.6134     90.8868     30.5587
  1252.7500      8.2416      2.4810      0.0322     10.2398     86.5104     29.8801
  1253.0000      8.2566      2.5065      0.0534      8.6984     87.7493     28.0872
  1253.2500      8.2572      2.5346      0.1073      6.9911     91.9798     27.9439
  1253.5000      8.2358      2.5486      0.0473      6.1467     88.6676     29.4096
  1253.7500      8.2162      2.5479      0.1528      6.1880     87.8101     28.7295
  1254.0000      8.2058      2.4757      0.0330     10.5612     82.5390     27.5611
  1254.2500      8.2084      2.4773      0.0085     10.4663     81.1976     27.7199
  1254.5000      8.2153      2.5452      0.0247      6.3540     83.9984     27.8995
  1254.7500      8.2011      2.4988      0.0130      9.1660     93.5061     26.8606
  1255.0000      8.1697      2.5152      0.0720      8.1696     85.8118     26.9757
  1255.2500      8.1477      2.4984      0.0562      9.1878     79.9696     26.6213
  1255.5000      8.1277      2.4590      0.0112     11.5782     85.3182     29.6200
  1255.7500      8.0941      2.4895      0.0346      9.7285     86.7294     28.8229
  1256.0000      8.0527      2.4803      0.0097     10.2825     88.2849     29.6156
  1256.2500      8.0304      2.4905      0.0358      9.6694     93.0923     27.9787
  1256.5000      8.0271      2.4938      0.0434      9.4675     82.8234     28.5203
  1256.7500      8.0232      2.5096      0.0666      8.5074     80.5450     27.7918
  1257.0000      8.0102      2.5477      0.0907      6.1986     87.3796     27.9433
  1257.2500      7.9909      2.5079      0.0014      8.6103     89.0205     28.0571
  1257.5000      7.9863      2.4936      0.0372      9.4804     92.8723     28.5011
  1257.7500      7.9910      2.4744      0.0426     10.6434     98.1712     28.8471
  1258.0000      7.9928      2.4771      0.0554     10.4802    106.1244     29.7990
  1258.2500      7.9936      2.5155      0.0697      8.1507    104.3037     30.4567
  1258.5000      7.9947      2.5695      0.1208      4.8797     98.6427     31.5810
  1258.7500      8.0032      2.5440      0.1651      6.4270    106.6142     31.5068
  1259.0000      8.0005      2.4849      0.0824     10.0078    112.5569     29.3779
  1259.2500      7.9656      2.4703      0.0447     10.8931    106.8940     28.7723
  1259.5000      7.9347      2.4992      0.0662      9.1418    109.2268     29.1714
  1259.7500      7.9262      2.5724      0.1402      4.7012    108.0779     31.0508
  1260.0000      7.9320      2.6390      0.2202      0.6660    105.7793     29.8407
  1260.2500      7.9328      2.5800      0.1157      4.2429    107.9630     29.3798
  1260.5000      7.9177      2.4561      0.0407     11.7503     97.6681     31.4063
  1260.7500      7.9142      2.3963      0.0318     15.3763     96.2256     30.4943
  1261.0000      7.9548      2.5556      0.1441      5.7222     84.7050     29.2039
  1261.2500      8.0105      2.8314      0.3572    -10.9922     76.3551     30.5962
  1261.5000      8.0032      3.1039      0.3936    -27.5080     64.4784     28.6226
  1261.7500      7.9397      3.0312      0.2632    -23.1034     66.1918     28.7381
  1262.0000      7.8689      2.7679     -0.0210     -7.1473     73.4290     28.3654
  1262.2500      7.8225      2.6781     -0.0424     -1.7050     94.4978     27.7340
  1262.5000      7.8073      2.7114      0.0993     -3.7200    111.4559     28.6621
  1262.7500      7.8074      2.7160      0.2234     -4.0015    110.6714     28.8426
  1263.0000      7.8130      2.6764      0.1085     -1.6026    117.2782     28.0598
  1263.2500      7.8223      2.6520      0.1894     -0.1195    124.2279     27.1214
  1263.5000      7.8344      2.5431      0.1139      6.4806    111.8267     30.4405
  1263.7500      7.8465      2.5626      0.1047      5.2972    101.4069     31.9493
  1264.0000      7.8518      2.5823      0.0357      4.1009    105.9798     30.8089
  1264.2500      7.8506      2.5956      0.1044      3.2982    108.0544     28.5461
  1264.5000      7.8465      2.5240      0.0245      7.6334    118.0688     29.1330
  1264.7500      7.8434      2.5407      0.1234      6.6221    105.7855     29.5110
  1265.0000      7.8418      2.5955      0.1015      3.3057    111.9912     28.6366
  1265.2500      7.8406      2.5647      0.0805      5.1668    113.9737     28.6751
  1265.5000      7.8383      2.5533      0.1228      5.8588    112.3685     28.7766
  1265.7500      7.8349      2.5415      0.0857      6.5738    111.6366     28.1747
  1266.0000      7.8330      2.4783      0.0326     10.4032    113.9621     27.1582
  1266.2500      7.8331      2.5387      0.1059      6.7445    106.9205     26.3006
  1266.5000      7.8340      2.5924      0.1092      3.4900     98.3777     28.2888
  1266.7500      7.8310      2.5761      0.0835      4.4802     96.9840     28.2884
