~Version Information
VERS.                      2.0: CWLS Log ASCII Standard - VERSION 2.0
WRAP.                       NO: One line per depth step
~Well Information Block
STRT.FT                -8.0000: 
STOP.FT              1357.5000: 
STEP.FT                 0.2500: 
NULL.                -999.2500: 
COMP.          Pioneer Natural Resources: COMPANY
WELL.          Lorencito 6-3-34-66: WELL
FLD.           Purgatorie River: FIELD
LOC.           2545' FNL & 1914' FWL: LOCATION
STAT.                       CO: State
CNTY.               Las Animas: COUNTY
CTRY. USA : Country
SECT. 3 : Section
TOWN. 34S : Township
RANG. 66W : Range
SRVC.          Patterson Wireline: SERVICE COMPANY
DATE.          Tue Sep 27 11:36:13 2005: LOG DATE
API.           05 071 08369 00: UNIQUE WELL ID
~Curve Information Block
DEPT.FT            0 000 00 00: Depth
CCL.                          : Casing Collar Locator
TT3.usec                      : CBL 3' Travel Time
AMP3.mV                       : CBL 3' Amplitude
GR.GAPI                       : Gamma Ray
~Parameter Information Block
~A  Depth       CCL         TT3         AMP3         GR     
# ...
   695.5000      0.0000    300.4411     36.6644     69.4723
   695.7500      0.0000    300.4721     36.8104     68.0576
   696.0000      0.0000    300.3344     36.8601     66.9190
   696.2500      0.0000    300.0496     36.9196     66.5921
   696.5000      0.0000    299.7025     37.0909     67.4513
   696.7500      0.0000    299.3505     37.4100     69.2087
   697.0000      0.0000    298.9683     37.8506     70.8412
   697.2500      0.0000    298.3974     38.3651     71.3913
   697.5000      0.0000    297.2445     38.9193     70.9402
   697.7500      0.0000    294.8450     39.5019     70.6838
   698.0000      0.0000    290.5536     40.1128     72.0071
   698.2500      0.0000    284.3811     40.7485     75.2826
   698.5000      0.0000    277.3925     41.4040     79.2540
   698.7500      0.0000    271.2554     42.0766     81.6832
   699.0000      0.0000    267.3904     42.7243     81.1535
   699.2500      0.0000    266.7807     43.1909     78.4419
   699.5000      0.0000    270.5522     43.1798     75.7710
   699.7500      0.0000    279.9148     42.3694     74.7269
   700.0000      0.0000    294.4176     40.6418     75.4318
   700.2500      0.0000    310.1363     38.2380     77.4563
   700.5000      0.0000    321.0678     35.6492     80.4283
   700.7500      0.0000    323.6835     33.3311     83.5213
   701.0000      0.0000    319.6874     31.5307     85.1569
   701.2500      0.0000    313.7211     30.3134     83.8018
   701.5000      0.0000    309.2123     29.6271     79.2585
   701.7500      0.0000    306.8831     29.3325     73.3848
   702.0000      2.0000    305.9389     29.2725     69.2005
   702.2500      0.0000    305.4272     29.3811     68.6617
   702.5000      0.0000    304.5848     29.8100     71.2096
   702.7500      0.0000    302.6803     30.9796     74.5567
   703.0000      0.0000    299.0751     33.3431     76.6268
   703.2500      0.0000    293.5908     36.8785     76.7540
   703.5000      0.0000    286.7387     40.8589     75.6132
   703.7500      0.0000    279.4700     44.3157     74.5094
   704.0000      0.0000    272.7852     46.6976     74.6065
   704.2500      0.0000    267.4955     48.0075     76.4010
   704.5000      0.0000    264.0088     48.4985     79.5592
   704.7500      0.0000    262.1831     48.4243     83.0200
   705.0000      0.0000    261.4955     47.9829     85.3309
   705.2500      0.0000    261.4033     47.3262     85.3926
   705.5000      0.0000    261.5575     46.5715     83.3092
   705.7500      0.0000    261.7969     45.8097     80.5227
   706.0000      0.0000    262.0693     45.0992     78.7986
   706.2500      0.0000    262.4087     44.4579     78.6863
   706.5000      0.0000    262.9820     43.8757     78.9427
   706.7500      0.0000    264.2045     43.3325     78.0388
   707.0000      0.0000    266.7690     42.8068     76.3288
   707.2500      0.0000    271.3258     42.2785     75.8240
   707.5000      0.0000    277.8165     41.7372     77.5162
   707.7500      0.0000    285.0937     41.1839     79.9150
   708.0000      0.0000    291.4788     40.6174     80.6856
   708.2500      0.0000    295.8619     40.0223     78.8570
   708.5000      0.0000    298.2325     39.3744     75.0667
   708.7500      0.0000    299.2729     38.6592     70.5416
   709.0000      0.0000    299.6822     37.8966     66.3559
   709.2500      0.0000    299.8576     37.1575     63.1046
   709.5000      0.0000    299.9384     36.5412     60.8308
   709.7500      0.0000    299.9532     36.1073     59.3937
   710.0000      0.0000    299.9190     35.8238     58.9189
   710.2500      0.0000    299.8688     35.5974     59.6110
   710.5000      0.0000    299.8321     35.3583     61.0923
   710.7500      0.0000    299.8156     35.1044     62.2102
   711.0000      0.0000    299.8067     34.8722     61.7492
   711.2500      0.0000    299.7909     34.6964     59.3990
   711.5000      0.0000    299.7624     34.6117     55.9707
   711.7500      0.0000    299.7191     34.6760     52.7648
   712.0000      0.0000    299.6579     34.9583     50.9029
   712.2500      0.0000    299.5764     35.4805     51.0886
   712.5000      0.0000    299.4809     36.1752     53.5442
   712.7500      0.0000    299.3875     36.9061     58.0253
   713.0000      0.0000    299.3138     37.5347     64.0476
   713.2500      0.0000    299.2691     37.9766     70.9811
   713.5000      0.0000    299.2555     38.2119     77.7397
   713.7500      0.0000    299.2751     38.2542     82.7312
   714.0000      0.0000    299.3312     38.1158     84.7367
   714.2500      0.0000    299.4209     37.8031     83.9219
   714.5000      0.0000    299.5369     37.3295     81.5892
   714.7500      0.0000    299.6768     36.7159     79.0085
   715.0000      0.0000    299.8460     35.9797     77.0132
   715.2500      0.0000    300.0458     35.1427     76.4095
   715.5000      0.0000    300.2643     34.2460     77.8283
   715.7500      0.0000    300.4831     33.3381     80.9985
   716.0000      0.0000    300.6915     32.4418     84.6821
   716.2500      0.0000    300.8931     31.5441     87.4468
   716.5000      0.0000    301.1012     30.6223     88.3674
   716.7500      0.0000    301.3310     29.6688     87.2886
   717.0000      0.0000    301.5934     28.6899     84.7363
   717.2500      0.0000    301.8892     27.6932     81.4308
   717.5000      0.0000    302.2373     26.6897     77.9038
   717.7500      0.0000    302.7613     25.7092     74.8114
   718.0000      0.0000    304.1369     24.7958     73.2830
   718.2500      0.0000    308.7127     23.9672     74.2473
   718.5000      0.0000    322.2419     23.1821     77.3539
   718.7500      0.0000    354.2140     22.3634     81.1051
   719.0000      0.0000    413.2599     21.4611     84.4308
   719.2500      0.0000    497.5843     20.4943     87.9334
   719.5000      0.0000    589.0088     19.5430     93.1467
   719.7500      0.0000    659.7666     18.7066    100.5838
   720.0000      0.0000    687.8511     18.0612    109.0709
   720.2500      0.0000    667.4845     17.6350    117.0688
   720.5000      0.0000    609.4387     17.4075    124.0256
   720.7500      0.0000    535.1859     17.3289    130.2974
   721.0000      0.0000    467.4776     17.3425    136.2608
   721.2500      0.0000    420.2147     17.3979    141.9167
   721.5000      0.0000    394.5419     17.4490    147.3571
   721.7500      0.0000    383.6954     17.4451    153.1850
   722.0000      0.0000    380.4829     17.3387    160.0035
   722.2500      0.0000    381.3564     17.1145    167.2730
   722.5000      0.0000    387.2472     16.8066    172.8694
   722.7500      0.0000    403.2635     16.4649    174.2823
   723.0000      0.0000    436.6545     16.0998    170.8402
   723.2500      0.0000    491.0332     15.6794    164.6600
   723.5000      0.0000    559.5134     15.1820    158.9357
   723.7500      0.0000    624.8486     14.6289    155.2936
   724.0000      0.0000    670.3082     14.0544    153.0691
   724.2500      0.0000    692.0201     13.4645    150.8411
   724.5000      0.0000    699.9780     12.8492    147.9841
   724.7500      0.0000    707.5007     12.2343    144.6339
   725.0000      0.0000    720.3658     11.7085    140.8479
   725.2500      0.0000    734.4907     11.3853    136.5246
   725.5000      0.0000    742.1790     11.3324    132.0068
   725.7500      0.0000    740.6653     11.5453    128.2562
   726.0000      0.0000    734.9413     11.9944    126.3038
   726.2500      0.0000    731.6009     12.6934    126.5663
   726.5000      0.0000    729.2626     13.7187    128.6204
   726.7500      0.0000    715.4857     15.1825    131.6146
   727.0000      0.0000    674.7612     17.2090    134.9668
   727.2500      0.0000    602.0637     19.9235    138.5565
   727.5000      0.0000    509.9117     23.3999    142.2152
   727.7500      0.0000    421.0555     27.5602    145.3178
   728.0000      0.0000    353.1111     32.1132    147.2005
   728.2500      0.0000    310.0047     36.6227    147.9836
   728.5000      0.0000    285.8084     40.6869    148.6035
   728.7500      0.0000    272.9452     44.1121    149.8695
