~Version Information
VERS.                      2.0: CWLS Log ASCII Standard - VERSION 2.0
WRAP.                       NO: One line per depth step
~Well Information Block
STRT.FT               480.0000: 
STOP.FT              1629.0000: 
STEP.FT                 0.2500: 
NULL.                -999.2500: 
COMP.          Pioneer Natural Resources: COMPANY
WELL.          Dude Canyon 22-32 Tr: WELL
FLD.           Purgatoire River: FIELD
LOC.           1741' FNL & 2331' FWL: LOCATION
PROV.                 Colorado: PROVINCE
CNTY.               Las Animas: COUNTRY
SRVC.                Patterson: SERVICE COMPANY
DATE.          Sat Jul 09 01:36:28 2005: LOG DATE
UWI.           05 071 08421 00: UNIQUE WELL ID
~Curve Information Block
DEPT.FT            0 000 00 00: Depth
SN.Ohm-m                      : IEL Short Normal
SP.mV                         : IEL Spontaneous Potential
DIR.Ohm-m                     : IEL Induction Resistivity
GR.GAPI                       : Gamma Ray
~Parameter Information Block
~A  Depth        SN          SP         DIR          GR     
# ...
  1217.0000     23.8373     25.5180     21.6353    103.8511
  1217.2500     23.9110     25.5667     21.9004    106.5145
  1217.5000     23.8594     25.5578     22.2580    112.3771
  1217.7500     23.7415     25.4796     22.7486    116.1599
  1218.0000     23.6474     25.3379     23.3755    120.5994
  1218.2500     23.6389     25.1444     24.1055    122.5523
  1218.5000     23.7699     24.9047     24.8840    123.1327
  1218.7500     24.1280     24.6227     25.6555    121.2658
  1219.0000     24.8056     24.3097     26.3774    114.7633
  1219.2500     25.8349     23.9843     27.0233    108.4562
  1219.5000     27.2065     23.6665     27.5814     97.3801
  1219.7500     28.9561     23.3737     28.0567     89.7322
  1220.0000     31.1683     23.1214     28.4767     79.1254
  1220.2500     33.8711     22.9221     28.8886     73.0876
  1220.5000     36.9628     22.7826     29.3423     65.7190
  1220.7500     40.1997     22.7014     29.8657     61.9565
  1221.0000     43.1819     22.6700     30.4522     58.5776
  1221.2500     45.4139     22.6786     31.0680     58.2566
  1221.5000     46.4957     22.7198     31.6640     60.6975
  1221.7500     46.3049     22.7887     32.1724     63.8353
  1222.0000     45.0077     22.8824     32.4924     70.1774
  1222.2500     42.9414     23.0001     32.5038     75.4701
  1222.5000     40.4966     23.1434     32.1224     84.6241
  1222.7500     37.9643     23.3106     31.3526     90.5588
  1223.0000     35.4262     23.4893     30.2820     97.1268
  1223.2500     32.8809     23.6568     29.0311     99.6661
  1223.5000     30.4300     23.7899     27.7088    102.3736
  1223.7500     28.2730     23.8800     26.3951    104.6506
  1224.0000     26.5744     23.9400     25.1421    109.3945
  1224.2500     25.3385     23.9923     23.9811    112.9880
  1224.5000     24.4127     24.0435     22.9305    118.0773
  1224.7500     23.6247     24.0723     21.9993    121.1016
  1225.0000     22.8545     24.0473     21.1855    125.3934
  1225.2500     22.0228     23.9528     20.4730    128.1931
  1225.5000     21.1482     23.7963     19.8347    131.6324
  1225.7500     20.3529     23.5912     19.2443    132.6934
  1226.0000     19.6877     23.3368     18.6913    131.8742
  1226.2500     19.0333     23.0138     18.1891    130.2112
  1226.5000     18.2429     22.5961     17.7677    127.6135
  1226.7500     17.3189     22.0684     17.4562    126.5007
  1227.0000     16.4384     21.4398     17.2687    126.1156
  1227.2500     15.8449     20.7476     17.2002    126.4928
  1227.5000     15.6831     20.0490     17.2312    126.8346
  1227.7500     15.8977     19.4079     17.3339    125.9249
  1228.0000     16.3064     18.8771     17.4759    121.8693
  1228.2500     16.7417     18.4828     17.6235    117.8171
  1228.5000     17.1052     18.2164     17.7494    111.8841
  1228.7500     17.4080     18.0448     17.8418    109.3119
  1229.0000     17.7880     17.9339     17.9112    108.6752
  1229.2500     18.4148     17.8638     17.9853    110.3418
  1229.5000     19.3593     17.8268     18.0978    114.8517
  1229.7500     20.4396     17.8140     18.2736    118.1851
  1230.0000     21.2394     17.8061     18.5188    122.1504
  1230.2500     21.5453     17.7782     18.8159    123.8146
  1230.5000     21.5769     17.7166     19.1260    125.5336
  1230.7500     21.5809     17.6287     19.3982    126.8295
  1231.0000     21.5785     17.5394     19.5841    129.5169
  1231.2500     21.5217     17.4815     19.6555    131.5086
  1231.5000     21.3535     17.4855     19.6157    133.7244
  1231.7500     21.0457     17.5639     19.4950    134.1382
  1232.0000     20.6863     17.7038     19.3325    132.9223
  1232.2500     20.3785     17.8756     19.1593    131.3787
  1232.5000     20.0929     18.0513     18.9949    129.8241
  1232.7500     19.7638     18.2133     18.8587    130.3413
  1233.0000     19.4771     18.3568     18.7828    133.5219
  1233.2500     19.3745     18.4895     18.8121    136.1018
  1233.5000     19.4575     18.6276     18.9866    138.1678
  1233.7500     19.6746     18.7844     19.3195    137.5290
  1234.0000     20.0477     18.9599     19.7871    133.7426
  1234.2500     20.5893     19.1412     20.3434    130.0158
  1234.5000     21.2316     19.3136     20.9455    123.7721
  1234.7500     21.9000     19.4714     21.5702    119.4421
  1235.0000     22.5953     19.6209     22.2084    112.4896
  1235.2500     23.3981     19.7752     22.8523    107.4868
  1235.5000     24.4139     19.9469     23.4958    100.2336
  1235.7500     25.7057     20.1408     24.1466     96.4487
  1236.0000     27.2536     20.3495     24.8302     93.3714
  1236.2500     28.9102     20.5547     25.5772     92.9009
  1236.5000     30.4059     20.7349     26.3958     93.5113
  1236.7500     31.5122     20.8727     27.2437     94.3102
  1237.0000     32.1972     20.9576     28.0179     95.8439
  1237.2500     32.5867     20.9868     28.5878     97.0696
  1237.5000     32.8158     20.9632     28.8685     99.1352
  1237.7500     32.9294     20.8912     28.8776    100.6245
  1238.0000     32.8645     20.7714     28.7175    102.9900
  1238.2500     32.4945     20.5979     28.5046    104.6430
  1238.5000     31.7411     20.3615     28.3145    107.2890
  1238.7500     30.7055     20.0555     28.1808    109.1831
  1239.0000     29.6252     19.6822     28.1197    111.8581
  1239.2500     28.6538     19.2540     28.1406    113.0008
  1239.5000     27.8300     18.7838     28.2327    112.9050
  1239.7500     27.2289     18.2759     28.3518    111.7685
  1240.0000     26.9392     17.7315     28.4234    109.9916
  1240.2500     26.9793     17.1650     28.3630    109.6265
  1240.5000     27.3637     16.6106     28.0976    109.9761
  1240.7500     28.1536     16.1100     27.5923    109.6091
  1241.0000     29.3321     15.6926     26.8802    106.3323
  1241.2500     30.6835     15.3668     26.0666    102.2625
  1241.5000     31.9058     15.1235     25.2868     94.8854
  1241.7500     32.7562     14.9419     24.6463     90.4706
  1242.0000     33.0530     14.7943     24.1908     86.8119
  1242.2500     32.7161     14.6547     23.9197     87.2927
  1242.5000     31.8248     14.5091     23.8216     93.0756
  1242.7500     30.5601     14.3565     23.8971     99.9947
  1243.0000     29.1464     14.1944     24.1561    113.0611
  1243.2500     27.8106     14.0064     24.5987    121.8120
  1243.5000     26.7095     13.7688     25.1976    131.7194
  1243.7500     25.9490     13.4747     25.8920    134.6649
  1244.0000     25.7098     13.1514     26.5929    132.4872
  1244.2500     26.2258     12.8526     27.2028    127.0133
  1244.5000     27.5596     12.6292     27.6554    114.8996
  1244.7500     29.5569     12.5016     27.9603    105.8945
  1245.0000     32.1027     12.4578     28.2147     93.4434
  1245.2500     35.2527     12.4716     28.5624     86.6489
  1245.5000     39.0423     12.5236     29.1290     79.1558
  1245.7500     43.2977     12.6111     29.9767     75.8897
  1246.0000     47.6676     12.7421     31.0932     72.9827
  1246.2500     51.7806     12.9226     32.3987     71.8351
  1246.5000     55.3023     13.1451     33.7535     70.6886
  1246.7500     57.8649     13.3884     34.9670     70.4090
  1247.0000     59.1206     13.6266     35.8301     71.5179
  1247.2500     58.8847     13.8381     36.1790     73.7704
  1247.5000     57.1670     14.0106     35.9542     79.7501
  1247.7500     54.1875     14.1460     35.2067     85.2016
  1248.0000     50.4228     14.2650     34.0541     94.2507
  1248.2500     46.5123     14.4041     32.6370     99.8031
  1248.5000     42.9562     14.5960     31.0960    106.0885
  1248.7500     39.8341     14.8462     29.5628    108.9061
  1249.0000     36.9204     15.1262     28.1532    112.3224
  1249.2500     34.1080     15.3913     26.9600    115.0594
  1249.5000     31.5576     15.6062     26.0464    120.9590
  1249.7500     29.4719     15.7593     25.4376    125.9314
  1250.0000     27.8901     15.8572     25.1163    133.3519
  1250.2500     26.7034     15.9132     25.0316    137.1213
