~Version Information
VERS.                      2.0: CWLS Log ASCII Standard - VERSION 2.0
WRAP.                       NO: One line per depth step
~Well Information Block
STRT.FT                 0.0000: 
STOP.FT              2430.7500: 
STEP.FT                 0.2500: 
NULL.                -999.2500: 
COMP.          Petrogulf Corporation: COMPANY
WELL.             Leier 17-42V: WELL
FLD.           Purgatorie River: FIELD
LOC.           2309' FNL & 1062' FEL: LOCATION
PROV.                 Colorado: PROVINCE
CNTY.               Las Animas: COUNTRY
SRVC.                Patterson: SERVICE COMPANY
DATE.          Thu Oct 06 10:18:00 2005: LOG DATE
UWI.                          : UNIQUE WELL ID
~Curve Information Block
DEPT.FT            0 000 00 00: Depth
CCL.                          : Casing Collar Locator
TT3.usec                      : CBL 3' Travel Time
AMP3.mV                       : CBL 3' Amplitude
GR.GAPI                       : Gamma Ray
~Parameter Information Block
~A  Depth       CCL         TT3         AMP3         GR     
# ...
   469.0000      0.0000    506.3752     16.8310     66.2753
   469.2500      0.0000    508.3023     16.8693     66.5638
   469.5000      0.0000    520.2207     16.8175     68.1938
   469.7500      0.0000    549.9178     16.7355     72.0247
   470.0000      0.0000    604.9379     16.6508     77.4789
   470.2500      0.0000    665.2587     16.5606     82.1729
   470.5000      0.0000    686.5961     16.4687     83.6035
   470.7500      0.0000    650.1736     16.3478     81.2655
   471.0000      0.0000    591.5459     16.1634     76.9626
   471.2500      0.0000    566.6569     15.9778     72.9111
   471.5000      0.0000    597.7711     15.9151     69.7967
   471.7500      0.0000    657.8074     16.0232     66.9797
   472.0000      0.0000    701.0457     16.2367     64.1463
   472.2500      0.0000    699.4396     16.4479     62.0547
   472.5000      0.0000    655.2045     16.5787     61.7627
   472.7500      0.0000    599.5429     16.6097     63.5687
   473.0000      0.0000    572.2376     16.5736     66.7081
   473.2500      0.0000    582.1649     16.5248     69.9624
   473.5000      0.0000    602.3089     16.4933     72.5776
   473.7500      0.0000    617.6086     16.4771     74.6340
   474.0000      0.0000    644.8836     16.4899     76.6337
   474.2500      0.0000    684.0050     16.5554     78.7397
   474.5000      0.0000    698.4525     16.6272     80.3120
   474.7500      0.0000    668.4512     16.6007     80.2722
   475.0000      0.0000    621.7044     16.4381     78.0495
   475.2500      0.0000    592.6901     16.2011     74.1171
   475.5000      0.0000    578.8178     15.9709     69.7104
   475.7500      0.0000    561.3364     15.8030     66.1437
   476.0000      0.0000    545.8295     15.7203     64.2378
   476.2500      0.0000    553.9962     15.7226     64.2060
   476.5000      0.0000    591.1394     15.7969     65.9079
   476.7500      0.0000    630.6356     15.9112     68.9452
   477.0000      0.0000    634.0565     16.0541     72.5415
   477.2500      0.0000    596.3594     16.2445     75.7774
   477.5000      0.0000    550.5455     16.4526     78.2044
   477.7500      0.0000    523.0084     16.6003     80.1098
   478.0000      0.0000    513.0791     16.6458     82.1112
   478.2500      0.0000    510.6748     16.6171     84.5007
   478.5000      0.0000    510.1263     16.5775     86.8474
   478.7500      0.0000    509.8313     16.5389     88.2181
   479.0000      0.0000    508.9684     16.4444     87.9972
   479.2500      0.0000    505.3446     16.2828     86.6068
   479.5000      0.0000    495.5618     16.1434     85.3600
   479.7500      0.0000    480.5748     16.1324     85.5235
   480.0000      0.0000    469.5253     16.2671     87.4003
   480.2500      0.0000    469.5277     16.4616     90.0692
   480.5000      0.0000    477.1869     16.6200     91.9471
   480.7500      0.0000    487.5023     16.7006     91.7878
   481.0000      0.0000    500.1218     16.7324     89.3553
   481.2500      0.0000    518.8821     16.8077     85.3340
   481.5000      0.0000    554.9784     17.0013     80.7063
   481.7500      0.0000    618.0273     17.2969     76.0897
   482.0000      0.0000    695.0884     17.5937     71.5987
   482.2500      0.0000    756.5184     17.7694     67.4066
   482.5000      0.0000    788.0139     17.7506     64.1470
   482.7500      0.0000    798.3987     17.5438     62.3033
   483.0000      0.0000    800.7354     17.2328     61.3236
   483.2500      0.0000    801.7844     16.9210     59.9158
   483.5000      0.0000    806.2628     16.6276     57.4510
   483.7500      0.0000    826.3231     16.2852     54.8375
   484.0000      0.0000    884.3911     15.8698     53.7613
   484.2500      0.0000    985.7799     15.4498     54.9855
   484.5000      0.0000   1078.5116     15.0757     57.4257
   484.7500      0.0000   1089.6899     14.7121     58.9107
   485.0000      0.0000   1019.5667     14.3227     57.9264
   485.2500      0.0000    935.2170     13.9310     54.7019
   485.5000      0.0000    879.1960     13.5730     50.8232
   485.7500      0.0000    844.2455     13.2798     48.0358
   486.0000      0.0000    816.5280     13.0704     47.2461
   486.2500      0.0000    798.7076     12.9090     48.1070
   486.5000      0.0000    790.9077     12.7061     49.3112
   486.7500      0.0000    787.8005     12.3853     49.5538
   487.0000      0.0000    793.5388     11.9538     48.5515
   487.2500      0.0000    806.8611     11.4915     47.1908
   487.5000      0.0000    812.0037     11.0325     46.5913
   487.7500      0.0000    802.4312     10.4700     47.0764
   488.0000      0.0000    789.9113      9.6901     48.1534
   488.2500      0.0000    788.7136      8.9033     49.2706
   488.5000      0.0000    809.3030      8.5375     50.3750
   488.7500      0.0000    860.3978      8.5315     51.8004
   489.0000      0.0000    931.8234      8.3930     53.7986
   489.2500      0.0000    982.7161      8.0626     56.2274
   489.5000      0.0000    989.2698      7.8662     58.6553
   489.7500     -2.0000    980.8679      7.8934     60.6522
   490.0000      2.0000    988.0049      8.0016     62.1039
   490.2500      0.0000   1015.1165      8.1319     63.4674
   490.5000      0.0000   1065.2847      8.3944     65.5802
   490.7500      0.0000   1111.1383      8.9603     68.8062
   491.0000      0.0000   1089.1908      9.9642     72.4658
   491.2500      0.0000    987.5919     11.2672     75.3872
   491.5000      0.0000    868.0743     12.2035     76.7690
   491.7500      0.0000    778.5329     12.2967     76.3475
   492.0000      0.0000    707.2609     12.0970     74.3867
   492.2500      0.0000    621.7435     12.3536     71.9043
   492.5000      0.0000    521.2146     13.0361     70.2907
   492.7500      0.0000    438.5680     13.7018     70.1417
   493.0000      0.0000    395.0608     14.0662     70.6999
   493.2500      0.0000    383.7684     14.0746     70.7314
   493.5000      0.0000    397.8225     13.8106     69.7851
   493.7500      0.0000    448.4488     13.3799     68.5469
   494.0000      0.0000    542.4437     12.8425     68.2819
   494.2500      0.0000    645.6107     12.2757     70.0209
   494.5000      0.0000    699.6425     11.7923     73.9507
   494.7500      0.0000    685.3754     11.4199     79.2291
   495.0000      0.0000    640.2529     11.0795     84.3190
   495.2500      0.0000    614.8359     10.7207     87.7529
   495.5000      0.0000    625.8850     10.3437     88.9924
   495.7500      0.0000    656.1634      9.9231     88.7114
   496.0000      0.0000    705.6954      9.4529     88.1285
   496.2500      0.0000    793.0960      9.0029     88.0219
   496.5000      0.0000    884.2559      8.6529     88.3234
   496.7500      0.0000    925.3369      8.4168     88.3724
   497.0000      0.0000    949.3699      8.2550     87.2887
   497.2500      0.0000   1020.3671      8.1330     84.2909
   497.5000      0.0000   1105.9707      8.0537     79.2564
   497.7500      0.0000   1119.7057      8.0455     73.3259
   498.0000      0.0000   1048.8566      8.1251     68.5655
   498.2500      0.0000    952.8260      8.2603     66.5058
   498.5000      0.0000    868.4501      8.3732     67.0079
   498.7500      0.0000    789.7984      8.3984     68.8408
   499.0000      0.0000    715.6247      8.3464     71.2623
   499.2500      0.0000    659.1066      8.2930     74.5640
   499.5000      0.0000    624.7150      8.2938     79.0564
   499.7500      0.0000    607.6649      8.3312     84.1844
   500.0000      0.0000    605.3713      8.3617     88.8855
   500.2500      0.0000    617.0291      8.3839     92.2653
   500.5000      0.0000    632.7839      8.4259     93.8873
   500.7500      0.0000    629.1263      8.4857     94.2804
   501.0000      0.0000    594.8745      8.5370     95.2836
   501.2500      0.0000    553.8599      8.5875     98.7997
   501.5000      0.0000    531.6879      8.6647    104.6291
   501.7500      0.0000    519.1691      8.7689    110.2529
   502.0000      0.0000    493.6761      8.8838    113.2214
   502.2500      0.0000    455.1158      9.0007    113.2579
