~Version Information
VERS.                      2.0: CWLS Log ASCII Standard - VERSION 2.0
WRAP.                       NO: One line per depth step
~Well Information Block
STRT.FT               -11.7500: 
STOP.FT              2025.5000: 
STEP.FT                 0.2500: 
NULL.                -999.2500: 
COMP.          Evergreen Operating Corp.: COMPANY
WELL.            Sumatra 34-22: WELL
FLD.           Purgatorie River: FIELD
LOC.           542 FSL & 2438 FEL--: LOCATION
PROV.                       CO: PROVINCE
CNTY.               Las Animas: COUNTRY
SRVC.          Patterson Wireline, Inc.: SERVICE COMPANY
DATE.          Wed Apr 02 10:17:21 2003: LOG DATE
UWI.           05 071 07804 00: UNIQUE WELL ID
~Curve Information Block
DEPT.FT            0 000 00 00: Depth
CCL.                          : Casing Collar Locator
TT3.usec                      : CBL 3' Travel Time
AMP3.mV                       : CBL 3' Amplitude
GR.GAPI                       : Gamma Ray
~Parameter Information Block
~A  Depth       CCL         TT3         AMP3         GR     
# ...
   390.2500      0.0000    738.2736      4.9497     98.1931
   390.5000      0.0000    738.1702      4.9364     99.4540
   390.7500      0.0000    738.0699      4.9977    100.9444
   391.0000      0.0000    737.9836      5.0582    101.4925
   391.2500      0.0000    738.1733      5.0774    101.2676
   391.5000      0.0000    739.3039      5.0793    100.9040
   391.7500      0.0000    742.3017      5.0700    100.6638
   392.0000      0.0000    746.6907      5.0262    100.4248
   392.2500      0.0000    749.3351      4.9419    100.1683
   392.5000      0.0000    748.0929      4.8322    100.3632
   392.7500      0.0000    745.7854      4.7275    102.0665
   393.0000      0.0000    747.2714      4.6795    106.3922
   393.2500      0.0000    754.3232      4.7347    113.4247
   393.5000      0.0000    764.1797      4.8773    121.7872
   393.7500      0.0000    772.5663      5.0291    129.4696
   394.0000      0.0000    778.4152      5.1197    134.8062
   394.2500      0.0000    784.1832      5.1197    136.8007
   394.5000      0.0000    791.3846      5.0133    135.4899
   394.7500      0.0000    797.2588      4.8250    132.3416
   395.0000      0.0000    797.9413      4.6661    129.5496
   395.2500      0.0000    794.9265      4.6540    128.3602
   395.5000      0.0000    793.6081      4.7714    128.2175
   395.7500      0.0000    795.8664      4.8836    127.6352
   396.0000      0.0000    799.6451      4.8978    125.7634
   396.2500      0.0000    802.6628      4.8413    122.9290
   396.5000      0.0000    803.6724      4.7887    119.6822
   396.7500      0.0000    804.2744      4.7588    115.7769
   397.0000      0.0000    807.1429      4.6992    110.7405
   397.2500      0.0000    811.3226      4.5844    105.4634
   397.5000      0.0000    813.5387      4.4923    102.4575
   397.7500      0.0000    811.8868      4.5047    103.9747
   398.0000      0.0000    806.8110      4.5797    109.9525
   398.2500      0.0000    800.5796      4.6047    117.9613
   398.5000      0.0000    794.6406      4.5264    124.9818
   398.7500      0.0000    788.8267      4.3995    129.1332
   399.0000      0.0000    784.1591      4.3195    130.0561
   399.2500      0.0000    782.7352      4.3194    128.2651
   399.5000      0.0000    785.9425      4.3707    124.5246
   399.7500      0.0000    793.9037      4.4365    119.8549
   400.0000      0.0000    804.0688      4.4763    115.7198
   400.2500      0.0000    812.1270      4.4632    113.6777
   400.5000      0.0000    816.1039      4.4238    114.6367
   400.7500      0.0000    817.2801      4.4391    118.4722
   401.0000      0.0000    817.5308      4.5754    124.1980
   401.2500      0.0000    817.7817      4.7888    130.3112
   401.5000      0.0000    818.1894      4.9538    135.1364
   401.7500      0.0000    818.5836      5.0050    137.3845
   402.0000      0.0000    818.7148      4.9834    136.8445
   402.2500      0.0000    818.3849      4.9519    134.6375
   402.5000      0.0000    817.6470      4.9303    132.5618
   402.7500      0.0000    816.8923      4.9111    131.8173
   403.0000      0.0000    816.5612      4.8864    132.1317
   403.2500      0.0000    816.6848      4.8485    132.2371
   403.5000      0.0000    816.8326      4.7906    131.2173
   403.7500      0.0000    816.4885      4.7010    129.3851
   404.0000      0.0000    815.0491      4.5681    127.9625
   404.2500      0.0000    811.5717      4.4206    127.8422
   404.5000      0.0000    805.8303      4.3381    128.5376
   404.7500      0.0000    799.4167      4.3921    128.6470
   405.0000      0.0000    794.0076      4.5978    127.4868
   405.2500      0.0000    790.4482      4.9290    125.8331
   405.5000      0.0000    789.6238      5.3506    124.8071
   405.7500      0.0000    790.2217      5.8147    124.4203
   406.0000      0.0000    787.5520      6.2105    123.5536
   406.2500      0.0000    776.0900      6.3351    121.4016
   406.5000      0.0000    755.0395      6.0508    118.7308
   406.7500      0.0000    736.1215      5.5411    117.4628
   407.0000      0.0000    738.9538      5.1535    119.0699
   407.2500      0.0000    773.5316      4.9196    123.6917
   407.5000      0.0000    835.3699      4.6627    130.5907
   407.7500      0.0000    909.6711      4.4335    138.7628
   408.0000      0.0000    969.1219      4.3718    146.8407
   408.2500      1.5509    990.6372      4.4513    153.1389
   408.5000      1.6895    978.2545      4.5571    156.7031
   408.7500      0.0000    951.4746      4.5908    158.3504
   409.0000      0.0000    923.4168      4.5362    160.1680
   409.2500      0.0000    896.0032      4.5012    163.7065
   409.5000      0.0000    871.0038      4.6572    168.4955
   409.7500      0.0000    857.8879      5.0401    172.1568
   410.0000      0.0000    862.6124      5.3971    172.1201
   410.2500      0.0000    878.3675      5.4445    167.6131
   410.5000      0.0000    891.7143      5.2165    160.1817
   410.7500      0.0000    891.9382      4.9136    152.3104
   411.0000      0.0000    876.7133      4.6512    145.4451
   411.2500      0.0000    853.8639      4.4612    139.0035
   411.5000      0.0000    835.3240      4.3258    131.0304
   411.7500      0.0000    826.9843      4.1846    119.9439
   412.0000      0.0000    827.0875      4.0012    106.0090
   412.2500      0.0000    830.9510      3.8070     91.4318
   412.5000      0.0000    833.4724      3.6354     78.9022
   412.7500      0.0000    832.7278      3.4683     69.6773
   413.0000      0.0000    832.9135      3.2673     62.9538
   413.2500      0.0000    838.8813      3.0081     57.0747
   413.5000      0.0000    849.1407      2.7153     51.2208
   413.7500      0.0000    858.0723      2.4572     46.0001
   414.0000      0.0000    862.8191      2.2627     42.6887
   414.2500      0.0000    864.7469      2.1087     42.0229
   414.5000      0.0000    866.4700      2.0066     43.6464
   414.7500      0.0000    869.9251      2.0231     46.6006
   415.0000      0.0000    874.7289      2.2185     50.2711
   415.2500      0.0000    877.3258      2.5823     54.8422
   415.5000      0.0000    875.1769      3.0354     60.9839
   415.7500      0.0000    870.6702      3.5006     69.2895
   416.0000      0.0000    867.6322      3.9445     79.9369
   416.2500      0.0000    867.7672      4.3575     92.5835
   416.5000      0.0000    871.9069      4.7300    106.3824
   416.7500      0.0000    879.4756      5.0536    120.2734
   417.0000      0.0000    885.0909      5.3062    133.4669
   417.2500      0.0000    881.1274      5.4541    145.5046
   417.5000      0.0000    866.7089      5.5077    155.5996
   417.7500      0.0000    849.1097      5.5167    162.0307
   418.0000      0.0000    836.3079      5.4842    162.6926
   418.2500      0.0000    835.0665      5.3520    156.6644
   418.5000      0.0000    849.6509      5.0707    145.4297
   418.7500      0.0000    873.7081      4.6692    132.7248
   419.0000      0.0000    893.1947      4.2499    123.0642
   419.2500      0.0000    900.2514      3.8802    119.5676
   419.5000      0.0000    896.3731      3.5425    122.2824
   419.7500      0.0000    885.2205      3.2266    128.4162
   420.0000      0.0000    868.1616      2.9822    134.6080
   420.2500      0.0000    847.1089      2.8589    139.1917
   420.5000      0.0000    827.0662      2.8629    142.3250
   420.7500      0.0000    811.8715      2.9626    144.6493
   421.0000      0.0000    801.4654      3.1089    146.4787
   421.2500      0.0000    793.5189      3.2623    147.7105
   421.5000      0.0000    785.9691      3.4040    147.7827
   421.7500      0.0000    779.4380      3.5272    146.2292
   422.0000      0.0000    775.5731      3.6247    144.0070
   422.2500      0.0000    774.4831      3.6808    143.7090
   422.5000      0.0000    775.8484      3.6774    147.6064
   422.7500      0.0000    779.9770      3.6199    155.4745
   423.0000      0.0000    786.0339      3.5518    164.4827
   423.2500      0.0000    791.5233      3.5228    171.1838
   423.5000      0.0000    797.3228      3.5391    173.9588
