~Version Information
VERS.                      2.0: CWLS Log ASCII Standard - VERSION 2.0
WRAP.                       NO: One line per depth step
~Well Information Block
STRT.FT               360.0000: 
STOP.FT              1622.7000: 
STEP.FT                 0.1000: 
NULL.                -999.2500: 
COMP.          Pioneer Natural Resources: COMPANY
WELL.                Eric 42-9: WELL
FLD.           Purgatoire River: FIELD
LOC.           2050' FNL & 850' FEL: LOCATION
PROV.                 Colorado: PROVINCE
CNTY.               Las Animas: COUNTRY
SRVC.                Patterson: SERVICE COMPANY
DATE.          Mon Nov 01 08:19:51 2004: LOG DATE
UWI.           05 071 07999 00: UNIQUE WELL ID
~Curve Information Block
DEPT.FT            0 000 00 00: Depth
DCAL.in                       : CDL Caliper
RHOB.g/cc                     : CDL Bulk Density
RHOC.g/cc                     : CDL Density Correction
DPOR.pu                       : CDL Density Porosity
NPOR.pu                       : Neutron Porosity
GR.GAPI                       : Gamma Ray
~Parameter Information Block
~A  Depth       DCAL        RHOB        RHOC        DPOR        NPOR         GR     
# ...
   523.2000      8.4667      2.4134      0.1303     14.3400     21.1319    145.8538
   523.3000      8.4839      2.4182      0.1591     14.0473     21.0134    147.6675
   523.4000      8.4839      2.4081      0.0849     14.6610     21.1050    142.1608
   523.5000      8.4833      2.4041      0.1045     14.9026     21.3802    133.4943
   523.6000      8.4833      2.4158      0.1782     14.1947     21.5887    130.1388
   523.7000      8.4833      2.4224      0.2054     13.7963     21.7113    131.4473
   523.8000      8.4601      2.4005      0.1389     15.1230     21.6769    133.8787
   523.9000      8.4601      2.3604      0.0374     17.5497     21.2642    135.9905
   524.0000      8.4164      2.3360      0.0192     19.0283     20.6519    135.7618
   524.1000      8.4164      2.3407      0.0534     18.7459     20.1542    134.9032
   524.2000      8.4164      2.3568      0.1185     17.7681     19.5816    135.6717
   524.3000      8.3651      2.3731      0.0827     16.7835     18.9248    136.9190
   524.4000      8.3651      2.4029      0.0758     14.9736     18.5677    138.5830
   524.5000      8.3297      2.4478      0.1264     12.2561     18.4257    138.8838
   524.6000      8.3297      2.4795      0.1506     10.3341     18.3358    135.3464
   524.7000      8.3297      2.4817      0.1289     10.1995     18.5846    129.0403
   524.8000      8.3151      2.4824      0.0905     10.1547     19.4252    123.5693
   524.9000      8.3151      2.5167      0.1559      8.0763     20.7902    121.1486
   525.0000      8.3124      2.5623      0.2646      5.3123     22.3627    118.6385
   525.1000      8.3124      2.5691      0.1959      4.9020     23.8801    114.2177
   525.2000      8.3124      2.5322      0.0914      7.1379     25.1717    112.9584
   525.3000      8.3139      2.4791      0.0785     10.3550     26.2927    114.7697
   525.4000      8.3139      2.4374     -0.0275     12.8859     27.5026    116.0546
   525.5000      8.3162      2.4298     -0.0238     13.3458     28.4417    120.1620
   525.6000      8.3162      2.4474     -0.0139     12.2786     28.4795    126.4311
   525.7000      8.3162      2.4586      0.0186     11.5978     27.9512    128.9143
   525.8000      8.3182      2.4559      0.0090     11.7635     27.5159    128.0555
   525.9000      8.3182      2.4585      0.0208     11.6053     27.0646    126.3391
   526.0000      8.3175      2.4739      0.0965     10.6738     26.2860    126.2209
   526.1000      8.3175      2.4889      0.0711      9.7651     25.4228    128.2746
   526.2000      8.3175      2.4894      0.0843      9.7313     24.9104    128.4932
   526.3000      8.3158      2.4670      0.0609     11.0911     24.7294    127.4499
   526.4000      8.3158      2.4348      0.0094     13.0435     24.5248    132.1711
   526.5000      8.3164      2.4180      0.0051     14.0593     24.1273    142.5328
   526.6000      8.3164      2.4152      0.0343     14.2315     23.6317    147.2517
   526.7000      8.3164      2.4069      0.0083     14.7322     23.0367    140.9494
   526.8000      8.3170      2.3921     -0.0142     15.6322     22.3478    134.2849
   526.9000      8.3170      2.3792      0.0372     16.4108     21.8694    136.8075
   527.0000      8.3161      2.3695      0.0218     16.9977     21.6787    143.2173
   527.1000      8.3161      2.3683      0.0309     17.0722     21.5074    145.5442
   527.2000      8.3161      2.3815      0.0281     16.2747     21.1883    144.9655
   527.3000      8.3157      2.4023      0.0704     15.0098     20.8811    143.1078
   527.4000      8.3157      2.4143      0.0974     14.2848     20.8447    137.4015
   527.5000      8.3156      2.4121      0.0687     14.4203     21.0524    128.9675
   527.6000      8.3156      2.4122      0.0455     14.4104     21.2783    123.3681
   527.7000      8.3156      2.4273      0.0499     13.4993     21.2913    120.4345
   527.8000      8.3088      2.4461      0.0955     12.3579     21.0560    117.0291
   527.9000      8.3088      2.4540      0.0707     11.8770     20.8276    116.4268
   528.0000      8.2895      2.4538      0.0361     11.8885     20.5521    118.6774
   528.1000      8.2895      2.4498      0.0689     12.1353     19.9519    117.9610
   528.2000      8.2895      2.4393      0.0543     12.7699     19.3033    110.5841
   528.3000      8.2650      2.4343      0.0229     13.0747     18.9756     96.0703
   528.4000      8.2650      2.4529      0.0046     11.9434     18.8919     80.2618
   528.5000      8.2481      2.4893      0.0489      9.7386     19.0676     72.5807
   528.6000      8.2481      2.5261      0.0490      7.5113     19.6493     73.1124
   528.7000      8.2481      2.5691      0.0447      4.9029     20.4828     74.2562
   528.8000      8.2426      2.6289      0.0671      1.2790     21.3278     72.9117
   528.9000      8.2426      2.6863      0.1182     -2.1999     22.0268     68.8262
   529.0000      8.2457      2.7177      0.1102     -4.1020     22.5195     62.3379
   529.1000      8.2457      2.7334      0.1020     -5.0545     23.0374     56.0260
   529.2000      8.2457      2.7511      0.1250     -6.1302     23.7034     52.5389
   529.3000      8.2513      2.7508      0.1538     -6.1099     24.2527     51.2402
   529.4000      8.2513      2.7029      0.0720     -3.2067     24.6048     50.4399
   529.5000      8.2563      2.6264     -0.0232      1.4305     24.8126     51.8211
   529.6000      8.2563      2.5699     -0.0510      4.8575     24.9155     55.7852
   529.7000      8.2563      2.5531     -0.0306      5.8752     25.0712     58.4883
   529.8000      8.2676      2.5554      0.0274      5.7307     24.9501     59.4686
   529.9000      8.2676      2.5501      0.0013      6.0544     23.9746     60.6633
   530.0000      8.2912      2.5291      0.0417      7.3257     22.4044     60.8323
   530.1000      8.2912      2.4989      0.0021      9.1546     20.8854     61.0075
   530.2000      8.2912      2.4708      0.0129     10.8622     19.5167     62.5940
   530.3000      8.3176      2.4561      0.0010     11.7532     18.2294     62.3128
   530.4000      8.3176      2.4600      0.0623     11.5143     17.3119     60.9179
   530.5000      8.3310      2.4717      0.0859     10.8038     16.6818     61.7487
   530.6000      8.3310      2.4738      0.0725     10.6813     16.1051     62.8087
   530.7000      8.3310      2.4562      0.0970     11.7427     15.6551     61.6577
   530.8000      8.3345      2.4232      0.0144     13.7443     15.1004     60.4556
   530.9000      8.3345      2.3925      0.0197     15.6051     14.1666     62.2115
   531.0000      8.3368      2.3769      0.0121     16.5532     13.2175     64.9089
   531.1000      8.3368      2.3792      0.0172     16.4102     12.8255     64.3291
   531.2000      8.3368      2.3961      0.0230     15.3900     13.0980     61.0875
   531.3000      8.3399      2.4153      0.0381     14.2226     13.6425     57.3352
   531.4000      8.3399      2.4260      0.0554     13.5737     13.8972     53.4113
   531.5000      8.3420      2.4308      0.0260     13.2845     13.6075     51.9138
   531.6000      8.3420      2.4366      0.0592     12.9338     13.1015     55.1421
   531.7000      8.3420      2.4416      0.0367     12.6300     12.9344     60.5243
   531.8000      8.3420      2.4439      0.0805     12.4901     13.1032     62.6307
   531.9000      8.3420      2.4516      0.0244     12.0241     13.1471     59.5538
   532.0000      8.3418      2.4726      0.0906     10.7520     13.1757     55.1124
   532.1000      8.3418      2.4930      0.1128      9.5173     13.6368     52.4885
   532.2000      8.3418      2.4920      0.0682      9.5753     14.4343     50.7937
   532.3000      8.3432      2.4772      0.0373     10.4712     15.0942     49.0155
   532.4000      8.3432      2.4762      0.0485     10.5317     15.4061     48.2534
   532.5000      8.3442      2.4911      0.0662      9.6312     15.6893     50.6568
   532.6000      8.3442      2.4964      0.0614      9.3092     16.1960     55.4575
   532.7000      8.3442      2.4789      0.0456     10.3712     16.6177     58.2487
