~Version Information
VERS.                      2.0: CWLS Log ASCII Standard - VERSION 2.0
WRAP.                       NO: One line per depth step
~Well Information Block
STRT.FT               430.0000: 
STOP.FT              1910.2000: 
STEP.FT                 0.1000: 
NULL.                -999.2500: 
COMP.          Pioneer Natural Resources: COMPANY
WELL.          Formula 23-11 Tr: WELL
FLD.           Purgatoire River: FIELD
LOC.           1976' FSL & 1935' FWL--: LOCATION
PROV.                 Colorado: PROVINCE
CNTY.               Las Animas: COUNTRY
SRVC.                Patterson: SERVICE COMPANY
DATE.          Mon Jun 13 07:32:15 2005: LOG DATE
UWI.           05 071 08399 00: UNIQUE WELL ID
~Curve Information Block
DEPT.FT            0 000 00 00: Depth
DCAL.in                       : CDL Caliper
RHOB.g/cc                     : CDL Bulk Density
RHOC.g/cc                     : CDL Density Correction
DPOR.pu                       : CDL Density Porosity
NPOR.pu                       : Neutron Porosity
GR.GAPI                       : Gamma Ray
~Parameter Information Block
~A  Depth       DCAL        RHOB        RHOC        DPOR        NPOR         GR     
   430.0000      2.6992      2.5314     -0.2334      7.1850     43.3515     58.3196
   430.1000      2.6992      2.5229     -0.2213      7.7015     43.1632     56.9113
   430.2000      2.6992      2.5160     -0.1932      8.1202     43.4556     56.7513
   430.3000      2.7004      2.5016     -0.2250      8.9914     44.0405     58.7513
   430.4000      2.7004      2.4900     -0.2452      9.6943     44.5211     61.5030
   430.5000      2.7015      2.4897     -0.2248      9.7173     44.8074     62.8449
   430.6000      2.7015      2.4897     -0.2070      9.7139     45.0263     62.8305
   430.7000      2.7015      2.4837     -0.2525     10.0804     45.0857     64.1890
   430.8000      2.7013      2.4871     -0.2660      9.8700     44.9582     69.4167
   430.9000      2.7013      2.5007     -0.2108      9.0474     44.8156     75.1684
   431.0000      2.7022      2.4998     -0.2164      9.1004     44.7818     77.8905
   431.1000      2.7022      2.4791     -0.2451     10.3570     44.9056     80.4291
   431.2000      2.7022      2.4627     -0.2704     11.3520     45.2353     83.7495
   431.3000      2.7022      2.4666     -0.2316     11.1123     45.4832     84.5602
   431.4000      2.7022      2.4778     -0.2364     10.4339     45.1575     83.5054
   431.5000      2.7001      2.4794     -0.2139     10.3384     44.6421     81.6452
   431.6000      2.7001      2.4702     -0.2152     10.8948     44.4696     76.6470
   431.7000      2.7001      2.4573     -0.2007     11.6800     44.4696     70.0092
   431.8000      2.6989      2.4478     -0.2576     12.2560     44.5212     64.9208
   431.9000      2.6989      2.4449     -0.2236     12.4331     44.5313     62.0668
   432.0000      2.7000      2.4432     -0.2377     12.5346     44.3525     62.3648
   432.1000      2.7000      2.4423     -0.2804     12.5871     43.9393     64.1299
   432.2000      2.7000      2.4453     -0.2561     12.4035     43.4251     63.4404
   432.3000      2.7017      2.4474     -0.2528     12.2785     43.3143     60.7805
   432.4000      2.7017      2.4511     -0.2634     12.0540     43.8679     59.8968
   432.5000      2.7023      2.4605     -0.2586     11.4862     44.5422     61.6361
   432.6000      2.7023      2.4626     -0.2277     11.3594     44.8505     62.6079
   432.7000      2.7023      2.4498     -0.2713     12.1330     44.9743     62.1852
   432.8000      2.7017      2.4347     -0.2875     13.0461     45.1723     63.7772
   432.9000      2.7017      2.4307     -0.2825     13.2915     45.3613     65.9156
   433.0000      2.6997      2.4415     -0.2800     12.6351     45.5074     65.3593
   433.1000      2.6997      2.4593     -0.2435     11.5581     45.6850     64.1049
   433.2000      2.6997      2.4718     -0.1958     10.8024     45.6208     64.2021
   433.3000      2.6982      2.4742     -0.2229     10.6560     45.1455     65.0792
   433.4000      2.6982      2.4662     -0.2217     11.1376     44.8692     67.7743
   433.5000      2.6977      2.4500     -0.2434     12.1206     45.1488     72.0758
   433.6000      2.6977      2.4323     -0.2414     13.1968     45.4560     73.4730
   433.7000      2.6977      2.4237     -0.3043     13.7164     45.5538     70.2805
   433.8000      2.6963      2.4221     -0.2481     13.8117     45.5665     66.5873
   433.9000      2.6963      2.3990     -0.2064     15.2149     45.4164     66.1853
   434.0000      2.6960      2.3557     -0.2990     17.8382     45.1108     68.5120
   434.1000      2.6960      2.3349     -0.2814     19.0978     44.9798     70.5942
   434.2000      2.6960      2.3390     -0.2127     18.8486     45.0195     71.8713
   434.3000      2.6970      2.3382     -0.2709     18.8985     44.8746     71.9028
   434.4000      2.6970      2.3336     -0.2673     19.1760     44.6492     69.8337
   434.5000      2.6962      2.3338     -0.2276     19.1639     44.6593     68.2093
   434.6000      2.6962      2.3379     -0.2620     18.9174     44.9015     67.8646
   434.7000      2.6962      2.3579     -0.2773     17.7051     45.0350     68.2699
   434.8000      2.6950      2.3818     -0.1530     16.2519     44.7312     70.9676
   434.9000      2.6950      2.3610     -0.1693     17.5131     44.2107     75.3325
   435.0000      2.6951      2.2810     -0.2234     22.3641     43.5083     78.1686
   435.1000      2.6951      2.1769     -0.2883     28.6722     42.2823     78.8526
   435.2000      2.6951      2.0746     -0.3010     34.8748     41.0204     78.8901
   435.3000      2.7253      1.9556     -0.2708     42.0865     39.9612     78.3876
   435.4000      2.7253      1.7770     -0.3970     52.9110     38.3407     77.6974
   435.5000      3.0836      1.5274     -0.4403     68.0353     35.9353     78.7151
   435.6000      3.0836      1.2790     -0.5730     83.0936     33.3964     83.6053
   435.7000      3.0836      1.1310     -0.5422     92.0614     31.0210     90.6330
   435.8000      4.6654      1.0955     -0.4455     94.2115     28.6762     94.9194
   435.9000      4.6654      1.1516     -0.4292     90.8098     26.4054     94.7096
   436.0000      7.1519      1.3327     -0.3346     79.8375     24.0705     91.8439
   436.1000      7.1519      1.6421     -0.0303     61.0826     21.4939     90.1348
   436.2000      7.1519      1.9689      0.5358     41.2793     18.8784     89.9453
   436.3000      8.4091      2.1854      0.6388     28.1604     16.6713     86.5407
   436.4000      8.4091      2.2766      0.6423     22.6309     15.1644     79.1061
   436.5000      8.5554      2.2992      0.5713     21.2634     14.4359     74.2501
   436.6000      8.5554      2.2866      0.5643     22.0266     14.5120     74.7366
   436.7000      8.5554      2.2547      0.3724     23.9600     15.1670     74.8797
   436.8000      8.8382      2.2350      0.3133     25.1529     15.8588     72.3829
   436.9000      8.8382      2.2459      0.3209     24.4939     16.1579     73.5407
   437.0000      9.4315      2.2712      0.3489     22.9559     16.1262     81.1687
   437.1000      9.4315      2.2872      0.3315     21.9874     15.9585     86.9722
   437.2000      9.4315      2.2899      0.2901     21.8213     15.9372     85.8175
   437.3000     10.0071      2.2895      0.2858     21.8500     16.3721     83.3347
   437.4000     10.0071      2.2866      0.2827     22.0217     17.0108     85.3164
   437.5000     10.3327      2.2755      0.2513     22.6964     17.2991     89.7289
   437.6000     10.3327      2.2634      0.1933     23.4274     17.1532     91.3528
   437.7000     10.3327      2.2637      0.2012     23.4103     16.9929     90.0629
   437.8000     10.4917      2.2844      0.1744     22.1598     17.0102     88.4921
   437.9000     10.4917      2.3317      0.1749     19.2903     16.8477     88.9525
   438.0000     10.6233      2.3918      0.2259     15.6504     16.2813     91.9717
   438.1000     10.6233      2.4337      0.2043     13.1088     15.8623     94.1478
   438.2000     10.6233      2.4455      0.2056     12.3919     16.1985     93.7798
   438.3000     10.7301      2.4324      0.1917     13.1851     16.9475     92.5396
   438.4000     10.7301      2.4016      0.1657     15.0532     17.6421     92.0910
   438.5000     10.7800      2.3588      0.1446     17.6485     18.2320     92.1766
   438.6000     10.7800      2.3142      0.0754     20.3491     18.6425     93.9065
   438.7000     10.7800      2.2879      0.0579     21.9465     18.9239     98.2954
   438.8000     10.7927      2.2920      0.0406     21.6943     19.2245     99.8858
   438.9000     10.7927      2.3131      0.0965     20.4212     19.6100     96.8361
   439.0000     10.7948      2.3232      0.1071     19.8050     20.3202     92.8987
   439.1000     10.7948      2.3178      0.0672     20.1358     21.4162     88.3811
   439.2000     10.7948      2.3171      0.0557     20.1760     22.5963     84.4288
   439.3000     10.7942      2.3348      0.0554     19.1041     23.4823     84.2259
   439.4000     10.7942      2.3656      0.0896     17.2340     23.8131     86.9256
   439.5000     10.7932      2.4005      0.0939     15.1221     24.0884     88.8399
