~Version Information
 VERS.                                  2.0 : CWLS LAS VERSION
 WRAP.                                   NO : WRAPING MODE
 SWARE .                 MController 2.5.0J : SOFTWARE VERSION
~Well Information
 WELL.                        HARRIER 44-33 : WELL
 COMP.    PIONEER NATURAL RESOURCES USA INC : COMPANY
 FLD.                      PURGATOIRE RIVER : FIELD
 LOC.                SE/SE SEC 33 T32S R66W : LOCATION
 DATE.                          06/19-20/05 : DATE(S) LOGGED
 SRVC.       BLANCO GEOLOGICAL SERVICES LLC : SERVICE COMPANY
 STAT.                             COLORADO : STATE
 CNTY.                           LAS ANIMAS : COUNTY
 CTRY.                                  USA : COUNTRY
 API.                       05-071-08398-00 : API NUMBER
 STRT.FT                             665.00 : START DEPTH
 STOP.FT                            2381.00 : STOP DEPTH
 STEP.FT                               1.00 : DEPTH INCREMENT
 NULL.                                -9999 : NULL VALUE
~Curve information
 DEPTH.FT                                   :
 ROP.MIN/FT                                 :
 GAS.UNITS                                  :
~ASCII Log data
# ...
      1665.0         0.17         29.0 
      1666.0         0.23         29.5 
      1667.0         0.23         30.8 
      1668.0         0.23         32.0 
      1669.0         0.20         31.9 
      1670.0         0.23         31.0 
      1671.0         0.25         30.9 
      1672.0         0.23         30.3 
      1673.0         0.23         30.1 
      1674.0         0.23         30.0 
      1675.0         3.32        155.2 
      1676.0         0.37        179.0 
      1677.0         0.43        172.1 
      1678.0         0.37        127.4 
      1679.0         0.30         93.1 
      1680.0         0.33         83.7 
      1681.0         0.23         70.3 
      1682.0         0.27         56.9 
      1683.0         0.25         46.2 
      1684.0         0.27         40.0 
      1685.0         0.23         35.7 
      1686.0         0.20         34.3 
      1687.0         0.23         32.9 
      1688.0         0.20         31.1 
      1689.0         0.20         30.4 
      1690.0         0.17         30.1 
      1691.0         0.20         29.8 
      1692.0         0.20         29.8 
      1693.0         0.20         30.8 
      1694.0         0.20         30.6 
      1695.0         0.20         29.8 
      1696.0         0.20         29.3 
      1697.0         0.20         28.7 
      1698.0         0.23         28.0 
      1699.0         0.15         27.6 
      1700.0         0.17         27.3 
      1701.0         0.20         27.3 
      1702.0         0.20         26.7 
      1703.0         0.20         26.7 
      1704.0         0.20         26.2 
      1705.0         0.33         25.8 
      1706.0         2.38         82.5 
      1707.0         0.37        119.2 
      1708.0         0.53        123.5 
      1709.0         0.33        105.8 
      1710.0         0.30         86.1 
      1711.0         0.30         73.0 
      1712.0         0.30         61.9 
      1713.0         0.23         51.4 
      1714.0         0.23         44.9 
      1715.0         0.20         40.6 
      1716.0         0.25         37.3 
      1717.0         0.20         34.0 
      1718.0         0.33         31.2 
      1719.0         0.20         29.1 
      1720.0         0.20         27.6 
      1721.0         0.23         27.4 
      1722.0         0.27         27.5 
      1723.0         0.23         27.0 
      1724.0         0.23         26.6 
      1725.0         0.23         26.0 
      1726.0         0.17         25.5 
      1727.0         0.17         25.4 
      1728.0         0.27         24.6 
      1729.0         0.23         24.1 
      1730.0         0.20         24.3 
      1731.0         0.15         24.8 
      1732.0         0.20         25.1 
      1733.0         0.27         26.2 
      1734.0         0.20         26.8 
      1735.0         0.20         26.7 
      1736.0         2.62         74.9 
      1737.0         0.30         89.0 
      1738.0         0.30         91.3 
      1739.0         0.33         89.9 
      1740.0         0.63         83.2 
      1741.0         0.40         57.7 
      1742.0         0.43         38.1 
      1743.0         0.27         31.8 
      1744.0         0.20         29.1 
      1745.0         0.20         30.3 
      1746.0         0.25         31.0 
      1747.0         0.27         31.3 
      1748.0         0.20         30.6 
      1749.0         0.23         30.4 
      1750.0         0.17         29.6 
      1751.0         0.27         28.9 
      1752.0         0.20         28.4 
      1753.0         0.17         28.0 
      1754.0         0.20         27.5 
      1755.0         0.17         26.8 
      1756.0         0.23         26.5 
      1757.0         0.23         25.9 
      1758.0         0.27         25.6 
      1759.0         0.20         25.1 
      1760.0         0.20         24.9 
      1761.0         0.25         25.0 
      1762.0         0.20         24.9 
      1763.0         0.27         24.7 
      1764.0         0.27         24.9 
      1765.0         0.27         24.0 
      1766.0         2.03         53.7 
      1767.0         0.32         78.6 
      1768.0         0.40        109.3 
      1769.0         0.33        109.7 
      1770.0         0.40         99.7 
      1771.0         0.27         85.9 
      1772.0         0.40         73.2 
      1773.0         0.23         54.8 
      1774.0         0.17         46.6 
      1775.0         0.20         39.3 
      1776.0         0.20         34.0 
      1777.0         0.23         34.0 
      1778.0         0.20         34.3 
      1779.0         0.17         33.8 
      1780.0         0.18         32.2 
      1781.0         0.17         31.8 
      1782.0         0.20         30.9 
      1783.0         0.17         29.9 
      1784.0         0.17         29.3 
      1785.0         0.13         29.6 
      1786.0         0.13         28.2 
      1787.0         0.17         27.5 
      1788.0         0.17         25.6 
      1789.0         0.23         24.4 
      1790.0         0.20         25.7 
      1791.0         0.17         27.5 
      1792.0         0.17         27.9 
      1793.0         0.17         28.9 
      1794.0         0.17         28.8 
      1795.0         0.23         28.9 
      1796.0         2.72         43.6 
      1797.0         0.13         50.0 
      1798.0         0.10         56.0 
      1799.0         0.13         63.9 
      1800.0         0.20         76.5 
      1801.0         0.27         98.6 
      1802.0         0.42        137.6 
      1803.0         0.50        137.8 
      1804.0         0.33        105.4 
      1805.0         0.27         83.6 
      1806.0         0.20         65.8 
      1807.0         0.63         59.1 
      1808.0         0.23         38.5 
      1809.0         0.27         29.4 
      1810.0         0.20         28.8 
      1811.0         0.23         33.3 
      1812.0         0.17         34.3 
      1813.0         0.17         34.6 
      1814.0         0.15         34.0 
      1815.0         0.20         33.1 
      1816.0         0.20         32.2 
      1817.0         0.17         31.0 
      1818.0         0.13         30.6 
      1819.0         0.17         30.2 
      1820.0         0.23         29.8 
      1821.0         0.27         28.5 
      1822.0         0.33         26.8 
      1823.0         0.37         25.9 
      1824.0         0.30         25.3 
      1825.0         0.20         25.7 
      1826.0         3.42         56.3 
      1827.0         0.75        104.2 
      1828.0         0.43        104.2 
      1829.0         0.37         88.7 
      1830.0         0.30         74.4 
      1831.0         0.33         61.8 
      1832.0         0.33         50.0 
      1833.0         0.20         42.5 
      1834.0         0.33         38.4 
      1835.0         0.17         34.0 
      1836.0         0.17         33.0 
      1837.0         0.13         32.0 
      1838.0         0.20         32.5 
      1839.0         0.13         31.7 
      1840.0         0.12         31.3 
      1841.0         0.13         30.9 
      1842.0         0.13         30.6 
      1843.0         0.13         30.1 
      1844.0         0.13         29.4 
      1845.0         0.17         29.3 
      1846.0         0.13         27.9 
      1847.0         0.13         28.0 
      1848.0         0.13         27.6 
      1849.0         0.17         27.3 
      1850.0         0.30         26.8 
      1851.0         0.10         24.7 
      1852.0         0.23         26.2 
      1853.0         0.27         29.5 
      1854.0         0.13         30.6 
      1855.0         0.40         29.7 
      1856.0         2.68        124.1 
      1857.0         0.50        149.2 
      1858.0         0.20        139.6 
      1859.0         0.23        116.5 
      1860.0         0.30         90.1 
      1861.0         0.62         76.8 
      1862.0         0.23         37.3 
      1863.0         0.17         28.0 
      1864.0         0.20         31.8 
