~Version Information
VERS.                      2.0: CWLS Log ASCII Standard - VERSION 2.0
WRAP.                       NO: One line per depth step
~Well Information Block
STRT.FT               -12.5000: 
STOP.FT              2742.5000: 
STEP.FT                 0.2500: 
NULL.                -999.2500: 
COMP.          Pioneer Natural Resources: COMPANY
WELL.            Rangely 22-28: WELL
FLD.           Purgatorie River: FIELD
LOC.           720' FSL & 1036' FEL--: LOCATION
PROV.                       CO: PROVINCE
CNTY.               Las Animas: COUNTRY
SRVC.                         : SERVICE COMPANY
DATE.          Wed Nov 10 08:59:10 2004: LOG DATE
UWI.                          : UNIQUE WELL ID
~Curve Information Block
DEPT.FT            0 000 00 00: Depth
GR.GAPI                       : Gamma Ray
CCL.                          : Casing Collar Locator
TT3.usec                      : CBL 3' Travel Time
AMP3.mV                       : CBL 3' Amplitude
~Parameter Information Block
~A  Depth        GR         CCL         TT3         AMP3    
# ...
  1260.5000    142.2162      0.0000    804.6061      5.2770
  1260.7500    145.7646      0.0000    772.6285      5.1166
  1261.0000    147.7077      0.0000    745.2477      4.8783
  1261.2500    148.0044      0.0000    728.8550      4.6345
  1261.5000    147.6382      0.0000    723.9523      4.4324
  1261.7500    147.4265      0.0000    726.7961      4.2808
  1262.0000    147.0541      0.0000    732.4002      4.1766
  1262.2500    145.5836      0.0000    736.8608      4.1192
  1262.5000    142.9971      0.0000    738.5659      4.1026
  1262.7500    140.9559      0.0000    737.9124      4.1103
  1263.0000    141.7444      0.0000    735.9736      4.1258
  1263.2500    146.3860      0.0000    733.7753      4.1425
  1263.5000    153.6510      0.0000    732.6334      4.1608
  1263.7500    160.5547      0.0000    733.8643      4.1778
  1264.0000    163.9544      0.0000    737.5296      4.1884
  1264.2500    162.5792      0.0000    742.0909      4.1948
  1264.5000    158.0801      0.0000    745.7361      4.2082
  1264.7500    153.6457      0.0000    747.7128      4.2371
  1265.0000    151.2845      0.0000    748.3550      4.2806
  1265.2500    150.7777      0.0000    748.3474      4.3377
  1265.5000    151.0928      0.0000    748.2178      4.4107
  1265.7500    151.7948      0.0000    748.2334      4.4945
  1266.0000    152.6183      0.0000    748.4360      4.5726
  1266.2500    152.4679      0.0000    748.6931      4.6344
  1266.5000    149.9177      0.0000    748.8243      4.6919
  1266.7500    144.7112      0.0000    748.7703      4.7752
  1267.0000    137.9352      0.0000    748.6454      4.9085
  1267.2500    130.6069      0.0000    748.6039      5.0875
  1267.5000    122.8754      0.0000    748.6299      5.2761
  1267.7500    114.8523      0.0000    748.4470      5.4283
  1268.0000    107.4661      0.0000    747.5815      5.5162
  1268.2500    101.9941      0.0000    745.6904      5.5431
  1268.5000     98.9883      0.0000    743.1921      5.5373
  1268.7500     97.9619      0.0000    741.5561      5.5341
  1269.0000     98.0041      0.0000    742.2767      5.5546
  1269.2500     98.4688      0.0000    745.2059      5.5953
  1269.5000     99.0347      0.0000    748.4904      5.6396
  1269.7500     99.2390      0.0000    750.4255      5.6784
  1270.0000     98.3362      0.0000    750.7891      5.7122
  1270.2500     96.0116      0.0000    750.3660      5.7420
  1270.5000     93.4618      0.0000    750.0225      5.7638
  1270.7500     93.4144      0.0000    750.5250      5.7707
  1271.0000     97.9735      0.0000    752.6384      5.7578
  1271.2500    105.8035      0.0000    756.7188      5.7294
  1271.5000    112.2888      0.0000    761.9995      5.7029
  1271.7500    113.4336      0.0000    766.6735      5.6981
  1272.0000    109.2327      0.0000    769.2579      5.7216
  1272.2500    102.6720      0.0000    769.7826      5.7646
  1272.5000     96.1888      0.0000    769.0379      5.8125
  1272.7500     90.1225      0.0000    767.0476      5.8528
  1273.0000     84.2378      0.0000    763.3596      5.8738
  1273.2500     79.4707      0.0000    758.6295      5.8617
  1273.5000     77.4232      0.0000    754.6294      5.8058
  1273.7500     78.4735      0.0000    752.5251      5.7093
  1274.0000     81.2929      0.0000    751.9927      5.5947
  1274.2500     84.7445      0.0000    752.0607      5.4962
  1274.5000     89.9507      0.0000    752.1479      5.4381
  1274.7500     99.5527      0.0000    752.2099      5.4152
  1275.0000    114.3391      0.0000    752.3486      5.3943
  1275.2500    131.1663      0.0000    752.5352      5.3434
  1275.5000    145.1657      0.0000    752.6401      5.2656
  1275.7500    153.9660      0.0000    752.5969      5.2005
  1276.0000    158.9916      0.0000    752.4758      5.1907
  1276.2500    162.7253      0.0000    752.3813      5.2478
  1276.5000    165.8807      0.0000    752.3173      5.3463
  1276.7500    167.7226      0.0000    752.1803      5.4444
  1277.0000    167.9178      0.0000    751.8877      5.5108
  1277.2500    166.8360      0.0000    751.4694      5.5395
  1277.5000    164.4497      0.0000    751.0211      5.5424
  1277.7500    159.9261      0.0000    750.6052      5.5297
  1278.0000    152.5015      0.0000    750.2162      5.4969
  1278.2500    142.7609      0.0000    749.8193      5.4323
  1278.5000    133.2017      0.0000    749.3917      5.3371
  1278.7500    127.1694      0.0000    748.9332      5.2334
  1279.0000    126.7290      0.0000    748.4549      5.1516
  1279.2500    131.2623      0.0000    747.9606      5.1056
  1279.5000    137.7005      0.0000    747.3484      5.0789
  1279.7500    142.0979      0.0000    746.1605      5.0336
  1280.0000    142.1025      0.0000    743.3324      4.9396
  1280.2500    138.8159      0.0000    737.4796      4.7980
  1280.5000    135.8399      0.0000    728.2840      4.6438
  1280.7500    135.9150      0.0000    718.1751      4.5256
  1281.0000    138.6047      0.0000    711.5512      4.4775
  1281.2500    141.2777      0.0000    710.5103      4.4994
  1281.5000    141.9624      0.0000    711.9427      4.5619
  1281.7500    141.3203      0.0000    711.3262      4.6335
  1282.0000    142.1622      0.0000    709.0401      4.7013
  1282.2500    146.6912      0.0000    709.8700      4.7673
  1282.5000    153.7445      0.0000    716.0930      4.8336
  1282.7500    159.0795      0.0000    724.1302      4.8947
  1283.0000    158.9052      0.0000    728.8337      4.9383
  1283.2500    153.0019      0.0000    728.9368      4.9520
  1283.5000    144.4190      0.0000    727.4042      4.9319
  1283.7500    136.6522      0.0000    727.7833      4.8865
  1284.0000    131.1692      0.0000    731.2291      4.8268
  1284.2500    126.9969      0.0000    736.4901      4.7567
  1284.5000    122.2137      0.0000    741.6296      4.6793
  1284.7500    115.7587      0.0000    745.4329      4.6098
  1285.0000    107.9504      0.0000    747.7123      4.5719
  1285.2500     99.8000      0.0000    748.8826      4.5800
  1285.5000     92.3814      0.0000    749.4558      4.6321
  1285.7500     86.7447      0.0000    749.7769      4.7159
  1286.0000     83.8315      0.0000    749.9868      4.8153
  1286.2500     84.0661      0.0000    750.1072      4.9114
  1286.5000     86.8972      0.0000    750.1339      4.9851
  1286.7500     90.8140      0.0000    750.0907      5.0225
  1287.0000     94.1167      0.0000    750.0147      5.0184
  1287.2500     95.7589      0.0000    749.9361      4.9807
  1287.5000     95.3622      0.0000    749.8796      4.9317
  1287.7500     92.7207      0.0000    749.8387      4.8995
  1288.0000     88.0603      0.0000    749.7035      4.9014
  1288.2500     82.9341      0.0000    749.1990      4.9324
  1288.5000     80.1236      0.0000    747.9875      4.9685
  1288.7500     81.9308      0.0000    745.9984      4.9836
  1289.0000     88.2430      0.0000    743.6854      4.9636
  1289.2500     96.1474      0.0000    741.6281      4.9103
  1289.5000    101.8261      0.0000    739.6337      4.8380
  1289.7500    103.4891      0.0000    736.6027      4.7693
  1290.0000    102.3698      0.0000    731.8223      4.7259
  1290.2500    100.6517      0.0000    726.1702      4.7146
  1290.5000     99.1451      0.0000    721.2767      4.7242
  1290.7500     97.5310      0.0000    717.2523      4.7374
  1291.0000     95.9808      0.0000    711.6087      4.7466
  1291.2500     95.3735      0.0000    700.8718      4.7546
  1291.5000     96.0311      0.0000    683.9601      4.7602
  1291.7500     97.1626      0.0000    664.6147      4.7480
  1292.0000     97.8955      0.0000    649.8386      4.6971
  1292.2500     98.1905      0.0000    643.6277      4.5943
  1292.5000     98.4034      0.0000    641.9200      4.4417
  1292.7500     98.6202      0.0000    635.9752      4.2583
  1293.0000     98.8995      0.0000    621.7739      4.0744
  1293.2500     99.6678      0.0000    604.6304      3.9156
  1293.5000    101.4013      0.0000    594.4543      3.7911
  1293.7500    104.1352      0.0000    597.9076      3.6997
