~Version Information
VERS.                      2.0: CWLS Log ASCII Standard - VERSION 2.0
WRAP.                       NO: One line per depth step
~Well Information Block
STRT.FT               965.2500: 
STOP.FT              2602.5000: 
STEP.FT                 0.2500: 
NULL.                -999.2500: 
COMP.          Petrogulf Corporation: COMPANY
WELL.             Valejo 8-12V: WELL
FLD.           Purgatorie River: FIELD
LOC.           1510' FNL & 1460' FWL: LOCATION
CNTY.               Las Animas: COUNTY
SRVC.                         : SERVICE COMPANY
DATE.          Fri Nov 14 05:32:33 2003: LOG DATE
UWI.                          : UNIQUE WELL ID
STAT.                 Colorado: STATE
~Curve Information Block
DEPT.FT            0 000 00 00: Depth
RILD.Ohm-m                    : DIL Deep Resistivity
RILM.Ohm-m                    : DIL Medium Resistivity
RLL3.Ohm-m                    : DIL Shallow Resistivity
SP.mV                         : DIL Spontaneous Potential
GR.GAPI                       : Gamma Ray
~Parameter Information Block
~A  Depth       RILD        RILM        RLL3         SP          GR     
# ...
  1805.2500     13.9269     20.5936     35.7154    -23.8200     80.0130
  1805.5000     14.3011     22.6013     45.5084    -23.8003     76.0368
  1805.7500     14.5370     24.3724     56.3324    -23.8642     74.6139
  1806.0000     14.6215     25.5878     65.5268    -23.9921     74.3949
  1806.2500     14.5657     25.9749     70.0523    -24.1469     75.2566
  1806.5000     14.3976     25.4250     68.1056    -24.2853     77.4756
  1806.7500     14.1482     24.0568     60.2493    -24.3718     79.3369
  1807.0000     13.8411     22.1727     49.0530    -24.3908     82.7323
  1807.2500     13.4898     20.1256     37.5873    -24.3506     85.7608
  1807.5000     13.1027     18.1961     28.0394    -24.2790     92.3327
  1807.7500     12.6876     16.5435     21.2601    -24.2106     98.1726
  1808.0000     12.2536     15.2167     17.0733    -24.1736    107.9417
  1808.2500     11.8106     14.1878     14.8055    -24.1781    114.0002
  1808.5000     11.3670     13.3859     13.7132    -24.2117    120.8916
  1808.7500     10.9286     12.7292     13.2267    -24.2463    123.5800
  1809.0000     10.5000     12.1567     13.0133    -24.2531    124.5621
  1809.2500     10.0865     11.6488     12.9210    -24.2174    123.3643
  1809.5000      9.6959     11.2202     12.8994    -24.1438    119.5447
  1809.7500      9.3367     10.8901     12.9582    -24.0502    116.2519
  1810.0000      9.0155     10.6549     13.1371    -23.9542    111.6216
  1810.2500      8.7348     10.4808     13.4368    -23.8642    109.8333
  1810.5000      8.4933     10.3180     13.7432    -23.7794    110.4610
  1810.7500      8.2880     10.1231     13.8486    -23.6972    112.8969
  1811.0000      8.1157      9.8775     13.5944    -23.6219    117.5493
  1811.2500      7.9734      9.5893     13.0039    -23.5660    119.9116
  1811.5000      7.8579      9.2837     12.2688    -23.5459    121.0474
  1811.7500      7.7641      8.9883     11.6128    -23.5748    120.3918
  1812.0000      7.6845      8.7219     11.1612    -23.6570    118.9617
  1812.2500      7.6099      8.4909     10.9058    -23.7828    119.0214
  1812.5000      7.5326      8.2936     10.7576    -23.9296    122.1812
  1812.7500      7.4485      8.1263     10.6300    -24.0685    126.1248
  1813.0000      7.3576      7.9875     10.4941    -24.1735    132.4171
  1813.2500      7.2628      7.8779     10.3765    -24.2295    135.2027
  1813.5000      7.1682      7.7971     10.3224    -24.2359    136.0156
  1813.7500      7.0783      7.7416     10.3609    -24.2052    134.8407
  1814.0000      6.9977      7.7040     10.4904    -24.1586    132.5414
  1814.2500      6.9296      7.6756     10.6780    -24.1167    131.7117
  1814.5000      6.8756      7.6490     10.8644    -24.0888    132.2318
  1814.7500      6.8352      7.6202     10.9756    -24.0686    133.4377
  1815.0000      6.8068      7.5887     10.9500    -24.0406    135.3010
  1815.2500      6.7880      7.5558     10.7802    -23.9966    136.0123
  1815.5000      6.7756      7.5234     10.5370    -23.9434    136.5443
  1815.7500      6.7638      7.4937     10.3342    -23.8854    137.3342
  1816.0000      6.7447      7.4702     10.2520    -23.8031    140.0542
  1816.2500      6.7133      7.4574     10.2861    -23.6632    142.3473
  1816.5000      6.6735      7.4597     10.3655    -23.4604    144.4404
  1816.7500      6.6387      7.4794     10.4157    -23.2429    144.2420
  1817.0000      6.6227      7.5156     10.4168    -23.0852    142.0612
  1817.2500      6.6290      7.5634     10.4142    -23.0337    139.9467
  1817.5000      6.6466      7.6148     10.4766    -23.0797    136.1372
  1817.7500      6.6540      7.6601     10.6401    -23.1784    133.2361
  1818.0000      6.6297      7.6890     10.8879    -23.2871    128.9334
  1818.2500      6.5643      7.6931     11.1671    -23.3848    126.5743
  1818.5000      6.4670      7.6668     11.4110    -23.4672    124.3942
  1818.7500      6.3622      7.6079     11.5557    -23.5346    124.1931
  1819.0000      6.2760      7.5170     11.5558    -23.5864    126.2729
  1819.2500      6.2235      7.3976     11.3959    -23.6243    129.0157
  1819.5000      6.2042      7.2563     11.0903    -23.6555    133.5534
  1819.7500      6.2071      7.1031     10.6773    -23.6919    135.8220
  1820.0000      6.2212      6.9512     10.2207    -23.7455    137.3093
  1820.2500      6.2426      6.8160      9.8057    -23.8234    137.0689
  1820.5000      6.2747      6.7126      9.5115    -23.9270    135.0402
  1820.7500      6.3245      6.6538      9.3763    -24.0559    132.7497
  1821.0000      6.3978      6.6496      9.3840    -24.2082    128.8113
  1821.2500      6.4974      6.7078      9.4874    -24.3774    126.5648
  1821.5000      6.6230      6.8355      9.6707    -24.5503    124.3148
  1821.7500      6.7729      7.0390     10.0162    -24.7081    123.2290
  1822.0000      6.9455      7.3223     10.6943    -24.8339    120.9572
  1822.2500      7.1401      7.6849     11.8331    -24.9192    118.2918
  1822.5000      7.3578      8.1192     13.3564    -24.9669    112.0528
  1822.7500      7.6012      8.6117     14.9576    -24.9896    106.7519
  1823.0000      7.8732      9.1462     16.2794    -25.0055     98.6337
  1823.2500      8.1761      9.7098     17.1725    -25.0342     94.0410
  1823.5000      8.5100     10.2966     17.8336    -25.0902     88.8067
  1823.7500      8.8727     10.9092     18.7096    -25.1768     85.9112
  1824.0000      9.2602     11.5526     20.2028    -25.2834     81.6780
  1824.2500      9.6663     12.2238     22.3227    -25.3896     79.2269
  1824.5000     10.0807     12.8999     24.5148    -25.4729     77.4121
  1824.7500     10.4889     13.5387     25.8827    -25.5168     77.9759
  1825.0000     10.8752     14.1002     25.7647    -25.5168     81.7400
  1825.2500     11.2272     14.5760     24.2453    -25.4833     86.0774
  1825.5000     11.5378     15.0002     22.1321    -25.4394     94.1121
  1825.7500     11.8005     15.4269     20.3949    -25.4134     98.9535
  1826.0000     12.0035     15.8903     19.5795    -25.4254    102.5329
  1826.2500     12.1281     16.3701     19.6665    -25.4767    101.7072
  1826.5000     12.1575     16.7771     20.3461    -25.5466     96.9058
  1826.7500     12.0892     16.9782     21.3261    -25.6036     93.0607
  1827.0000     11.9418     16.8653     22.3992    -25.6220     89.0720
  1827.2500     11.7490     16.4295     23.3173    -25.5951     88.2527
  1827.5000     11.5442     15.7706     23.7078    -25.5363     89.2616
  1827.7500     11.3467     15.0291     23.1940    -25.4706     90.8259
  1828.0000     11.1600     14.3134     21.6560    -25.4216     94.1262
  1828.2500     10.9792     13.6755     19.4003    -25.3981     97.1227
  1828.5000     10.8009     13.1276     17.0514    -25.3896    102.8323
  1828.7500     10.6254     12.6655     15.2160    -25.3788    106.9997
  1829.0000     10.4532     12.2796     14.1690    -25.3628    112.7885
  1829.2500     10.2822     11.9573     13.7834    -25.3625    116.1323
  1829.5000     10.1093     11.6841     13.7097    -25.4070    120.8123
  1829.7500      9.9353     11.4507     13.6353    -25.5107    124.0192
  1830.0000      9.7669     11.2564     13.4507    -25.6647    128.6664
  1830.2500      9.6143     11.1078     13.2549    -25.8432    130.8479
  1830.5000      9.4836     11.0095     13.2360    -26.0135    131.2478
  1830.7500      9.3719     10.9550     13.5206    -26.1424    129.5837
  1831.0000      9.2671     10.9229     14.0936    -26.2060    126.1748
  1831.2500      9.1549     10.8807     14.8136    -26.2002    124.7471
  1831.5000      9.0278     10.7942     15.4718    -26.1442    124.7388
  1831.7500      8.8905     10.6387     15.8571    -26.0690    125.4972
  1832.0000      8.7575     10.4085     15.8250    -26.0010    126.0715
  1832.2500      8.6459     10.1210     15.3561    -25.9531    125.5564
  1832.5000      8.5661      9.8131     14.5659    -25.9218    123.7913
  1832.7500      8.5166      9.5286     13.6491    -25.8892    122.6462
  1833.0000      8.4838      9.3023     12.7960    -25.8287    122.2001
