~Version Information
VERS.                      2.0: CWLS Log ASCII Standard - VERSION 2.0
WRAP.                       NO: One line per depth step
~Well Information Block
STRT.FT               480.0000: 
STOP.FT              1994.2500: 
STEP.FT                 0.2500: 
NULL.                -999.2500: 
COMP.          Evergreen Operating Corporation: COMPANY
WELL.          McCullough 34-32 Tr: WELL
FLD.           Purgatoire River: FIELD
LOC.           394' FSL & 2077' FEL: LOCATION
PROV.                 Colorado: PROVINCE
CNTY.               Las Animas: COUNTRY
SRVC.                Patterson: SERVICE COMPANY
DATE.          Sun Sep 19 05:48:59 2004: LOG DATE
UWI.           05 071 08157 00: UNIQUE WELL ID
~Curve Information Block
DEPT.FT            0 000 00 00: Depth
SN.Ohm-m                      : IEL Short Normal
SP.mV                         : IEL Spontaneous Potential
DIR.Ohm-m                     : IEL Induction Resistivity
GR.GAPI                       : Gamma Ray
~Parameter Information Block
~A  Depth        SN          SP         DIR          GR     
# ...
  1351.0000     13.6165    297.9280     12.5811     88.2277
  1351.2500     14.4713    297.7895     13.1520     75.5386
  1351.5000     15.5924    297.7432     13.6587     62.1119
  1351.7500     16.8633    297.8022     14.0465     58.5221
  1352.0000     18.0081    297.9465     14.2645     61.5330
  1352.2500     18.6757    298.1293     14.2816     68.1615
  1352.5000     18.6242    298.2935     14.1044     82.2027
  1352.7500     17.8808    298.3910     13.7803     92.6030
  1353.0000     16.7443    298.3962     13.3828    107.6476
  1353.2500     15.6285    298.3100     12.9891    116.4239
  1353.5000     14.8647    298.1523     12.6646    126.2013
  1353.7500     14.5876    297.9487     12.4582    129.7400
  1354.0000     14.7526    297.7183     12.4029    130.2566
  1354.2500     15.2438    297.4683     12.5190    127.6691
  1354.5000     15.9853    297.1987     12.8165    119.9934
  1354.7500     16.9793    296.9143     13.2977    112.7532
  1355.0000     18.2708    296.6359     13.9553     99.8369
  1355.2500     19.8730    296.4038     14.7665     90.7157
  1355.5000     21.6852    296.2684     15.6786     77.6494
  1355.7500     23.4482    296.2713     16.5900     70.0940
  1356.0000     24.7973    296.4258     17.3398     62.0249
  1356.2500     25.4088    296.7067     17.7380     59.8077
  1356.5000     25.1353    297.0558     17.6502     62.3173
  1356.7500     24.0347    297.4002     17.0818     67.7615
  1357.0000     22.3103    297.6753     16.1751     79.8623
  1357.2500     20.2402    297.8413     15.1187     88.9302
  1357.5000     18.1219    297.8884     14.0617    101.4239
  1357.7500     16.2151    297.8297     13.0897    108.3038
  1358.0000     14.6878    297.6891     12.2438    116.8440
  1358.2500     13.5959    297.4908     11.5459    121.8363
  1358.5000     12.9049    297.2547     11.0107    128.2187
  1358.7500     14.7827    296.9967     10.6483    131.2336
  1359.0000     14.6136    296.7308     10.4609    133.3379
  1359.2500     14.6248    296.4703     10.4408    133.3123
  1359.5000     14.7701    296.2259     10.5690    131.9589
  1359.7500     15.0297    296.0048     10.8156    130.5820
  1360.0000     15.3839    295.8098     11.1415    128.0529
  1360.2500     15.7852    295.6418     11.5009    126.1189
  1360.5000     16.1527    295.5020     11.8445    123.2757
  1360.7500     16.3966    295.3944     12.1222    121.7627
  1361.0000     16.4557    295.3258     12.2892    120.2556
  1361.2500     16.3153    295.3036     12.3165    119.6544
  1361.5000     15.9934    295.3322     12.2004    119.4319
  1361.7500     15.5111    295.4102     11.9601    120.0101
  1362.0000     14.8688    295.5269     11.6254    122.2187
  1362.2500     14.0493    295.6622     11.2251    124.3346
  1362.5000     13.0530    295.7881     10.7843    127.5770
  1362.7500     11.9411    295.8726     10.3275    129.2626
  1363.0000     10.8393    295.8871      9.8785    130.4944
  1363.2500      9.8967    295.8180      9.4574    130.3449
  1363.5000      9.2354    295.6775      9.0751    129.0335
  1363.7500      8.9167    295.5132      8.7338    128.0393
  1364.0000      8.9168    295.4064      8.4301    127.6173
  1364.2500      9.1176    295.4567      8.1603    128.3186
  1364.5000      9.3348    295.7526      7.9235    129.9189
  1364.7500      9.3951    296.3351      7.7205    130.4879
  1365.0000      9.2231    297.1694      7.5510    130.0467
  1365.2500      8.8708    298.1401      7.4131    129.3043
  1365.5000      8.4657    299.0773      7.3031    128.4646
  1365.7500      8.1287    299.8077      7.2175    128.2495
  1366.0000      7.9291    300.2093      7.1527    128.1672
  1366.2500      7.8921    300.2467      7.1047    128.1442
  1366.5000      8.0226    299.9714      7.0683    128.0932
  1366.7500      8.3088    299.4909      7.0376    127.9542
  1367.0000      8.7069    298.9259      7.0073    127.5146
  1367.2500      9.1318    298.3754      6.9753    127.3554
  1367.5000      9.4810    297.9027      6.9447    128.2058
  1367.7500      9.6816    297.5382      6.9240    129.8371
  1368.0000      9.7201    297.2920      6.9252    133.7767
  1368.2500      9.6305    297.1645      6.9589    136.9924
  1368.5000      9.4565    297.1526      7.0299    141.4162
  1368.7500      9.2248    297.2503      7.1342    143.1109
  1369.0000      8.9419    297.4470      7.2609    142.6175
  1369.2500      8.6081    297.7248      7.3995    140.4165
  1369.5000      8.2343    298.0551      7.5460    135.7299
  1369.7500      7.8558    298.3972      7.7047    132.6547
  1370.0000      7.5397    298.7013      7.8843    129.6022
  1370.2500      7.3807    298.9178      8.0923    129.3727
  1370.5000      7.4797    299.0110      8.3326    132.2277
  1370.7500      7.9037    298.9712      8.6036    135.5766
  1371.0000      8.6465    298.8182      8.8966    140.3772
  1371.2500      9.6145    298.5941      9.1945    142.2960
  1371.5000     10.6504    298.3472      9.4727    142.8995
  1371.7500     11.5865    298.1174      9.7054    142.2162
  1372.0000     12.3040    297.9261      9.8751    140.2285
  1372.2500     12.7681    297.7762      9.9800    138.4634
  1372.5000     13.0182    297.6575     10.0338    135.7708
  1372.7500     13.1275    297.5542     10.0596    134.5990
  1373.0000     13.1652    297.4522     10.0821    134.7206
  1373.2500     13.1813    297.3434     10.1238    136.0369
  1373.5000     13.2056    297.2266     10.2050    138.7827
  1373.7500     13.2538    297.1056     10.3423    140.2147
  1374.0000     13.3319    296.9866     10.5450    140.4201
  1374.2500     13.4385    296.8753     10.8092    138.8393
  1374.5000     13.5677    296.7762     11.1156    133.9748
  1374.7500     13.7138    296.6930     11.4339    129.7081
  1375.0000     13.8747    296.6315     11.7344    123.9257
  1375.2500     14.0514    296.6006     11.9999    121.8660
  1375.5000     14.2463    296.6108     12.2312    122.3202
  1375.7500     14.4602    296.6707     12.4417    124.1140
  1376.0000     14.6883    296.7810     12.6489    126.5192
  1376.2500     14.9173    296.9306     12.8666    127.0774
  1376.5000     15.1299    297.0965     13.1051    126.6657
  1376.7500     15.3185    297.2486     13.3710    126.0754
  1377.0000     15.5000    297.3576     13.6677    124.6972
  1377.2500     15.7192    297.4044     13.9923    122.9341
  1377.5000     16.0339    297.3858     14.3356    118.5076
  1377.7500     16.4897    297.3160     14.6856    114.8238
  1378.0000     17.0942    297.2222     15.0341    110.0283
  1378.2500     17.8079    297.1359     15.3786    108.3307
  1378.5000     18.5592    297.0831     15.7178    108.5004
  1378.7500     19.2777    297.0777     16.0438    109.8022
  1379.0000     19.9220    297.1187     16.3407    111.7024
  1379.2500     20.4878    297.1929     16.5922    112.0376
  1379.5000     20.9994    297.2800     16.7949    110.6476
  1379.7500     21.4899    297.3577     16.9648    108.8130
  1380.0000     21.9735    297.4082     17.1298    105.8489
  1380.2500     22.4185    297.4215     17.3134    104.1668
  1380.5000     22.7387    297.3979     17.5204    101.5638
  1380.7500     22.8232    297.3467     17.7347     98.8604
  1381.0000     22.5994    297.2837     17.9293     92.1117
  1381.2500     22.0911    297.2250     18.0782     86.0865
  1381.5000     21.4245    297.1838     18.1610     77.2979
  1381.7500     20.7740    297.1677     18.1601     73.6598
  1382.0000     20.2796    297.1792     18.0567     74.2106
  1382.2500     19.9792    297.2183     17.8314     79.0505
  1382.5000     19.7921    297.2843     17.4666     91.9507
  1382.7500     19.5686    297.3770     16.9506    102.8392
  1383.0000     19.1779    297.4944     16.2843    119.3620
  1383.2500     18.5731    297.6303     15.4897    128.8583
  1383.5000     17.7922    297.7713     14.6137    139.4710
  1383.7500     16.9120    297.8972     13.7205    144.1681
  1384.0000     16.0059    297.9862     12.8748    148.3210
  1384.2500     15.1331    298.0211     12.1255    149.5853
