~Version Information
VERS.                      2.0: CWLS Log ASCII Standard - VERSION 2.0
WRAP.                       NO: One line per depth step
~Well Information Block
STRT.FT               545.0000: 
STOP.FT              1922.0000: 
STEP.FT                 0.2500: 
NULL.                -999.2500: 
COMP.          Pioneer Natural Resources: COMPANY
WELL.            Summers 21-19: WELL
FLD.           Purgatoire River: FIELD
LOC.           900' FNL & 1950' FWL: LOCATION
PROV.                 Colorado: PROVINCE
CNTY.               Las Animas: COUNTRY
SRVC.                Patterson: SERVICE COMPANY
DATE.          Sat Oct 15 03:34:13 2005: LOG DATE
UWI.           05 071 08315 00: UNIQUE WELL ID
~Curve Information Block
DEPT.FT            0 000 00 00: Depth
SN.Ohm-m                      : IEL Short Normal
SP.mV                         : IEL Spontaneous Potential
DIR.Ohm-m                     : IEL Induction Resistivity
GR.GAPI                       : Gamma Ray
~Parameter Information Block
~A  Depth        SN          SP         DIR          GR     
# ...
   980.5000     21.6740   -104.1405     12.8031     89.7635
   980.7500     22.4185   -104.0990     14.0472    100.4512
   981.0000     22.3827   -104.1405     15.3304    117.2478
   981.2500     21.8333   -104.2255     16.5479    127.3247
   981.5000     21.0888   -104.3061     17.5993    139.0534
   981.7500     20.3464   -104.3359     18.4161    144.1651
   982.0000     19.6855   -104.2912     18.9708    147.5880
   982.2500     19.1791   -104.1873     19.2680    147.2937
   982.5000     18.9030   -104.0700     19.3339    144.0993
   982.7500     18.8268   -103.9871     19.2120    141.0288
   983.0000     18.8013   -103.9624     18.9594    136.3933
   983.2500     18.7351   -103.9861     18.6339    133.7059
   983.5000     18.7010   -104.0229     18.2812    130.3347
   983.7500     18.7891   -104.0348     17.9268    128.4839
   984.0000     18.9654   -104.0066     17.5778    126.3906
   984.2500     19.1207   -103.9585     17.2331    125.4697
   984.5000     19.1515   -103.9354     16.8945    124.8667
   984.7500     19.0063   -103.9804     16.5738    125.2836
   985.0000     18.7176   -104.1072     16.2894    127.8287
   985.2500     18.3363   -104.2901     16.0578    130.8098
   985.5000     17.8564   -104.4780     15.8860    136.2275
   985.7500     17.2942   -104.6237     15.7708    139.7285
   986.0000     16.7444   -104.7085     15.7049    144.0916
   986.2500     16.2949   -104.7482     15.6863    146.3172
   986.5000     15.9588   -104.7807     15.7234    148.2727
   986.7500     15.7299   -104.8442     15.8314    148.0625
   987.0000     15.6864   -104.9569     16.0215    144.3906
   987.2500     15.9642   -105.1107     16.2905    139.5019
   987.5000     16.6530   -105.2831     16.6172    128.9599
   987.7500     17.7844   -105.4564     16.9681    120.2327
   988.0000     19.3772   -105.6250     17.3086    105.4966
   988.2500     21.4087   -105.7890     17.6166     95.3704
   988.5000     23.7366   -105.9447     17.8915     81.6848
   988.7500     26.1686   -106.0817     18.1527     74.7919
   989.0000     28.6128   -106.1884     18.4248     69.3504
   989.2500     30.9723   -106.2577     18.7124     69.2908
   989.5000     32.9011   -106.2919     18.9770     73.6655
   989.7500     33.8934   -106.3047     19.1385     78.3113
   990.0000     33.6391   -106.3186     19.1101     85.7727
   990.2500     32.1800   -106.3573     18.8453     90.7519
   990.5000     29.7868   -106.4375     18.3607     99.3382
   990.7500     26.8246   -106.5660     17.7183    106.5450
   991.0000     23.7251   -106.7440     16.9902    119.3937
   991.2500     20.8883   -106.9710     16.2330    128.3158
   991.5000     18.5082   -107.2453     15.4797    140.0766
   991.7500     16.5696   -107.5621     14.7454    145.9474
   992.0000     15.0051   -107.9127     14.0391    151.4982
   992.2500     13.8160   -108.2812     13.3693    153.5476
   992.5000     13.0307   -108.6411     12.7440    155.5449
   992.7500     12.5873   -108.9609     12.1662    156.7321
   993.0000     12.3603   -109.2197     11.6326    158.3578
   993.2500     12.2954   -109.4214     11.1382    159.0532
   993.5000     12.3766   -109.5935     10.6824    159.2395
   993.7500     12.4978   -109.7682     10.2719    158.8779
   994.0000     12.4937   -109.9681      9.9161    157.8591
   994.2500     12.2836   -110.2097      9.6204    156.9531
   994.5000     11.9509   -110.5121      9.3814    155.3712
   994.7500     11.6273   -110.8959      9.1885    154.2410
   995.0000     11.3140   -111.3703      9.0284    152.6225
   995.2500     10.9367   -111.9227      8.8910    151.7262
   995.5000     10.5163   -112.5208      8.7715    150.5855
   995.7500     10.1650   -113.1247      8.6701    149.6405
   996.0000      9.9690   -113.6994      8.5911    147.5076
   996.2500      9.9500   -114.2188      8.5418    145.8743
   996.5000     10.0696   -114.6641      8.5307    144.4568
   996.7500     10.2013   -115.0217      8.5663    144.9876
   997.0000     10.1755   -115.2902      8.6560    148.3714
   997.2500      9.9858   -115.4897      8.8074    151.7975
   997.5000      9.8460   -115.6581      9.0287    156.6124
   997.7500      9.9345   -115.8267      9.3285    158.1221
   998.0000     10.3054   -115.9948      9.7128    155.9529
   998.2500     11.0421   -116.1295     10.1831    151.2118
   998.5000     12.2522   -116.1936     10.7373    139.3714
   998.7500     13.9767   -116.1733     11.3742    128.4756
   999.0000     16.2248   -116.0845     12.0992    108.3062
   999.2500     19.0281   -115.9573     12.9269     93.5422
   999.5000     22.4618   -115.8172     13.8778     72.8244
   999.7500     26.6272   -115.6749     14.9715     61.8064
  1000.0000     31.4778   -115.5276     16.2183     50.8727
  1000.2500     36.6198   -115.3635     17.6112     47.0522
  1000.5000     41.3552   -115.1645     19.1128     45.0719
  1000.7500     45.0063   -114.9008     20.6341     45.3823
  1001.0000     47.2717   -114.5283     22.0169     47.4723
  1001.2500     48.2846   -114.0006     23.0481     49.8358
  1001.5000     48.3404   -113.2984     23.5297     54.5684
  1001.7500     47.5016   -112.4548     23.3746     58.1149
  1002.0000     45.4905   -111.5507     22.6507     63.5070
  1002.2500     42.0708   -110.6796     21.5365     67.3330
  1002.5000     37.4669   -109.9065     20.2318     74.3314
  1002.7500     32.3549   -109.2526     18.8935     80.2161
  1003.0000     27.4646   -108.7084     17.6185     90.6830
  1003.2500     23.2169   -108.2588     16.4544     98.2610
  1003.5000     19.7194   -107.8957     15.4175    109.5561
  1003.7500     16.9683   -107.6172     14.5063    116.5668
  1004.0000     14.9863   -107.4217     13.7102    125.6858
  1004.2500     13.7522   -107.3060     13.0160    130.6160
  1004.5000     13.0859   -107.2650     12.4099    136.3102
  1004.7500     12.7462   -107.2890     11.8806    139.2504
  1005.0000     12.5712   -107.3627     11.4195    143.0635
  1005.2500     12.4420   -107.4678     11.0217    145.4221
  1005.5000     12.2599   -107.5904     10.6873    148.3595
  1005.7500     12.0450   -107.7248     10.4204    149.5450
  1006.0000     11.9049   -107.8733     10.2271    149.9963
  1006.2500     11.8697   -108.0431     10.1114    149.6274
  1006.5000     11.8786   -108.2421     10.0710    148.2816
  1006.7500     11.9055   -108.4710     10.0941    146.7521
  1007.0000     11.9976   -108.7169     10.1610    143.5507
  1007.2500     12.1789   -108.9596     10.2490    141.1838
  1007.5000     12.3819   -109.1890     10.3408    137.9788
  1007.7500     12.5201   -109.4156     10.4301    136.2447
  1008.0000     12.6017   -109.6626     10.5228    134.6073
  1008.2500     12.7182   -109.9488     10.6352    134.5692
  1008.5000     12.9349   -110.2807     10.7893    136.2176
  1008.7500     13.2341   -110.6556     11.0053    137.7226
  1009.0000     13.5273   -111.0673     11.2944    138.8109
  1009.2500     13.7202   -111.5056     11.6542    138.2461
  1009.5000     13.8179   -111.9536     12.0691    135.8130
  1009.7500     13.9414   -112.3851     12.5158    133.5895
  1010.0000     14.2316   -112.7699     12.9697    129.8473
  1010.2500     14.7183   -113.0868     13.4141    127.1019
  1010.5000     15.2671   -113.3357     13.8481    122.2907
  1010.7500     15.7249   -113.5365     14.2900    118.5190
  1011.0000     16.1075   -113.7157     14.7673    112.7236
  1011.2500     16.5367   -113.8888     15.3022    109.6383
  1011.5000     17.0648   -114.0523     15.9026    107.1182
  1011.7500     17.7040   -114.1882     16.5650    106.4764
  1012.0000     18.5284   -114.2720     17.2865    105.3640
  1012.2500     19.6171   -114.2779     18.0689    103.6284
  1012.5000     20.9371   -114.1857     18.9094     99.0206
  1012.7500     22.3673   -113.9899     19.7850     94.9157
  1013.0000     23.8244   -113.7061     20.6475     88.2137
  1013.2500     25.3004   -113.3674     21.4411     83.8355
  1013.5000     26.8174   -113.0146     22.1380     77.6079
  1013.7500     28.3869   -112.6873     22.7707     73.6620
