~Version Information
VERS.                      2.0: CWLS Log ASCII Standard - VERSION 2.0
WRAP.                       NO: One line per depth step
~Well Information Block
STRT.FT               360.0000: 
STOP.FT              1622.7000: 
STEP.FT                 0.1000: 
NULL.                -999.2500: 
COMP.          Pioneer Natural Resources: COMPANY
WELL.                Eric 42-9: WELL
FLD.           Purgatoire River: FIELD
LOC.           2050' FNL & 850' FEL: LOCATION
PROV.                 Colorado: PROVINCE
CNTY.               Las Animas: COUNTRY
SRVC.                Patterson: SERVICE COMPANY
DATE.          Mon Nov 01 08:19:51 2004: LOG DATE
UWI.           05 071 07999 00: UNIQUE WELL ID
~Curve Information Block
DEPT.FT            0 000 00 00: Depth
DCAL.in                       : CDL Caliper
RHOB.g/cc                     : CDL Bulk Density
RHOC.g/cc                     : CDL Density Correction
DPOR.pu                       : CDL Density Porosity
NPOR.pu                       : Neutron Porosity
GR.GAPI                       : Gamma Ray
~Parameter Information Block
~A  Depth       DCAL        RHOB        RHOC        DPOR        NPOR         GR     
# ...
   772.8000      8.4154      2.5054      0.1758      8.7608     19.2961    125.9372
   772.9000      8.4154      2.5296      0.1836      7.2983     19.6483    121.4061
   773.0000      8.4125      2.5341      0.2151      7.0252     19.7205    117.7260
   773.1000      8.4125      2.5245      0.1708      7.6083     19.3395    115.7964
   773.2000      8.4125      2.5117      0.1060      8.3798     18.8527    116.9175
   773.3000      8.3953      2.5044      0.0841      8.8252     18.7855    118.6678
   773.4000      8.3953      2.5087      0.0661      8.5639     19.3541    116.2683
   773.5000      8.3470      2.5230      0.1393      7.6971     20.2717    108.3309
   773.6000      8.3470      2.5328      0.0999      7.1020     20.9953     97.5331
   773.7000      8.3470      2.5251      0.0820      7.5681     21.2898     89.1527
   773.8000      8.2865      2.4991      0.0563      9.1429     21.4382     83.6948
   773.9000      8.2865      2.4766      0.0080     10.5064     21.7460     79.3248
   774.0000      8.2497      2.4872      0.0224      9.8646     22.2651     77.9854
   774.1000      8.2497      2.5256      0.0742      7.5394     22.7635     78.1657
   774.2000      8.2497      2.5558      0.0896      5.7081     23.1114     76.3408
   774.3000      8.2380      2.5557      0.0430      5.7175     23.6818     74.7336
   774.4000      8.2380      2.5291      0.0451      7.3298     24.5297     76.5294
   774.5000      8.2300      2.4924      0.0018      9.5519     25.3594     81.2202
   774.6000      8.2300      2.4657     -0.0045     11.1727     26.2695     85.9503
   774.7000      8.2300      2.4560      0.0249     11.7546     27.2868     88.1122
   774.8000      8.2226      2.4524      0.0173     11.9765     28.0068     87.2740
   774.9000      8.2226      2.4460      0.0332     12.3637     27.9766     85.4559
   775.0000      8.2245      2.4440      0.0390     12.4832     27.2327     84.9545
   775.1000      8.2245      2.4473      0.1113     12.2874     26.3085     86.3453
   775.2000      8.2245      2.4433      0.1187     12.5267     25.5393     88.1395
   775.3000      8.2284      2.4373      0.0686     12.8897     24.9540     89.5016
   775.4000      8.2284      2.4505      0.0763     12.0894     24.4299     92.4036
   775.5000      8.2297      2.4874      0.1236      9.8560     23.9788     97.6228
   775.6000      8.2297      2.5290      0.1672      7.3329     23.8674    103.8303
   775.7000      8.2297      2.5596      0.1617      5.4778     23.9757    109.0833
   775.8000      8.2305      2.5834      0.1739      4.0361     24.0212    110.0728
   775.9000      8.2305      2.6058      0.1687      2.6813     24.0607    108.6795
   776.0000      8.2321      2.6228      0.1671      1.6497     23.9269    109.5635
   776.1000      8.2321      2.6327      0.1417      1.0510     23.5485    111.3730
   776.2000      8.2321      2.6369      0.1524      0.7949     23.3929    111.5836
   776.3000      8.2327      2.6334      0.1626      1.0073     23.5558    110.7571
   776.4000      8.2327      2.6188      0.0821      1.8896     23.5528    110.2678
   776.5000      8.2315      2.5916      0.1011      3.5383     23.3701    111.8631
   776.6000      8.2315      2.5559      0.0709      5.7048     23.4181    116.2142
   776.7000      8.2315      2.5245      0.0588      7.6055     23.6646    119.3777
   776.8000      8.2304      2.5054      0.0883      8.7658     23.7540    117.5876
   776.9000      8.2304      2.4974      0.0340      9.2503     23.5310    114.9578
   777.0000      8.2310      2.4960      0.0245      9.3309     23.3464    116.3480
   777.1000      8.2310      2.4998      0.0061      9.1021     23.5811    118.2465
   777.2000      8.2310      2.5084      0.0385      8.5796     24.1317    117.2792
   777.3000      8.2317      2.5120      0.0371      8.3666     24.5482    114.7632
   777.4000      8.2317      2.5027      0.0690      8.9262     24.5808    113.0380
   777.5000      8.2314      2.4889      0.0416      9.7655     24.3751    113.4346
   777.6000      8.2314      2.4870      0.0014      9.8786     23.9891    115.6559
   777.7000      8.2314      2.5046     -0.0046      8.8097     23.4474    117.8804
   777.8000      8.2307      2.5290      0.0537      7.3355     23.2120    116.6874
   777.9000      8.2307      2.5412      0.0568      6.5964     23.3631    113.9642
   778.0000      8.2326      2.5372      0.0491      6.8359     23.4316    116.5688
   778.1000      8.2326      2.5215      0.0418      7.7895     23.4595    122.5369
   778.2000      8.2326      2.5069      0.0361      8.6718     23.5270    123.2945
   778.3000      8.2334      2.5090      0.0504      8.5434     23.2721    118.0370
   778.4000      8.2334      2.5264      0.0470      7.4902     22.8255    111.1988
   778.5000      8.2327      2.5465      0.0102      6.2705     22.7879    106.2589
   778.6000      8.2327      2.5560      0.0368      5.6952     23.3991    105.1181
   778.7000      8.2327      2.5393      0.0695      6.7094     24.1338    107.2279
   778.8000      8.2327      2.4978      0.0091      9.2250     24.4377    110.9585
   778.9000      8.2327      2.4523      0.0390     11.9796     24.5537    115.3397
   779.0000      8.2332      2.4183     -0.0099     14.0452     24.6340    118.4836
   779.1000      8.2332      2.4085     -0.0581     14.6335     24.3381    121.8780
   779.2000      8.2332      2.4242     -0.0096     13.6878     23.7225    127.0844
   779.3000      8.2331      2.4448      0.0076     12.4336     23.2130    128.7742
   779.4000      8.2331      2.4607      0.0229     11.4704     23.0333    125.0622
   779.5000      8.2339      2.4735      0.0664     10.6980     23.1048    121.8760
   779.6000      8.2339      2.4691      0.0829     10.9640     23.0240    121.4537
   779.7000      8.2339      2.4363      0.0633     12.9501     22.4931    123.6172
   779.8000      8.2351      2.4040     -0.0341     14.9103     21.8902    127.0986
   779.9000      8.2351      2.4134      0.0414     14.3404     21.8132    125.5500
   780.0000      8.2337      2.4514      0.1363     12.0348     22.3378    119.0077
   780.1000      8.2337      2.4651      0.1676     11.2055     23.1913    115.2213
   780.2000      8.2337      2.4401      0.0049     12.7189     23.9533    114.8339
   780.3000      8.2313      2.4108     -0.0018     14.4974     24.2072    115.8680
   780.4000      8.2313      2.3995      0.0038     15.1820     23.9903    119.9768
   780.5000      8.2307      2.4037     -0.0039     14.9245     23.7292    124.0254
   780.6000      8.2307      2.4149      0.0350     14.2461     23.6587    123.8637
   780.7000      8.2307      2.4193      0.0354     13.9826     23.6429    120.2979
   780.8000      8.2338      2.4125      0.0156     14.3931     23.5406    114.3273
   780.9000      8.2338      2.3986      0.0287     15.2361     23.3492    109.3526
   781.0000      8.2455      2.3801     -0.0060     16.3602     23.2692    111.9194
   781.1000      8.2455      2.3632      0.0019     17.3834     23.3826    119.8877
   781.2000      8.2455      2.3540      0.0145     17.9400     23.4883    123.1764
   781.3000      8.2557      2.3550     -0.0142     17.8815     23.3887    118.3072
   781.4000      8.2557      2.3708     -0.0064     16.9229     23.1449    111.3377
   781.5000      8.2486      2.4100     -0.0013     14.5470     23.1055    107.9518
   781.6000      8.2486      2.4661      0.1086     11.1476     23.3276    108.3916
   781.7000      8.2486      2.5166      0.1339      8.0853     23.4113    109.6816
   781.8000      8.2479      2.5578      0.1433      5.5869     23.1691    110.5234
   781.9000      8.2479      2.6011      0.1557      2.9617     22.9122    112.8181
   782.0000      8.2753      2.6380      0.1739      0.7253     23.0187    114.0496
   782.1000      8.2753      2.6427      0.1693      0.4400     23.2817    112.3816
   782.2000      8.2753      2.6150      0.0884      2.1201     23.3850    112.2302
   782.3000      8.3149      2.5919      0.0293      3.5204     23.6699    113.3843
