~Version Information
VERS.                      2.0: CWLS Log ASCII Standard - VERSION 2.0
WRAP.                       NO: One line per depth step
~Well Information Block
STRT.FT               395.0000: 
STOP.FT              1998.0000: 
STEP.FT                 0.1000: 
NULL.                -999.2500: 
COMP.          Pioneer Natural Resources: COMPANY
WELL.          Easton 12-30 Tr: WELL
FLD.           Purgatoire River: FIELD
LOC.           549' FWL & 2416' FNL--: LOCATION
PROV.                 Colorado: PROVINCE
CNTY.               Las Animas: COUNTRY
SRVC.                Patterson: SERVICE COMPANY
DATE.          Thu Jun 02 09:14:44 2005: LOG DATE
UWI.           05 071 08379 00: UNIQUE WELL ID
~Curve Information Block
DEPT.FT            0 000 00 00: Depth
DCAL.in                       : CDL Caliper
RHOB.g/cc                     : CDL Bulk Density
RHOC.g/cc                     : CDL Density Correction
DPOR.pu                       : CDL Density Porosity
NPOR.pu                       : Neutron Porosity
GR.GAPI                       : Gamma Ray
~Parameter Information Block
~A  Depth       DCAL        RHOB        RHOC        DPOR        NPOR         GR     
# ...
  1335.8000      7.9697      2.5139      0.0223      8.2477     24.4755     96.2909
  1335.9000      7.9697      2.5279      0.0349      7.3971     24.9315     91.8633
  1336.0000      7.9687      2.5580      0.0810      5.5750     25.0824     87.9537
  1336.1000      7.9687      2.5829      0.1031      4.0638     24.9114     89.1321
  1336.2000      7.9687      2.5825      0.0909      4.0899     24.4178     95.4168
  1336.3000      7.9594      2.5647      0.0178      5.1708     23.9594    100.5606
  1336.4000      7.9594      2.5543      0.0616      5.7973     23.8098     99.5928
  1336.5000      7.9426      2.5545      0.0798      5.7881     23.5848     93.2539
  1336.6000      7.9426      2.5517      0.0864      5.9593     22.8824     88.2953
  1336.7000      7.9426      2.5451      0.1080      6.3584     22.0791     89.8660
  1336.8000      7.9324      2.5461      0.0945      6.2987     21.7581     93.6129
  1336.9000      7.9324      2.5594      0.0964      5.4933     21.9116     92.7567
  1337.0000      7.9317      2.5756      0.1198      4.5077     22.1430     87.5715
  1337.1000      7.9317      2.5850      0.0892      3.9380     22.3443     82.4960
  1337.2000      7.9317      2.5910      0.0761      3.5779     22.7381     81.0887
  1337.3000      7.9345      2.5994      0.0940      3.0655     23.2271     82.4847
  1337.4000      7.9345      2.6049      0.0968      2.7344     23.5548     82.0585
  1337.5000      7.9373      2.5999      0.0851      3.0348     23.6345     78.9003
  1337.6000      7.9373      2.5887      0.0495      3.7177     23.5528     77.4969
  1337.7000      7.9373      2.5787      0.0665      4.3239     23.5700     81.7226
  1337.8000      7.9399      2.5691      0.0611      4.9015     23.8535     88.0620
  1337.9000      7.9399      2.5592      0.0453      5.5005     24.1823     88.7929
  1338.0000      7.9391      2.5526      0.0213      5.9019     24.2378     86.9019
  1338.1000      7.9391      2.5519      0.0312      5.9474     24.2846     90.3925
  1338.2000      7.9391      2.5465      0.0878      6.2738     24.5517     97.1357
  1338.3000      7.9317      2.5134      0.0498      8.2806     24.7496    101.2561
  1338.4000      7.9317      2.4448      0.0404     12.4379     24.5404    101.5988
  1338.5000      7.9198      2.3690     -0.0608     17.0326     23.9696    100.5923
  1338.6000      7.9198      2.3253      0.0065     19.6798     23.3370     99.9551
  1338.7000      7.9198      2.3283     -0.0035     19.4943     23.0976     99.6738
  1338.8000      7.9084      2.3815      0.0002     16.2732     23.5784    100.8805
  1338.9000      7.9084      2.4778      0.1040     10.4371     24.3656    102.0851
  1339.0000      7.9051      2.5858      0.1625      3.8887     24.8752     99.7844
  1339.1000      7.9051      2.6767      0.1976     -1.6165     25.3838     94.2273
  1339.2000      7.9051      2.7426      0.2180     -5.6099     26.1761     89.5153
  1339.3000      7.9138      2.7841      0.2069     -8.1276     26.9075     88.4793
  1339.4000      7.9138      2.8040      0.2022     -9.3361     27.3664     89.0219
  1339.5000      7.9468      2.8023      0.1994     -9.2276     27.7939     88.4082
  1339.6000      7.9468      2.7796      0.1531     -7.8544     28.4053     87.2800
  1339.7000      7.9468      2.7552      0.0499     -6.3756     29.0680     86.1039
  1339.8000      8.0006      2.7451      0.0462     -5.7644     29.4557     82.6252
  1339.9000      8.0006      2.7416     -0.0099     -5.5544     29.3341     77.9151
  1340.0000      8.0343      2.7415     -0.0401     -5.5432     28.7695     77.4050
  1340.1000      8.0343      2.7455      0.0129     -5.7853     27.9920     80.7568
  1340.2000      8.0343      2.7436      0.0186     -5.6746     27.2127     83.4102
  1340.3000      8.0390      2.7305      0.0311     -4.8797     26.5357     83.1501
  1340.4000      8.0390      2.7054      0.0504     -3.3598     26.0053     83.2637
  1340.5000      8.0353      2.6642      0.0569     -0.8628     25.5360     86.6174
  1340.6000      8.0353      2.6146      0.0330      2.1453     24.9822     89.3113
  1340.7000      8.0353      2.5822     -0.0209      4.1109     24.3210     89.5196
  1340.8000      8.0354      2.5801      0.0321      4.2381     24.0234     89.8010
  1340.9000      8.0354      2.5965      0.0410      3.2405     24.4549     90.0349
  1341.0000      8.0381      2.6222     -0.0010      1.6857     25.1545     88.4547
  1341.1000      8.0381      2.6481      0.0503      0.1134     25.6833     87.2418
  1341.2000      8.0381      2.6511      0.0800     -0.0638     25.8728     87.6835
  1341.3000      8.0385      2.6244      0.0657      1.5503     25.6017     88.8790
  1341.4000      8.0385      2.5902      0.0597      3.6259     25.2962     90.2883
  1341.5000      8.0369      2.5662      0.0457      5.0770     25.3627     91.4635
  1341.6000      8.0369      2.5578      0.0614      5.5884     25.6972     93.6015
  1341.7000      8.0369      2.5610      0.0709      5.3963     26.2561     98.6111
  1341.8000      8.0342      2.5683      0.0691      4.9488     26.8484    106.0714
  1341.9000      8.0342      2.5787      0.0972      4.3186     27.0337    113.4860
  1342.0000      8.0332      2.5905      0.0996      3.6070     26.8669    117.0094
  1342.1000      8.0332      2.6008      0.0767      2.9822     26.5809    115.3895
  1342.2000      8.0332      2.6110      0.1080      2.3627     26.3291    113.9215
  1342.3000      8.0350      2.6192      0.1206      1.8667     26.5400    115.1408
  1342.4000      8.0350      2.6188      0.1388      1.8926     27.0304    116.5317
  1342.5000      8.0365      2.6063      0.0671      2.6491     26.9487    116.7284
  1342.6000      8.0365      2.5891      0.0409      3.6895     26.2580    114.4426
  1342.7000      8.0365      2.5755      0.0162      4.5179     25.8261    111.0836
  1342.8000      8.0388      2.5622      0.0001      5.3216     25.9719    110.0999
  1342.9000      8.0388      2.5483     -0.0158      6.1642     26.2274    111.1133
  1343.0000      8.0450      2.5449     -0.0470      6.3700     26.1411    111.1438
  1343.1000      8.0450      2.5556      0.0372      5.7218     25.5764    109.5596
  1343.2000      8.0450      2.5649      0.0557      5.1564     24.5816    108.4993
  1343.3000      8.0545      2.5606      0.0613      5.4175     23.4083    108.9958
  1343.4000      8.0545      2.5471      0.0726      6.2367     22.6536    109.2560
  1343.5000      8.0613      2.5403      0.0376      6.6492     22.6687    105.7425
  1343.6000      8.0613      2.5502      0.0708      6.0512     23.0201     98.3834
  1343.7000      8.0613      2.5613      0.1015      5.3782     23.2960     92.6809
  1343.8000      8.0637      2.5605      0.0537      5.4246     23.5371     92.2851
  1343.9000      8.0637      2.5660      0.0027      5.0919     23.6730     95.0183
  1344.0000      8.0640      2.5889      0.0722      3.7017     23.8013     95.6514
  1344.1000      8.0640      2.6123      0.0662      2.2849     24.3319     91.9768
  1344.2000      8.0640      2.6262      0.0692      1.4411     25.1666     87.6915
  1344.3000      8.0635      2.6293      0.0734      1.2550     25.5859     87.5584
  1344.4000      8.0635      2.6157      0.0540      2.0796     25.4558     89.8395
  1344.5000      8.0649      2.5954      0.0354      3.3118     25.6558     91.8074
  1344.6000      8.0649      2.5894      0.0392      3.6740     26.6443     96.9520
  1344.7000      8.0649      2.5966      0.0890      3.2379     27.7896    106.4900
  1344.8000      8.0711      2.5961      0.0784      3.2641     28.5426    115.3227
  1344.9000      8.0711      2.5872      0.0259      3.8037     28.9418    118.9939
  1345.0000      8.0793      2.5840      0.0813      4.0019     29.1325    119.3690
  1345.1000      8.0793      2.5834      0.0756      4.0350     29.3700    122.0063
  1345.2000      8.0793      2.5811      0.0182      4.1779     29.5960    128.4177
  1345.3000      8.0839      2.5797      0.0779      4.2634     29.4057    137.5629
