~Version Information
VERS.                      2.0: CWLS Log ASCII Standard - VERSION 2.0
WRAP.                       NO: One line per depth step
~Well Information Block
STRT.FT               340.0000: 
STOP.FT              1542.5000: 
STEP.FT                 0.1000: 
NULL.                -999.2500: 
COMP.          Petrogulf Corporation: COMPANY
WELL.            Montoya 7-21R: WELL
FLD.           Purgatorie River: FIELD
LOC.           445' FNL & 1942' FWL: LOCATION
PROV.                 Colorado: PROVINCE
CNTY.               Las Animas: COUNTRY
SRVC.                Patterson: SERVICE COMPANY
DATE.          Thu Sep 15 10:33:27 2005: LOG DATE
UWI.                          : UNIQUE WELL ID
~Curve Information Block
DEPT.FT            0 000 00 00: Depth
DCAL.in                       : CDL Caliper
RHOB.g/cc                     : CDL Bulk Density
RHOC.g/cc                     : CDL Density Correction
DPOR.pu                       : CDL Density Porosity
GR.GAPI                       : Gamma Ray
NPOR.pu                       : Neutron Porosity
~Parameter Information Block
~A  Depth       DCAL        RHOB        RHOC        DPOR         GR         NPOR    
# ...
  1530.4000      7.7785      2.4627     -0.0234     11.3494   -999.2500   -999.2500
  1530.5000      7.7583      2.4423      0.0036     12.5855   -999.2500   -999.2500
  1530.6000      7.7583      2.4299      0.0149     13.3392   -999.2500   -999.2500
  1530.7000      7.7583      2.4217      0.0502     13.8369   -999.2500   -999.2500
  1530.8000      7.7501      2.4162      0.0164     14.1720   -999.2500   -999.2500
  1530.9000      7.7501      2.4232      0.0194     13.7451   -999.2500   -999.2500
  1531.0000      7.7638      2.4522     -0.0344     11.9878   -999.2500   -999.2500
  1531.1000      7.7638      2.4968      0.0427      9.2858   -999.2500   -999.2500
  1531.2000      7.7638      2.5432      0.0447      6.4732   -999.2500   -999.2500
  1531.3000      7.7551      2.5910      0.0837      3.5734   -999.2500   -999.2500
  1531.4000      7.7551      2.6355      0.1739      0.8802   -999.2500   -999.2500
  1531.5000      7.6593      2.6562      0.2352     -0.3777   -999.2500   -999.2500
  1531.6000      7.6593      2.6401      0.1882      0.5970   -999.2500   -999.2500
  1531.7000      7.6593      2.5961      0.1258      3.2640   -999.2500   -999.2500
  1531.8000      7.6347      2.5551      0.0892      5.7488   -999.2500   -999.2500
  1531.9000      7.6347      2.5396      0.0529      6.6899   -999.2500   -999.2500
  1532.0000      7.6500      2.5431      0.0699      6.4790   -999.2500   -999.2500
  1532.1000      7.6500      2.5463      0.1060      6.2827   -999.2500   -999.2500
  1532.2000      7.6500      2.5425      0.0703      6.5136   -999.2500   -999.2500
  1532.3000      7.6300      2.5404      0.0560      6.6442   -999.2500   -999.2500
  1532.4000      7.6300      2.5438      0.0906      6.4339   -999.2500   -999.2500
  1532.5000      7.5896      2.5509      0.1090      6.0066   -999.2500   -999.2500
  1532.6000      7.5896      2.5602      0.1259      5.4448   -999.2500   -999.2500
  1532.7000      7.5896      2.5630      0.1734      5.2710   -999.2500   -999.2500
  1532.8000      7.5785      2.5527      0.1244      5.8997   -999.2500   -999.2500
  1532.9000      7.5785      2.5335      0.1664      7.0634   -999.2500   -999.2500
  1533.0000      7.5774      2.5134      0.0936      8.2766   -999.2500   -999.2500
  1533.1000      7.5774      2.5064      0.1057      8.7050   -999.2500   -999.2500
  1533.2000      7.5774      2.5217      0.0994      7.7758   -999.2500   -999.2500
  1533.3000      7.5696      2.5567      0.1116      5.6529   -999.2500   -999.2500
  1533.4000      7.5696      2.6012      0.1600      2.9600   -999.2500   -999.2500
  1533.5000      7.5805      2.6420      0.1847      0.4858   -999.2500   -999.2500
  1533.6000      7.5805      2.6680      0.1900     -1.0883   -999.2500   -999.2500
  1533.7000      7.5805      2.6704      0.1950     -1.2337   -999.2500   -999.2500
  1533.8000      7.5932      2.6552      0.1571     -0.3165   -999.2500   -999.2500
  1533.9000      7.5932      2.6415      0.1264      0.5155   -999.2500   -999.2500
  1534.0000      7.5835      2.6373      0.1148      0.7682   -999.2500   -999.2500
  1534.1000      7.5835      2.6379      0.0836      0.7305   -999.2500   -999.2500
  1534.2000      7.5835      2.6372      0.0886      0.7782   -999.2500   -999.2500
  1534.3000      7.6252      2.6297      0.0863      1.2288   -999.2500   -999.2500
  1534.4000      7.6252      2.6154      0.0503      2.0982   -999.2500   -999.2500
  1534.5000      7.6807      2.5969      0.0721      3.2190   -999.2500   -999.2500
  1534.6000      7.6807      2.5845     -0.0101      3.9719   -999.2500   -999.2500
  1534.7000      7.6807      2.5898      0.0235      3.6487   -999.2500   -999.2500
  1534.8000      7.6931      2.5985      0.0576      3.1214   -999.2500   -999.2500
  1534.9000      7.6931      2.5943      0.0277      3.3763   -999.2500   -999.2500
  1535.0000      7.6872      2.5887     -0.0054      3.7143   -999.2500   -999.2500
  1535.1000      7.6872      2.5875      0.0246      3.7851   -999.2500   -999.2500
  1535.2000      7.6872      2.5723      0.0690      4.7074   -999.2500   -999.2500
  1535.3000      7.6654      2.5367      0.0282      6.8657   -999.2500   -999.2500
  1535.4000      7.6654      2.5008      0.0304      9.0422   -999.2500   -999.2500
  1535.5000      7.6498      2.4800      0.0239     10.3028   -999.2500   -999.2500
  1535.6000      7.6498      2.4725      0.0144     10.7570   -999.2500   -999.2500
  1535.7000      7.6498      2.4719      0.0301     10.7957   -999.2500   -999.2500
  1535.8000      7.6421      2.4743      0.0404     10.6469   -999.2500   -999.2500
  1535.9000      7.6421      2.4794      0.0667     10.3391   -999.2500   -999.2500
  1536.0000      7.6697      2.4828      0.0593     10.1317   -999.2500   -999.2500
  1536.1000      7.6697      2.4842      0.0283     10.0509   -999.2500   -999.2500
  1536.2000      7.6697      2.4946      0.0595      9.4159   -999.2500   -999.2500
  1536.3000      7.6010      2.5187      0.0718      7.9590   -999.2500   -999.2500
  1536.4000      7.6010      2.5470      0.0721      6.2405   -999.2500   -999.2500
  1536.5000      7.5339      2.5669      0.1032      5.0358   -999.2500   -999.2500
  1536.6000      7.5339      2.5703      0.1452      4.8278   -999.2500   -999.2500
  1536.7000      7.5339      2.5644      0.1130      5.1866   -999.2500   -999.2500
  1536.8000      7.4503      2.5649      0.1369      5.1553   -999.2500   -999.2500
  1536.9000      7.4503      2.5764      0.1031      4.4601   -999.2500   -999.2500
  1537.0000      7.3906      2.5926      0.1282      3.4782   -999.2500   -999.2500
  1537.1000      7.3906      2.6051      0.1612      2.7204   -999.2500   -999.2500
  1537.2000      7.3906      2.6101      0.1803      2.4177   -999.2500   -999.2500
  1537.3000      7.4415      2.6277      0.1155      1.3507   -999.2500   -999.2500
  1537.4000      7.4415      2.6994      0.1086     -2.9957   -999.2500   -999.2500
  1537.5000      7.5275      2.7131      0.0824     -3.8232   -999.2500   -999.2500
  1537.6000      7.5275      2.2593      0.5255     23.6774   -999.2500   -999.2500
  1537.7000      7.5275      1.2800      0.0000     83.0305   -999.2500   -999.2500
  1537.8000      7.0744      0.4336      0.0000    134.3251   -999.2500   -999.2500
  1537.9000      7.0744      0.0823   -999.2500    155.6174   -999.2500   -999.2500
  1538.0000      3.2625      0.0085   -999.2500    160.0919   -999.2500   -999.2500
  1538.1000      3.2625      0.0005   -999.2500    160.5781   -999.2500   -999.2500
  1538.2000      3.2625      0.0000   -999.2500    160.6061   -999.2500   -999.2500
  1538.3000      2.7457      0.0000   -999.2500    160.6061   -999.2500   -999.2500
  1538.4000      2.7457   -999.2500   -999.2500   -999.2500   -999.2500   -999.2500
  1538.5000   -999.2500   -999.2500   -999.2500   -999.2500   -999.2500   -999.2500
  1538.6000   -999.2500   -999.2500   -999.2500   -999.2500   -999.2500   -999.2500
  1538.7000   -999.2500   -999.2500   -999.2500   -999.2500   -999.2500   -999.2500
  1538.8000   -999.2500   -999.2500   -999.2500   -999.2500   -999.2500   -999.2500
  1538.9000   -999.2500   -999.2500   -999.2500   -999.2500   -999.2500   -999.2500
  1539.0000   -999.2500   -999.2500   -999.2500   -999.2500   -999.2500   -999.2500
  1539.1000   -999.2500   -999.2500   -999.2500   -999.2500   -999.2500   -999.2500
  1539.2000   -999.2500   -999.2500   -999.2500   -999.2500   -999.2500   -999.2500
  1539.3000   -999.2500   -999.2500   -999.2500   -999.2500   -999.2500   -999.2500
  1539.4000   -999.2500   -999.2500   -999.2500   -999.2500   -999.2500   -999.2500
  1539.5000   -999.2500   -999.2500   -999.2500   -999.2500   -999.2500   -999.2500
  1539.6000   -999.2500   -999.2500   -999.2500   -999.2500   -999.2500   -999.2500
  1539.7000   -999.2500   -999.2500   -999.2500   -999.2500   -999.2500   -999.2500
  1539.8000   -999.2500   -999.2500   -999.2500   -999.2500   -999.2500   -999.2500
  1539.9000   -999.2500   -999.2500   -999.2500   -999.2500   -999.2500   -999.2500
