~Version Information
VERS.                      2.0: CWLS Log ASCII Standard - VERSION 2.0
WRAP.                       NO: One line per depth step
~Well Information Block
STRT.FT               860.0000: 
STOP.FT              1907.0000: 
STEP.FT                 0.1000: 
NULL.                -999.2500: 
COMP.          Pioneer Natural Resources: COMPANY
WELL.          Victory 12-14 Tr: WELL
FLD.           Purgatoire River: FIELD
LOC.           2522' FNL & 276' FWL: LOCATION
PROV.                 Colorado: PROVINCE
CNTY.               Las Animas: COUNTRY
SRVC.                Patterson: SERVICE COMPANY
DATE.          Mon Jul 18 06:52:40 2005: LOG DATE
UWI.           05 071 08433 00: UNIQUE WELL ID
~Curve Information Block
DEPT.FT            0 000 00 00: Depth
DCAL.in                       : CDL Caliper
RHOB.g/cc                     : CDL Bulk Density
RHOC.g/cc                     : CDL Density Correction
DPOR.pu                       : CDL Density Porosity
GR.GAPI                       : Gamma Ray
NPOR.pu                       : Neutron Porosity
~Parameter Information Block
~A  Depth       DCAL        RHOB        RHOC        DPOR         GR         NPOR    
# ...
  1071.2000      8.0675      2.3467      0.0489     18.3820     49.4087     12.5221
  1071.3000      8.0790      2.2547      0.0286     23.9593     53.3095     12.0069
  1071.4000      8.0790      2.1543     -0.0013     30.0432     58.4382     11.4391
  1071.5000      8.0534      2.0652     -0.0688     35.4429     61.9842     10.9922
  1071.6000      8.0534      1.9817     -0.0326     40.5025     61.8850     10.9223
  1071.7000      8.0534      1.8916     -0.0268     45.9612     59.8038     11.2654
  1071.8000      8.0466      1.7923     -0.0560     51.9794     60.8721     11.7106
  1071.9000      8.0466      1.6902      0.0479     58.1712     65.3020     11.9639
  1072.0000      8.0341      1.6007      0.1135     63.5955     68.5426     12.2048
  1072.1000      8.0341      1.5439      0.0839     67.0357     70.1813     12.7006
  1072.2000      8.0341      1.5248      0.1267     68.1939     74.2622     13.5115
  1072.3000      8.0570      1.5402     -0.0112     67.2622     82.4924     14.7652
  1072.4000      8.0570      1.6002     -0.0229     63.6234     89.6414     16.3925
  1072.5000      8.2536      1.7139      0.0334     56.7329     91.4702     17.9894
  1072.6000      8.2536      1.8753      0.2087     46.9527     90.7834     19.3819
  1072.7000      8.2536      2.0588      0.3570     35.8279     89.3568     20.3216
  1072.8000      8.3272      2.2175      0.4550     26.2145     87.7002     20.4741
  1072.9000      8.3272      2.3183      0.4270     20.1057     89.1368     20.2912
  1073.0000      8.3987      2.3780      0.3288     16.4861     92.1291     20.1145
  1073.1000      8.3987      2.4232      0.2955     13.7467     93.4134     19.6415
  1073.2000      8.3987      2.4485      0.2697     12.2131     94.9649     18.9619
  1073.3000      8.2665      2.4487      0.2464     12.2023     98.3447     18.4401
  1073.4000      8.2665      2.4452      0.1514     12.4136    102.4591     18.0245
  1073.5000      8.1836      2.4569      0.1632     11.7011    107.9631     17.4816
  1073.6000      8.1836      2.4637      0.2166     11.2887    115.2718     16.8889
  1073.7000      8.1836      2.4244      0.2433     13.6757    123.2688     16.6401
  1073.8000      8.1796      2.3333      0.2065     19.1956    129.4022     16.8001
  1073.9000      8.1796      2.2184      0.1627     26.1560    129.7666     17.1413
  1074.0000      8.2632      2.0958      0.1434     33.5866    124.9956     17.7967
  1074.1000      8.2632      1.9853      0.0221     40.2825    124.9252     18.8564
  1074.2000      8.2632      1.9225      0.0148     44.0919    132.2956     19.9589
  1074.3000      8.3045      1.9123      0.0365     44.7114    134.7839     21.0606
  1074.4000      8.3045      1.9266      0.0750     43.8420    127.3296     22.3810
  1074.5000      8.2755      1.9555      0.0473     42.0929    120.5289     23.9163
  1074.6000      8.2755      2.0221      0.0855     38.0523    122.0758     25.3405
  1074.7000      8.2755      2.1349      0.2151     31.2185    126.5649     26.0466
  1074.8000      8.2645      2.2620      0.2485     23.5166    127.4377     26.1363
  1074.9000      8.2645      2.3675      0.2631     17.1230    125.3066     26.1565
  1075.0000      8.3237      2.4464      0.1484     12.3394    123.7816     26.2541
  1075.1000      8.3237      2.5105      0.1239      8.4539    123.1346     26.5120
  1075.2000      8.3237      2.5596      0.0667      5.4786    120.3816     26.9037
  1075.3000      8.2304      2.5884      0.1104      3.7353    113.7306     27.0028
  1075.4000      8.2304      2.6000      0.0564      3.0277    105.6775     26.3739
  1075.5000      8.1664      2.6081      0.0607      2.5373     99.7212     25.2914
  1075.6000      8.1664      2.6138      0.0817      2.1942     96.2988     24.2713
  1075.7000      8.1664      2.6069      0.0450      2.6101     95.4711     23.3843
  1075.8000      8.1451      2.5907      0.0244      3.5927     95.8914     22.6441
  1075.9000      8.1451      2.5733      0.0361      4.6505     95.5394     22.1839
  1076.0000      8.0992      2.5581      0.0268      5.5709     95.6384     21.8469
  1076.1000      8.0992      2.5476     -0.0289      6.2048     94.4317     21.3376
  1076.2000      8.0992      2.5350      0.0623      6.9678     90.4609     20.7994
  1076.3000      8.0966      2.5141      0.0142      8.2351     88.9110     20.7442
  1076.4000      8.0966      2.4953      0.0051      9.3782     91.4264     21.3634
  1076.5000      8.1072      2.4824      0.0482     10.1561     93.9324     22.2262
  1076.6000      8.1072      2.4735     -0.0290     10.6966     94.8271     22.8689
  1076.7000      8.1072      2.4744     -0.0041     10.6428     97.1982     23.1379
  1076.8000      8.1302      2.4799      0.0434     10.3094    104.0557     23.3577
  1076.9000      8.1302      2.4813      0.0212     10.2265    113.7337     23.9811
  1077.0000      8.1717      2.4871      0.0121      9.8706    121.4246     24.6622
  1077.1000      8.1717      2.5100      0.0004      8.4873    122.4665     25.0014
  1077.2000      8.1717      2.5380      0.0697      6.7891    118.6208     25.2998
  1077.3000      8.2194      2.5433      0.0882      6.4687    116.9084     25.8529
  1077.4000      8.2194      2.5230      0.0072      7.6955    121.8439     26.3373
  1077.5000      8.2181      2.4940      0.0558      9.4524    131.2944     26.2174
  1077.6000      8.2181      2.4599      0.0465     11.5240    136.1914     25.4145
  1077.7000      8.2181      2.4259      0.0133     13.5822    131.9865     24.2661
  1077.8000      8.1839      2.4108     -0.0076     14.4965    124.2061     23.4997
  1077.9000      8.1839      2.4264      0.0020     13.5523    119.2911     23.6063
  1078.0000      8.1186      2.4651      0.0169     11.2059    119.0124     23.8751
  1078.1000      8.1186      2.5070      0.0656      8.6647    121.2251     23.5315
  1078.2000      8.1186      2.5346      0.1235      6.9960    123.6788     22.8616
  1078.3000      8.1008      2.5415      0.1306      6.5764    123.5826     22.0047
  1078.4000      8.1008      2.5195      0.1241      7.9063    118.8102     20.9965
  1078.5000      8.0456      2.4505      0.2054     12.0904    112.0280     20.3039
  1078.6000      8.0456      2.3382      0.1072     18.8942    110.5111     20.1946
  1078.7000      8.0456      2.2253      0.0801     25.7394    117.9175     20.5868
  1078.8000      7.9980      2.1607     -0.0624     29.6518    129.9528     21.3108
  1078.9000      7.9980      2.1637     -0.0061     29.4749    140.7423     22.2554
  1079.0000      7.9936      2.2127      0.0348     26.5047    150.4138     23.2082
  1079.1000      7.9936      2.2787      0.1374     22.5038    158.5240     23.7659
  1079.2000      7.9936      2.3462      0.1778     18.4120    161.2021     23.8984
  1079.3000      8.0147      2.4112      0.1813     14.4750    157.4055     24.1942
  1079.4000      8.0147      2.4749      0.3113     10.6122    149.2179     24.9675
  1079.5000      8.0639      2.5307      0.2880      7.2304    140.7821     25.5630
  1079.6000      8.0639      2.5674      0.1977      5.0060    136.6473     25.5902
  1079.7000      8.0639      2.5799      0.1462      4.2506    136.3932     25.6938
  1079.8000      8.1087      2.5756      0.1096      4.5065    136.9244     26.1389
  1079.9000      8.1087      2.5694      0.1054      4.8862    138.8792     26.5510
  1080.0000      8.1246      2.5685      0.1024      4.9367    141.3008     26.7237
  1080.1000      8.1246      2.5768      0.0722      4.4385    139.7387     26.8008
  1080.2000      8.1246      2.5889      0.0992      3.7043    134.6385     26.9943
  1080.3000      8.0487      2.5924      0.0958      3.4913    127.9837     27.1465
  1080.4000      8.0487      2.6053      0.0036      2.7084    119.9476     27.1947
  1080.5000      8.0347      2.6385      0.0987      0.6940    113.2278     27.2527
  1080.6000      8.0347      2.6509      0.0813     -0.0541    108.7229     26.9527
  1080.7000      8.0347      2.6250      0.0201      1.5132    104.6172     26.0748
