~Version Information
VERS.                      2.0: CWLS Log ASCII Standard - VERSION 2.0
WRAP.                       NO: One line per depth step
~Well Information Block
STRT.FT               770.0000: 
STOP.FT              1718.7000: 
STEP.FT                 0.1000: 
NULL.                -999.2500: 
COMP.          Pioneer Natural Resources: COMPANY
WELL.            Salty 42-6 Tr: WELL
FLD.           Purgatoire River: FIELD
LOC.           2409' FNL & 599' FEL: LOCATION
PROV.                 Colorado: PROVINCE
CNTY.               Las Animas: COUNTRY
SRVC.                Patterson: SERVICE COMPANY
DATE.          Thu Dec 16 09:30:36 2004: LOG DATE
UWI.           05 071 08238 00: UNIQUE WELL ID
~Curve Information Block
DEPT.FT            0 000 00 00: Depth
DCAL.in                       : CDL Caliper
RHOB.g/cc                     : CDL Bulk Density
RHOC.g/cc                     : CDL Density Correction
DPOR.pu                       : CDL Density Porosity
NPOR.pu                       : Neutron Porosity
GR.GAPI                       : Gamma Ray
~Parameter Information Block
~A  Depth       DCAL        RHOB        RHOC        DPOR        NPOR         GR     
# ...
  1691.6000      7.8015      2.5067     -0.0087      8.6822     17.4435   -999.2500
  1691.7000      7.8015      2.5202      0.0487      7.8669     17.2891   -999.2500
  1691.8000      7.7902      2.5336      0.0593      7.0527     16.2242   -999.2500
  1691.9000      7.7902      2.5424      0.0471      6.5208     16.6793   -999.2500
  1692.0000      7.7783      2.5485      0.0910      6.1531     23.5148   -999.2500
  1692.1000      7.7783      2.5504      0.0681      6.0381     37.3068   -999.2500
  1692.2000      7.7783      2.5528      0.0501      5.8889     48.1678   -999.2500
  1692.3000      7.7758      2.5630      0.0697      5.2730     52.1224   -999.2500
  1692.4000      7.7758      2.5771      0.0739      4.4204     52.8958   -999.2500
  1692.5000      7.7853      2.5855      0.0925      3.9099     52.9779   -999.2500
  1692.6000      7.7853      2.5901      0.0413      3.6317     52.9826   -999.2500
  1692.7000      7.7853      2.5996      0.0755      3.0516   -999.2500   -999.2500
  1692.8000      7.7971      2.6077      0.0733      2.5643   -999.2500   -999.2500
  1692.9000      7.7971      2.6045      0.0308      2.7546   -999.2500   -999.2500
  1693.0000      7.8012      2.5960      0.0677      3.2712   -999.2500   -999.2500
  1693.1000      7.8012      2.5939      0.0201      3.4018   -999.2500   -999.2500
  1693.2000      7.8012      2.6035      0.0372      2.8188   -999.2500   -999.2500
  1693.3000      7.8004      2.6156      0.0728      2.0824   -999.2500   -999.2500
  1693.4000      7.8004      2.6153      0.0627      2.1008   -999.2500   -999.2500
  1693.5000      7.8006      2.6017      0.0602      2.9273   -999.2500   -999.2500
  1693.6000      7.8006      2.5858      0.0318      3.8883   -999.2500   -999.2500
  1693.7000      7.8006      2.5738      0.0429      4.6179   -999.2500   -999.2500
  1693.8000      7.8013      2.5651      0.0290      5.1454   -999.2500   -999.2500
  1693.9000      7.8013      2.5605      0.0257      5.4269   -999.2500   -999.2500
  1694.0000      7.7998      2.5575      0.0143      5.6058   -999.2500   -999.2500
  1694.1000      7.7998      2.5516      0.0345      5.9633   -999.2500   -999.2500
  1694.2000      7.7998      2.5422      0.0235      6.5345   -999.2500   -999.2500
  1694.3000      7.7991      2.5354      0.0026      6.9444   -999.2500   -999.2500
  1694.4000      7.7991      2.5364      0.0357      6.8819   -999.2500   -999.2500
  1694.5000      7.8001      2.5392      0.0447      6.7179   -999.2500   -999.2500
  1694.6000      7.8001      2.5393      0.0102      6.7115   -999.2500   -999.2500
  1694.7000      7.8001      2.5408      0.0280      6.6185   -999.2500   -999.2500
  1694.8000      7.8009      2.5451      0.0200      6.3584   -999.2500   -999.2500
  1694.9000      7.8009      2.5517      0.0398      5.9582   -999.2500   -999.2500
  1695.0000      7.8005      2.5638      0.0002      5.2241   -999.2500   -999.2500
  1695.1000      7.8005      2.5778      0.0365      4.3753   -999.2500   -999.2500
  1695.2000      7.8005      2.5771      0.0416      4.4163   -999.2500   -999.2500
  1695.3000      7.7985      2.5596     -0.0010      5.4807   -999.2500   -999.2500
  1695.4000      7.7985      2.5451     -0.0160      6.3582   -999.2500   -999.2500
  1695.5000      7.7964      2.5468      0.0325      6.2538   -999.2500   -999.2500
  1695.6000      7.7964      2.5536      0.0427      5.8410   -999.2500   -999.2500
  1695.7000      7.7964      2.5522      0.0247      5.9278   -999.2500   -999.2500
  1695.8000      7.7955      2.5530      0.0229      5.8817   -999.2500   -999.2500
  1695.9000      7.7955      2.5721      0.0096      4.7215   -999.2500   -999.2500
  1696.0000      7.7919      2.6002      0.0844      3.0201   -999.2500   -999.2500
  1696.1000      7.7919      2.6098      0.0827      2.4378   -999.2500   -999.2500
  1696.2000      7.7919      2.5987      0.0463      3.1061   -999.2500   -999.2500
  1696.3000      7.7860      2.5904      0.0577      3.6135   -999.2500   -999.2500
  1696.4000      7.7860      2.5902      0.0577      3.6246   -999.2500   -999.2500
  1696.5000      7.7777      2.5884      0.0675      3.7346   -999.2500   -999.2500
  1696.6000      7.7777      2.5869      0.0330      3.8261   -999.2500   -999.2500
  1696.7000      7.7777      2.5876      0.0492      3.7833   -999.2500   -999.2500
  1696.8000      7.7700      2.5825      0.0695      4.0914   -999.2500   -999.2500
  1696.9000      7.7700      2.5789     -0.0010      4.3095   -999.2500   -999.2500
  1697.0000      7.7682      2.5908      0.0412      3.5866   -999.2500   -999.2500
  1697.1000      7.7682      2.6041      0.0817      2.7832   -999.2500   -999.2500
  1697.2000      7.7682      2.6019      0.0503      2.9182   -999.2500   -999.2500
  1697.3000      7.7613      2.5903      0.0270      3.6171   -999.2500   -999.2500
  1697.4000      7.7613      2.5801      0.0267      4.2380   -999.2500   -999.2500
  1697.5000      7.7489      2.5763      0.0272      4.4688   -999.2500   -999.2500
  1697.6000      7.7489      2.5720      0.0664      4.7291   -999.2500   -999.2500
  1697.7000      7.7489      2.5564      0.0630      5.6706   -999.2500   -999.2500
  1697.8000      7.7440      2.5394      0.0142      6.7029   -999.2500   -999.2500
  1697.9000      7.7440      2.5348      0.0112      6.9847   -999.2500   -999.2500
  1698.0000      7.7445      2.5373      0.0307      6.8295   -999.2500   -999.2500
  1698.1000      7.7445      2.5392      0.0332      6.7152   -999.2500   -999.2500
  1698.2000      7.7445      2.5400     -0.0001      6.6659   -999.2500   -999.2500
  1698.3000      7.7358      2.5386      0.0359      6.7510   -999.2500   -999.2500
  1698.4000      7.7358      2.5307      0.0379      7.2327   -999.2500   -999.2500
  1698.5000      7.7107      2.5201      0.0224      7.8754   -999.2500   -999.2500
  1698.6000      7.7107      2.5208     -0.0097      7.8295   -999.2500   -999.2500
  1698.7000      7.7107      2.5321      0.0400      7.1434   -999.2500   -999.2500
  1698.8000      7.6898      2.5323      0.0500      7.1342   -999.2500   -999.2500
  1698.9000      7.6898      2.5165      0.0042      8.0924   -999.2500   -999.2500
  1699.0000      7.6676      2.5086      0.0179      8.5708   -999.2500   -999.2500
  1699.1000      7.6676      2.5214      0.0331      7.7932   -999.2500   -999.2500
  1699.2000      7.6676      2.5355      0.0820      6.9386   -999.2500   -999.2500
  1699.3000      7.6092      2.5328      0.0284      7.1021   -999.2500   -999.2500
  1699.4000      7.6092      2.5352      0.0121      6.9568   -999.2500   -999.2500
  1699.5000      7.4212      2.5866      0.0245      3.8401   -999.2500   -999.2500
  1699.6000      7.4212      2.5855      0.0025      3.9077   -999.2500   -999.2500
  1699.7000      7.4212      2.1481      0.5440     30.4168   -999.2500   -999.2500
  1699.8000      6.7249      1.2165      0.0400     86.8775   -999.2500   -999.2500
  1699.9000      6.7249      0.4122      0.0400    135.6245   -999.2500   -999.2500
  1700.0000      4.7726      0.0783   -999.2500    155.8631   -999.2500   -999.2500
  1700.1000      4.7726      0.0081   -999.2500    160.1172   -999.2500   -999.2500
  1700.2000      4.7726      0.0004   -999.2500    160.5795   -999.2500   -999.2500
  1700.3000      2.0476      0.0000   -999.2500    160.6061   -999.2500   -999.2500
  1700.4000      2.0476      0.0000   -999.2500    160.6061   -999.2500   -999.2500
  1700.5000      0.4898   -999.2500   -999.2500   -999.2500   -999.2500   -999.2500
  1700.6000      0.4898   -999.2500   -999.2500   -999.2500   -999.2500   -999.2500
  1700.7000      0.4898   -999.2500   -999.2500   -999.2500   -999.2500   -999.2500
  1700.8000      0.1495   -999.2500   -999.2500   -999.2500   -999.2500   -999.2500
  1700.9000      0.1495   -999.2500   -999.2500   -999.2500   -999.2500   -999.2500
  1701.0000      0.1218   -999.2500   -999.2500   -999.2500   -999.2500   -999.2500
  1701.1000      0.1218   -999.2500   -999.2500   -999.2500   -999.2500   -999.2500
