~Version Information
VERS.                      2.0: CWLS Log ASCII Standard - VERSION 2.0
WRAP.                       NO: One line per depth step
~Well Information Block
STRT.FT               -11.5000: 
STOP.FT              2395.2500: 
STEP.FT                 0.2500: 
NULL.                -999.2500: 
COMP.          Petrogulf Corporation: COMPANY
WELL.            Montoya 7-21V: WELL
FLD.           Purgatorie River: FIELD
LOC.           738' FSL & 2070' FWL--: LOCATION
CNTY.               Las Animas: COUNTY
SRVC.                         : SERVICE COMPANY
DATE.          Mon Aug 30 15:10:00 2004: LOG DATE
UWI.                          : UNIQUE WELL ID
STAT.                       CO: STATE
~Curve Information Block
DEPT.FT            0 000 00 00: Depth
CCL.                          : Casing Collar Locator
TT3.usec                      : CBL 3' Travel Time
AMP3.mV                       : CBL 3' Amplitude
GR.GAPI                       : Gamma Ray
~Parameter Information Block
~A  Depth       CCL         TT3         AMP3         GR     
# ...
  2199.5000      0.0000    731.1350      4.0621    108.7641
  2199.7500      0.0000    731.6307      3.8911    111.5845
  2200.0000      0.0000    735.4658      3.8609    110.4951
  2200.2500      0.0000    740.4309      3.9213    105.7500
  2200.5000      0.0000    743.9500      4.0003     99.2889
  2200.7500      0.0000    744.6366      4.0212     93.5900
  2201.0000      0.0000    743.1845      3.9359     90.3799
  2201.2500      0.0000    741.5588      3.7697     90.0585
  2201.5000      0.0000    740.9949      3.6278     91.9041
  2201.7500      0.0000    740.9086      3.6386     94.5153
  2202.0000      0.0000    739.6575      3.8548     96.2663
  2202.2500      0.0000    735.9163      4.1894     96.0289
  2202.5000      0.0000    729.4257      4.4693     93.9810
  2202.7500      0.0000    721.1338      4.5750     91.5937
  2203.0000      0.0000    712.9951      4.5186     90.5069
  2203.2500      0.0000    707.4135      4.3832     91.2736
  2203.5000      0.0000    706.2447      4.2327     93.1644
  2203.7500      0.0000    709.6181      4.0992     95.0143
  2204.0000      0.0000    715.4724      4.0068     96.0380
  2204.2500      0.0000    720.5689      3.9621     95.9817
  2204.5000      0.0000    722.3358      3.9340     95.0567
  2204.7500      0.0000    720.1797      3.8659     93.9521
  2205.0000      0.0000    715.5114      3.7146     93.5933
  2205.2500      0.0000    710.6326      3.4880     94.6587
  2205.5000      0.0000    707.3944      3.2439     97.1725
  2205.7500      0.0000    706.5726      3.0402    100.2009
  2206.0000      0.0000    707.8771      2.9008    102.0459
  2206.2500      0.0000    710.0393      2.8320    101.3134
  2206.5000      0.0000    711.3563      2.8365     98.0234
  2206.7500      0.0000    711.0657      2.8958     93.5956
  2207.0000      0.0000    710.1740      2.9709     89.7916
  2207.2500      0.0000    710.1627      3.0327     87.7079
  2207.5000      0.0000    710.7404      3.0703     87.7060
  2207.7500      0.0000    709.7410      3.0700     89.8875
  2208.0000      0.0000    705.8769      3.0114     93.8784
  2208.2500      0.0000    701.0187      2.8896     98.0910
  2208.5000      0.0000    698.9086      2.7314    100.2473
  2208.7500      0.0000    701.7496      2.5808     99.3674
  2209.0000      0.0000    708.4582      2.4642     96.7554
  2209.2500      0.0000    715.9341      2.3741     94.4012
  2209.5000      0.0000    721.3829      2.2881     92.6536
  2209.7500      0.0000    723.3966      2.1941     90.0589
  2210.0000      0.0000    721.5335      2.0926     85.3998
  2210.2500      0.0000    715.7087      1.9861     79.1220
  2210.5000      0.0000    706.4743      1.8762     72.6084
  2210.7500      0.0000    695.6138      1.7746     66.8753
  2211.0000      0.0000    685.8115      1.7127     62.4368
  2211.2500      0.0000    679.5842      1.7258     59.9114
  2211.5000      0.0000    678.5915      1.8197     60.1555
  2211.7500      0.0000    683.2685      1.9559     63.6699
  2212.0000      0.0000    692.3280      2.0789     70.0241
  2212.2500      0.0000    702.8596      2.1673     78.0044
  2212.5000      0.0000    711.7159      2.2669     86.3068
  2212.7500      0.0000    717.3435      2.4707     93.9099
  2213.0000      0.0000    720.5951      2.8468    100.0667
  2213.2500      0.0000    723.6022      3.3690    104.5074
  2213.5000      0.0000    727.3484      3.9245    107.4883
  2213.7500      0.0000    730.3300      4.4022    109.1669
  2214.0000      0.0000    729.6852      4.7739    109.2868
  2214.2500      0.0000    723.0244      5.0907    107.9045
  2214.5000      0.0000    708.9799      5.4119    105.9048
  2214.7500      0.0000    687.2655      5.7477    104.2988
  2215.0000      0.0000    659.6547      6.0561    103.3405
  2215.2500      0.0000    630.5388      6.2650    102.6562
  2215.5000      0.0000    605.0121      6.3003    101.9696
  2215.7500      0.0000    585.8744      6.1375    101.3548
  2216.0000      0.0000    573.1969      5.8445    100.8551
  2216.2500      0.0000    567.0352      5.5510    100.1826
  2216.5000      0.0000    569.6994      5.3588     98.9562
  2216.7500      0.0000    584.4715      5.2830     97.0230
  2217.0000      0.0000    612.0063      5.2722     94.4267
  2217.2500      0.0000    648.1076      5.2652     91.2668
  2217.5000      0.0000    684.8427      5.2290     87.7944
  2217.7500      0.0000    714.2729      5.1681     84.4658
  2218.0000      0.0000    732.4901      5.1045     81.7188
  2218.2500      0.0000    740.9719      5.0459     79.7231
  2218.5000      0.0000    744.0692      4.9694     78.3781
  2218.7500      0.0000    745.0627      4.8387     77.5745
  2219.0000      0.0000    744.2942      4.6396     77.3976
  2219.2500      0.0000    740.4242      4.3961     77.9117
  2219.5000      0.0000    733.0369      4.1517     78.7200
  2219.7500      0.0000    723.8271      3.9409     78.9416
  2220.0000      0.0000    715.2523      3.7784     77.8087
  2220.2500      0.0000    708.4830      3.6631     75.3464
  2220.5000      0.0000    703.1229      3.5797     72.4472
  2220.7500      0.0000    698.4553      3.4975     70.2631
  2221.0000      0.0000    694.0458      3.3855     69.5329
  2221.2500      0.0000    689.1597      3.2343     70.4640
  2221.5000      0.0000    682.7392      3.0618     72.9834
  2221.7500      0.0000    674.7502      2.8996     76.6851
  2222.0000      0.0000    667.0728      2.7723     80.5586
  2222.2500      0.0000    662.2949      2.6848     83.2892
  2222.5000      0.0000    661.5854      2.6219     84.1234
  2222.7500      0.0000    664.0395      2.5682     83.2195
  2223.0000      0.0000    667.9310      2.5370     81.1391
  2223.2500      0.0000    672.0706      2.5635     78.3482
  2223.5000      0.0000    675.8410      2.6582     75.3363
  2223.7500      0.0000    678.5387      2.7774     72.9182
  2224.0000      0.0000    679.4645      2.8525     72.0549
  2224.2500      0.0000    678.9189      2.8546     73.1139
  2224.5000      0.0000    678.6606      2.8299     75.3657
  2224.7500      0.0000    680.8035      2.8711     77.4042
  2225.0000      0.0000    686.0945      3.0515     78.0022
  2225.2500      0.0000    693.2612      3.3833     76.5499
  2225.5000      0.0000    699.9503      3.8351     73.1356
  2225.7500      0.0000    703.9436      4.3728     68.6812
  2226.0000      0.0000    703.1251      4.9705     64.8770
  2226.2500      0.0000    694.1134      5.5917     63.5560
  2226.5000      0.0000    671.4647      6.1768     65.6615
  2226.7500      0.0000    630.0214      6.6622     70.5357
  2227.0000      0.0000    570.7656      7.0178     76.3242
  2227.2500      0.0000    505.4711      7.2672     81.4452
  2227.5000      0.0000    454.0235      7.4688     85.7369
  2227.7500      0.0000    434.8442      7.6596     89.8864
  2228.0000      0.0000    455.4606      7.8042     93.8082
  2228.2500      0.0000    508.6976      7.8017     96.0657
  2228.5000      0.0000    575.9775      7.5620     95.1500
  2228.7500      0.0000    637.0342      7.0963     91.0522
  2229.0000      0.0000    680.4884      6.5329     85.4381
  2229.2500      0.0000    706.9283      6.0289     80.5946
  2229.5000      0.0000    723.1660      5.6581     78.3185
  2229.7500      0.0000    735.0512      5.3880     79.1709
  2230.0000      0.0000    745.1674      5.1476     82.0321
  2230.2500      0.0000    754.2784      4.8968     84.3606
  2230.5000      0.0000    762.2557      4.6329     83.7847
  2230.7500      0.0000    767.5154      4.3621     80.3578
  2231.0000      0.0000    767.5129      4.0876     77.1192
  2231.2500      0.0000    761.1935      3.8290     77.6742
  2231.5000      0.0000    750.6675      3.6300     82.8654
  2231.7500      0.0000    739.6656      3.5212     89.9776
  2232.0000      0.0000    730.5966      3.4826     95.0644
  2232.2500      0.0000    723.7501      3.4624     95.7224
  2232.5000      0.0000    718.8590      3.4273     92.0721
  2232.7500      0.0000    716.0372      3.3780     86.0049
