~Version Information
VERS.                      2.0: CWLS Log ASCII Standard - VERSION 2.0
WRAP.                       NO: One line per depth step
~Well Information Block
STRT.FT               -13.5000: 
STOP.FT              2474.2500: 
STEP.FT                 0.2500: 
NULL.                -999.2500: 
COMP.          Pioneer Natural Resources: COMPANY
WELL.              Tiaga 23-14: WELL
FLD.           Purgatorie River: FIELD
LOC.           2168' FSL & 2030' FWL--: LOCATION
PROV.                       CO: PROVINCE
CNTY.               Las Animas: COUNTRY
SRVC.                         : SERVICE COMPANY
DATE.          Thu May 12 17:01:37 2005: LOG DATE
UWI.                          : UNIQUE WELL ID
~Curve Information Block
DEPT.FT            0 000 00 00: Depth
TT3.usec                      : CBL 3' Travel Time
AMP3.mV                       : CBL 3' Amplitude
GR.GAPI                       : Gamma Ray
CCL.                          : Casing Collar Locator
~Parameter Information Block
~A  Depth       TT3         AMP3         GR         CCL     
# ...
  1293.0000    595.6757     16.8340    102.1274      0.0000
  1293.2500    555.4459     16.9026    101.8318      0.0000
  1293.5000    473.6793     17.0492    101.1697      0.0000
  1293.7500    430.1923     17.2150    100.2151      0.0000
  1294.0000    458.9663     17.3803     99.0636      0.0000
  1294.2500    509.5246     17.5822     97.3724      0.0000
  1294.5000    506.1696     17.8347     94.6600      0.0000
  1294.7500    439.8841     18.0933     90.8622      0.0000
  1295.0000    365.6064     18.3088     86.4364      0.0000
  1295.2500    323.0254     18.4587     82.0651      0.0000
  1295.5000    308.3324     18.5502     78.2178      0.0000
  1295.7500    304.8791     18.6254     74.8077      0.0000
  1296.0000    303.9730     18.6918     71.3818      0.0000
  1296.2500    303.5792     18.6735     67.8584      0.0000
  1296.5000    303.5600     18.5049     64.8650      0.0000
  1296.7500    303.8597     18.2367     63.0668      0.0000
  1297.0000    304.2567     18.0093     62.3061      0.0000
  1297.2500    304.5454     17.9111     61.7493      0.0000
  1297.5000    304.7409     17.8867     60.9196      0.0000
  1297.7500    305.0131     17.8186     60.3286      0.0000
  1298.0000    305.5054     17.6482     60.8636      0.0000
  1298.2500    306.4824     17.3920     62.5878      0.0000
  1298.5000    309.8445     17.1040     64.2741      0.0000
  1298.7500    323.2995     16.8433     64.2399      0.0000
  1299.0000    361.5262     16.6358     61.7856      0.0000
  1299.2500    427.6872     16.4755     57.8470      0.0000
  1299.5000    486.1457     16.3779     54.1120      0.0000
  1299.7500    486.4438     16.3873     51.5402      0.0000
  1300.0000    430.5032     16.5193     49.9496      0.0000
  1300.2500    375.4456     16.7382     48.8884      0.0000
  1300.5000    367.2715     16.9794     48.4478      0.0000
  1300.7500    403.6720     17.1878     49.1911      0.0000
  1301.0000    450.5580     17.3590     51.6276      0.0000
  1301.2500    482.1956     17.5112     55.7489      0.0000
  1301.5000    503.5603     17.6135     60.8578      0.0000
  1301.7500    533.1462     17.5964     65.9782      0.0000
  1302.0000    570.0128     17.4299     70.7183      0.0000
  1302.2500    579.2757     17.1794     75.6407      0.0000
  1302.5000    530.2903     16.9732     81.5541      0.0000
  1302.7500    444.8967     16.8748     88.5797      0.0000
  1303.0000    381.3940     16.7960     96.0265      0.0000
  1303.2500    382.0125     16.5893    102.8483      0.0000
  1303.5000    448.6521     16.2195    108.0681      0.0000
  1303.7500    545.7197     15.7995    111.1775      0.0000
  1304.0000    625.2949     15.4675    112.3978      0.0000
  1304.2500    666.3303     15.2708    112.3047      0.0000
  1304.5000    679.8710     15.1654    111.1524      0.0000
  1304.7500    682.7833     15.0914    108.9042      0.0000
  1305.0000    683.4211     15.0350    105.8403      0.0000
  1305.2500    683.9434     15.0429    102.6548      0.0000
  1305.5000    684.3882     15.1686     99.9286      0.0000
  1305.7500    684.4315     15.3887     97.8929      0.0000
  1306.0000    684.0264     15.6193     96.6963      0.0000
  1306.2500    683.2806     15.7950     96.5426      0.0000
  1306.5000    681.6711     15.8918     97.5482      0.0000
  1306.7500    678.0445     15.9244     99.6715      0.0000
  1307.0000    673.0596     15.9259    102.5787      0.0000
  1307.2500    670.7249     15.9070    105.1768      0.0000
  1307.5000    673.4787     15.8605    105.6536      0.0000
  1307.7500    677.5206     15.8004    103.0344      0.0000
  1308.0000    677.4125     15.7504     98.7839      0.0000
  1308.2500    672.3966     15.6885     95.9147      0.0000
  1308.5000    665.9467     15.5646     96.1979      0.0000
  1308.7500    661.4476     15.3737     98.7239      0.0000
  1309.0000    661.8531     15.1560    101.1738      0.0000
  1309.2500    671.1608     14.9371    101.9667      0.0000
  1309.5000    687.8300     14.7318    101.1786      0.0000
  1309.7500    701.4724     14.5854    100.1005      0.0000
  1310.0000    705.6224     14.5171    100.2229      0.0000
  1310.2500    705.7229     14.4428    102.1342      0.0000
  1310.5000    708.5206     14.2730    104.9192      0.0000
  1310.7500    715.3071     14.0677    106.6324      0.0000
  1311.0000    725.1298     13.9754    105.4310      0.0000
  1311.2500    730.1727     14.0710    100.4144      0.0000
  1311.5000    715.4636     14.3198     91.9259      0.0000
  1311.7500    681.9438     14.6309     81.3888      0.0000
  1312.0000    656.4271     14.9244     70.6226      0.0000
  1312.2500    657.3951     15.1571     61.0491      0.0000
  1312.5000    671.8872     15.3229     53.4887      0.0000
  1312.7500    680.7483     15.4911     48.4713      0.0000
  1313.0000    679.7211     15.7719     46.3203      0.0000
  1313.2500    672.5576     16.1736     46.8118      0.0000
  1313.5000    662.2842     16.5663     48.9849      0.0000
  1313.7500    647.0202     16.8361     51.4966      0.0000
  1314.0000    622.0738     16.9962     53.2994      0.0000
  1314.2500    594.5507     17.0945     54.1301      0.0000
  1314.5000    587.6977     17.1292     54.4197      0.0000
  1314.7500    612.2283     17.1012     54.7190      0.0000
  1315.0000    647.2192     17.0485     55.1262      0.0000
  1315.2500    668.2292     17.0388     55.1673      0.0000
  1315.5000    672.2496     17.1517     54.3530      0.0000
  1315.7500    666.8755     17.3924     52.8889      0.0000
  1316.0000    656.0932     17.6205     51.5466      0.0000
  1316.2500    643.7966     17.6222     50.7066      0.0000
  1316.5000    637.9557     17.2975     49.9304      0.0000
  1316.7500    642.4807     16.7984     48.7089      0.0000
  1317.0000    655.0594     16.4073     47.2554      0.0000
  1317.2500    670.0840     16.1633     46.2534      0.0000
  1317.5000    674.2430     15.6964     46.0834      0.0000
  1317.7500    651.5421     14.7348     46.5660      0.0000
  1318.0000    598.4956     13.7929     47.2696      0.0000
  1318.2500    532.9167     13.6564     47.6899      0.0000
  1318.5000    494.6526     14.0579     47.2761      0.0000
  1318.7500    522.7731     14.0741     45.8405      0.0000
  1319.0000    613.5815     13.5991     44.0416      0.0000
  1319.2500    718.4397     13.1131     43.0022      0.0000
  1319.5000    786.9162     12.7954     43.2603      0.0000
  1319.7500    800.8842     12.6075     44.2717      0.0000
  1320.0000    780.7025     12.5513     45.0362     -2.0000
  1320.2500    758.7091     12.6294     45.1328      0.0000
  1320.5000    738.0750     12.9393     45.0821      2.0000
  1320.7500    692.0233     13.8649     45.6675      0.0000
  1321.0000    602.4633     15.5636     47.0550      0.0000
  1321.2500    490.7810     17.2104     48.8794      0.0000
  1321.5000    404.2784     17.9015     51.0482      0.0000
  1321.7500    369.0371     17.9109     53.8432      0.0000
  1322.0000    375.0074     17.8434     57.1556      0.0000
  1322.2500    395.7175     17.7243     60.3248      0.0000
  1322.5000    403.5472     17.4718     62.9484      0.0000
  1322.7500    388.0188     17.1923     65.1937      0.0000
  1323.0000    363.7974     16.9629     67.0001      0.0000
  1323.2500    347.7962     16.8021     67.5382      0.0000
  1323.5000    341.5825     16.7917     65.9426      0.0000
  1323.7500    339.2090     17.0361     62.4343      0.0000
  1324.0000    337.0779     17.5391     58.4286      0.0000
  1324.2500    336.1438     18.1939     55.4974      0.0000
  1324.5000    345.0638     18.7556     54.2606      0.0000
  1324.7500    381.6283     18.8346     54.2116      0.0000
  1325.0000    454.5628     18.2316     54.4388      0.0000
  1325.2500    539.5443     17.2254     54.3351      0.0000
  1325.5000    598.6388     16.2730     53.6762      0.0000
  1325.7500    622.9443     15.5795     52.3715      0.0000
  1326.0000    630.2745     15.1056     50.5306      0.0000
  1326.2500    636.0102     14.8113     48.7536      0.0000
