~Version Information
VERS.                      2.0: CWLS Log ASCII Standard - VERSION 2.0
WRAP.                       NO: One line per depth step
~Well Information Block
STRT.FT                15.0000: 
STOP.FT              1891.7500: 
STEP.FT                 0.2500: 
NULL.                -999.2500: 
COMP.          Pioneer Natural Resources: COMPANY
WELL.          Oink Oink 14-36 Tr: WELL
FLD.           Purgatoire River: FIELD
LOC.           236' FSL & 164' FWL: LOCATION
PROV.                 Colorado: PROVINCE
CNTY.               Las Animas: COUNTRY
SRVC.                Patterson: SERVICE COMPANY
DATE.          Wed Jun 22 11:40:13 2005: LOG DATE
UWI.           05 071 08393 00: UNIQUE WELL ID
~Curve Information Block
DEPT.FT            0 000 00 00: Depth
GR.GAPI                       : Gamma Ray
CCL.                          : Casing Collar Locator
TT3.usec                      : CBL 3' Travel Time
AMP3.mV                       : CBL 3' Amplitude
~Parameter Information Block
~A  Depth        GR         CCL         TT3         AMP3    
# ...
   986.5000    115.6020      0.0000    632.0057      5.1045
   986.7500    123.5531      0.0000    610.6889      5.0887
   987.0000    131.0662      0.0000    583.8862      5.0853
   987.2500    137.1037      0.0000    557.2480      5.0946
   987.5000    140.4883      0.0000    537.0019      5.1128
   987.7500    140.9841      0.0000    527.4277      5.1376
   988.0000    139.6256      0.0000    530.3236      5.1722
   988.2500    137.9766      0.0000    545.4687      5.2189
   988.5000    137.0314      0.0000    570.2411      5.2719
   988.7500    136.5294      0.0000    598.9785      5.3198
   989.0000    135.2144      0.0000    624.2978      5.3552
   989.2500    132.0136      0.0000    640.5596      5.3795
   989.5000    127.0584      0.0000    646.5974      5.3979
   989.7500    121.4915      0.0000    644.8159      5.4109
   990.0000    116.4343      0.0000    637.6983      5.4102
   990.2500    112.2924      0.0000    625.9284      5.3824
   990.5000    108.8730      0.0000    609.8659      5.3259
   990.7500    105.8634      0.0000    591.1555      5.2698
   991.0000    103.1295      0.0000    572.2278      5.2625
   991.2500    100.7336      0.0000    556.4871      5.3209
   991.5000     98.8630      0.0000    549.9395      5.4008
   991.7500     97.7187      0.0000    558.7969      5.4420
   992.0000     97.4608      0.0000    582.5863      5.4326
   992.2500     98.2635      0.0000    611.5538      5.4041
   992.5000    100.3735      0.0000    632.6031      5.3773
   992.7500    104.0501     -3.0000    637.0075      5.3415
   993.0000    109.1632     -3.0000    623.2823      5.2805
   993.2500    114.6313      0.0000    595.6061      5.2031
   993.5000    118.6746      0.0000    561.5599      5.1460
   993.7500    120.2036      0.0000    531.0012      5.1464
   994.0000    119.8316      0.0000    513.6637      5.2064
   994.2500    119.1817      0.0000    513.1760      5.2881
   994.5000    119.4557      0.0000    522.7347      5.3519
   994.7500    120.9404      0.0000    530.3655      5.3879
   995.0000    123.3634      0.0000    530.3401      5.4031
   995.2500    126.0783      0.0000    527.8690      5.3975
   995.5000    128.1489      0.0000    532.6714      5.3659
   995.7500    128.8282      0.0000    549.9498      5.3113
   996.0000    127.9915      0.0000    577.2022      5.2495
   996.2500    125.8906      0.0000    607.0888      5.2034
   996.5000    122.5594      0.0000    632.4438      5.1929
   996.7500    117.6898      0.0000    649.8617      5.2258
   997.0000    111.1204      0.0000    660.1264      5.2930
   997.2500    103.2039      0.0000    665.9474      5.3744
   997.5000     94.5513      0.0000    669.5400      5.4491
   997.7500     85.6075      0.0000    672.0143      5.5017
   998.0000     76.6946      0.0000    674.0260      5.5228
   998.2500     68.3188      0.0000    676.0622      5.5094
   998.5000     61.1515      0.0000    677.9572      5.4682
   998.7500     55.6705      0.0000    678.6605      5.4144
   999.0000     51.9524      0.0000    676.9812      5.3623
   999.2500     49.8016      0.0000    672.6010      5.3193
   999.5000     48.9874      0.0000    666.2430      5.2896
   999.7500     49.3690      0.0000    659.0305      5.2774
  1000.0000     50.7877      0.0000    652.0360      5.2830
  1000.2500     52.7528      0.0000    646.2988      5.2994
  1000.5000     54.4520      0.0000    642.7914      5.3189
  1000.7500     55.4197      0.0000    642.2599      5.3404
  1001.0000     56.1317      0.0000    645.1675      5.3647
  1001.2500     57.7497      0.0000    651.3618      5.3860
  1001.5000     61.5132      0.0000    659.2813      5.3927
  1001.7500     68.4058      0.0000    665.6209      5.3778
  1002.0000     78.7007      0.0000    666.5098      5.3467
  1002.2500     91.3066      0.0000    659.7192      5.3132
  1002.5000    103.9979      0.0000    645.9277      5.2907
  1002.7500    114.8246      0.0000    627.6516      5.2853
  1003.0000    123.1722      0.0000    606.8069      5.2965
  1003.2500    129.2429      0.0000    583.6812      5.3197
  1003.5000    132.9682      0.0000    558.6347      5.3470
  1003.7500    134.1328      0.0000    534.4647      5.3704
  1004.0000    133.4526      0.0000    516.4457      5.3850
  1004.2500    132.5538      0.0000    509.8008      5.3902
  1004.5000    132.3763      0.0000    516.9077      5.3900
  1004.7500    132.0316      0.0000    536.2898      5.3952
  1005.0000    129.7558      0.0000    563.8040      5.4210
  1005.2500    124.9555      0.0000    595.0111      5.4774
  1005.5000    119.0612      0.0000    626.8436      5.5593
  1005.7500    114.3526      0.0000    657.3497      5.6452
  1006.0000    112.1339      0.0000    684.5627      5.7062
  1006.2500    112.0039      0.0000    706.4078      5.7219
  1006.5000    112.4638      0.0000    721.6888      5.6909
  1006.7500    111.9495      0.0000    730.6097      5.6319
  1007.0000    109.5939      0.0000    734.0173      5.5728
  1007.2500    105.7704      0.0000    731.8385      5.5390
  1007.5000    102.3004      0.0000    721.9159      5.5427
  1007.7500    101.5815      0.0000    700.9894      5.5836
  1008.0000    104.6442      0.0000    668.9886      5.6578
  1008.2500    109.9100      0.0000    633.9742      5.7636
  1008.5000    114.2170      0.0000    611.0448      5.8930
  1008.7500    115.2205      0.0000    612.3801      6.0228
  1009.0000    112.8721      0.0000    636.7766      6.1220
  1009.2500    108.8976      0.0000    670.4985      6.1701
  1009.5000    105.1778      0.0000    698.9178      6.1676
  1009.7500    102.4624      0.0000    716.1035      6.1326
  1010.0000    100.1960      0.0000    723.6693      6.0888
  1010.2500     97.5023      0.0000    723.5894      6.0517
  1010.5000     94.3952      0.0000    714.8682      6.0209
  1010.7500     91.9133      0.0000    697.5002      5.9871
  1011.0000     91.1012      0.0000    677.9307      5.9435
  1011.2500     92.1121      0.0000    667.8590      5.8883
  1011.5000     94.2767      0.0000    675.2839      5.8173
  1011.7500     96.7647      0.0000    696.1313      5.7237
  1012.0000     99.1427      0.0000    716.1057      5.6067
  1012.2500    101.4655      0.0000    721.8339      5.4806
  1012.5000    103.8724      0.0000    710.2337      5.3726
  1012.7500    106.2335      0.0000    688.3312      5.3069
  1013.0000    108.2740      0.0000    666.2931      5.2921
  1013.2500    109.7377      0.0000    651.0233      5.3228
  1013.5000    110.2041      0.0000    644.3848      5.3928
  1013.7500    109.2355      0.0000    645.0310      5.5002
  1014.0000    107.1512      0.0000    650.4481      5.6375
  1014.2500    105.2966      0.0000    657.5260      5.7810
  1014.5000    104.9831      0.0000    662.6390      5.8983
  1014.7500    106.2284      0.0000    662.8513      5.9678
  1015.0000    107.8733      0.0000    657.8099      5.9924
  1015.2500    108.8499      0.0000    649.9703      5.9939
  1015.5000    109.0061      0.0000    642.1951      5.9948
  1015.7500    108.7726      0.0000    634.9734      6.0018
  1016.0000    108.4126      0.0000    626.2458      6.0052
  1016.2500    107.8383      0.0000    614.2952      5.9907
  1016.5000    107.1014      0.0000    601.3829      5.9546
  1016.7500    106.7599      0.0000    594.1978      5.9090
  1017.0000    107.6172      0.0000    599.1464      5.8743
  1017.2500    110.3089      0.0000    616.5090      5.8665
  1017.5000    115.0282      0.0000    640.0035      5.8878
  1017.7500    121.1639      0.0000    662.2212      5.9282
  1018.0000    127.1523      0.0000    679.5752      5.9741
  1018.2500    131.1862      0.0000    692.3414      6.0183
  1018.5000    132.3483      0.0000    701.8122      6.0628
  1018.7500    131.0874      0.0000    708.5688      6.1133
  1019.0000    128.7649      0.0000    712.7852      6.1692
  1019.2500    126.8366      0.0000    714.9314      6.2212
  1019.5000    126.3160      0.0000    715.8035      6.2583
  1019.7500    127.7095      0.0000    716.1579      6.2745
