~Version Information
VERS.                      2.0: CWLS Log ASCII Standard - VERSION 2.0
WRAP.                       NO: One line per depth step
~Well Information Block
STRT.FT               236.5000: 
STOP.FT              2818.2500: 
STEP.FT                 0.2500: 
NULL.                -999.2500: 
COMP.          Pioneer Natural Resources: COMPANY
WELL.            Sebring 42-29: WELL
FLD.           Purgatorie River: FIELD
LOC.           1751' FNL & 584' FEL--: LOCATION
PROV.                       CO: PROVINCE
CNTY.               Las Animas: COUNTRY
SRVC.          Patterson Wireline: SERVICE COMPANY
DATE.          Fri Aug 26 09:14:13 2005: LOG DATE
UWI.           05 071 08293 00: UNIQUE WELL ID
~Curve Information Block
DEPT.FT            0 000 00 00: Depth
CCL.                          : Casing Collar Locator
TT3.usec                      : CBL 3' Travel Time
AMP3.mV                       : CBL 3' Amplitude
GR.GAPI                       : Gamma Ray
~Parameter Information Block
~A  Depth       CCL         TT3         AMP3         GR     
# ...
  2280.0000      0.0000    551.2752      3.9731    136.8435
  2280.2500      0.0000    570.1265      4.0800    136.6017
  2280.5000      0.0000    590.7595      4.1623    135.3503
  2280.7500      0.0000    606.2313      4.2014    133.5739
  2281.0000      0.0000    616.2359      4.2009    133.0456
  2281.2500      0.0000    623.5818      4.1723    135.9142
  2281.5000      0.0000    629.9214      4.1191    142.8492
  2281.7500      0.0000    634.6130      4.0411    152.0401
  2282.0000      0.0000    636.2641      3.9494    160.4986
  2282.2500      0.0000    634.9039      3.8699    166.2657
  2282.5000      0.0000    632.7552      3.8243    168.8780
  2282.7500      0.0000    632.6646      3.8086    168.2353
  2283.0000      0.0000    635.5540      3.7957    164.4603
  2283.2500      0.0000    639.5406      3.7583    159.0758
  2283.5000      0.0000    641.6406      3.6882    155.1313
  2283.7500      0.0000    640.3187      3.5958    155.3212
  2284.0000      0.0000    636.5879      3.4967    159.7814
  2284.2500      0.0000    633.0242      3.4000    165.5732
  2284.5000      0.0000    631.8236      3.3065    168.6124
  2284.7500      0.0000    633.4324      3.2143    166.7770
  2285.0000      0.0000    636.5844      3.1251    161.1626
  2285.2500      0.0000    639.4857      3.0449    154.3848
  2285.5000      0.0000    641.1036      2.9784    148.4040
  2285.7500      0.0000    641.6039      2.9239    143.9032
  2286.0000      0.0000    641.9439      2.8749    140.4602
  2286.2500      0.0000    643.2369      2.8260    136.9170
  2286.5000      0.0000    646.0421      2.7777    132.3741
  2286.7500      0.0000    649.7929      2.7354    127.1115
  2287.0000      0.0000    653.0851      2.7051    122.3373
  2287.2500      0.0000    654.9597      2.6928    119.1877
  2287.5000      0.0000    655.5703      2.7080    117.8923
  2287.7500      0.0000    655.1237      2.7609    117.4451
  2288.0000      0.0000    652.7638      2.8452    116.2357
  2288.2500      0.0000    647.3677      2.9290    113.3469
  2288.5000      0.0000    639.2893      2.9767    109.0719
  2288.7500      0.0000    630.6946      2.9834    104.0047
  2289.0000      0.0000    624.2033      2.9748     97.9460
  2289.2500      0.0000    621.6895      2.9766     90.0422
  2289.5000      2.0000    624.1876      2.9931     80.0192
  2289.7500      0.0000    631.5792      3.0171     69.1418
  2290.0000      0.0000    641.2853      3.0484     59.8678
  2290.2500      0.0000    648.0475      3.0930     54.5299
  2290.5000      0.0000    646.8639      3.1371     54.1294
  2290.7500      0.0000    636.9750      3.1318     58.0020
  2291.0000      0.0000    622.4343      3.0300     64.2398
  2291.2500      0.0000    608.7628      2.8424     70.5398
  2291.5000      0.0000    599.5293      2.6387     75.1772
  2291.7500      0.0000    595.6271      2.4872     77.4977
  2292.0000      0.0000    596.3318      2.4087     77.5871
  2292.2500      0.0000    600.1833      2.3854     75.7624
  2292.5000      0.0000    605.2712      2.3919     72.6437
  2292.7500      0.0000    609.6307      2.4107     69.3640
  2293.0000      0.0000    611.9781      2.4325     67.0028
  2293.2500      0.0000    612.2507      2.4523     65.6819
  2293.5000      0.0000    611.6060      2.4694     64.6652
  2293.7500      0.0000    611.9147      2.4883     63.5653
  2294.0000      0.0000    615.0401      2.5159     63.3171
  2294.2500      0.0000    622.1128      2.5566     65.9179
  2294.5000      0.0000    632.6998      2.6086     73.2132
  2294.7500      0.0000    644.0889      2.6650     85.6568
  2295.0000      0.0000    652.1118      2.7185    101.7259
  2295.2500      0.0000    654.1594      2.7655    118.3070
  2295.5000      0.0000    651.6463      2.8060    132.0828
  2295.7500      0.0000    648.6702      2.8408    141.2758
  2296.0000      0.0000    648.1195      2.8677    146.3795
  2296.2500      0.0000    649.5981      2.8828    149.1790
  2296.5000      0.0000    650.9424      2.8834    151.0713
  2296.7500      0.0000    650.8123      2.8710    152.2639
  2297.0000      0.0000    649.4631      2.8502    152.1617
  2297.2500      0.0000    647.8040      2.8255    150.2694
  2297.5000      0.0000    646.5294      2.8008    146.8454
  2297.7500      0.0000    646.0585      2.7799    142.6795
  2298.0000      0.0000    646.7352      2.7661    138.3162
  2298.2500      0.0000    648.6841      2.7634    133.7853
  2298.5000      0.0000    651.3822      2.7758    128.9803
  2298.7500      0.0000    653.4977      2.8055    123.9343
  2299.0000      0.0000    653.4544      2.8495    118.8023
  2299.2500      0.0000    650.4824      2.8992    113.6706
  2299.5000      0.0000    645.2881      2.9454    108.1263
  2299.7500      0.0000    639.6570      2.9820    101.0598
  2300.0000      0.0000    635.2582      3.0069     91.6801
  2300.2500      0.0000    632.7447      3.0206     81.1330
  2300.5000      0.0000    631.8710      3.0254     72.4220
  2300.7500      0.0000    632.2069      3.0244     68.0672
  2301.0000      0.0000    633.6496      3.0210     67.9697
  2301.2500      0.0000    636.3388      3.0185     69.7182
  2301.5000      0.0000    640.0982      3.0224     70.6712
  2301.7500      0.0000    644.0524      3.0399     69.5102
  2302.0000      0.0000    647.2255      3.0735     66.2068
  2302.2500      0.0000    649.8405      3.1179     61.3659
  2302.5000      0.0000    653.5391      3.1616     55.9800
  2302.7500      0.0000    659.6793      3.1932     51.3673
  2303.0000      0.0000    667.6144      3.2052     48.7737
  2303.2500      0.0000    675.1306      3.1977     48.7442
  2303.5000      0.0000    680.3442      3.1786     50.7640
  2303.7500      0.0000    682.6923      3.1600     53.5088
  2304.0000      0.0000    682.3685      3.1509     55.7612
  2304.2500      0.0000    679.6556      3.1544     57.4026
  2304.5000      0.0000    675.2650      3.1693     59.3744
  2304.7500      0.0000    670.9349      3.1908     62.2783
  2305.0000      0.0000    668.9020      3.2119     65.1841
  2305.2500      0.0000    670.3171      3.2257     66.3333
  2305.5000      0.0000    674.2935      3.2278     64.9701
  2305.7500      0.0000    678.6904      3.2180     61.9775
  2306.0000      0.0000    681.7711      3.2002     58.7335
  2306.2500      0.0000    683.0840      3.1803     55.9317
  2306.5000      0.0000    683.0723      3.1633     53.6157
  2306.7500      0.0000    682.1875      3.1503     51.8289
  2307.0000      0.0000    680.3853      3.1388     50.8585
  2307.2500      0.0000    677.3394      3.1270     50.9482
  2307.5000      0.0000    672.9792      3.1175     51.9793
  2307.7500      0.0000    667.5143      3.1161     53.5900
  2308.0000      0.0000    660.5883      3.1272     55.6293
  2308.2500      0.0000    650.9174      3.1511     58.3118
  2308.5000      0.0000    638.0198      3.1832     61.7938
  2308.7500      0.0000    624.6279      3.2169     65.6166
  2309.0000      0.0000    616.0207      3.2464     68.6408
  2309.2500      0.0000    615.8613      3.2696     69.6353
  2309.5000      0.0000    623.1613      3.2880     68.1323
  2309.7500      0.0000    633.3764      3.3060     64.8383
  2310.0000      0.0000    640.6956      3.3267     61.1052
  2310.2500      0.0000    638.9120      3.3516     57.9911
  2310.5000      0.0000    623.4638      3.3823     55.9949
  2310.7500      0.0000    596.4744      3.4240     55.6552
  2311.0000      0.0000    569.4871      3.4841     58.0849
  2311.2500      0.0000    557.5058      3.5663     64.6121
  2311.5000      0.0000    567.6566      3.6669     75.6927
  2311.7500      0.0000    593.7495      3.7762     90.0085
  2312.0000      0.0000    621.9890      3.8847    104.7462
  2312.2500      0.0000    641.1929      3.9883    117.2702
  2312.5000      0.0000    648.1785      4.0873    126.7993
  2312.7500      0.0000    646.0861      4.1790    134.2295
  2313.0000      0.0000    639.6749      4.2516    140.6620
  2313.2500      0.0000    631.8198      4.2881    146.7620
