~Version Information
 VERS.                                  2.0 : CWLS LAS VERSION
 WRAP.                                   NO : WRAPING MODE
 SWARE .                 MController 2.5.0J : SOFTWARE VERSION
~Well Information
 WELL.                    Oink-Oink 14-36Tr : WELL
 COMP.    Pioneer Natural Resources USA Inc : COMPANY
 FLD.                      Purgatoire River : FIELD
 LOC.                SW/SW Sec 36 T32S R67W : LOCATION
 DATE.                         6/09-10/2005 : DATE(S) LOGGED
 SRVC.       Blanco Geological Services LLC : SERVICE COMPANY
 STAT.                                   CO : STATE
 CNTY.                           Las Animas : COUNTY
 CTRY.                                  USA : COUNTRY
 API.                       05-071-08393-00 : API NUMBER
 STRT.FT                             231.00 : START DEPTH
 STOP.FT                            1924.00 : STOP DEPTH
 STEP.FT                               1.00 : DEPTH INCREMENT
 NULL.                                -9999 : NULL VALUE
~Curve information
 DEPTH.FT                                   :
 ROP.MIN/FT                                 :
 GAS.UNITS                                  :
~ASCII Log data
# ...
       431.0         0.20          1.2 
       432.0         0.20          1.4 
       433.0         0.23          1.1 
       434.0         0.20          1.4 
       435.0         0.20          1.5 
       436.0         0.17          1.2 
       437.0         0.20          1.3 
       438.0         0.17          1.4 
       439.0         0.18          1.1 
       440.0         0.17          1.7 
       441.0         0.17          1.6 
       442.0         0.20          1.1 
       443.0         0.17          0.7 
       444.0         0.13          1.1 
       445.0         0.17          0.7 
       446.0         1.50          0.1 
       447.0         0.23          2.4 
       448.0         0.23          2.7 
       449.0         0.25          2.6 
       450.0         0.23          2.9 
       451.0         0.23          3.0 
       452.0         0.23          3.4 
       453.0         0.23          2.9 
       454.0         0.23          2.5 
       455.0         0.23          2.7 
       456.0         0.27          2.8 
       457.0         0.23          2.8 
       458.0         0.23          2.0 
       459.0         0.23          2.1 
       460.0         0.23         63.4 
       461.0         0.27         60.6 
       462.0         0.23         32.5 
       463.0         0.25         14.2 
       464.0         0.27          6.6 
       465.0         0.23          2.9 
       466.0         0.27          1.4 
       467.0         0.27          0.1 
       468.0         0.23         -0.1 
       469.0         0.20          0.5 
       470.0         0.23          1.4 
       471.0         0.20          2.0 
       472.0         0.20          1.7 
       473.0         0.23          2.1 
       474.0         0.20          2.1 
       475.0         0.20          2.4 
       476.0         2.12          2.6 
       477.0         0.37          3.4 
       478.0         0.27          3.6 
       479.0         0.17          3.5 
       480.0         0.33          3.0 
       481.0         0.23          3.2 
       482.0         0.30          2.4 
       483.0         0.22          2.5 
       484.0         0.17          2.9 
       485.0         0.20          2.3 
       486.0         0.23          2.8 
       487.0         0.20          3.2 
       488.0         0.27          3.1 
       489.0         0.27          3.8 
       490.0         0.23          2.4 
       491.0         0.23          2.6 
       492.0         0.23          3.0 
       493.0         0.30          2.9 
       494.0         0.27          2.8 
       495.0         0.20          2.4 
       496.0         0.23          1.9 
       497.0         0.20          3.2 
       498.0         0.22          3.1 
       499.0         0.27          3.8 
       500.0         0.27          3.3 
       501.0         0.23          3.3 
       502.0         0.20          2.8 
       503.0         0.23          2.7 
       504.0         0.20          2.9 
       505.0         0.23          2.9 
       506.0         1.40          3.3 
       507.0         0.32          3.2 
       508.0         0.23          3.6 
       509.0         0.27          3.1 
       510.0         0.27          4.2 
       511.0         0.17          5.6 
       512.0         0.10          7.9 
       513.0         0.17          9.6 
       514.0         0.17         10.4 
       515.0         0.20          9.1 
       516.0         0.20         11.7 
       517.0         0.17         29.4 
       518.0         0.23         90.0 
       519.0         0.23        133.7 
       520.0         0.27        144.5 
       521.0         0.17        141.8 
       522.0         0.20        138.6 
       523.0         0.18        138.7 
       524.0         0.23        140.2 
       525.0         0.20        140.8 
       526.0         0.23        137.8 
       527.0         0.27        134.6 
       528.0         0.17        133.5 
       529.0         0.27        133.0 
       530.0         0.27        133.4 
       531.0         0.23        132.3 
       532.0         0.17        132.1 
       533.0         0.20        132.5 
       534.0         0.17        133.7 
       535.0         0.30        134.1 
       536.0         1.45         89.7 
       537.0         0.63        162.9 
       538.0         0.30        310.3 
       539.0         0.27        327.8 
       540.0         0.23        286.1 
       541.0         0.27        227.4 
       542.0         0.20        192.1 
       543.0         0.13        176.8 
       544.0         0.17        162.0 
       545.0         0.20        149.2 
       546.0         0.35        133.6 
       547.0         0.20        126.1 
       548.0         0.23        121.9 
       549.0         0.17        125.4 
       550.0         0.23        131.6 
       551.0         0.17        133.3 
       552.0         0.20        133.4 
       553.0         0.17        132.5 
       554.0         0.17        132.1 
       555.0         0.13        129.9 
       556.0         0.13        127.3 
       557.0         0.13        123.9 
       558.0         0.13        121.3 
       559.0         0.13        118.6 
       560.0         0.07        117.5 
       561.0         0.10        116.4 
       562.0         0.10        115.4 
       563.0         0.13        119.0 
       564.0         0.20        128.7 
       565.0         0.17        137.1 
       566.0         1.92        108.6 
       567.0         0.23        136.1 
       568.0         0.20        231.7 
       569.0         0.17        311.4 
       570.0         0.23        329.1 
       571.0         0.20        291.1 
       572.0         0.62        178.1 
       573.0         0.27        154.8 
       574.0         0.63        131.1 
       575.0         0.23        128.1 
       576.0         0.20        125.9 
       577.0         0.23        124.2 
       578.0         0.23        121.7 
       579.0         0.20        115.7 
       580.0         0.20        114.1 
       581.0         0.20        116.9 
       582.0         0.17        119.1 
       583.0         0.10        119.1 
       584.0         0.13        120.3 
       585.0         0.23        119.6 
       586.0         0.22        115.9 
       587.0         0.17        116.9 
       588.0         0.20        128.5 
       589.0         0.20        167.5 
       590.0         0.17        198.9 
       591.0         0.23        221.5 
       592.0         0.13        220.6 
       593.0         0.37        215.8 
       594.0         0.17        208.2 
       595.0         0.30        171.4 
       596.0         1.58        914.5 
       597.0         0.40        683.2 
       598.0         0.27        559.9 
       599.0         0.23        479.4 
       600.0         0.50        450.6 
       601.0         0.27        440.0 
       602.0         0.27        222.9 
       603.0         0.27        200.8 
       604.0         0.27        202.6 
       605.0         0.23        216.2 
       606.0         0.27        224.9 
       607.0         0.28        226.1 
       608.0         0.30        218.1 
       609.0         0.23        212.1 
       610.0         0.20        206.9 
       611.0         0.20        202.2 
       612.0         0.30        193.4 
       613.0         0.23        191.1 
       614.0         0.23        191.2 
       615.0         0.20        191.7 
       616.0         0.20        191.9 
       617.0         0.20        193.1 
       618.0         0.23        191.7 
       619.0         0.20        190.8 
       620.0         0.23        193.6 
       621.0         0.20        195.3 
       622.0         0.25        194.3 
       623.0         0.23        192.8 
       624.0         0.20        191.2 
       625.0         0.33        188.5 
       626.0         6.10       7269.7 
       627.0         0.33       5055.9 
       628.0         0.47       1792.6 
       629.0         0.33       1079.4 
       630.0         0.23        832.4 
