~Version Information
VERS.                      2.0: CWLS Log ASCII Standard - VERSION 2.0
WRAP.                       NO: One line per depth step
~Well Information Block
STRT.FT               745.0000: 
STOP.FT              2945.7000: 
STEP.FT                 0.1000: 
NULL.                -999.2500: 
COMP.          Pioneer Natural Resources: COMPANY
WELL.          Old Yeller 31-32: WELL
FLD.           Purgatoire River: FIELD
LOC.           1832' FEL & 793' FNL--: LOCATION
STAT.                 Colorado: State
CNTY.               Las Animas: COUNTY
CTRY. USA : Country
SECT. 32 : Section
TOWN. 32S : Township
RANG. 67W : Range
SRVC.                Patterson: SERVICE COMPANY
DATE.          Mon Aug 29 11:12:35 2005: LOG DATE
API.           05 071 08356 00: UNIQUE WELL ID
~Curve Information Block
DEPT.FT            0 000 00 00: Depth
DCAL.in                       : CDL Caliper
RHOB.g/cc                     : CDL Bulk Density
RHOC.g/cc                     : CDL Density Correction
DPOR.pu                       : CDL Density Porosity
NPOR.pu                       : Neutron Porosity
GR.GAPI                       : Gamma Ray
~Parameter Information Block
~A  Depth       DCAL        RHOB        RHOC        DPOR        NPOR         GR     
   745.0000      8.1575      2.5098     -0.2196      8.4978     41.7333     87.3293
   745.1000      8.1575      2.5424     -0.1747      6.5215     42.1348     83.6922
   745.2000      8.1575      2.5673     -0.1690      5.0133     42.4284     78.1021
   745.3000      8.1573      2.5581     -0.1464      5.5667     42.3856     71.9065
   745.4000      8.1573      2.5175     -0.1747      8.0303     42.0880     68.2514
   745.5000      8.1564      2.4889     -0.2465      9.7645     41.7757     68.6192
   745.6000      8.1564      2.5038     -0.2011      8.8583     41.4166     72.3818
   745.7000      8.1564      2.5314     -0.1401      7.1893     41.0771     77.5222
   745.8000      8.1580      2.5302     -0.2070      7.2635     41.0363     81.6706
   745.9000      8.1580      2.5074     -0.1840      8.6438     41.1417     84.4602
   746.0000      8.1595      2.4930     -0.1943      9.5158     41.0650     87.0750
   746.1000      8.1595      2.4987     -0.1889      9.1673     40.8777     89.3258
   746.2000      8.1595      2.5147     -0.2039      8.2020     40.8770     90.1037
   746.3000      8.1599      2.5317     -0.2500      7.1716     41.2418     91.0767
   746.4000      8.1599      2.5465     -0.1856      6.2751     41.8018     92.6203
   746.5000      8.1603      2.5555     -0.2303      5.7288     42.1543     92.2221
   746.6000      8.1603      2.5679     -0.2511      4.9732     42.1992     91.5145
   746.7000      8.1603      2.5857     -0.1851      3.8987     42.2181     93.0724
   746.8000      8.1608      2.5860     -0.1413      3.8789     42.2242     95.7502
   746.9000      8.1608      2.5560     -0.1850      5.6951     42.0142     96.6291
   747.0000      8.1618      2.5088     -0.2170      8.5576     41.8012     93.6097
   747.1000      8.1618      2.4715     -0.2575     10.8180     41.7994     89.1389
   747.2000      8.1618      2.4653     -0.2988     11.1934     41.8305     86.6579
   747.3000      8.1641      2.4800     -0.2968     10.3001     41.8081     85.3891
   747.4000      8.1641      2.4863     -0.2149      9.9221     41.6837     83.1722
   747.5000      8.1676      2.4910     -0.2995      9.6385     41.3559     79.7752
   747.6000      8.1676      2.5249     -0.2379      7.5836     41.0338     77.6403
   747.7000      8.1676      2.5637     -0.1474      5.2332     41.0290     79.1300
   747.8000      8.1689      2.5639     -0.2170      5.2206     41.2178     82.7620
   747.9000      8.1689      2.5392     -0.2578      6.7136     41.2028     83.4778
   748.0000      8.1678      2.5157     -0.2821      8.1370     41.0359     81.8905
   748.1000      8.1678      2.4919     -0.2297      9.5814     41.0955     83.8003
   748.2000      8.1678      2.4681     -0.2751     11.0215     41.2369     89.3830
   748.3000      8.1683      2.4570     -0.3061     11.6961     41.1445     93.3721
   748.4000      8.1683      2.4675     -0.3222     11.0585     40.9664     90.8827
   748.5000      8.1695      2.4892     -0.2193      9.7480     40.9246     84.4712
   748.6000      8.1695      2.4967     -0.2581      9.2922     41.0051     82.2585
   748.7000      8.1695      2.4851     -0.2447      9.9961     41.0913     85.2633
   748.8000      8.1693      2.4722     -0.2452     10.7786     41.0891     85.3740
   748.9000      8.1693      2.4715     -0.2458     10.8203     40.8054     81.1143
   749.0000      8.1681      2.4837     -0.2697     10.0799     40.3664     79.8397
   749.1000      8.1681      2.4962     -0.2310      9.3213     40.1013     84.4209
   749.2000      8.1681      2.4929     -0.2323      9.5216     39.9690     88.4627
   749.3000      8.1667      2.4757     -0.2341     10.5608     39.7988     87.2390
   749.4000      8.1667      2.4560     -0.2369     11.7552     39.6065     85.3589
   749.5000      8.1671      2.4473     -0.3130     12.2859     39.5281     85.6968
   749.6000      8.1671      2.4622     -0.2639     11.3845     39.7176     84.3732
   749.7000      8.1671      2.4937     -0.2592      9.4701     40.0652     80.6724
   749.8000      8.1692      2.5271     -0.2020      7.4458     40.2679     78.7865
   749.9000      8.1692      2.5578     -0.1795      5.5859     40.2198     78.7106
   750.0000      8.1717      2.6029     -0.2259      2.8554     40.0386     78.2287
   750.1000      8.1717      2.6624     -0.1434     -0.7493     40.0683     78.4116
   750.2000      8.1717      2.6816     -0.0918     -1.9180     40.4349     78.0825
   750.3000      8.1713      2.6314     -0.1644      1.1262     40.6598     74.0906
   750.4000      8.1713      2.5550     -0.2093      5.7554     40.4306     68.7632
   750.5000      8.1688      2.4946     -0.2131      9.4176     40.0716     67.0640
   750.6000      8.1688      2.4616     -0.2498     11.4169     39.9244     69.5413
   750.7000      8.1688      2.4626     -0.2566     11.3547     39.9856     74.3760
   750.8000      8.1692      2.4901     -0.2439      9.6907     40.0335     79.5082
   750.9000      8.1692      2.5173     -0.1895      8.0418     39.8587     81.3748
   751.0000      8.1706      2.5297     -0.2484      7.2898     39.7318     80.1617
   751.1000      8.1706      2.5362     -0.2045      6.8952     39.9770     79.3293
   751.2000      8.1706      2.5387     -0.3029      6.7479     40.2564     79.4935
   751.3000      8.1691      2.5289     -0.1892      7.3386     40.3687     80.1163
   751.4000      8.1691      2.5084     -0.2625      8.5817     40.5563     78.9917
   751.5000      8.1658      2.4945     -0.2546      9.4225     40.7338     74.3488
   751.6000      8.1658      2.5051     -0.2918      8.7789     40.7615     71.1086
   751.7000      8.1658      2.5452     -0.2388      6.3521     40.8074     74.7597
   751.8000      8.1658      2.5979     -0.2020      3.1552     40.8267     81.3403
   751.9000      8.1658      2.6363     -0.1524      0.8301     40.5751     81.7687
   752.0000      8.1689      2.6348     -0.1325      0.9217     40.0450     76.0227
   752.1000      8.1689      2.5889     -0.1804      3.7060     39.5487     72.3999
   752.2000      8.1689      2.5304     -0.2610      7.2491     39.3720     73.7552
   752.3000      8.1708      2.4978     -0.3594      9.2216     39.3121     76.5222
   752.4000      8.1708      2.5030     -0.2768      8.9091     39.1965     76.7986
   752.5000      8.1691      2.5393     -0.2928      6.7108     39.1456     74.1188
   752.6000      8.1691      2.5877     -0.1663      3.7743     39.0844     70.6071
   752.7000      8.1691      2.6092     -0.1585      2.4739     38.9452     66.9889
   752.8000      8.1663      2.5925     -0.2267      3.4854     38.9249     64.0924
   752.9000      8.1663      2.5746     -0.2025      4.5703     39.0215     64.8119
   753.0000      8.1663      2.5900     -0.2268      3.6370     39.0100     68.7246
   753.1000      8.1663      2.6358     -0.2079      0.8598     38.8231     70.8609
   753.2000      8.1663      2.6744     -0.1564     -1.4760     38.5550     70.4739
   753.3000      8.1666      2.6821     -0.2083     -1.9467     38.4024     69.5295
   753.4000      8.1666      2.6686     -0.1727     -1.1288     38.5488     68.7434
   753.5000      8.1655      2.6394     -0.1947      0.6450     38.9128     69.8623
   753.6000      8.1655      2.6079     -0.2449      2.5529     39.2244     71.9315
   753.7000      8.1655      2.6088     -0.2347      2.4997     39.3462     72.8381
   753.8000      8.1656      2.6675     -0.2193     -1.0611     39.3901     73.7880
   753.9000      8.1656      2.7839     -0.1668     -8.1138     39.6282     74.1820
   754.0000      8.1684      2.9109     -0.0369    -15.8102     40.0256     72.6576
   754.1000      8.1684      2.9713     -0.0715    -19.4719     40.4775     70.6619
   754.2000      8.1684      2.9416     -0.1245    -17.6705     41.1567     70.0457
   754.3000      8.1717      2.8614     -0.1817    -12.8125     42.0610     72.4467
   754.4000      8.1717      2.7428     -0.1797     -5.6232     42.9588     76.8838
   754.5000      8.1734      2.5695     -0.2481      4.8791     43.6900     79.7902
