~Version Information
VERS.                      2.0: CWLS Log ASCII Standard - VERSION 2.0
WRAP.                       NO: One line per depth step
~Well Information Block
STRT.FT                -6.5000: 
STOP.FT              2698.5000: 
STEP.FT                 0.2500: 
NULL.                -999.2500: 
COMP.          Pioneer Natural Resources: COMPANY
WELL.              Cluck 21-25: WELL
FLD.           Purgatorie River: FIELD
LOC.           91' FNL & 1834' FWL--: LOCATION
PROV.                       CO: PROVINCE
CNTY.               Las Animas: COUNTRY
SRVC.          Patterson Wireline: SERVICE COMPANY
DATE.          Mon Jun 13 14:54:35 2005: LOG DATE
UWI.           05 071 08397 00: UNIQUE WELL ID
~Curve Information Block
DEPT.FT            0 000 00 00: Depth
CCL.                          : Casing Collar Locator
TT3.usec                      : CBL 3' Travel Time
AMP3.mV                       : CBL 3' Amplitude
GR.GAPI                       : Gamma Ray
~Parameter Information Block
~A  Depth       CCL         TT3         AMP3         GR     
# ...
   898.0000      0.0000    796.7352      5.5512    138.6356
   898.2500      0.0000    797.6500      5.6855    138.7719
   898.5000      0.0000    799.7457      5.7986    139.4444
   898.7500      0.0000    801.9100      5.8276    140.3157
   899.0000      0.0000    803.0148      5.7450    140.4714
   899.2500      0.0000    802.3586      5.5837    139.0399
   899.5000      0.0000    799.4365      5.4078    136.0226
   899.7500      0.0000    794.2855      5.2522    132.3597
   900.0000      0.0000    788.2220      5.0968    129.4836
   900.2500      0.0000    783.3257      4.9056    128.8803
   900.5000      0.0000    781.1326      4.6742    131.3347
   900.7500      0.0000    782.4009      4.4365    136.0704
   901.0000      0.0000    787.7820      4.2523    140.9454
   901.2500      0.0000    797.5374      4.1853    144.0379
   901.5000      0.0000    809.8099      4.2524    145.0529
   901.7500      0.0000    819.7643      4.3920    145.1204
   902.0000      0.0000    822.3404      4.5196    145.3491
   902.2500      0.0000    817.3049      4.6071    145.7346
   902.5000      0.0000    810.7212      4.6820    145.5558
   902.7500      0.0000    809.6723      4.7689    144.6776
   903.0000     -2.0000    815.7369      4.8578    143.9681
   903.2500      0.0000    824.6932      4.9136    144.1160
   903.5000      0.0000    831.2920      4.9084    144.4500
   903.7500      0.0000    832.3843      4.8550    143.5575
   904.0000      0.0000    826.9360      4.8069    140.9260
   904.2500      0.0000    816.0450      4.8103    137.4195
   904.5000      0.0000    803.0297      4.8657    134.1369
   904.7500      0.0000    791.7205      4.9509    131.4518
   905.0000      0.0000    784.1091      5.0579    129.2952
   905.2500      0.0000    779.9561      5.1751    127.6971
   905.5000      0.0000    778.3193      5.2550    126.6902
   905.7500      0.0000    778.8796      5.2455    126.0448
   906.0000      0.0000    781.7203      5.1561    125.2290
   906.2500      0.0000    786.2250      5.0660    123.6491
   906.5000      0.0000    790.8751      5.0539    121.1732
   906.7500      0.0000    794.7753      5.1333    118.4034
   907.0000      0.0000    799.1415      5.2623    116.2198
   907.2500      0.0000    806.3812      5.3948    115.2821
   907.5000      0.0000    817.5550      5.5117    116.0569
   907.7500      0.0000    831.3657      5.6229    118.6098
   908.0000      0.0000    845.4042      5.7560    121.7767
   908.2500      0.0000    857.4089      5.9250    123.1924
   908.5000      0.0000    865.6316      6.0977    121.1825
   908.7500      0.0000    869.3998      6.2052    116.7340
   909.0000      0.0000    869.6259      6.1917    113.0393
   909.2500      0.0000    867.9681      6.0582    113.0242
   909.5000      0.0000    865.1427      5.8606    117.4717
   909.7500      0.0000    860.1142      5.6607    125.0151
   910.0000      0.0000    850.9232      5.4729    133.1867
   910.2500      0.0000    836.6397      5.2697    139.6640
   910.5000      0.0000    819.0957      5.0408    143.3156
   910.7500      0.0000    802.8348      4.8308    144.4407
   911.0000      0.0000    792.9771      4.7055    143.9796
   911.2500      0.0000    792.5140      4.6910    142.4702
   911.5000      0.0000    800.7387      4.7574    139.7879
   911.7500      0.0000    813.6259      4.8576    135.7902
   912.0000      0.0000    826.1197      4.9686    130.8869
   912.2500      0.0000    834.8597      5.0896    125.6304
   912.5000      0.0000    839.0969      5.2124    120.0895
   912.7500      0.0000    839.5150      5.3069    114.4066
   913.0000      0.0000    836.9673      5.3367    109.7900
   913.2500      0.0000    832.0791      5.2874    108.0344
   913.5000      0.0000    825.1766      5.1839    109.8639
   913.7500      0.0000    816.6157      5.0765    114.0219
   914.0000      0.0000    807.8068      5.0012    118.1264
   914.2500      0.0000    801.7443      4.9539    120.7026
   914.5000      0.0000    801.7638      4.9049    122.4696
   914.7500      0.0000    809.1726      4.8373    125.2102
   915.0000      0.0000    821.6865      4.7679    129.5251
   915.2500      0.0000    834.1785      4.7309    134.3528
   915.5000      0.0000    841.5157      4.7475    138.3369
   915.7500      0.0000    841.2191      4.8132    140.7477
   916.0000      0.0000    834.1808      4.9043    141.4089
   916.2500      0.0000    824.0536      4.9872    140.6852
   916.5000      0.0000    815.9651      5.0354    139.4958
   916.7500      0.0000    813.9945      5.0499    138.6492
   917.0000      0.0000    818.4819      5.0659    137.9225
   917.2500      0.0000    825.9304      5.1240    135.9557
   917.5000      0.0000    831.9824      5.2275    131.3591
   917.7500      0.0000    834.4946      5.3347    124.2398
   918.0000      0.0000    834.0875      5.4022    116.6627
   918.2500      0.0000    832.5295      5.4261    111.3758
   918.5000      0.0000    831.1068      5.4253    109.7282
   918.7500      0.0000    830.1915      5.3960    110.6826
   919.0000      0.0000    829.6196      5.3093    112.1742
   919.2500      0.0000    829.1254      5.1602    113.3866
   919.5000      0.0000    828.5839      4.9994    114.9689
   919.7500      0.0000    827.9760      4.9010    117.1992
   920.0000      0.0000    827.1063      4.8985    119.2010
   920.2500      0.0000    825.2519      4.9609    120.2477
   920.5000      0.0000    821.1990      5.0339    120.9292
   920.7500      0.0000    813.8625      5.0906    122.7950
   921.0000      0.0000    802.9935      5.1317    127.1681
   921.2500      0.0000    789.1037      5.1561    133.9934
   921.5000      0.0000    772.8043      5.1543    141.2843
   921.7500      0.0000    754.8585      5.1250    145.8513
   922.0000      0.0000    737.1279      5.0800    145.2702
   922.2500      0.0000    722.9266      5.0342    139.8375
   922.5000      0.0000    716.2054      4.9943    132.7418
   922.7500      0.0000    720.3338      4.9535    127.8364
   923.0000      0.0000    736.4946      4.9002    126.6702
   923.2500      0.0000    761.5321      4.8423    127.6867
   923.5000      0.0000    787.4240      4.8134    128.3454
   923.7500      0.0000    804.9827      4.8433    127.5924
   924.0000      0.0000    809.6489      4.9254    126.1497
   924.2500      0.0000    803.7553      5.0172    125.1775
   924.5000      0.0000    793.6091      5.0719    125.2017
   924.7500      0.0000    785.2011      5.0761    126.0327
   925.0000      0.0000    782.1515      5.0602    127.1635
   925.2500      0.0000    785.7958      5.0610    128.0784
   925.5000      0.0000    795.6658      5.0706    128.2340
   925.7500      0.0000    809.5624      5.0412    127.1361
   926.0000      0.0000    823.8365      4.9431    124.8656
   926.2500      0.0000    834.4573      4.7951    122.4593
   926.5000      0.0000    838.5774      4.6335    121.3040
   926.7500      0.0000    835.5673      4.4741    121.8063
   927.0000      0.0000    826.8843      4.3090    122.4964
   927.2500      0.0000    815.1512      4.1193    120.6081
   927.5000      0.0000    803.1750      3.8923    113.8643
   927.7500      0.0000    793.2519      3.6408    102.0109
   928.0000      0.0000    786.6802      3.3954     87.0311
   928.2500      0.0000    783.1794      3.1659     72.0586
   928.5000      0.0000    780.4197      2.9294     59.6582
   928.7500      0.0000    774.8073      2.6752     50.7364
   929.0000      0.0000    763.9832      2.4376     44.8691
   929.2500      0.0000    748.9980      2.2547     41.3474
   929.5000      0.0000    733.5473      2.1099     39.8655
   929.7500      0.0000    721.0696      1.9519     40.6380
   930.0000      0.0000    713.2675      1.7669     43.9199
   930.2500      0.0000    711.2498      1.5989     49.1639
   930.5000      0.0000    716.7142      1.4965     54.8966
   930.7500      0.0000    730.6035      1.4653     59.8863
   931.0000      0.0000    750.4122      1.4736     64.3398
   931.2500      0.0000    770.0236      1.4824     69.7355
