~Version Information
VERS.                      2.0: CWLS Log ASCII Standard - VERSION 2.0
WRAP.                       NO: One line per depth step
~Well Information Block
STRT.FT               870.0000: 
STOP.FT              2519.5000: 
STEP.FT                 0.2500: 
NULL.                -999.2500: 
COMP.          Pioneer Natural Resources: COMPANY
WELL.              Tiaga 23-14: WELL
FLD.           Purgatoire River: FIELD
LOC.           2168' FSL & 2030' FWL: LOCATION
PROV.                 Colorado: PROVINCE
CNTY.               Las Animas: COUNTRY
SRVC.                         : SERVICE COMPANY
DATE.          Sat May 07 08:44:43 2005: LOG DATE
UWI.           05 071 08329 00: UNIQUE WELL ID
~Curve Information Block
DEPT.FT            0 000 00 00: Depth
LTEN.lb                       : Surface Line Tension
SN.Ohm-m                      : IEL Short Normal
SP.mV                         : IEL Spontaneous Potential
DIR.Ohm-m                     : IEL Induction Resistivity
GR.GAPI                       : Gamma Ray
~Parameter Information Block
~A  Depth       LTEN         SN          SP         DIR          GR     
# ...
  1962.0000    797.0414     10.4941    -44.9258      9.3787    106.5322
  1962.2500    795.7472     10.4003    -44.7825      9.3452    104.7097
  1962.5000    797.0186     10.7348    -44.6959      9.3228    103.8484
  1962.7500    800.7787     11.4746    -44.6620      9.3134    104.1834
  1963.0000    806.1745     12.3915    -44.6695      9.3114    105.3367
  1963.2500    811.7120     13.1536    -44.7051      9.3046    106.3291
  1963.5000    816.0016     13.5312    -44.7531      9.2785    107.9783
  1963.7500    818.4283     13.5222    -44.7961      9.2215    108.9526
  1964.0000    819.1331     13.2717    -44.8181      9.1289    109.6721
  1964.2500    818.6125     12.9121    -44.8073      9.0034    109.5562
  1964.5000    817.3877     12.4986    -44.7564      8.8543    108.9736
  1964.7500    815.8003     12.0593    -44.6649      8.6954    108.7622
  1965.0000    814.0340     11.6619    -44.5429      8.5418    109.2458
  1965.2500    812.3046     11.3782    -44.4122      8.4057    110.2293
  1965.5000    810.8247     11.2031    -44.2998      8.2951    112.7337
  1965.7500    809.5432     11.0871    -44.2279      8.2144    114.9425
  1966.0000    808.1727     11.0098    -44.2094      8.1681    118.2931
  1966.2500    806.5259     10.9715    -44.2475      8.1628    119.9050
  1966.5000    804.6708     10.9614    -44.3357      8.2060    120.6425
  1966.7500    802.9060     10.9651    -44.4544      8.2994    120.0526
  1967.0000    801.7770     10.9757    -44.5701      8.4325    118.1543
  1967.2500    801.8257     10.9573    -44.6427      8.5821    116.4428
  1967.5000    803.0429     10.8164    -44.6393      8.7223    112.9330
  1967.7500    804.7206     10.4615    -44.5458      8.8389    109.6721
  1968.0000    805.9952      9.9327    -44.3685      8.9360    103.5747
  1968.2500    806.5466      9.4600    -44.1259      9.0280     99.3593
  1968.5000    806.8796      9.3491    -43.8417      9.1275     94.3026
  1968.7500    807.8926      9.7918    -43.5398      9.2384     92.4504
  1969.0000    809.9967     10.7414    -43.2412      9.3567     92.3451
  1969.2500    812.7168     11.8864    -42.9615      9.4738     93.7851
  1969.5000    815.2633     12.8177    -42.7097      9.5787     97.0397
  1969.7500    817.2047     13.3072    -42.4876      9.6576     99.0837
  1970.0000    818.4167     13.3986    -42.2918      9.6968    100.8431
  1970.2500    818.7136     13.2752    -42.1178      9.6866    101.0076
  1970.5000    817.7787     13.0743    -41.9626      9.6259    100.4057
  1970.7500    815.3085     12.8123    -41.8245      9.5231     99.9985
  1971.0000    811.3165     12.4935    -41.6991      9.3922     99.9614
  1971.2500    806.5589     12.1821    -41.5780      9.2480    100.3556
  1971.5000    802.3950     11.8902    -41.4530      9.1028    101.2160
  1971.7500    799.7968     11.5752    -41.3210      8.9651    101.5647
  1972.0000    798.5649     11.2672    -41.1857      8.8404    101.1164
  1972.2500    797.7075     11.0341    -41.0530      8.7329    100.1730
  1972.5000    796.5472     10.8819    -40.9280      8.6459     98.5403
  1972.7500    795.5602     10.7725    -40.8158      8.5821     97.7721
  1973.0000    796.2050     10.6792    -40.7251      8.5429     97.2484
  1973.2500    799.5864     10.5982    -40.6677      8.5291     97.2122
  1973.5000    805.1972     10.5343    -40.6530      8.5406     98.0483
  1973.7500    811.3127     10.4942    -40.6816      8.5773     99.8086
  1974.0000    816.4650     10.4995    -40.7438      8.6389    104.8648
  1974.2500    820.0364     10.5932    -40.8232      8.7255    109.5023
  1974.5000    821.8070     10.7898    -40.9041      8.8386    116.7296
  1974.7500    821.7303     11.0434    -40.9778      8.9815    120.4984
  1975.0000    820.0298     11.3040    -41.0446      9.1581    122.8320
  1975.2500    817.0071     11.5568    -41.1092      9.3715    121.9985
  1975.5000    812.9537     11.8040    -41.1717      9.6231    118.8032
  1975.7500    808.5089     12.0626    -41.2216      9.9150    116.8175
  1976.0000    804.6552     12.3709    -41.2406     10.2529    115.4701
  1976.2500    802.0397     12.7701    -41.2155     10.6474    115.5283
  1976.5000    800.5588     13.2740    -41.1529     11.1113    116.0626
  1976.7500    799.7272     13.8565    -41.0809     11.6549    116.1427
  1977.0000    799.2841     14.4924    -41.0387     12.2835    114.9323
  1977.2500    799.4731     15.2076    -41.0591     12.9974    112.7786
  1977.5000    800.7328     16.0750    -41.1563     13.7955    107.3470
  1977.7500    802.9788     17.1736    -41.3218     14.6809    102.6350
  1978.0000    805.4293     18.5564    -41.5308     15.6614     94.9966
  1978.2500    807.3694     20.2274    -41.7539     16.7480     90.1392
  1978.5000    808.7378     22.1350    -41.9683     17.9504     84.0304
  1978.7500    809.8420     24.2487    -42.1656     19.2780     80.9421
  1979.0000    811.0063     26.6499    -42.3542     20.7422     77.3902
  1979.2500    812.5196     29.4004    -42.5554     22.3555     75.1740
  1979.5000    814.4807     32.3090    -42.7940     24.1194     71.0638
  1979.7500    816.8427     35.0413    -43.0900     26.0101     67.4876
  1980.0000    819.8241     37.4468    -43.4513     27.9725     61.1316
  1980.2500    823.6697     39.5664    -43.8686     29.9352     56.7564
  1980.5000    827.7704     41.4285    -44.3163     31.8365     50.8216
  1980.7500    830.2629     43.0222    -44.7608     33.6374     47.4154
  1981.0000    828.4630     44.3461    -45.1731     35.3098     42.8835
  1981.2500    820.3673     45.3858    -45.5407     36.8145     40.1480
  1981.5000    807.3157     46.1314    -45.8707     38.1030     36.6765
  1981.7500    794.8066     46.6417    -46.1811     39.1504     34.9262
  1982.0000    788.5276     47.0548    -46.4878     39.9834     32.8674
  1982.2500    789.4473     47.5121    -46.8002     40.6642     31.3917
  1982.5000    794.1095     48.0821    -47.1284     41.2472     28.3461
  1982.7500    798.9515     48.7720    -47.4842     41.7503     25.7991
  1983.0000    802.8501     49.5640    -47.8698     42.1615     21.9121
  1983.2500    806.2772     50.4067    -48.2683     42.4562     19.7610
  1983.5000    809.7538     51.2198    -48.6496     42.5966     17.7107
  1983.7500    813.3765     51.9494    -48.9820     42.5203     17.1527
  1984.0000    816.9984     52.5864    -49.2348     42.1432     17.2186
  1984.2500    820.3468     53.1335    -49.3775     41.3884     17.6844
  1984.5000    823.0777     53.5739    -49.3860     40.2259     19.0291
  1984.7500    824.8022     53.8134    -49.2540     38.6989     20.5548
  1985.0000    825.1223     53.6429    -48.9958     36.9261     24.2906
  1985.2500    823.7444     52.8253    -48.6362     35.0711     28.0385
  1985.5000    820.6694     51.2256    -48.1961     33.2890     35.8304
  1985.7500    816.2638     48.8335    -47.6835     31.6834     42.4472
  1986.0000    811.2182     45.7461    -47.0994     30.2980     54.1290
  1986.2500    806.5059     42.2355    -46.4550     29.1384     62.6109
  1986.5000    803.2242     38.7483    -45.7891     28.1931     75.0321
  1986.7500    802.2020     35.6702    -45.1670     27.4385     82.2835
  1987.0000    803.6082     33.1364    -44.6539     26.8344     90.9057
  1987.2500    806.8739     31.1264    -44.2820     26.3295     95.2445
  1987.5000    810.9424     29.6015    -44.0392     25.8812    100.1327
  1987.7500    814.6968     28.5334    -43.8859     25.4756    102.4785
  1988.0000    817.4091     27.9048    -43.7830     25.1283    104.3842
  1988.2500    818.9802     27.6958    -43.7077     24.8689    104.1521
  1988.5000    819.7824     27.8620    -43.6522     24.7248    100.8672
  1988.7500    820.2474     28.3360    -43.6125     24.7173     96.6802
  1989.0000    820.6119     29.0430    -43.5804     24.8639     88.0180
  1989.2500    820.9677     29.9287    -43.5431     25.1798     81.2235
  1989.5000    821.3550     30.9875    -43.4900     25.6763     70.6517
  1989.7500    821.7201     32.2522    -43.4177     26.3601     64.1143
