~Version Information
VERS.                      2.0: CWLS Log ASCII Standard - VERSION 2.0
WRAP.                       NO: One line per depth step
~Well Information Block
STRT.FT               380.0000: 
STOP.FT               899.2000: 
STEP.FT                 0.1000: 
NULL.                -999.2500: 
COMP.          Pioneer Natural Resources: COMPANY
WELL.          Prospector 12-19: WELL
FLD.           Purgatoire River: FIELD
LOC.           2262' FNL & 634' FWL: LOCATION
PROV.                 Colorado: PROVINCE
CNTY.               Las Animas: COUNTRY
SRVC.                Patterson: SERVICE COMPANY
DATE.          Mon Apr 25 09:33:09 2005: LOG DATE
UWI.           05 071 08191 00: UNIQUE WELL ID
~Curve Information Block
DEPT.FT            0 000 00 00: Depth
DCAL.in                       : CDL Caliper
RHOB.g/cc                     : CDL Bulk Density
RHOC.g/cc                     : CDL Density Correction
DPOR.pu                       : CDL Density Porosity
GR.GAPI                       : Gamma Ray
NPOR.pu                       : Neutron Porosity
~Parameter Information Block
~A  Depth       DCAL        RHOB        RHOC        DPOR         GR         NPOR    
   380.0000      8.1415      2.2184     -0.4498     26.1589    162.8735     21.5678
   380.1000      8.1415      2.2178     -0.3998     26.1953    161.9585     21.8988
   380.2000      8.1415      2.1754     -0.5119     28.7663    159.4813     22.2865
   380.3000      8.1408      2.1254     -0.5532     31.7935    157.0617     22.5887
   380.4000      8.1408      2.1103     -0.5580     32.7109    156.8077     22.8524
   380.5000      8.1418      2.1349     -0.4996     31.2164    157.9889     22.8775
   380.6000      8.1418      2.1718     -0.5224     28.9832    158.6267     22.8192
   380.7000      8.1418      2.1872     -0.4837     28.0460    156.8961     23.0284
   380.8000      8.1438      2.1616     -0.5149     29.5987    149.7356     23.3199
   380.9000      8.1438      2.1031     -0.5598     33.1470    138.4818     23.5428
   381.0000      8.1439      2.0407     -0.5924     36.9289    132.4526     23.8913
   381.1000      8.1439      1.9997     -0.5858     39.4111    135.2720     24.2209
   381.2000      8.1439      1.9826     -0.6040     40.4463    139.8156     24.1640
   381.3000      8.1428      1.9747     -0.6042     40.9277    140.1138     23.7698
   381.4000      8.1428      1.9742     -0.6505     40.9598    133.8855     23.2809
   381.5000      8.1443      2.0022     -0.6374     39.2618    125.8126     22.8015
   381.6000      8.1443      2.0646     -0.6508     35.4764    125.5508     22.2037
   381.7000      8.1443      2.1309     -0.5807     31.4627    129.7159     21.3115
   381.8000      8.1439      2.1612     -0.5753     29.6220    132.2316     20.2875
   381.9000      8.1439      2.1543     -0.5912     30.0404    132.9801     19.5032
   382.0000      8.1453      2.1560     -0.6874     29.9374    132.4605     19.2165
   382.1000      8.1453      2.1982     -0.5304     27.3808    132.7798     19.2901
   382.2000      8.1453      2.2561     -0.4700     23.8721    134.2753     19.3624
   382.3000      8.1428      2.2941     -0.4055     21.5727    133.1194     19.1358
   382.4000      8.1428      2.2969     -0.4535     21.3995    130.3393     18.6059
   382.5000      8.1431      2.2676     -0.4623     23.1772    132.2433     18.2322
   382.6000      8.1431      2.2274     -0.5093     25.6100    137.9133     18.2511
   382.7000      8.1431      2.1946     -0.4692     27.5989    142.1666     18.3351
   382.8000      8.1412      2.1723     -0.5068     28.9535    143.1984     18.3107
   382.9000      8.1412      2.1615     -0.4895     29.6038    141.9385     18.4260
   383.0000      8.1397      2.1602     -0.4794     29.6830    144.5807     18.6912
   383.1000      8.1397      2.1610     -0.4702     29.6391    153.8332     18.6714
   383.2000      8.1397      2.1697     -0.5373     29.1096    162.1653     18.4623
   383.3000      8.1378      2.1966     -0.4916     27.4769    163.2761     18.6188
   383.4000      8.1378      2.2260     -0.4394     25.6946    157.6523     19.1270
   383.5000      8.1412      2.2294     -0.4342     25.4912    149.4730     19.4717
   383.6000      8.1412      2.2052     -0.4998     26.9583    142.4521     19.3330
   383.7000      8.1412      2.1836     -0.5162     28.2686    134.4779     19.0606
   383.8000      8.1379      2.1773     -0.4602     28.6488    129.3780     19.3871
   383.9000      8.1379      2.1678     -0.4628     29.2252    132.2223     20.3037
   384.0000      8.1398      2.1485     -0.5159     30.3959    138.1892     21.0377
   384.1000      8.1398      2.1354     -0.5082     31.1879    142.1880     20.6178
   384.2000      8.1398      2.1352     -0.5405     31.1972    142.6044     19.0890
   384.3000      8.1370      2.1354     -0.4882     31.1867    138.8586     17.9797
   384.4000      8.1370      2.1287     -0.5106     31.5951    134.1861     17.9531
   384.5000      8.1345      2.1217     -0.4961     32.0189    132.5281     18.1687
   384.6000      8.1345      2.1194     -0.4554     32.1604    133.2232     18.4058
   384.7000      8.1345      2.1246     -0.5323     31.8442    134.7891     19.1047
   384.8000      8.1356      2.1377     -0.4984     31.0476    135.5817     20.0685
   384.9000      8.1356      2.1456     -0.4250     30.5712    133.4716     20.5936
   385.0000      8.1369      2.1417     -0.5064     30.8055    129.5464     19.9174
   385.1000      8.1369      2.1440     -0.5037     30.6653    127.0715     18.5636
   385.2000      8.1369      2.1606     -0.4952     29.6580    128.3862     18.0234
   385.3000      8.1402      2.1750     -0.4568     28.7851    132.9572     18.7478
   385.4000      8.1402      2.1722     -0.4363     28.9584    140.8352     19.8104
   385.5000      8.1344      2.1587     -0.5116     29.7748    151.7039     20.1871
   385.6000      8.1344      2.1478     -0.5133     30.4353    160.4825     19.7216
   385.7000      8.1344      2.1362     -0.5091     31.1388    163.1741     19.2757
   385.8000      8.1378      2.1165     -0.4830     32.3336    160.6533     19.5871
   385.9000      8.1378      2.0906     -0.5005     33.9018    156.3665     20.2572
   386.0000      8.1356      2.0732     -0.5711     34.9558    154.2046     20.7132
   386.1000      8.1356      2.0852     -0.5321     34.2282    151.8624     21.0213
   386.2000      8.1356      2.1282     -0.5078     31.6245    148.4905     21.4641
   386.3000      8.1315      2.1707     -0.4443     29.0496    151.6563     21.8962
   386.4000      8.1315      2.1792     -0.4649     28.5354    160.7801     21.9978
   386.5000      8.1305      2.1546     -0.4922     30.0252    166.3788     21.9594
   386.6000      8.1305      2.1163     -0.5127     32.3449    165.5903     21.9674
   386.7000      8.1305      2.0833     -0.5733     34.3463    166.0119     21.5350
   386.8000      8.1276      2.0668     -0.5789     35.3477    174.6606     20.6826
   386.9000      8.1276      2.0645     -0.5703     35.4872    183.6707     20.3466
   387.0000      8.1301      2.0740     -0.5580     34.9074    183.2518     20.9079
   387.1000      8.1301      2.0961     -0.5128     33.5676    179.2200     21.8686
   387.2000      8.1301      2.1305     -0.5455     31.4836    177.9490     22.5400
   387.3000      8.1305      2.1778     -0.4707     28.6161    177.0712     22.4657
   387.4000      8.1305      2.2202     -0.4227     26.0509    175.4581     21.9035
   387.5000      8.1273      2.2421     -0.4764     24.7208    177.2878     21.6926
   387.6000      8.1273      2.2560     -0.4600     23.8760    183.6596     22.0798
   387.7000      8.1273      2.2655     -0.4593     23.3059    188.6176     22.4837
   387.8000      8.1237      2.2562     -0.4522     23.8685    183.8202     22.4941
   387.9000      8.1237      2.2282     -0.4842     25.5626    170.3221     22.5146
   388.0000      8.1270      2.2037     -0.4883     27.0473    157.1246     22.6426
   388.1000      8.1270      2.1997     -0.4825     27.2909    150.6338     22.4308
   388.2000      8.1270      2.2078     -0.4571     26.8021    150.6402     22.0660
   388.3000      8.1234      2.2170     -0.4849     26.2395    153.8782     21.5956
   388.4000      8.1234      2.2378     -0.4828     24.9812    153.3925     20.7099
   388.5000      8.1167      2.2727     -0.4140     22.8665    142.3061     20.0778
   388.6000      8.1167      2.3027     -0.4416     21.0456    124.2269     20.5195
   388.7000      8.1167      2.3145     -0.4306     20.3346    111.4828     21.5294
   388.8000      8.1185      2.3149     -0.4717     20.3115    111.9176     21.8415
   388.9000      8.1185      2.3159     -0.4152     20.2501    118.0759     20.8033
   389.0000      8.1184      2.3144     -0.4762     20.3415    118.8463     19.2337
   389.1000      8.1184      2.3039     -0.4757     20.9761    115.3353     18.4133
   389.2000      8.1184      2.2858     -0.4849     22.0699    111.6931     18.6629
   389.3000      8.1205      2.2734     -0.4715     22.8263    109.5399     19.1453
   389.4000      8.1205      2.2798     -0.4465     22.4346    111.0737     19.0420
   389.5000      8.1174      2.2929     -0.4049     21.6453    113.8113     18.5703
