~Version Information
 VERS.                      2.0: CWLS Log ASCII Standard - VERSION 2.0
 WRAP.                       NO: One line per depth step
 ~Well Information Block
 STRT.FT               465.6000: 
 STOP.FT              1777.2000: 
 STEP.FT                 0.1000: 
 NULL.                -999.2500: 
 COMP.          Petrogulf Corporation: COMPANY
 WELL.          Alexander 9-43R: WELL
 FLD.           Purgatorie River: FIELD
 LOC.           1652' FSL & 1049' FEL: LOCATION
 CNTY.               Las Animas: COUNTY
 SRVC.                         : SERVICE COMPANY
 DATE.          Fri Sep 03 15:08:45 2004: LOG DATE
 UWI.           05 071 08036 00: UNIQUE WELL ID
 STAT.                 Colorado: STATE
 PROV.                         :Province
 ~Curve Information Block
 DEPT.FT            0 000 00 00: Depth
 DCAL.in                       : CDL Caliper
 RHOB.g/cc                     : CDL Bulk Density
 RHOC.g/cc                     : CDL Density Correction
 DPOR.pu                       : CDL Density Porosity
 GR.GAPI                       : Gamma Ray
 NPOR.pu                       : Neutron Porosity
 ~Parameter Information Block
 ~A  Depth       DCAL        RHOB        RHOC        DPOR         GR         NPOR    
# ...
   916.8000      8.0707      2.4582      0.3995     11.6259    131.2022     22.6587
   916.9000      8.0707      2.4458      0.2069     12.3754    132.6237     23.1546
   917.0000      8.0823      2.4213      0.1022     13.8635    133.8238     23.7294
   917.1000      8.0823      2.4180      0.1084     14.0598    135.3755     24.5848
   917.2000      8.0823      2.4338      0.0665     13.1029    136.7541     25.8028
   917.3000      8.1551      2.4546      0.1204     11.8451    137.6795     26.8895
   917.4000      8.1551      2.4601      0.1166     11.5117    141.3523     27.1923
   917.5000      8.1918      2.4457      0.0778     12.3824    148.7146     26.8179
   917.6000      8.1918      2.4256      0.0688     13.6005    153.6460     26.4064
   917.7000      8.1918      2.3954      0.1276     15.4328    153.8914     26.3706
   917.8000      8.1707      2.3329      0.1152     19.2205    154.5035     26.5463
   917.9000      8.1707      2.2331      0.0893     25.2651    157.8811     26.4659
   918.0000      8.1696      2.1210      0.0558     32.0598    160.1048     26.2484
   918.1000      8.1696      2.0415      0.0288     36.8780    156.7329     26.2550
   918.2000      8.1696      2.0278      0.0656     37.7082    151.4386     26.4576
   918.3000      8.1069      2.0856      0.0818     34.2071    150.8941     26.8203
   918.4000      8.1069      2.2165      0.1442     26.2710    152.7712     27.2191
   918.5000      8.0870      2.4095      0.2959     14.5747    149.5141     27.4674
   918.6000      8.0870      2.6115      0.5123      2.3355    140.8754     27.8208
   918.7000      8.0870      2.7506      0.6735     -6.0998    132.3184     28.5476
   918.8000      8.1043      2.7948      0.6329     -8.7765    125.5619     29.2638
   918.9000      8.1043      2.7737      0.5041     -7.4980    120.8740     29.8120
   919.0000      8.1134      2.7321      0.3822     -4.9767    120.5881     30.4612
   919.1000      8.1134      2.6891      0.2419     -2.3690    122.8786     30.9240
   919.2000      8.1134      2.6552      0.1461     -0.3135    122.2111     31.3934
   919.3000      8.0915      2.6438      0.0841      0.3771    116.7467     32.4323
   919.4000      8.0915      2.6527      0.1059     -0.1643    108.5917     33.3487
   919.5000      8.1217      2.6685      0.1000     -1.1205    102.4059     33.3816
   919.6000      8.1217      2.6910      0.0788     -2.4860     98.7454     32.8711
   919.7000      8.1217      2.7233      0.1072     -4.4441     96.2042     32.3359
   919.8000      8.1010      2.7493      0.1316     -6.0210     97.5201     31.9429
   919.9000      8.1010      2.7563      0.1116     -6.4429     98.8893     31.7478
   920.0000      8.0654      2.7507      0.0629     -6.1059     93.6395     31.4351
   920.1000      8.0654      2.7414      0.0426     -5.5422     85.0552     30.8003
   920.2000      8.0654      2.7272      0.0868     -4.6803     80.5989     30.0671
   920.3000      8.0736      2.7069     -0.0076     -3.4498     80.1876     29.3661
   920.4000      8.0736      2.6903      0.0143     -2.4431     81.2498     28.6599
   920.5000      8.0702      2.6814      0.0030     -1.9045     84.0216     28.0664
   920.6000      8.0702      2.6706      0.0507     -1.2455     85.0469     28.0649
   920.7000      8.0702      2.6536     -0.0036     -0.2194     83.3268     28.6422
   920.8000      8.0643      2.6410     -0.0162      0.5447     84.9954     28.9983
   920.9000      8.0643      2.6340      0.0502      0.9708     90.5463     28.8185
   921.0000      8.0717      2.6275      0.0225      1.3641     92.5340     28.6847
   921.1000      8.0717      2.6224      0.0364      1.6748     86.9947     28.4626
   921.2000      8.0717      2.6154      0.0233      2.0994     79.6942     27.6723
   921.3000      8.0561      2.6047      0.0760      2.7471     75.8089     26.9082
   921.4000      8.0561      2.5986      0.0531      3.1155     74.2226     26.6507
   921.5000      8.0461      2.6038      0.0302      2.7977     74.1579     26.5180
   921.6000      8.0461      2.6101      0.0883      2.4206     76.9222     26.2200
   921.7000      8.0461      2.6055      0.0639      2.6974     82.3304     26.0306
   921.8000      8.0308      2.5979      0.0796      3.1587     88.4165     26.0965
   921.9000      8.0308      2.5948      0.0704      3.3466     90.9998     26.1080
   922.0000      8.0343      2.5884      0.1384      3.7322     88.7105     25.9588
   922.1000      8.0343      2.5735      0.0890      4.6388     84.1534     25.9365
   922.2000      8.0343      2.5617      0.0608      5.3545     79.0739     26.0944
   922.3000      8.0321      2.5522      0.1046      5.9252     74.9114     25.8589
   922.4000      8.0321      2.5310      0.0552      7.2092     74.2869     25.0534
   922.5000      8.0453      2.5095      0.0272      8.5168     78.5406     24.3122
   922.6000      8.0453      2.4988      0.1493      9.1610     83.6686     23.9645
   922.7000      8.0453      2.4923      0.0718      9.5602     82.6122     23.9441
   922.8000      8.0514      2.4997      0.1160      9.1114     76.8851     24.1919
   922.9000      8.0514      2.5310      0.1565      7.2134     74.3068     24.3544
   923.0000      8.0351      2.5690      0.1743      4.9063     74.8024     24.3051
   923.1000      8.0351      2.5949      0.1300      3.3411     73.7244     24.3598
   923.2000      8.0351      2.6091      0.1744      2.4783     71.8940     24.5940
   923.3000      8.0335      2.6236      0.1860      1.5978     71.9609     24.6881
   923.4000      8.0335      2.6423      0.2297      0.4642     75.0649     24.4934
   923.5000      8.0367      2.6515      0.2363     -0.0926     80.0943     24.6036
   923.6000      8.0367      2.6387      0.2354      0.6860     84.4883     25.3821
   923.7000      8.0367      2.6144      0.1634      2.1580     86.5248     25.8858
   923.8000      8.0455      2.6000      0.1472      3.0313     85.4776     25.5749
   923.9000      8.0455      2.6062      0.1029      2.6551     83.3392     25.2027
   924.0000      8.0445      2.6332      0.1004      1.0207     82.6084     25.2649
   924.1000      8.0445      2.6581      0.1665     -0.4915     82.2237     25.5267
   924.2000      8.0445      2.6550      0.1296     -0.3007     81.9995     25.7922
   924.3000      8.0300      2.6365      0.1246      0.8153     83.5978     26.0444
   924.4000      8.0300      2.6216      0.1089      1.7198     85.5870     26.0437
   924.5000      8.0120      2.5960      0.0929      3.2743     84.1075     25.4731
   924.6000      8.0120      2.5432      0.0225      6.4709     79.2529     24.2907
   924.7000      8.0120      2.4712      0.0323     10.8358     76.5139     22.7276
   924.8000      7.9945      2.3896      0.0026     15.7828     79.6714     21.2691
   924.9000      7.9945      2.3019     -0.0290     21.0959     87.4314     19.6839
   925.0000      7.9979      2.2038     -0.0376     27.0434     95.6482     17.3219
   925.1000      7.9979      2.0875     -0.0863     34.0935     99.6235     14.7491
   925.2000      7.9979      1.9703     -0.1510     41.1925     96.7969     12.8791
   925.3000      8.1002      1.8744     -0.1142     47.0040     90.7505     11.6078
   925.4000      8.1002      1.7941     -0.0390     51.8697     86.0585     10.4588
   925.5000      8.1144      1.7250     -0.0209     56.0581     81.6821      9.5422
   925.6000      8.1144      1.6816      0.0255     58.6884     75.8614      8.8579
   925.7000      8.1144      1.6664      0.1455     59.6100     72.8106      7.9379
   925.8000      8.0950      1.6630      0.2003     59.8152     74.2527      6.8511
   925.9000      8.0950      1.6607      0.2207     59.9561     76.1246      6.1912
   926.0000      8.0922      1.6523      0.2693     60.4650     78.6877      6.3586
   926.1000      8.0922      1.6206      0.2909     62.3866     84.3320      7.1499
   926.2000      8.0922      1.5584      0.1929     66.1556     87.3492      8.1739
   926.3000      8.1477      1.4887      0.1276     70.3822     81.6546      9.5509
