~Version Information
VERS.                      2.0: CWLS Log ASCII Standard - VERSION 2.0
WRAP.                       NO: One line per depth step
~Well Information Block
STRT.FT               650.0000: 
STOP.FT              1080.5000: 
STEP.FT                 0.1000: 
NULL.                -999.2500: 
COMP.          Pioneer Natural Resources: COMPANY
WELL.            Galileo 21-11: WELL
FLD.           Purgatoire River: FIELD
LOC.           407' FNL & 2394' FWL: LOCATION
PROV.                 Colorado: PROVINCE
CNTY.               Las Animas: COUNTRY
SRVC.                Patterson: SERVICE COMPANY
DATE.          Mon Apr 11 16:20:08 2005: LOG DATE
UWI.           05 071 08353 00: UNIQUE WELL ID
~Curve Information Block
DEPT.FT            0 000 00 00: Depth
DCAL.in                       : CDL Caliper
RHOB.g/cc                     : CDL Bulk Density
RHOC.g/cc                     : CDL Density Correction
DPOR.pu                       : CDL Density Porosity
GR.GAPI                       : Gamma Ray
NPOR.pu                       : Neutron Porosity
~Parameter Information Block
~A  Depth       DCAL        RHOB        RHOC        DPOR         GR         NPOR    
# ...
   899.6000      7.8965      2.5713      0.0641      4.7694    117.8792     27.8353
   899.7000      7.8965      2.5956      0.0857      3.2997    112.8226     27.2150
   899.8000      7.8940      2.6334      0.0846      1.0045    108.5921     26.3023
   899.9000      7.8940      2.6667      0.1529     -1.0106    102.2305     25.5107
   900.0000      7.8929      2.6653      0.1396     -0.9260     96.5992     25.0901
   900.1000      7.8929      2.6355      0.0841      0.8808     98.8162     24.8736
   900.2000      7.8929      2.6091      0.0625      2.4793    108.9304     24.5055
   900.3000      7.8970      2.5929      0.0891      3.4620    118.8321     24.1871
   900.4000      7.8970      2.5788      0.0805      4.3156    121.3045     24.0024
   900.5000      7.8945      2.5696      0.0547      4.8755    117.7042     23.4841
   900.6000      7.8945      2.5638      0.0812      5.2218    115.0493     22.1693
   900.7000      7.8945      2.5459      0.0795      6.3068    118.2402     20.0268
   900.8000      7.9004      2.5038      0.0463      8.8594    121.1154     17.8668
   900.9000      7.9004      2.4377      0.0754     12.8688    114.7364     16.7124
   901.0000      7.9008      2.3488      0.0205     18.2573    105.6251     16.5898
   901.1000      7.9008      2.2389     -0.0004     24.9178    103.8157     17.1007
   901.2000      7.9008      2.1202     -0.0245     32.1062    105.1272     18.0227
   901.3000      7.9008      2.0174     -0.0605     38.3410    101.6183     19.1538
   901.4000      7.9008      1.9447     -0.0876     42.7439     96.8065     20.3274
   901.5000      7.9067      1.9034     -0.0575     45.2513     96.0014     21.0731
   901.6000      7.9067      1.8976     -0.0394     45.6013     96.6078     21.1240
   901.7000      7.9067      1.9331      0.0183     43.4482     94.1407     21.1208
   901.8000      7.9224      2.0038      0.1716     39.1640     88.6141     21.5721
   901.9000      7.9224      2.0927      0.2814     33.7744     85.3786     22.2754
   902.0000      7.8876      2.1844      0.3336     28.2172     90.9604     22.8968
   902.1000      7.8876      2.2683      0.2830     23.1354    102.3233     23.4840
   902.2000      7.8876      2.3399      0.2256     18.7945    109.3831     24.4290
   902.3000      7.8810      2.4026      0.2283     14.9927    110.9505     25.5494
   902.4000      7.8810      2.4600      0.2380     11.5173    111.6675     26.4027
   902.5000      7.8801      2.5055      0.2478      8.7590    114.1659     26.9466
   902.6000      7.8801      2.5260      0.2028      7.5137    119.7107     27.4672
   902.7000      7.8801      2.5217      0.1615      7.7728    126.1316     28.0727
   902.8000      7.8736      2.5078      0.1667      8.6209    129.5067     28.1404
   902.9000      7.8736      2.4882      0.1612      9.8088    128.4974     27.3572
   903.0000      7.8775      2.4645      0.0753     11.2405    123.8404     26.6697
   903.1000      7.8775      2.4555      0.0717     11.7867    118.6516     26.5412
   903.2000      7.8775      2.4654      0.0739     11.1863    118.0615     26.1805
   903.3000      7.8754      2.4757      0.0622     10.5663    123.1415     25.6655
   903.4000      7.8754      2.4778      0.0481     10.4390    127.5225     25.7310
   903.5000      7.8753      2.4766      0.0691     10.5107    125.8106     25.9992
   903.6000      7.8753      2.4777      0.0720     10.4426    122.4306     25.8802
   903.7000      7.8753      2.4862      0.0734      9.9275    122.6870     25.7077
   903.8000      7.8742      2.4997      0.0893      9.1112    123.1425     26.0093
   903.9000      7.8742      2.5068      0.0993      8.6788    121.1812     26.7720
   904.0000      7.8747      2.5004      0.0790      9.0689    121.7103     27.5021
   904.1000      7.8747      2.4832      0.0857     10.1070    125.4682     27.6283
   904.2000      7.8747      2.4626      0.0620     11.3573    124.4196     27.1840
   904.3000      7.8737      2.4497      0.0135     12.1412    116.6284     26.8772
   904.4000      7.8737      2.4584      0.0211     11.6149    109.5671     26.8263
   904.5000      7.8770      2.4904      0.0495      9.6746    107.7118     26.6058
   904.6000      7.8770      2.5273      0.1138      7.4361    113.1419     26.2747
   904.7000      7.8770      2.5496      0.0972      6.0871    124.4543     26.1285
   904.8000      7.8768      2.5606      0.0992      5.4174    132.3531     26.1226
   904.9000      7.8768      2.5675      0.1300      4.9978    132.1780     26.0915
   905.0000      7.8748      2.5673      0.1186      5.0116    128.0563     25.9719
   905.1000      7.8748      2.5671      0.1122      5.0249    123.9839     25.9692
   905.2000      7.8748      2.5753      0.1284      4.5297    121.3405     26.2290
   905.3000      7.8751      2.5816      0.1283      4.1464    121.4827     26.4633
   905.4000      7.8751      2.5746      0.1155      4.5683    123.5752     26.7904
   905.5000      7.8759      2.5585      0.1402      5.5437    123.8992     27.5217
   905.6000      7.8759      2.5436      0.1176      6.4487    123.8747     28.1155
   905.7000      7.8759      2.5349      0.0846      6.9729    129.5308     27.8649
   905.8000      7.8749      2.5311      0.1025      7.2065    138.1623     27.2599
   905.9000      7.8749      2.5267      0.1114      7.4737    139.7222     27.2063
   906.0000      7.8709      2.5233      0.0831      7.6789    132.1941     27.6791
   906.1000      7.8709      2.5330      0.0799      7.0892    124.2043     28.0514
   906.2000      7.8709      2.5594      0.0922      5.4887    120.8037     28.0017
   906.3000      7.8763      2.5842      0.1558      3.9891    121.3538     27.4467
   906.4000      7.8763      2.5845      0.1384      3.9721    124.7562     26.4753
   906.5000      7.8747      2.5617      0.1258      5.3535    126.4550     25.6890
   906.6000      7.8747      2.5317      0.1309      7.1724    122.1237     25.6511
   906.7000      7.8747      2.5014      0.0854      9.0067    117.0078     26.3512
   906.8000      7.8772      2.4775      0.0379     10.4548    114.9483     26.9996
   906.9000      7.8772      2.4754     -0.0101     10.5828    113.8445     26.7471
   907.0000      7.8765      2.5020      0.0201      8.9703    112.6827     26.1220
   907.1000      7.8765      2.5348      0.0728      6.9805    110.6168     25.9486
   907.2000      7.8765      2.5442      0.0970      6.4123    108.7900     26.1093
   907.3000      7.8673      2.5364      0.0607      6.8854    108.4980     26.2879
   907.4000      7.8673      2.5338      0.1123      7.0436    110.5145     26.3128
   907.5000      7.8582      2.5265      0.1652      7.4837    114.0260     26.2949
   907.6000      7.8582      2.5007      0.0861      9.0468    113.2208     26.5208
   907.7000      7.8582      2.4761     -0.0077     10.5398    107.9776     27.0788
   907.8000      7.8583      2.4699      0.0589     10.9166    103.1480     27.7235
   907.9000      7.8583      2.4738      0.0482     10.6780    100.7291     27.9114
   908.0000      7.8578      2.4802      0.0464     10.2936    103.2841     27.6655
   908.1000      7.8578      2.4885      0.0630      9.7886    109.9681     27.4540
   908.2000      7.8578      2.5019      0.0401      8.9738    114.4028     27.3505
   908.3000      7.8560      2.5294      0.0846      7.3103    114.4025     27.0838
   908.4000      7.8560      2.5663      0.1494      5.0704    113.7400     26.5709
   908.5000      7.8577      2.5950      0.1270      3.3346    115.3561     26.2505
   908.6000      7.8577      2.6085      0.0868      2.5170    118.1474     26.5587
   908.7000      7.8577      2.6125      0.0872      2.2699    120.0090     27.0508
   908.8000      7.8586      2.6133      0.1453      2.2257    120.5420     26.8899
   908.9000      7.8586      2.6108      0.1052      2.3786    117.9469     26.0515
   909.0000      7.8633      2.6091      0.1230      2.4780    111.7014     25.2079
   909.1000      7.8633      2.6135      0.1152      2.2138    104.2999     24.6811
