~Version Information
VERS.                      2.0: CWLS Log ASCII Standard - VERSION 2.0
WRAP.                       NO: One line per depth step
~Well Information Block
STRT.FT               970.5000: 
STOP.FT              2720.0000: 
STEP.FT                 0.1000: 
NULL.                -999.2500: 
COMP.          Petrogulf Corporation: COMPANY
WELL.             Burson 8-31V: WELL
FLD.           Purgatorie River: FIELD
LOC.           1113' FNL & 2152' FEL: LOCATION
CNTY.               Las Animas: COUNTY
SRVC.                         : SERVICE COMPANY
DATE.          Wed Nov 12 14:59:14 2003: LOG DATE
UWI.                          : UNIQUE WELL ID
STAT.                 Colorado: STATE
~Curve Information Block
DEPT.FT            0 000 00 00: Depth
DCAL.in                       : CDL Caliper
DPOR.pu                       : CDL Density Porosity
NEU.NAPI                      : Neutron
NPOR.pu                       : Neutron Porosity
RHOB.g/cc                     : CDL Bulk Density
RHOC.g/cc                     : CDL Density Correction
GR.GAPI                       : Gamma Ray
~Parameter Information Block
~A  Depth       DCAL        DPOR        NEU         NPOR        RHOB        RHOC         GR     
# ...
  1222.5000      8.1594      5.3516   1003.3947     28.7847      2.5617      0.0648    147.6400
  1222.6000      8.1594      4.2542   1007.3525     28.5654      2.5798      0.0041    147.6400
  1222.7000      8.1594      3.6971   1005.6746     28.6583      2.5890      0.0874    147.6400
  1222.8000      8.1505      4.0611   1004.9374     28.6992      2.5830      0.0670    126.2888
  1222.9000      8.1505      4.0234   1003.9832     28.7521      2.5836      0.0234    126.2888
  1223.0000      8.1964      2.5858    997.6141     29.1055      2.6073      0.0424    139.0502
  1223.1000      8.1964      0.7331    984.3301     29.8447      2.6379      0.0674    139.0502
  1223.2000      8.1964     -0.2520    967.0875     30.8081      2.6542      0.0826    139.0502
  1223.3000      8.2725     -0.4909    956.2466     31.4158      2.6581      0.0695    128.1023
  1223.4000      8.2725     -0.6572    961.5129     31.1204      2.6608      0.0877    128.1023
  1223.5000      8.3111      0.0417    980.2471     30.0724      2.6493      0.0760    118.8015
  1223.6000      8.3111      2.4524    999.8176     28.9831      2.6095      0.0122    118.8015
  1223.7000      8.3111      5.1172   1010.0574     28.4157      2.5656      0.0159    118.8015
  1223.8000      8.2808      5.6895   1013.9148     28.2025      2.5561     -0.0616    109.8531
  1223.9000      8.2808      3.2268   1015.5418     28.1126      2.5968     -0.0036    109.8531
  1224.0000      8.2391     -0.6368   1013.5367     28.2234      2.6605      0.0562    110.2765
  1224.1000      8.2391     -2.6528   1016.7697     28.0448      2.6938      0.1640    110.2765
  1224.2000      8.2391     -1.4557   1024.8306     27.6006      2.6740      0.0095    110.2765
  1224.3000      8.1638      0.7757   1024.0074     27.6459      2.6372      0.0327     99.6160
  1224.4000      8.1638      2.1289   1012.2045     28.2970      2.6149      0.0202     99.6160
  1224.5000      8.0907      2.9209    998.2936     29.0677      2.6018      0.0547     96.1414
  1224.6000      8.0907      3.4444    994.0106     29.3057      2.5932      0.0057     96.1414
  1224.7000      8.0907      3.3679   1004.6722     28.7139      2.5944      0.0144     96.1414
  1224.8000      8.0660      3.5152   1019.6555     27.8856      2.5920      0.1079    112.0476
  1224.9000      8.0660      4.4057   1023.0994     27.6959      2.5773     -0.0166    112.0476
  1225.0000      7.9947      5.0579   1015.7888     28.0990      2.5665      0.0886    103.4118
  1225.1000      7.9947      5.6282   1009.2725     28.4591      2.5571      0.0581    103.4118
  1225.2000      7.9947      6.2779   1006.2676     28.6255      2.5464     -0.0071    103.4118
  1225.3000      7.9870      6.0001   1006.2806     28.6248      2.5510      0.0379    100.2468
  1225.4000      7.9870      4.6388   1009.2261     28.4617      2.5735      0.0144    100.2468
  1225.5000      8.0144      3.0901   1007.9085     28.5346      2.5990      0.0388    118.8989
  1225.6000      8.0144      2.7356    999.8642     28.9805      2.6049      0.1052    118.8989
  1225.7000      8.0144      3.9232    994.4321     29.2823      2.5853      0.0246    118.8989
  1225.8000      8.0165      5.1591    993.9094     29.3113      2.5649      0.0566    113.6936
  1225.9000      8.0165      5.4611    989.2883     29.5684      2.5599      0.0734    113.6936
  1226.0000      7.9704      5.3055    979.2316     30.1291      2.5625      0.0927    105.6418
  1226.1000      7.9704      5.1327    972.5037     30.5050      2.5653      0.0407    105.6418
  1226.2000      7.9704      4.1911    980.8881     30.0367      2.5808      0.0029    105.6418
  1226.3000      7.9650      2.3130   1006.4518     28.6153      2.6118      0.0703    117.1418
  1226.4000      7.9650      0.0389   1028.2220     27.4141      2.6494      0.0337    117.1418
  1226.5000      7.9658     -2.7531   1027.0375     27.4792      2.6954      0.0820    116.3376
  1226.6000      7.9658     -5.6513   1015.7930     28.0987      2.7432      0.0732    116.3376
  1226.7000      7.9658     -8.1965   1017.9785     27.9781      2.7852      0.1658    116.3376
  1226.8000      7.9702    -10.4525   1038.1235     26.8710      2.8225      0.1235    133.9468
  1226.9000      7.9702    -12.1871   1066.7192     25.3153      2.8511      0.1911    133.9468
  1227.0000      7.9699    -13.1693   1091.6108     23.9786      2.8673      0.1367    118.2804
  1227.1000      7.9699    -13.4838   1113.2012     22.8340      2.8725      0.0895    118.2804
  1227.2000      7.9699    -13.1447   1141.3311     21.3659      2.8669      0.0600    118.2804
  1227.3000      7.9827    -11.7224   1163.4486     20.2319      2.8434      0.0055    132.9666
  1227.4000      7.9827     -8.2709   1158.2544     20.4965      2.7865     -0.0131    132.9666
  1227.5000      8.0455     -2.8391   1141.5007     21.3572      2.6968     -0.0406    131.8923
  1227.6000      8.0455      2.1506   1135.0168     21.6931      2.6145     -0.0588    131.8923
  1227.7000      8.0455      4.9048   1126.4333     22.1400      2.5691      0.0022    131.8923
  1227.8000      8.1647      6.3321   1103.1893     23.3629      2.5455     -0.0448    119.1651
  1227.9000      8.1647      7.6030   1071.1278     25.0773      2.5245      0.0295    119.1651
  1228.0000      8.2314      9.3692   1035.8967     26.9929      2.4954      0.0387    144.8400
  1228.1000      8.2314     11.9985   1002.8574     28.8145      2.4520      0.0050    144.8400
  1228.2000      8.2314     15.0030    981.4844     30.0034      2.4025      0.0661    144.8400
  1228.3000      8.2025     17.1396    973.7928     30.4330      2.3672      0.0140    142.2148
  1228.4000      8.2025     17.8811    971.1331     30.5817      2.3550      0.1002    142.2148
  1228.5000      8.2258     18.4478    964.6099     30.9469      2.3456      0.0998    131.8932
  1228.6000      8.2258     19.0542    954.5322     31.5120      2.3356      0.0898    131.8932
  1228.7000      8.2258     18.0159    957.6098     31.3393      2.3527      0.1069    131.8932
  1228.8000      8.2003     15.0571    976.1721     30.3000      2.4016      0.2321    117.8157
  1228.9000      8.2003     12.1069    985.4622     29.7816      2.4502      0.2116    117.8157
  1229.0000      8.1782     10.0849    974.9680     30.3673      2.4836      0.1773    134.4747
  1229.1000      8.1782      8.3183    967.3619     30.7927      2.5127      0.1387    134.4747
  1229.2000      8.1782      7.5148    980.5843     30.0536      2.5260      0.1903    134.4747
  1229.3000      8.1006      9.0257   1003.1542     28.7980      2.5011      0.0598    131.2898
  1229.4000      8.1006     11.2865   1016.1346     28.0799      2.4638     -0.0134    131.2898
  1229.5000      8.1448     11.7659   1010.7328     28.3784      2.4559     -0.0082    123.6328
  1229.6000      8.1448     10.6971    990.9930     29.4736      2.4735      0.0362    123.6328
  1229.7000      8.1448      9.6126    972.3021     30.5163      2.4914      0.0673    123.6328
  1229.8000      8.0456      8.4456    965.2478     30.9111      2.5106      0.0334    131.0060
  1229.9000      8.0456      6.5848    967.0787     30.8086      2.5414      0.0939    131.0060
  1230.0000      8.0098      4.8335    972.0133     30.5325      2.5702      0.1549    141.2925
  1230.1000      8.0098      3.8745    972.7587     30.4908      2.5861      0.1223    141.2925
  1230.2000      8.0098      2.8657    961.3318     31.1306      2.6027      0.1248    141.2925
  1230.3000      8.0078      1.1738    944.5902     32.0707      2.6306      0.1245    132.3356
  1230.4000      8.0078     -0.6106    940.7941     32.2843      2.6601      0.1516    132.3356
  1230.5000      8.0157     -1.3586    947.1623     31.9261      2.6724      0.1746    140.5490
  1230.6000      8.0157     -0.1679    943.8989     32.1096      2.6528      0.1760    140.5490
  1230.7000      8.0157      1.9442    930.9896     32.8364      2.6179      0.0711    140.5490
  1230.8000      8.0199      3.2767    925.5258     33.1445      2.5959      0.1041    132.3188
