~Version Information
VERS.                      2.0: CWLS Log ASCII Standard - VERSION 2.0
WRAP.                       NO: One line per depth step
~Well Information Block
STRT.FT               784.0000: 
STOP.FT              1035.0000: 
STEP.FT                 0.2500: 
NULL.                -999.2500: 
COMP.          Pioneer Natural Resources: COMPANY
WELL.          Run-Away-Train 43-26: WELL
FLD.           Purgatoire River: FIELD
LOC.           1693' FSL & 1195' FEL: LOCATION
PROV.                 Colorado: PROVINCE
CNTY.               Las Animas: COUNTRY
SRVC.                Patterson: SERVICE COMPANY
DATE.          Tue Apr 05 19:22:37 2005: LOG DATE
UWI.           05 071 08188 00: UNIQUE WELL ID
~Curve Information Block
DEPT.FT            0 000 00 00: Depth
SN.Ohm-m                      : IEL Short Normal
SP.mV                         : IEL Spontaneous Potential
DIR.Ohm-m                     : IEL Induction Resistivity
GR.GAPI                       : Gamma Ray
~Parameter Information Block
~A  Depth        SN          SP         DIR          GR     
# ...
   817.5000      8.0336   -272.8413     13.2805     83.8339
   817.7500      8.2328   -270.5339     13.5642     80.7965
   818.0000      9.5884   -274.0902     13.8613     75.7596
   818.2500     12.2588   -284.5719     14.1621     72.7465
   818.5000     15.4760   -300.7545     14.4771     69.4059
   818.7500     18.2245   -318.9806     14.8284     67.8941
   819.0000     19.8643   -334.2731     15.2334     66.1852
   819.2500     19.9871   -342.7338     15.6880     65.2383
   819.5000     19.2036   -343.9575     16.1523     64.4011
   819.7500     20.3665   -341.6301     16.5482     64.6333
   820.0000     26.5972   -341.7860     16.7806     66.6459
   820.2500     37.0227   -350.0294     16.7867     69.0370
   820.5000     47.4375   -369.3902     16.5767     73.4843
   820.7500     57.4994   -399.5363     16.2260     76.3868
   821.0000     78.6070   -437.0677     15.8278     79.8274
   821.2500    132.3157   -476.1503     15.4495     81.6464
   821.5000    225.8772   -509.4947     15.1199     85.0196
   821.7500    328.7733   -530.7391     14.8388     88.4763
   822.0000    398.2323   -537.9077     14.5906     95.1340
   822.2500    423.6982   -534.3823     14.3550     99.3119
   822.5000    424.3060   -525.0432     14.1150    103.2042
   822.7500    418.5669   -511.6010     13.8622    104.2122
   823.0000    413.2321   -492.7639     13.5973    105.0547
   823.2500    408.2424   -467.8492     13.3263    106.1174
   823.5000    399.3998   -438.0214     13.0545    108.7074
   823.7500    375.8226   -404.3698     12.7841    110.5282
   824.0000    321.7917   -366.9062     12.5153    111.9884
   824.2500    233.3539   -325.9705     12.2491    111.4884
   824.5000    134.0199   -283.6618     11.9893    108.6142
   824.7500     58.2216   -243.5729     11.7449    106.1461
   825.0000     18.9852   -209.4064     11.5308    103.5881
   825.2500      5.3907   -183.5874     11.3645    103.2856
   825.5000      3.1014   -166.5390     11.2592    104.5595
   825.7500      4.7334   -156.8600     11.2181    105.8466
   826.0000      7.4472   -152.2176     11.2353    107.3970
   826.2500      9.9343   -150.3439     11.3015    107.8900
   826.5000     11.8567   -149.6507     11.4077    107.7389
   826.7500     13.3790   -149.3477     11.5452    107.2061
   827.0000     14.5559   -149.2232     11.7016    106.3868
   827.2500     15.3790   -149.3104     11.8628    106.1739
   827.5000     15.9632   -149.6333     12.0208    106.3204
   827.7500     16.4428   -150.1103     12.1810    106.2897
   828.0000     16.8875   -150.5881     12.3623    105.1104
   828.2500     17.3493   -150.9474     12.5888    103.2734
   828.5000     17.8443   -151.1953     12.8818     99.2122
   828.7500     18.2818   -151.4521     13.2574     96.2072
   829.0000     18.4655   -151.8240     13.7297     92.5257
   829.2500     18.2222   -152.2703     14.3101     91.1621
   829.5000     17.7468   -152.5723     15.0009     90.6868
   829.7500     17.7179   -152.4394     15.7852     90.8391
   830.0000     18.4947   -151.7126     16.6254     90.8026
   830.2500     19.4925   -150.5325     17.4734     90.4548
   830.5000     20.0064   -149.3333     18.2909     89.6673
   830.7500     20.0327   -148.6895     19.0624     89.0391
   831.0000     19.8906   -149.2010     19.7943     87.9650
   831.2500     19.6789   -151.5327     20.5040     87.2629
   831.5000     19.4207   -156.5275     21.2107     86.3886
   831.7500     19.3331   -165.2332     21.9335     85.8404
   832.0000     19.7626   -178.7205     22.6886     84.8163
   832.2500     21.6661   -197.6886     23.4807     84.0183
   832.5000     29.6197   -222.0627     24.2907     82.8086
   832.7500     57.9843   -250.9220     25.0688     81.8249
   833.0000    130.2514   -282.8493     25.7459     79.2976
   833.2500    253.5886   -316.3465     26.2590     76.5817
   833.5000    390.1989   -349.8039     26.5799     71.2546
   833.7500    484.1778   -381.1772     26.7275     67.4457
   834.0000    518.5324   -408.0505     26.7619     62.2939
   834.2500    516.0561   -428.1660     26.7721     59.4312
   834.5000    499.4500   -439.6562     26.8601     55.6940
   834.7500    474.7218   -440.9592     27.1199     53.3640
   835.0000    436.6365   -431.4123     27.6109     50.2832
   835.2500    373.6160   -412.3712     28.3351     48.8187
   835.5000    279.5914   -387.3903     29.2293     47.6544
   835.7500    173.1899   -361.3429     30.1789     47.2187
   836.0000     88.7083   -339.8344     31.0561     46.2104
   836.2500     41.4942   -329.1698     31.7704     45.1292
   836.5000     21.2498   -335.4074     32.3021     43.5756
   836.7500     13.9159   -361.3873     32.6907     43.1898
   837.0000     12.9372   -403.2073     32.9867     43.8333
   837.2500     15.8999   -450.0081     33.2120     44.5699
   837.5000     20.9979   -488.9344     33.3617     45.0277
   837.7500     26.7417   -511.6514     33.4440     44.6600
   838.0000     32.0248   -516.7765     33.5081     43.4589
   838.2500     35.1330   -507.4117     33.6257     42.5130
   838.5000     34.4740   -487.4594     33.8462     41.0698
   838.7500     31.3077   -459.6130     34.1686     40.1859
   839.0000     29.0277   -425.4168     34.5550     39.5503
   839.2500     29.3847   -386.4644     34.9613     40.0461
   839.5000     31.1982   -345.2921     35.3452     42.3981
   839.7500     32.2837   -305.3082     35.6354     44.6533
   840.0000     31.9709   -270.3262     35.6972     48.1009
   840.2500     32.4645   -244.1653     35.3496     50.1572
   840.5000     36.3287   -230.0659     34.4568     52.9990
   840.7500     41.2790   -229.8123     33.0319     54.8755
   841.0000     42.1608   -243.0888     31.2495     57.6428
   841.2500     39.7615   -267.5696     29.3449     59.3671
   841.5000     40.1218   -299.3421     27.4975     61.7947
   841.7500     43.0701   -332.9350     25.7844     63.4813
   842.0000     40.6349   -361.2584     24.2090     66.5427
   842.2500     30.0318   -376.8651     22.7525     69.0917
   842.5000     18.3145   -374.7645     21.4060     73.4480
   842.7500     11.8879   -354.7517     20.1694     76.3116
   843.0000     10.2861   -321.2028     19.0410     79.9900
   843.2500      9.7972   -280.7543     18.0165     82.0999
   843.5000      8.0235   -239.8954     17.0969     85.5381
   843.7500      5.4503   -203.6554     16.2940     88.5524
   844.0000      3.9991   -175.1200     15.6231     94.5368
   844.2500      4.9352   -155.2769     15.0913     99.1558
   844.5000      8.0851   -143.2612     14.6898    105.5233
   844.7500     11.9550   -137.1402     14.3948    108.3890
   845.0000     14.8030   -134.8963     14.1736    109.5738
   845.2500     16.0653   -135.0587     13.9940    108.2321
   845.5000     16.3700   -136.7627     13.8329    103.6872
   845.7500     16.4267   -139.4327     13.6819     99.7138
   846.0000     16.4430   -142.4610     13.5471     93.9841
   846.2500     16.3311   -145.2100     13.4456     91.2316
   846.5000     16.0169   -147.3780     13.4010     89.7322
   846.7500     15.5451   -149.3565     13.4360     90.6397
   847.0000     15.2034   -152.1171     13.5622     94.2574
   847.2500     15.5548   -156.6673     13.7670     97.4517
   847.5000     16.8490   -163.6541     14.0085    102.1793
   847.7500     18.7444   -173.4421     14.2266    104.8300
   848.0000     21.0718   -186.1369     14.3686    107.6865
   848.2500     23.5595   -200.9097     14.4128    108.7086
   848.5000     24.7369   -215.1448     14.3720    108.7647
   848.7500     23.2500   -224.8424     14.2787    107.9325
   849.0000     19.5460   -226.5749     14.1718    106.1474
   849.2500     14.7724   -219.3285     14.0916    105.2466
   849.5000     10.0691   -204.6620     14.0781    105.0704
   849.7500      6.8360   -185.6595     14.1633    105.5272
   850.0000      5.6297   -166.0351     14.3604    105.5608
   850.2500      5.7760   -149.6273     14.6610    104.1395
   850.5000      6.7721   -139.7956     15.0441     99.1150
   850.7500      8.6535   -138.9123     15.4923     94.1197
