~Version Information
VERS.                      2.0: CWLS Log ASCII Standard - VERSION 2.0
WRAP.                       NO: One line per depth step
~Well Information Block
STRT.FT               258.0000: 
STOP.FT               998.2000: 
STEP.FT                 0.1000: 
NULL.                -999.2500: 
COMP.          Pioneer Natural Resources: COMPANY
WELL.          Piggyback 33-25: WELL
FLD.           Purgatoire River: FIELD
LOC.           1600' FSL & 1800' FEL: LOCATION
PROV.                 Colorado: PROVINCE
CNTY.               Las Animas: COUNTRY
SRVC.                Patterson: SERVICE COMPANY
DATE.          Fri Apr 29 16:11:48 2005: LOG DATE
UWI.           05 071 08233 00: UNIQUE WELL ID
~Curve Information Block
DEPT.FT            0 000 00 00: Depth
DCAL.in                       : CDL Caliper
RHOB.g/cc                     : CDL Bulk Density
RHOC.g/cc                     : CDL Density Correction
DPOR.pu                       : CDL Density Porosity
GR.GAPI                       : Gamma Ray
NPOR.pu                       : Neutron Porosity
~Parameter Information Block
~A  Depth       DCAL        RHOB        RHOC        DPOR         GR         NPOR    
   258.0000      8.1400      2.1841     -0.5759     28.2389    137.0656     20.2869
   258.1000      8.1400      2.1799     -0.5443     28.4933    141.9124     21.0199
   258.2000      8.1400      2.2032     -0.5450     27.0776    141.7372     21.3039
   258.3000      8.1377      2.2354     -0.4782     25.1275    137.2777     20.9899
   258.4000      8.1377      2.2687     -0.5369     23.1112    130.8254     20.6489
   258.5000      8.1371      2.3073     -0.5148     20.7681    127.5595     20.7397
   258.6000      8.1371      2.3419     -0.4419     18.6705    127.2160     21.2308
   258.7000      8.1371      2.3626     -0.4582     17.4206    127.2544     21.8657
   258.8000      8.1375      2.3737     -0.5339     16.7460    125.9475     22.2819
   258.9000      8.1375      2.3686     -0.4687     17.0522    123.0689     21.7991
   259.0000      8.1375      2.3380     -0.4482     18.9095    121.2141     20.8539
   259.1000      8.1375      2.2968     -0.5521     21.4088    122.1299     20.2202
   259.2000      8.1375      2.2661     -0.5016     23.2666    124.7378     19.7805
   259.3000      8.1378      2.2486     -0.4711     24.3255    127.5362     19.5763
   259.4000      8.1378      2.2295     -0.4759     25.4873    130.6452     20.1383
   259.5000      8.1388      2.1923     -0.4944     27.7424    136.1634     21.4385
   259.6000      8.1388      2.1409     -0.5436     30.8530    144.4281     22.8886
   259.7000      8.1388      2.1022     -0.5082     33.2013    150.9289     24.0352
   259.8000      8.1338      2.0973     -0.5740     33.4978    153.5263     24.7592
   259.9000      8.1338      2.1225     -0.5100     31.9670    153.8202     24.8668
   260.0000      8.1390      2.1544     -0.5081     30.0352    153.9848     24.3788
   260.1000      8.1390      2.1777     -0.4949     28.6220    155.1304     23.7157
   260.2000      8.1390      2.2034     -0.5448     27.0696    155.1896     23.1701
   260.3000      8.1395      2.2432     -0.4597     24.6521    150.8966     22.7774
   260.4000      8.1395      2.2816     -0.4180     22.3266    143.9290     22.1580
   260.5000      8.1403      2.2989     -0.5311     21.2803    138.8265     21.2821
   260.6000      8.1403      2.2861     -0.4187     22.0533    132.4890     20.9700
   260.7000      8.1403      2.2367     -0.5246     25.0464    122.4412     21.3282
   260.8000      8.1397      2.1770     -0.5526     28.6693    116.4356     21.4790
   260.9000      8.1397      2.1553     -0.5730     29.9816    118.7642     21.1303
   261.0000      8.1375      2.1935     -0.5555     27.6683    123.1154     20.6382
   261.1000      8.1375      2.2646     -0.3901     23.3555    121.2693     19.9910
   261.2000      8.1375      2.3185     -0.4333     20.0893    113.7502     19.2536
   261.3000      8.1385      2.3365     -0.4092     19.0004    110.1248     19.0479
   261.4000      8.1385      2.3362     -0.4715     19.0170    113.4019     19.7409
   261.5000      8.1385      2.3347     -0.4450     19.1069    118.5812     20.9970
   261.6000      8.1385      2.3346     -0.4956     19.1172    122.6060     21.9417
   261.7000      8.1385      2.3338     -0.4611     19.1634    126.2309     21.9431
   261.8000      8.1407      2.3275     -0.4387     19.5453    128.4359     21.3680
   261.9000      8.1407      2.3205     -0.5132     19.9689    128.4863     21.1670
   262.0000      8.1399      2.3210     -0.4309     19.9375    127.0224     21.5523
   262.1000      8.1399      2.3280     -0.4660     19.5171    123.3830     21.8652
   262.2000      8.1399      2.3405     -0.5002     18.7591    122.8414     22.1263
   262.3000      8.1384      2.3523     -0.4604     18.0423    130.6354     22.5656
   262.4000      8.1384      2.3667     -0.4803     17.1701    141.3304     22.7895
   262.5000      8.1387      2.3937     -0.4373     15.5346    149.6461     22.7957
   262.6000      8.1387      2.4178     -0.3387     14.0746    151.3794     22.7120
   262.7000      8.1387      2.4289     -0.4579     13.4003    144.7168     22.3332
   262.8000      8.1389      2.4450     -0.4098     12.4218    134.3581     21.6597
   262.9000      8.1389      2.4791     -0.4549     10.3602    124.4689     21.2206
   263.0000      8.1396      2.5273     -0.4230      7.4347    120.2590     21.3033
   263.1000      8.1396      2.5671     -0.4237      5.0253    120.3245     21.5626
   263.2000      8.1396      2.5646     -0.3884      5.1767    115.6496     21.4935
   263.3000      8.1347      2.5271     -0.5269      7.4455    105.9454     20.5857
   263.4000      8.1347      2.5105     -0.4877      8.4552     97.2906     19.1354
   263.5000      8.1347      2.5345     -0.4855      7.0024     92.2875     18.2575
   263.6000      8.1347      2.5603     -0.4212      5.4365     92.4890     18.2413
   263.7000      8.1347      2.5479     -0.4517      6.1900     94.8633     18.1321
   263.8000      8.1366      2.4902     -0.4242      9.6876     95.1024     17.5119
   263.9000      8.1366      2.4095     -0.5232     14.5782     95.0345     17.2166
   264.0000      8.1399      2.3427     -0.5054     18.6213     93.8242     17.4565
   264.1000      8.1399      2.3125     -0.5734     20.4560     92.0799     17.5168
   264.2000      8.1399      2.3113     -0.4978     20.5275     94.4469     17.1311
   264.3000      8.1375      2.3166     -0.5290     20.2062    100.5930     16.9345
   264.4000      8.1375      2.3195     -0.5551     20.0317    103.6898     17.6478
   264.5000      8.1283      2.3267     -0.5577     19.5943     98.7431     19.1038
   264.6000      8.1283      2.3418     -0.5175     18.6781     91.5313     20.2425
   264.7000      8.1283      2.3596     -0.5583     17.6002     89.1470     20.3006
   264.8000      8.1369      2.3727     -0.4706     16.8033     91.3336     19.9997
   264.9000      8.1369      2.3700     -0.4145     16.9706     95.3183     20.4264
   265.0000      8.1391      2.3564     -0.5753     17.7956     97.5201     20.7999
   265.1000      8.1391      2.3518     -0.5313     18.0747     98.4151     20.4182
   265.2000      8.1391      2.3699     -0.5710     16.9734    100.1247     20.1523
   265.3000      8.1381      2.4077     -0.4484     14.6864     99.9270     19.9746
   265.4000      8.1381      2.4268     -0.4564     13.5300     98.8588     19.4017
   265.5000      8.1373      2.3969     -0.4859     15.3415    101.7540     18.5878
   265.6000      8.1373      2.3462     -0.5876     18.4108    108.9568     17.7501
   265.7000      8.1373      2.3290     -0.6531     19.4572    115.9094     17.4713
   265.8000      8.1385      2.3506     -0.6021     18.1477    118.9814     17.7550
   265.9000      8.1385      2.3706     -0.5283     16.9360    119.3781     17.9408
   266.0000      8.1400      2.3668     -0.5128     17.1635    119.3526     18.1667
   266.1000      8.1400      2.3570     -0.5828     17.7571    116.8153     18.7939
   266.2000      8.1400      2.3604     -0.5679     17.5513    110.8442     19.3840
   266.3000      8.1511      2.3567     -0.5376     17.7729    106.8165     19.4323
   266.4000      8.1511      2.3237     -0.6268     19.7762    108.1392     19.1297
   266.5000      8.1385      2.2878     -0.6355     21.9497    111.1806     18.9794
   266.6000      8.1385      2.2851     -0.6462     22.1157    112.8446     19.0342
   266.7000      8.1385      2.3082     -0.5127     20.7132    114.2889     18.7408
   266.8000      8.1385      2.3324     -0.5960     19.2455    113.8155     18.0531
   266.9000      8.1385      2.3591     -0.5496     17.6302    112.2841     17.8144
   267.0000      8.1422      2.3822     -0.4560     16.2326    113.5551     18.1425
   267.1000      8.1422      2.3854     -0.4751     16.0382    115.1229     18.4959
   267.2000      8.1422      2.3706     -0.4302     16.9312    113.9647     18.7188
   267.3000      8.1410      2.3520     -0.5754     18.0630    110.1904     18.4359
   267.4000      8.1410      2.3496     -0.5653     18.2037    104.2412     17.3983
   267.5000      8.1386      2.3724     -0.5186     16.8219     99.4079     16.6939
