~Version Information
VERS.                      2.0: CWLS Log ASCII Standard - VERSION 2.0
WRAP.                       NO: One line per depth step
~Well Information Block
STRT.FT                -4.5000: 
STOP.FT              1680.2500: 
STEP.FT                 0.2500: 
NULL.                -999.2500: 
COMP.          Pioneer Natural Resources: COMPANY
WELL.            Salty 42-6 Tr: WELL
FLD.           Purgatorie River: FIELD
LOC.           2409' FNL & 599' FEL--: LOCATION
PROV.                       CO: PROVINCE
CNTY.               Las Animas: COUNTRY
SRVC.                         : SERVICE COMPANY
DATE.          Mon Dec 20 13:36:48 2004: LOG DATE
UWI.           071-08238      : UNIQUE WELL ID
~Curve Information Block
DEPT.FT            0 000 00 00: Depth
HVOLTA.V                      : Head Voltage Apparent
GR.GAPI                       : Gamma Ray
CCL.                          : Casing Collar Locator
TT3.usec                      : CBL 3' Travel Time
AMP3.mV                       : CBL 3' Amplitude
~Parameter Information Block
~A  Depth      HVOLTA        GR         CCL         TT3         AMP3    
# ...
   219.5000     97.2996    112.6978      0.0000    773.2112     10.0709
   219.7500     97.0606    106.8043      0.0000    773.4210     10.0640
   220.0000     97.0296    100.2563      0.0000    773.7432     10.1114
   220.2500     97.0367     93.9293      0.0000    774.3577     10.1807
   220.5000     97.0810     88.7238      0.0000    775.9099     10.2536
   220.7500     97.1598     86.3317      0.0000    779.8597     10.3290
   221.0000     97.2004     88.3580      0.0000    788.2964     10.4174
   221.2500     97.0881     94.4694      0.0000    802.1628     10.5347
   221.5000     96.9543    101.9816      0.0000    818.4310     10.6843
   221.7500     97.1288    107.8801      0.0000    829.8210     10.8370
   222.0000     97.1120    111.1883      0.0000    829.7056     10.9381
   222.2500     96.9711    113.0403      0.0000    818.1256     10.9503
   222.5000     97.2721    114.8121      0.0000    801.7740     10.8890
   222.7500     97.0703    116.8534      0.0000    787.9540     10.8135
   223.0000     97.2996    118.7143      0.0000    779.6602     10.7864
   223.2500     97.0810    119.6460      0.0000    775.8757     10.8414
   223.5000     97.0774    118.7086      0.0000    774.4462     10.9790
   223.7500     97.0499    115.2150      0.0000    773.9027     11.1795
   224.0000     97.0057    109.5135      0.0000    773.6277     11.4222
   224.2500     97.0057    103.0148      0.0000    773.4371     11.6989
   224.5000     97.0332     97.1471      0.0000    773.2795     12.0067
   224.7500     97.1598     92.2424      0.0000    773.1356     12.3273
   225.0000     97.1084     87.5712      0.0000    773.0028     12.6170
   225.2500     97.2243     82.5805      0.0000    772.8860     12.8243
   225.5000     97.2793     77.7985      0.0000    772.7971     12.9177
   225.7500     97.0546     74.2082      0.0000    772.7520     12.9046
   226.0000     96.9854     72.0124      0.0000    772.7599     12.8311
   226.2500     97.0260     70.6192      0.0000    772.8152     12.7553
   226.5000     97.2350     69.8415      0.0000    772.9006     12.7053
   226.7500     97.0535     70.4538      0.0000    772.9966     12.6651
   227.0000     97.0906     73.3189      0.0000    773.0883     12.6018
   227.2500     97.0128     78.3995      0.0000    773.1668     12.5002
   227.5000     97.0906     84.7569      0.0000    773.2305     12.3669
   227.7500     96.9579     91.2471      0.0000    773.2852     12.2167
   228.0000     97.0810     97.2578      0.0000    773.3359     12.0605
   228.2500     97.0021    102.8467      0.0000    773.3680     11.9017
   228.5000     97.1120    108.0542      0.0000    773.3500     11.7375
   228.7500     97.0810    112.2640      0.0000    773.2755     11.5672
   229.0000     97.1526    114.7774      0.0000    773.2054     11.3996
   229.2500     97.1252    115.9249      0.0000    773.2458     11.2517
   229.5000     96.9925    116.8087      0.0000    773.4725     11.1357
   229.7500     97.0810    117.8507      0.0000    773.8750     11.0512
   230.0000     97.0977    118.5354      0.0000    774.3792     10.9914
   230.2500     97.2757    118.7467      0.0000    774.9318     10.9517
   230.5000     97.0606    119.2485      0.0000    775.6811     10.9269
   230.7500     97.1598    120.4431      0.0000    777.2535     10.9074
   231.0000     97.0606    121.7007      0.0000    781.1008     10.8832
   231.2500     96.9747    122.4224      0.0000    789.3574     10.8499
   231.5000     97.0881    122.8800      0.0000    803.3961     10.8101
   231.7500     97.0153    123.5580      0.0000    821.3304     10.7764
   232.0000     96.9950    124.3239      0.0000    837.0008     10.7637
   232.2500     96.9925    124.7406      0.0000    842.8839     10.7695
   232.5000     97.0870    124.9632      0.0000    835.4177     10.7604
   232.7500     97.1694    125.7721      0.0000    817.9350     10.6858
   233.0000     96.9615    127.5937      0.0000    798.3279     10.5068
   233.2500     97.0810    129.8425      0.0000    783.6249     10.2296
   233.5000     96.9818    131.3560      0.0000    776.2546      9.9244
   233.7500     97.0093    131.0331      0.0000    774.4688      9.6912
   234.0000     97.1741    127.9713      0.0000    775.2407      9.5818
   234.2500     97.1348    121.8015      0.0000    776.4896      9.5625
   234.5000     96.9508    113.5092      2.0000    777.4184      9.5517
   234.7500     97.0535    105.2605      2.0000    777.8588      9.4713
   235.0000     96.8958     98.7603      0.0000    777.7454      9.2817
   235.2500     97.1694     94.1743      0.0000    776.8623      9.0243
   235.5000     97.0845     90.9266      0.0000    774.8735      8.8564
   235.7500     96.9579     88.9599      0.0000    771.7611      8.9900
   236.0000     97.1430     88.8952      0.0000    768.3956      9.5237
   236.2500     97.0367     91.3585      0.0000    766.2827     10.3322
   236.5000     96.9101     96.2323      0.0000    766.3427     11.1491
   236.7500     97.0464    102.1871      0.0000    768.0722     11.7606
   237.0000     97.1526    107.0748      0.0000    770.1412     12.1114
   237.2500     97.0774    109.3202      0.0000    771.5824     12.2645
   237.5000     97.1837    109.0345      0.0000    772.2350     12.3098
   237.7500     97.0571    107.6047      0.0000    772.3856     12.3108
   238.0000     97.0164    106.2109      0.0000    772.3412     12.2998
   238.2500     97.1444    104.7697      0.0000    772.2811     12.2938
   238.5000     97.3853    102.2198      0.0000    772.2640     12.3082
   238.7500     97.4685     97.8057      0.0000    772.2645     12.3567
   239.0000     97.1419     92.1706      0.0000    772.2339     12.4390
   239.2500     97.1049     87.2148      0.0000    772.1515     12.5342
   239.5000     97.0845     84.8537      0.0000    772.0287     12.6114
   239.7500     97.0535     85.9445      0.0000    771.8781     12.6500
   240.0000     97.0236     90.0806      0.0000    771.7147     12.6487
   240.2500     97.2411     95.6977      0.0000    771.5872     12.6142
   240.5000     97.2589    100.4298      0.0000    771.5663     12.5465
   240.7500     96.9376    102.4280      0.0000    771.6776     12.4435
   241.0000     97.0535    101.7868      0.0000    771.8651     12.3183
   241.2500     97.2004    100.0453      0.0000    772.0383     12.2039
   241.5000     97.2076     98.2981      0.0000    772.1390     12.1351
   241.7500     96.9747     96.7198      0.0000    772.1509     12.1224
   242.0000     97.0845     95.6618      0.0000    772.0796     12.1422
   242.2500     97.0977     95.8658      0.0000    771.9536     12.1567
   242.5000     97.1658     97.4251      0.0000    771.8304     12.1477
   242.7500     97.1395     99.6758      0.0000    771.7687     12.1312
   243.0000     97.0093    102.2818      0.0000    771.7874     12.1403
   243.2500     97.2589    105.1622      0.0000    771.8476     12.1962
   243.5000     97.1491    107.0540      0.0000    771.8665     12.2952
   243.7500     96.9543    105.7794      0.0000    771.7606     12.4150
   244.0000     97.0403    101.0399      0.0000    771.5032     12.5266
   244.2500     97.2482     95.9022      0.0000    771.1494     12.6012
   244.5000     96.9543     94.1728      0.0000    770.8023     12.6143
   244.7500     97.0260     96.5695      0.0000    770.5548     12.5543
   245.0000     97.0128    100.2773      0.0000    770.4509     12.4348
   245.2500     97.1658    101.9433      0.0000    770.4772     12.2921
   245.5000     97.1156    100.5175      0.0000    770.5769     12.1629
   245.7500     96.9412     97.4535      0.0000    770.6826     12.0635
   246.0000     97.1969     94.8912      0.0000    770.7510     11.9882
   246.2500     97.2447     94.0263      0.0000    770.7783     11.9223
   246.5000     97.1897     94.8296      0.0000    770.7870     11.8517
   246.7500     97.1180     96.5958      0.0000    770.8002     11.7672
   247.0000     97.3067     98.4785      0.0000    770.8301     11.6665
   247.2500     96.9890     99.8674      0.0000    770.8865     11.5553
