~Version Information
VERS.                      2.0: CWLS Log ASCII Standard - VERSION 2.0
WRAP.                       NO: One line per depth step
~Well Information Block
STRT.FT               595.0000: 
STOP.FT              1508.7500: 
STEP.FT                 0.2500: 
NULL.                -999.2500: 
COMP.          Pioneer Natural Resources: COMPANY
WELL.          Sumatra 34-22 Tr: WELL
FLD.           Purgatoire River: FIELD
LOC.           443' FSL & 2424' FEL--: LOCATION
PROV.                 Colorado: PROVINCE
CNTY.               Las Animas: COUNTRY
SRVC.                Patterson: SERVICE COMPANY
DATE.          Wed Jun 08 23:53:01 2005: LOG DATE
UWI.           05 071 08383 00: UNIQUE WELL ID
~Curve Information Block
DEPT.FT            0 000 00 00: Depth
SN.Ohm-m                      : IEL Short Normal
SP.mV                         : IEL Spontaneous Potential
DIR.Ohm-m                     : IEL Induction Resistivity
GR.GAPI                       : Gamma Ray
~Parameter Information Block
~A  Depth        SN          SP         DIR          GR     
# ...
   997.0000    682.8896   -529.2607     11.9966    105.1977
   997.2500    682.8896   -529.2592     12.4160    106.4658
   997.5000    682.8896   -529.2570     12.8793    110.2719
   997.7500    682.8896   -529.2542     13.3451    113.1535
   998.0000    682.8896   -529.2515     13.7879    115.4017
   998.2500    682.8896   -529.2493     14.2121    114.4310
   998.5000    682.8896   -529.2476     14.6510    109.6610
   998.7500    682.8896   -529.2465     15.1528    105.5216
   999.0000    682.8896   -529.2458     15.7663     99.7525
   999.2500    682.8896   -529.2454     16.5327     96.4136
   999.5000    682.8896   -529.2451     17.4842     91.6709
   999.7500    682.8896   -529.2446     18.6421     88.7813
  1000.0000    682.8896   -529.2441     20.0091     86.2809
  1000.2500    682.8896   -529.2434     21.5569     86.8195
  1000.5000    682.8896   -529.2427     23.2137     91.4517
  1000.7500    682.8896   -529.2422     24.8652     96.4469
  1001.0000    682.8896   -529.2421     26.3796    104.6953
  1001.2500    682.8896   -529.2421     27.6527    109.4670
  1001.5000    682.8896   -529.2424     28.6472    114.4412
  1001.7500    682.8896   -529.2427     29.3952    116.4164
  1002.0000    682.8896   -529.2427     29.9648    118.0288
  1002.2500    682.8896   -529.2422     30.4153    118.2637
  1002.5000    682.8896   -529.2413     30.7743    116.8178
  1002.7500    682.8896   -529.2398     31.0410    114.4746
  1003.0000    682.8896   -529.2380     31.2041    109.5514
  1003.2500    682.8896   -529.2363     31.2564    106.1790
  1003.5000    682.8896   -529.2349     31.1974    102.3308
  1003.7500    682.8896   -529.2340     31.0313    100.7896
  1004.0000    682.8896   -529.2338     30.7687     99.2053
  1004.2500    682.8896   -529.2342     30.4355     97.9154
  1004.5000    682.8896   -529.2350     30.0744     95.1881
  1004.7500    682.8896   -529.2363     29.7303     93.2716
  1005.0000    682.8896   -529.2375     29.4293     91.3258
  1005.2500    682.8896   -529.2386     29.1686     90.8870
  1005.5000    682.8896   -529.2394     28.9277     91.0098
  1005.7500    682.8896   -529.2399     28.6918     91.0847
  1006.0000    682.8896   -529.2401     28.4691     90.5475
  1006.2500    682.8896   -529.2402     28.2894     89.7185
  1006.5000    682.8896   -529.2402     28.1847     88.0743
  1006.7500    682.8896   -529.2404     28.1666     86.8194
  1007.0000    682.8896   -529.2408     28.2121     84.5204
  1007.2500    682.8896   -529.2416     28.2642     82.5819
  1007.5000    682.8896   -529.2426     28.2427     79.3690
  1007.7500    682.8896   -529.2437     28.0576     77.6367
  1008.0000    682.8896   -529.2447     27.6222     77.0587
  1008.2500    682.8896   -529.2455     26.8720     78.6001
  1008.5000    682.8896   -529.2460     25.7862     83.8196
  1008.7500    682.8896   -529.2463     24.4050     88.7884
  1009.0000    682.8896   -529.2466     22.8287     97.5977
  1009.2500    682.8896   -529.2471     21.1976    104.0179
  1009.5000    682.8896   -529.2480     19.6577    113.9111
  1009.7500    682.8896   -529.2493     18.3253    120.1106
  1010.0000    682.8896   -529.2511     17.2673    127.3504
  1010.2500    682.8896   -529.2532     16.5012    130.0254
  1010.5000    682.8896   -529.2554     16.0097    130.3534
  1010.7500    682.8896   -529.2574     15.7572    128.3538
  1011.0000    682.8896   -529.2588     15.7014    122.7447
  1011.2500    682.8896   -529.2595     15.7991    117.7008
  1011.5000    682.8896   -529.2592     16.0057    109.0543
  1011.7500    682.8896   -529.2580     16.2743    103.2050
  1012.0000    682.8896   -529.2562     16.5535     95.6214
  1012.2500    682.8896   -529.2540     16.7887     92.2329
  1012.5000    682.8896   -529.2518     16.9268     90.9048
  1012.7500    682.8896   -529.2497     16.9276     92.7525
  1013.0000    682.8896   -529.2480     16.7756     98.9940
  1013.2500    682.8896   -529.2466     16.4878    104.7447
  1013.5000    682.8896   -529.2452     16.1091    114.1789
  1013.7500    682.8896   -529.2438     15.6998    119.8260
  1014.0000    682.8896   -529.2419     15.3215    125.0561
  1014.2500    682.8896   -529.2396     15.0268    125.4440
  1014.5000    682.8896   -529.2368     14.8546    121.3248
  1014.7500    682.8896   -529.2338     14.8302    116.1254
  1015.0000    682.8896   -529.2307     14.9678    105.8771
  1015.2500    682.8896   -529.2278     15.2726     97.9457
  1015.5000    682.8896   -529.2255     15.7422     85.5810
  1015.7500    682.8896   -529.2240     16.3628     78.0407
  1016.0000    682.8896   -529.2233     17.1017     69.5649
  1016.2500    682.8896   -529.2234     17.8951     66.5657
  1016.5000    682.8896   -529.2242     18.6393     66.6465
  1016.7500    682.8896   -529.2256     19.2019     69.5909
  1017.0000    682.8896   -529.2274     19.4631     77.2397
  1017.2500    682.8896   -529.2293     19.3738     83.6650
  1017.5000    682.8896   -529.2313     18.9835     94.0559
  1017.7500    682.8896   -529.2332     18.4136    100.8038
  1018.0000    682.8896   -529.2347     17.8002    109.3826
  1018.2500    682.8896   -529.2357     17.2525    113.4574
  1018.5000    682.8896   -529.2360     16.8411    116.7075
  1018.7500    682.8896   -529.2355     16.6042    117.0245
  1019.0000    682.8896   -529.2344     16.5594    114.8089
  1019.2500    682.8896   -529.2325     16.7124    111.5700
  1019.5000    682.8896   -529.2303     17.0612    104.6689
  1019.7500    682.8896   -529.2277     17.5980     99.5188
  1020.0000    682.8896   -529.2249     18.3092     92.4816
  1020.2500    682.8896   -529.2222     19.1783     88.6835
  1020.5000    682.8896   -529.2195     20.1852     84.1712
  1020.7500    682.8896   -529.2170     21.3001     81.7054
  1021.0000    682.8896   -529.2148     22.4680     78.6617
  1021.2500    682.8896   -529.2130     23.5987     77.1467
  1021.5000    682.8896   -529.2115     24.5779     75.8882
  1021.7500    682.8896   -529.2107     25.3030     75.8151
  1022.0000    682.8896   -529.2104     25.7151     76.6704
  1022.2500    682.8896   -529.2109     25.7992     77.5904
  1022.5000    682.8896   -529.2122     25.5598     79.0067
  1022.7500    682.8896   -529.2140     25.0073     79.8665
  1023.0000    682.8896   -529.2161     24.1677     81.2635
  1023.2500    682.8896   -529.2184     23.0938     82.6687
  1023.5000    682.8896   -529.2204     21.8568     86.4797
  1023.7500    682.8896   -529.2220     20.5278     90.6382
  1024.0000    682.8896   -529.2230     19.1678     99.3583
  1024.2500    682.8896   -529.2235     17.8274    106.3500
  1024.5000    682.8896   -529.2237     16.5483    117.4651
  1024.7500    682.8896   -529.2238     15.3623    124.6773
  1025.0000    682.8896   -529.2241     14.2889    133.9687
  1025.2500    682.8896   -529.2249     13.3369    138.3367
  1025.5000    682.8896   -529.2261     12.5062    141.7358
  1025.7500    682.8896   -529.2277     11.7901    142.6723
  1026.0000    682.8896   -529.2294     11.1787    143.9452
  1026.2500    682.8896   -529.2311     10.6615    144.9809
  1026.5000    682.8896   -529.2324     10.2304    145.5988
  1026.7500    682.8896   -529.2330      9.8800    144.7357
  1027.0000    682.8896   -529.2328      9.6049    142.3409
  1027.2500    682.8896   -529.2319      9.3978    141.3646
  1027.5000    682.8896   -529.2302      9.2483    142.4263
  1027.7500    682.8896   -529.2281      9.1436    144.4539
  1028.0000    682.8896   -529.2258      9.0716    147.1552
  1028.2500    682.8896   -529.2234      9.0236    147.4846
  1028.5000    682.8896   -529.2211      8.9955    145.6724
  1028.7500    682.8896   -529.2190      8.9871    144.1496
  1029.0000    682.8896   -529.2172      8.9989    143.9953
  1029.2500    682.8896   -529.2159      9.0283    145.9562
  1029.5000    682.8896   -529.2151      9.0685    150.7940
  1029.7500    682.8896   -529.2149      9.1105    153.7590
  1030.0000    682.8896   -529.2154      9.1469    155.4930
  1030.2500    682.8896   -529.2166      9.1759    154.3335
