~Version Information
VERS.                      2.0: CWLS Log ASCII Standard - VERSION 2.0
WRAP.                       NO: One line per depth step
~Well Information Block
STRT.FT               965.2500: 
STOP.FT              2602.5000: 
STEP.FT                 0.2500: 
NULL.                -999.2500: 
COMP.          Petrogulf Corporation: COMPANY
WELL.             Valejo 8-12V: WELL
FLD.           Purgatorie River: FIELD
LOC.           1510' FNL & 1460' FWL: LOCATION
CNTY.               Las Animas: COUNTY
SRVC.                         : SERVICE COMPANY
DATE.          Fri Nov 14 05:32:33 2003: LOG DATE
UWI.                          : UNIQUE WELL ID
STAT.                 Colorado: STATE
~Curve Information Block
DEPT.FT            0 000 00 00: Depth
RILD.Ohm-m                    : DIL Deep Resistivity
RILM.Ohm-m                    : DIL Medium Resistivity
RLL3.Ohm-m                    : DIL Shallow Resistivity
SP.mV                         : DIL Spontaneous Potential
GR.GAPI                       : Gamma Ray
~Parameter Information Block
~A  Depth       RILD        RILM        RLL3         SP          GR     
   965.2500   -999.2500   -999.2500   -999.2500    -65.7587   -999.2500
   965.5000   -999.2500   -999.2500   -999.2500    -52.6055   -999.2500
   965.7500   -999.2500   -999.2500   -999.2500    -37.4976     59.4735
   966.0000   -999.2500   -999.2500   -999.2500    -23.2582     71.2292
   966.2500   -999.2500   -999.2500   -999.2500    -12.4409     78.6932
   966.5000   -999.2500   -999.2500   -999.2500     -6.4255     87.7152
   966.7500   -999.2500   -999.2500   -999.2500     -5.1566     92.0144
   967.0000   -999.2500   -999.2500   -999.2500     -7.4721     96.4728
   967.2500   -999.2500   -999.2500   -999.2500    -11.6850     98.4074
   967.5000   -999.2500   -999.2500   -999.2500    -16.1279     99.3623
   967.7500   -999.2500   -999.2500   -999.2500    -19.5122     98.2491
   968.0000   -999.2500   -999.2500   -999.2500    -21.0898     93.9622
   968.2500   -999.2500   -999.2500   -999.2500    -20.7388     90.0296
   968.5000   -999.2500   -999.2500   -999.2500    -19.0349     84.1023
   968.7500   -999.2500   -999.2500   -999.2500    -17.1744     80.8082
   969.0000   -999.2500   -999.2500   -999.2500    -16.5978     77.4363
   969.2500   -999.2500   -999.2500   -999.2500    -18.4063     76.5200
   969.5000   -999.2500   -999.2500   -999.2500    -22.8428     77.7734
   969.7500   -999.2500   -999.2500   -999.2500    -29.1042     80.4794
   970.0000   -999.2500   -999.2500   -999.2500    -35.6352     86.3151
   970.2500   -999.2500   -999.2500   -999.2500    -40.8479     90.2140
   970.5000   -999.2500   -999.2500   -999.2500    -43.9260     94.4195
   970.7500   -999.2500   -999.2500   -999.2500    -45.2433     95.8922
   971.0000   -999.2500   -999.2500   -999.2500    -46.1046     96.5536
   971.2500   -999.2500   -999.2500   -999.2500    -47.9299     96.1813
   971.5000   -999.2500   -999.2500   -999.2500    -51.3996     94.4139
   971.7500   -999.2500   -999.2500   -999.2500    -56.1168     92.5009
   972.0000   -999.2500   -999.2500   -999.2500    -60.9468     89.2366
   972.2500     14.6503   -999.2500   -999.2500    -64.6932     87.4626
   972.5000     14.8076   -999.2500   -999.2500    -66.5903     86.3226
   972.7500     14.8708   -999.2500   -999.2500    -66.3463     86.6015
   973.0000     14.8234   -999.2500   -999.2500    -63.9112     87.4936
   973.2500     14.6758   -999.2500   -999.2500    -59.3419     87.4249
   973.5000     14.4836   -999.2500   -999.2500    -52.8815     85.0688
   973.7500     14.3449   -999.2500   -999.2500    -44.9980     81.7697
   974.0000     14.3651   -999.2500   -999.2500    -36.1590     74.4350
   974.2500     14.6086   -999.2500     11.7513    -26.5441     68.3186
   974.5000     15.0642   -999.2500     10.8288    -16.1268     58.6519
   974.7500     15.6248   -999.2500     11.6330     -5.1945     53.1100
   975.0000     16.0922   -999.2500     14.0292      5.2339     48.1959
   975.2500     16.2406   -999.2500     18.9664     13.6921     47.7720
   975.5000     15.9437   -999.2500     28.4008     19.1285     51.1224
   975.7500     15.2637   -999.2500     46.6568     21.5267     55.4036
   976.0000     14.3910   -999.2500     83.9988     21.7156     63.7773
   976.2500     13.4967   -999.2500    160.4341     20.6717     70.0630
   976.5000     12.6499   -999.2500    302.5482     18.9965     79.3617
   976.7500     11.8409   -999.2500    527.3249     16.8584     84.6482
   977.0000     11.0548 100000.0000    820.9999     14.1929     90.1419
   977.2500     10.3215 100000.0000   1134.4270     10.8843     92.1818
   977.5000      9.7059 100000.0000   1406.3683      6.8460     93.7951
   977.7500      9.2690 100000.0000   1597.5144      2.0845     94.4517
   978.0000      9.0410 100000.0000   1705.9396     -3.1540     94.7656
   978.2500      9.0155 100000.0000   1755.3472     -8.1833     94.0798
   978.5000      9.1537 100000.0000   1773.3450    -11.8505     91.3175
   978.7500      9.3894 100000.0000   1778.5659    -12.9250     88.7358
   979.0000      9.6396 100000.0000   1779.7678    -10.8115     85.3188
   979.2500      9.8275 100000.0000   1779.9603     -6.0833     84.1383
   979.5000      9.9091 100000.0000   1779.9017     -0.3560     83.9260
   979.7500      9.8887 100000.0000   1779.7468      4.4680     83.8091
   980.0000      9.8083 100000.0000   1779.5483      7.1058     81.6691
   980.2500      9.7220 100000.0000   1779.3252      7.4559     78.6611
   980.5000      9.6698 100000.0000   1779.0543      6.5911     73.3294
   980.7500      9.6645 100000.0000   1778.7036      6.2125     70.5240
   981.0000      9.6916 100000.0000   1778.2955      7.7756     68.6401
   981.2500      9.7214 100000.0000   1777.9216     11.6864     68.8927
   981.5000      9.7254 100000.0000   1777.6869     17.0465     70.9578
   981.7500      9.6881 100000.0000   1777.6439     22.1507     73.0956
   982.0000      9.6070 100000.0000   1777.7759     25.4085     76.6546
   982.2500      9.4854 100000.0000   1778.0239     26.0576     78.6954
   982.5000      9.3293 100000.0000   1778.3081     24.2777     80.6072
   982.7500      9.1507 100000.0000   1778.5135     20.8092     81.1902
   983.0000      8.9693 100000.0000   1778.5002     16.4668     81.6973
   983.2500      8.8078 100000.0000   1778.1570     11.8722     82.0986
   983.5000      8.6837 100000.0000   1777.4253      7.4607     82.8965
   983.7500      8.6030 100000.0000   1776.0626      3.5785     83.5818
   984.0000      8.5591 100000.0000   1772.9253      0.4492     85.0620
   984.2500      8.5355 100000.0000   1764.6394     -1.9873     86.3635
   984.5000      8.5124 100000.0000   1744.0833     -4.1408     88.1893
   984.7500      8.4750 100000.0000   1700.2266     -6.5849     88.7631
   985.0000      8.4210 100000.0000   1619.9998     -9.7495     88.0891
   985.2500      8.3622 100000.0000   1490.0746    -13.7831     86.7362
   985.5000      8.3181 100000.0000   1298.9856    -18.7260     84.0573
   985.7500      8.3049 100000.0000   1045.9888    -24.8271     82.1962
   986.0000      8.3276 100000.0000    755.1622    -32.6579     79.4779
   986.2500      8.3774 100000.0000    475.5972    -42.8562     77.7226
   986.5000      8.4360 100000.0000    256.4098    -55.7114     75.3707
   986.7500      8.4842 100000.0000    117.9746    -70.9381     74.1733
   987.0000      8.5095 100000.0000     47.7917    -87.7605     73.0234
   987.2500      8.5105 100000.0000     19.1070   -105.1117     72.5342
   987.5000      8.4961 100000.0000      9.4067   -121.6939     71.7944
   987.7500      8.4806 100000.0000      6.2904   -135.9165     71.0995
   988.0000      8.4771 100000.0000      4.8609   -146.0325     69.5265
   988.2500      8.4920 100000.0000      3.8427   -150.6556     67.9557
   988.5000      8.5217 100000.0000      3.1678   -149.3074     64.5251
   988.7500      8.5560 100000.0000      2.9076   -142.4839     61.6377
   989.0000      8.5842 100000.0000      2.9557   -131.2442     57.4094
   989.2500      8.5999 100000.0000      3.0740   -116.7674     55.3944
   989.5000      8.6011 100000.0000      3.0660   -100.1461     54.1131
   989.7500      8.5873 100000.0000      2.8640    -82.3215     54.1411
   990.0000      8.5559 100000.0000      2.5124    -64.0493     54.6487
   990.2500      8.5050 100000.0000      2.1197    -45.9458     54.9867
   990.5000      8.4374 100000.0000      1.7979    -28.6558     55.4783
   990.7500      8.3631 100000.0000      1.6119    -13.0215     55.8881
   991.0000      8.2960 100000.0000      1.6054     -0.0328     56.5026
   991.2500      8.2473 100000.0000      1.8633      9.5519     56.6471
   991.5000      8.2205 100000.0000      2.4596     15.7113     56.2036
   991.7500      8.2112 100000.0000      3.2873     19.3331     55.7780
   992.0000      8.2094 100000.0000      4.0015     21.7730     56.2911
   992.2500      8.2042 100000.0000      4.2462     24.0946     58.1430
   992.5000      8.1883 100000.0000      3.9646     26.6318     63.1241
   992.7500      8.1612 100000.0000      3.4375     29.1821     66.9232
   993.0000      8.1280 100000.0000      3.0110     31.5202     71.2082
