~Version Information
VERS.                      2.0: CWLS Log ASCII Standard - VERSION 2.0
WRAP.                       NO: One line per depth step
~Well Information Block
STRT.FT                -6.7500: 
STOP.FT              1181.0000: 
STEP.FT                 0.2500: 
NULL.                -999.2500: 
COMP.          Pioneer Natural Resources: COMPANY
WELL.          Pacheco 33-27 Tr: WELL
FLD.           Purgatorie River: FIELD
LOC.           2251' FSL & 2342' FEL--: LOCATION
PROV.                       CO: PROVINCE
CNTY.               Las Animas: COUNTRY
SRVC.          Patterson Wireline: SERVICE COMPANY
DATE.          Wed Jun 15 10:58:02 2005: LOG DATE
UWI.           05 071 08384 00: UNIQUE WELL ID
~Curve Information Block
DEPT.FT            0 000 00 00: Depth
CCL.                          : Casing Collar Locator
TT3.usec                      : CBL 3' Travel Time
AMP3.mV                       : CBL 3' Amplitude
GR.GAPI                       : Gamma Ray
~Parameter Information Block
~A  Depth       CCL         TT3         AMP3         GR     
# ...
   763.7500      0.0000    827.6843      5.0192    151.7789
   764.0000      0.0000    832.8889      5.3240    153.9497
   764.2500      0.0000    834.3989      5.6779    152.8813
   764.5000      0.0000    834.0292      5.9477    148.2340
   764.7500      0.0000    832.9497      6.0485    140.4143
   765.0000      0.0000    829.9680      5.9571    130.5586
   765.2500      0.0000    822.7018      5.7039    120.4663
   765.5000      0.0000    811.5036      5.3712    112.3460
   765.7500      0.0000    800.9214      5.0837    108.3701
   766.0000      0.0000    795.2892      4.9621    109.9303
   766.2500      0.0000    793.4495      5.0505    116.5936
   766.5000      0.0000    790.2490      5.2719    125.8680
   766.7500      0.0000    783.1100      5.4601    134.8246
   767.0000      0.0000    774.6011      5.4559    142.1593
   767.2500      0.0000    768.5349      5.2050    148.3368
   767.5000      0.0000    767.0897      4.7948    153.7651
   767.7500      0.0000    772.9227      4.4015    157.4088
   768.0000      0.0000    789.8119      4.1733    157.7076
   768.2500      0.0000    817.2922      4.1440    154.7470
   768.5000      0.0000    846.8943      4.2451    150.6279
   768.7500      0.0000    867.8949      4.3798    147.1462
   769.0000      0.0000    876.4451      4.4699    143.7722
   769.2500      0.0000    876.7504      4.4709    138.6223
   769.5000     -2.0000    874.6064      4.3951    130.9774
   769.7500      0.0000    872.5541      4.3295    122.2584
   770.0000      0.0000    870.7494      4.4010    114.9111
   770.2500      0.0000    869.3852      4.6884    110.8149
   770.5000      0.0000    868.5049      5.1438    110.5562
   770.7500      0.0000    866.0386      5.5990    113.7938
   771.0000      0.0000    857.6023      5.8717    119.8700
   771.2500      0.0000    839.4853      5.8880    127.5940
   771.5000      0.0000    812.4578      5.7133    134.7100
   771.7500      0.0000    782.4265      5.4865    138.5079
   772.0000      0.0000    756.8862      5.3385    137.3510
   772.2500      0.0000    740.4861      5.3442    131.5187
   772.5000      0.0000    733.7586      5.5010    122.9160
   772.7500      0.0000    734.8655      5.7329    114.2712
   773.0000      0.0000    740.9432      5.9326    108.0998
   773.2500      0.0000    747.8510      6.0139    105.7994
   773.5000      0.0000    750.8931      5.9418    107.3633
   773.7500      0.0000    747.7548      5.7379    111.4901
   774.0000      0.0000    740.3640      5.4803    115.9872
   774.2500      0.0000    732.8829      5.2867    118.9634
   774.5000      0.0000    728.3098      5.2653    120.1170
   774.7500      0.0000    727.4374      5.4496    120.4771
   775.0000      0.0000    729.8934      5.7712    120.8714
   775.2500      0.0000    734.7166      6.0938    121.1632
   775.5000      0.0000    740.0012      6.2836    121.0131
   775.7500      0.0000    743.3925      6.2701    120.6663
   776.0000      0.0000    743.8744      6.0776    120.6685
   776.2500      0.0000    742.4909      5.8182    121.4613
   776.5000      0.0000    740.7101      5.6393    123.6832
   776.7500      0.0000    738.7606      5.6429    127.9896
   777.0000      0.0000    736.2094      5.8263    133.8168
   777.2500      0.0000    733.3427      6.0894    139.0624
   777.5000      0.0000    731.1119      6.2975    141.7526
   777.7500      0.0000    730.0840      6.3564    141.5786
   778.0000      0.0000    730.0150      6.2600    139.4693
   778.2500      0.0000    730.2969      6.0936    136.4562
   778.5000      0.0000    730.4683      5.9883    133.4365
   778.7500      0.0000    730.3625      6.0360    131.3043
   779.0000      0.0000    730.0046      6.2165    130.5241
   779.2500      0.0000    729.5071      6.4032    130.6340
   779.5000      0.0000    729.0107      6.4590    130.6223
   779.7500      0.0000    728.6307      6.3473    129.9655
   780.0000      0.0000    728.4155      6.1638    128.9945
   780.2500      0.0000    728.3676      6.0617    128.0491
   780.5000      0.0000    728.5525      6.1306    126.7196
   780.7500      0.0000    729.2333      6.3296    124.2270
   781.0000      0.0000    730.9702      6.5248    120.1828
   781.2500      0.0000    734.4736      6.5920    114.7386
   781.5000      0.0000    739.9794      6.5002    108.3440
   781.7500      0.0000    746.6610      6.3293    101.6299
   782.0000      0.0000    753.1586      6.2160     95.4401
   782.2500      0.0000    758.8635      6.2586     90.7726
   782.5000      0.0000    763.9067      6.4408     88.5141
   782.7500      0.0000    767.6310      6.6401     89.1015
   783.0000      0.0000    768.1576      6.7164     92.4550
   783.2500      0.0000    764.0786      6.6094     97.9767
   783.5000      0.0000    756.0448      6.3761    104.1923
   783.7500      0.0000    746.4702      6.1500    108.8388
   784.0000      0.0000    737.9840      6.0514    110.3550
   784.2500      0.0000    732.0689      6.1088    109.3579
   784.5000      0.0000    728.7437      6.2448    107.9690
   784.7500      0.0000    727.1800      6.3346    107.5958
   785.0000      0.0000    726.5021      6.2898    107.7187
   785.2500      0.0000    726.1563      6.1154    106.8034
   785.5000      0.0000    725.8773      5.9085    104.1477
   785.7500      0.0000    725.5632      5.7934    100.8104
   786.0000      0.0000    725.1949      5.8280     98.8539
   786.2500      0.0000    724.8008      5.9525     99.5438
   786.5000      0.0000    724.4544      6.0307    102.1283
   786.7500      0.0000    724.2736      5.9562    104.2991
   787.0000      0.0000    724.3998      5.7385    103.9331
   787.2500      0.0000    724.9815      5.5037    100.7322
   787.5000      0.0000    726.2369      5.4010     96.4487
   787.7500      0.0000    728.5122      5.4862     93.4082
   788.0000      0.0000    732.1215      5.6797     92.7587
   788.2500      0.0000    737.1667      5.8365     94.2860
   788.5000      0.0000    743.8189      5.8639     97.5667
   788.7500      0.0000    752.6368      5.7859    102.5502
   789.0000      0.0000    763.6766      5.7179    108.9960
   789.2500      0.0000    774.9730      5.7755    115.9882
   789.5000      0.0000    783.0056      5.9831    122.2817
   789.7500      0.0000    785.6015      6.2499    127.0102
   790.0000      0.0000    783.9617      6.4343    130.0655
   790.2500      0.0000    781.2838      6.4462    131.7154
   790.5000      0.0000    779.7184      6.3123    131.8330
   790.7500      0.0000    778.9498      6.1592    129.8898
   791.0000      0.0000    777.1178      6.1222    126.0703
   791.2500      0.0000    772.3831      6.2381    121.9255
   791.5000      0.0000    764.0641      6.4148    119.3683
   791.7500      0.0000    753.3134      6.5081    119.2623
   792.0000      0.0000    742.7504      6.4360    121.2587
   792.2500      0.0000    734.8237      6.2377    124.4649
   792.5000      0.0000    730.3943      6.0434    127.7661
   792.7500      0.0000    728.9350      5.9822    129.8411
   793.0000      0.0000    729.5706      6.0877    129.6493
   793.2500      0.0000    731.4647      6.2732    127.3423
   793.5000      0.0000    733.4694      6.3965    124.5130
   793.7500      0.0000    734.2055      6.3592    123.2085
   794.0000      0.0000    732.9812      6.1696    124.5092
   794.2500      0.0000    730.4003      5.9347    127.7666
   794.5000      0.0000    727.7419      5.7924    130.9873
   794.7500      0.0000    725.8784      5.8169    131.9915
   795.0000      0.0000    724.9261      5.9611    129.5433
   795.2500      0.0000    724.6069      6.0887    123.9810
   795.5000      0.0000    724.6104      6.0760    117.2753
   795.7500      0.0000    724.6846      5.8999    112.1152
   796.0000      0.0000    724.6447      5.6529    110.0424
   796.2500      0.0000    724.4283      5.4837    110.2368
   796.5000      0.0000    724.1363      5.5014    110.5271
   796.7500      0.0000    723.9813      5.6988    109.5600
   797.0000      0.0000    724.1470      5.9512    107.7797
