~Version Information
VERS.                      2.0: CWLS Log ASCII Standard - VERSION 2.0
WRAP.                       NO: One line per depth step
~Well Information Block
STRT.FT                -3.5000: 
STOP.FT              1841.0000: 
STEP.FT                 0.2500: 
NULL.                -999.2500: 
COMP.          Pioneer Natural Resources: COMPANY
WELL.          Corkscrew 33-12 Tr: WELL
FLD.           Purgatorie River: FIELD
LOC.           1870' FSL  & 1706' FEL--------: LOCATION
PROV.                       CO: PROVINCE
CNTY.               Las Animas: COUNTRY
SRVC.          Patterson Wireline: SERVICE COMPANY
DATE.          Mon Apr 04 10:07:45 2005: LOG DATE
UWI.           05 071 08295 00: UNIQUE WELL ID
~Curve Information Block
DEPT.FT            0 000 00 00: Depth
CCL.                          : Casing Collar Locator
TT3.usec                      : CBL 3' Travel Time
AMP3.mV                       : CBL 3' Amplitude
GR.GAPI                       : Gamma Ray
~Parameter Information Block
~A  Depth       CCL         TT3         AMP3         GR     
# ...
  1437.0000      0.0000    792.0167      7.0841    133.7869
  1437.2500      0.0000    784.1503      6.9678    135.3802
  1437.5000      0.0000    775.8908      6.8499    135.9012
  1437.7500      0.0000    770.2805      6.7624    136.5209
  1438.0000      0.0000    766.2312      6.7400    138.5380
  1438.2500      0.0000    760.2497      6.7550    142.6150
  1438.5000      0.0000    751.5178      6.7236    148.2421
  1438.7500      0.0000    743.5108      6.6197    154.0238
  1439.0000      0.0000    740.2930      6.5365    158.5546
  1439.2500      0.0000    742.6761      6.5810    161.0002
  1439.5000      0.0000    748.8155      6.7339    160.9004
  1439.7500      0.0000    757.4310      6.8707    157.9096
  1440.0000      0.0000    768.7050      6.9057    152.4100
  1440.2500      0.0000    781.9461      6.8541    146.2417
  1440.5000      0.0000    794.0397      6.7647    141.9164
  1440.7500      0.0000    800.9014      6.6680    140.5843
  1441.0000      0.0000    799.5506      6.6010    141.1307
  1441.2500      0.0000    788.9815      6.6092    141.5727
  1441.5000      0.0000    770.8719      6.6976    140.8782
  1441.7500      0.0000    750.1450      6.8242    139.0009
  1442.0000      0.0000    733.3732      6.9489    135.9064
  1442.2500      0.0000    725.2994      7.0484    131.6209
  1442.5000      0.0000    726.7866      7.0975    127.1470
  1442.7500      0.0000    735.3754      7.0897    124.5554
  1443.0000      0.0000    746.3791      7.0656    125.8875
  1443.2500      0.0000    754.0013      7.0702    131.9908
  1443.5000      0.0000    754.1646      7.0958    142.0217
  1443.7500      0.0000    747.8605      7.1082    153.5211
  1444.0000      0.0000    740.9886      7.1065    163.0167
  1444.2500      0.0000    740.0853      7.1127    167.3700
  1444.5000      0.0000    747.9534      7.1300    165.6465
  1444.7500      0.0000    762.4285      7.1496    160.0255
  1445.0000      0.0000    778.2259      7.1653    154.5167
  1445.2500      0.0000    790.0623      7.1555    152.3953
  1445.5000      0.0000    795.0827      7.0900    154.6132
  1445.7500      0.0000    793.5518      6.9784    160.0019
  1446.0000      0.0000    787.8806      6.8716    166.2692
  1446.2500      0.0000    780.4697      6.7989    171.0817
  1446.5000      0.0000    771.7263      6.7401    173.2392
  1446.7500      0.0000    760.5457      6.6704    173.2939
  1447.0000      0.0000    747.0398      6.5901    172.9124
  1447.2500      0.0000    733.7545      6.4992    173.7691
  1447.5000      0.0000    723.6489      6.3884    176.9166
  1447.7500      0.0000    717.7932      6.2730    182.2781
  1448.0000      0.0000    715.5071      6.1872    188.1871
  1448.2500      0.0000    716.0946      6.1334    192.1683
  1448.5000      0.0000    720.1313      6.0902    192.8768
  1448.7500      0.0000    729.3397      6.0805    190.8449
  1449.0000      0.0000    745.0798      6.1618    187.0441
  1449.2500      0.0000    766.3162      6.3292    181.5635
  1449.5000      0.0000    788.8984      6.4936    174.2858
  1449.7500      0.0000    807.4304      6.5778    165.9827
  1450.0000      0.0000    818.4963      6.5826    157.7543
  1450.2500      0.0000    822.2349      6.5471    149.7352
  1450.5000      0.0000    820.5692      6.4958    141.0997
  1450.7500      0.0000    814.1034      6.4390    131.2420
  1451.0000      0.0000    801.6328      6.3844    120.5013
  1451.2500      0.0000    783.3409      6.3328    109.9912
  1451.5000      0.0000    763.7536      6.2827    101.3446
  1451.7500      0.0000    750.2128      6.2406     96.4395
  1452.0000      0.0000    748.0597      6.2229     96.4855
  1452.2500      0.0000    757.0899      6.2489    101.0001
  1452.5000      0.0000    771.5037      6.3259    108.0313
  1452.7500      0.0000    783.0167      6.4366    115.6395
  1453.0000      0.0000    785.9252      6.5398    123.0779
  1453.2500      0.0000    780.6871      6.5898    130.6179
  1453.5000      0.0000    772.1508      6.5678    138.4508
  1453.7500      0.0000    764.3222      6.5014    145.8222
  1454.0000      0.0000    758.0778      6.4434    151.1756
  1454.2500      0.0000    753.6094      6.4274    153.1143
  1454.5000      0.0000    752.4097      6.4460    151.2439
  1454.7500      0.0000    755.5770      6.4645    146.1937
  1455.0000      0.0000    761.6750      6.4506    138.8846
  1455.2500      0.0000    767.4349      6.4017    129.6727
  1455.5000      0.0000    769.9835      6.3543    118.2249
  1455.7500      0.0000    768.1829      6.3581    104.6304
  1456.0000      0.0000    762.9158      6.4291     90.7806
  1456.2500      0.0000    756.9057      6.5267     79.9192
  1456.5000      0.0000    753.4644      6.5816     74.1750
  1456.7500      0.0000    754.1550      6.5496     72.7257
  1457.0000      0.0000    757.5973      6.4485     72.6633
  1457.2500      0.0000    761.0558      6.3514     71.6502
  1457.5000      0.0000    763.1852      6.3309     69.9567
  1457.7500      0.0000    765.2837      6.4008     70.2937
  1458.0000      0.0000    770.2131      6.5106     75.7699
  1458.2500      0.0000    779.9631      6.5886     87.7179
  1458.5000      0.0000    793.1656      6.5894    104.8215
  1458.7500      0.0000    804.3412      6.5124    123.7931
  1459.0000      0.0000    806.6433      6.3782    141.0802
  1459.2500      0.0000    797.0920      6.1942    154.5638
  1459.5000      0.0000    779.8226      5.9551    164.0618
  1459.7500      0.0000    763.7285      5.6736    170.3054
  1460.0000      0.0000    756.2770      5.3989    173.4135
  1460.2500      0.0000    759.2100      5.1961    172.5205
  1460.5000      0.0000    769.4533      5.1074    167.0215
  1460.7500      0.0000    782.8101      5.1385    157.9146
  1461.0000      0.0000    795.5914      5.2786    147.5190
  1461.2500      0.0000    803.2872      5.5174    137.9398
  1461.5000      0.0000    800.4057      5.8451    130.0705
  1461.7500      0.0000    784.3523      6.2518    123.7253
  1462.0000      0.0000    759.3453      6.7356    118.0790
  1462.2500      0.0000    734.2378      7.3178    112.1338
  1462.5000      0.0000    715.4695      8.0412    105.3579
  1462.7500      0.0000    703.0317      8.9419     98.0163
  1463.0000      0.0000    693.2471     10.0193     90.8497
  1463.2500      0.0000    683.7689     11.2243     84.6293
  1463.5000      0.0000    675.1081     12.4497     79.9823
  1463.7500      0.0000    668.6632     13.5373     77.2484
  1464.0000      0.0000    664.8044     14.3261     76.2792
  1464.2500      0.0000    662.8248     14.6985     76.5252
  1464.5000      0.0000    661.7932     14.6007     77.3513
  1464.7500      0.0000    661.0930     14.0689     78.1034
  1465.0000      0.0000    660.4588     13.2367     77.9959
  1465.2500      0.0000    659.8692     12.2651     76.4381
  1465.5000      0.0000    659.4431     11.2656     73.7127
  1465.7500      0.0000    659.3417     10.3242     71.0886
  1466.0000      0.0000    659.6783      9.5566     70.0326
  1466.2500      0.0000    660.4540      9.0609     71.2593
  1466.5000      0.0000    661.5554      8.8170     74.2879
  1466.7500      0.0000    662.8262      8.7001     77.6850
  1467.0000      0.0000    664.1390      8.6061     79.9123
  1467.2500      0.0000    665.4191      8.5281     80.3691
  1467.5000      0.0000    666.6598      8.5059     79.8273
  1467.7500      0.0000    667.9381      8.5328     79.7037
  1468.0000      0.0000    669.2912      8.5205     80.6333
  1468.2500      0.0000    670.5214      8.3396     81.8291
  1468.5000      0.0000    671.3502      7.8985     81.9509
  1468.7500      0.0000    671.9270      7.2107     80.3787
  1469.0000      0.0000    672.9882      6.4036     77.6131
  1469.2500      0.0000    675.4442      5.6547     74.7696
  1469.5000      0.0000    680.1414      5.0988     72.7805
  1469.7500      0.0000    688.0867      4.7711     71.7821
  1470.0000      0.0000    700.2764      4.6029     71.0308
  1470.2500      0.0000    716.6230      4.4732     69.4761
