~Version Information
VERS.                      2.0: CWLS Log ASCII Standard - VERSION 2.0
WRAP.                       NO: One line per depth step
~Well Information Block
STRT.FT                -2.2500: 
STOP.FT              1676.7500: 
STEP.FT                 0.2500: 
NULL.                -999.2500: 
COMP.          Pioneer Natural Resources: COMPANY
WELL.              Patten 22-2: WELL
FLD.           Purgatoire River: FIELD
LOC.           2157' FNL & 1528' FWL: LOCATION
PROV.                 Colorado: PROVINCE
CNTY.               Las Animas: COUNTRY
SRVC.                Patterson: SERVICE COMPANY
DATE.          Tue Dec 14 11:45:47 2004: LOG DATE
UWI.           05 071 08168 00: UNIQUE WELL ID
~Curve Information Block
DEPT.FT            0 000 00 00: Depth
GR.GAPI                       : Gamma Ray
CCL.                          : Casing Collar Locator
TT3.usec                      : CBL 3' Travel Time
AMP3.mV                       : CBL 3' Amplitude
~Parameter Information Block
~A  Depth        GR         CCL         TT3         AMP3    
# ...
   969.2500    107.0828      0.0000    666.7625      5.9892
   969.5000     97.8146      0.0000    657.0779      6.0756
   969.7500     89.1924      0.0000    650.8257      6.1987
   970.0000     82.9986      0.0000    650.8093      6.3067
   970.2500     79.9330      0.0000    658.5354      6.3898
   970.5000     79.3040     -2.0000    673.4155      6.4686
   970.7500     79.7249      2.0000    693.0118      6.5496
   971.0000     80.2629      2.0000    713.1756      6.6173
   971.2500     80.8482     -2.0000    728.2692      6.6598
   971.5000     81.6981      0.0000    733.2816      6.6907
   971.7500     82.7668      0.0000    727.0106      6.7480
   972.0000     83.9666      0.0000    713.0181      6.8589
   972.2500     85.6140      0.0000    697.1271      6.9906
   972.5000     88.2707      0.0000    683.4654      7.0576
   972.7500     92.1830      0.0000    672.3924      7.0077
   973.0000     97.1669      0.0000    662.0840      6.8855
   973.2500    102.8609      0.0000    651.6577      6.7811
   973.5000    108.6023      0.0000    642.2264      6.7374
   973.7500    113.0990      0.0000    635.4756      6.7269
   974.0000    115.0365      0.0000    632.2592      6.7026
   974.2500    114.5722      0.0000    632.7089      6.6425
   974.5000    113.9832      0.0000    637.1094      6.5519
   974.7500    116.1014      0.0000    645.9382      6.4448
   975.0000    121.7251      0.0000    658.3546      6.3337
   975.2500    128.9161      0.0000    671.0225      6.2319
   975.5000    135.1216      0.0000    679.9378      6.1512
   975.7500    139.4416      0.0000    683.6848      6.0899
   976.0000    142.4818      0.0000    683.9797      6.0274
   976.2500    144.7855      0.0000    683.3036      5.9306
   976.5000    146.1387      0.0000    683.0565      5.7682
   976.7500    146.0651      0.0000    683.7374      5.5251
   977.0000    144.4197      0.0000    685.8856      5.2160
   977.2500    141.3918      0.0000    690.5872      4.8927
   977.5000    136.9915      0.0000    699.4448      4.6267
   977.7500    130.6810      0.0000    713.8245      4.4698
   978.0000    121.8625      0.0000    733.3862      4.4258
   978.2500    110.9592      0.0000    755.3088      4.4576
   978.5000    100.0224      0.0000    775.4130      4.5190
   978.7500     91.9367      0.0000    789.9304      4.5806
   979.0000     88.4706      0.0000    796.2845      4.6436
   979.2500     89.0053      0.0000    793.8218      4.7402
   979.5000     91.5318      0.0000    784.8613      4.9161
   979.7500     94.6483      0.0000    773.6914      5.1953
   980.0000     98.1253      0.0000    763.2896      5.5568
   980.2500    102.0631      0.0000    753.7229      5.9426
   980.5000    106.3123      0.0000    744.1401      6.2846
   980.7500    110.4818      0.0000    735.0379      6.5301
   981.0000    113.8867      0.0000    727.8522      6.6598
   981.2500    115.6215      0.0000    723.2775      6.6942
   981.5000    115.0628      0.0000    720.7693      6.6799
   981.7500    112.4333      0.0000    719.2211      6.6627
   982.0000    108.9375      0.0000    717.6899      6.6681
   982.2500    106.3305      0.0000    715.8438      6.6949
   982.5000    106.0912      0.0000    714.1618      6.7194
   982.7500    108.7755      0.0000    713.4323      6.7085
   983.0000    113.9319      0.0000    713.5225      6.6450
   983.2500    120.4278      0.0000    712.5570      6.5448
   983.5000    127.0593      0.0000    707.7207      6.4429
   983.7500    133.1603      0.0000    697.5552      6.3618
   984.0000    138.4318      0.0000    683.9311      6.2983
   984.2500    142.0895      0.0000    671.3868      6.2388
   984.5000    142.9426      0.0000    663.7443      6.1763
   984.7500    140.8578      0.0000    661.4420      6.1125
   985.0000    137.4254      0.0000    662.1393      6.0523
   985.2500    134.4640      0.0000    663.0980      6.0048
   985.5000    132.3463      0.0000    663.1445      5.9874
   985.7500    130.2630      0.0000    663.6162      6.0216
   986.0000    127.6014      0.0000    667.3207      6.1183
   986.2500    124.6670      0.0000    675.4197      6.2622
   986.5000    122.4592      0.0000    685.4689      6.4135
   986.7500    122.0732      0.0000    693.2091      6.5329
   987.0000    124.0837      0.0000    696.0530      6.6071
   987.2500    128.2206      0.0000    694.5903      6.6460
   987.5000    133.6253      0.0000    691.3707      6.6571
   987.7500    139.3741      0.0000    688.8495      6.6313
   988.0000    144.5588      0.0000    688.3726      6.5616
   988.2500    147.8731      0.0000    690.3583      6.4667
   988.5000    147.6687      0.0000    694.5208      6.3856
   988.7500    143.0488      0.0000    699.5973      6.3493
   989.0000    134.9696      0.0000    703.3854      6.3640
   989.2500    125.8519      0.0000    703.9761      6.4183
   989.5000    118.0088      0.0000    701.2576      6.4958
   989.7500    112.7313      0.0000    696.9431      6.5790
   990.0000    110.6706      0.0000    693.0499      6.6524
   990.2500    112.1421      0.0000    690.5521      6.7063
   990.5000    116.4831      0.0000    689.3129      6.7393
   990.7500    121.5602      0.0000    688.8102      6.7582
   991.0000    124.6281      0.0000    688.7460      6.7760
   991.2500    123.9707      0.0000    689.2207      6.8019
   991.5000    119.7417      0.0000    690.5117      6.8316
   991.7500    113.2685      0.0000    692.5615      6.8488
   992.0000    105.7660      0.0000    694.5560      6.8415
   992.2500     97.9303      0.0000    695.2495      6.8143
   992.5000     90.5543      0.0000    694.0133      6.7838
   992.7500     84.8690      0.0000    691.4515      6.7670
   993.0000     81.8659      0.0000    688.7831      6.7726
   993.2500     81.4041      0.0000    686.8099      6.7985
   993.5000     82.3699      0.0000    685.6152      6.8312
   993.7500     83.8972      0.0000    684.9462      6.8502
   994.0000     86.2095      0.0000    684.5775      6.8394
   994.2500     90.0672      0.0000    684.3820      6.7971
   994.5000     95.5878      0.0000    684.2700      6.7366
   994.7500    101.6966      0.0000    684.1616      6.6740
   995.0000    106.4991      0.0000    684.0037      6.6162
   995.2500    108.2629      0.0000    683.7922      6.5602
   995.5000    106.5317      0.0000    683.5504      6.5007
   995.7500    102.4719      0.0000    683.2874      6.4412
   996.0000     97.9575      0.0000    682.9858      6.3978
   996.2500     94.2656      0.0000    682.6376      6.3914
   996.5000     91.6637      0.0000    682.2791      6.4317
   996.7500     89.9635      0.0000    681.9808      6.5068
   997.0000     89.0320      0.0000    681.8154      6.5865
   997.2500     88.7035      0.0000    681.8367      6.6405
   997.5000     88.6179      0.0000    682.0630      6.6529
   997.7500     88.4721      0.0000    682.4526      6.6252
   998.0000     88.2273      0.0000    682.8898      6.5673
   998.2500     87.8281      0.0000    683.2182      6.4910
   998.5000     86.9534      0.0000    683.2663      6.4107
   998.7500     85.4983      0.0000    682.8019      6.3444
   999.0000     84.3884      0.0000    681.4170      6.3097
   999.2500     85.4421      0.0000    678.6375      6.3136
   999.5000     89.8015      0.0000    674.5782      6.3460
   999.7500     96.3319      0.0000    670.6575      6.3845
  1000.0000    102.0791      0.0000    669.0748      6.4098
  1000.2500    104.9300      0.0000    670.9364      6.4195
  1000.5000    105.6771      0.0000    675.1417      6.4243
  1000.7500    106.9260      0.0000    679.5112      6.4326
  1001.0000    110.0735      0.0000    682.5807      6.4402
  1001.2500    114.0051      0.0000    683.9753      6.4370
  1001.5000    116.7886      0.0000    683.5928      6.4153
  1001.7500    117.8973      0.0000    681.1843      6.3714
  1002.0000    118.3424      0.0000    677.0198      6.3059
  1002.2500    119.1262      0.0000    672.7506      6.2259
  1002.5000    120.1646      0.0000    670.8629      6.1452
