~Version Information
VERS.                      2.0: CWLS Log ASCII Standard - VERSION 2.0
WRAP.                       NO: One line per depth step
~Well Information Block
STRT.FT               238.0000: 
STOP.FT              1377.0000: 
STEP.FT                 0.1000: 
NULL.                -999.2500: 
COMP.          Pioneer Natural Resources: COMPANY
WELL.             Raptor 44-26: WELL
FLD.           Purgatoire River: FIELD
LOC.           180' FSL & 812' FEL: LOCATION
PROV.                 Colorado: PROVINCE
CNTY.               Las Animas: COUNTRY
SRVC.                Patterson: SERVICE COMPANY
DATE.          Tue Mar 22 15:28:33 2005: LOG DATE
UWI.           05 071 08187 00: UNIQUE WELL ID
~Curve Information Block
DEPT.FT            0 000 00 00: Depth
DCAL.in                       : CDL Caliper
RHOB.g/cc                     : CDL Bulk Density
RHOC.g/cc                     : CDL Density Correction
DPOR.pu                       : CDL Density Porosity
GR.GAPI                       : Gamma Ray
NPOR.pu                       : Neutron Porosity
~Parameter Information Block
~A  Depth       DCAL        RHOB        RHOC        DPOR         GR         NPOR    
# ...
   458.8000      8.0017      2.4396      0.0346     12.7542    143.4758     27.3311
   458.9000      8.0017      2.4160      0.0230     14.1840    149.3188     27.6089
   459.0000      7.9768      2.4068     -0.0030     14.7419    146.4383     27.8496
   459.1000      7.9768      2.4125      0.0177     14.3933    139.3241     28.0014
   459.2000      7.9768      2.4288      0.0596     13.4091    134.6615     28.1499
   459.3000      7.9695      2.4503      0.0395     12.1025    137.0901     28.1986
   459.4000      7.9695      2.4731      0.0370     10.7210    143.4891     28.0564
   459.5000      7.9476      2.4965      0.0458      9.3015    146.5355     27.9678
   459.6000      7.9476      2.5176      0.0963      8.0247    144.3215     28.3347
   459.7000      7.9476      2.5288      0.0958      7.3428    140.0620     29.0447
   459.8000      7.9125      2.5303      0.1161      7.2551    134.7437     29.3182
   459.9000      7.9125      2.5265      0.1045      7.4818    127.4899     28.8849
   460.0000      7.9028      2.5310      0.0350      7.2098    122.2973     28.4887
   460.1000      7.9028      2.5482      0.1128      6.1690    123.9413     28.6722
   460.2000      7.9028      2.5517      0.1211      5.9556    128.6801     29.0184
   460.3000      7.9390      2.5308      0.0146      7.2246    127.8729     29.0748
   460.4000      7.9390      2.5106      0.0312      8.4489    121.1527     28.9727
   460.5000      7.9421      2.5092      0.0191      8.5310    116.3871     28.8362
   460.6000      7.9421      2.5234      0.0602      7.6727    115.1653     28.8102
   460.7000      7.9421      2.5344      0.0431      7.0065    114.7058     29.1235
   460.8000      7.9158      2.5297      0.0860      7.2887    116.6521     29.8538
   460.9000      7.9158      2.5193      0.0497      7.9191    119.3958     30.8410
   461.0000      7.8838      2.5120      0.0377      8.3637    119.7577     31.6348
   461.1000      7.8838      2.5014     -0.0119      9.0061    118.7497     31.9303
   461.2000      7.8838      2.4848      0.0101     10.0126    116.1043     31.9572
   461.3000      7.9051      2.4659     -0.0074     11.1547    111.9060     31.8708
   461.4000      7.9051      2.4524     -0.0123     11.9759    106.8336     31.4737
   461.5000      7.9421      2.4521     -0.0009     11.9956    100.0629     30.8539
   461.6000      7.9421      2.4711     -0.0162     10.8412     93.2869     30.2750
   461.7000      7.9421      2.5177      0.0299      8.0154     89.1288     29.8557
   461.8000      7.9284      2.5833      0.0996      4.0426     87.1213     29.6713
   461.9000      7.9284      2.6377      0.1297      0.7451     85.6941     29.5572
   462.0000      7.8801      2.6651      0.1900     -0.9151     83.1680     29.3607
   462.1000      7.8801      2.6805      0.1554     -1.8496     78.0336     28.9701
   462.2000      7.8801      2.6993      0.2423     -2.9885     71.5200     28.2106
   462.3000      7.7744      2.7136      0.2325     -3.8547     68.1600     27.3754
   462.4000      7.7744      2.7119      0.2332     -3.7535     70.5876     27.0243
   462.5000      7.6817      2.6936      0.2098     -2.6422     76.6087     26.9358
   462.6000      7.6817      2.6612      0.1886     -0.6796     82.4287     26.4585
   462.7000      7.6817      2.6235      0.0757      1.6040     86.6002     25.7367
   462.8000      7.6877      2.5898      0.1183      3.6513     87.3713     25.2607
   462.9000      7.6877      2.5472      0.1245      6.2304     83.8056     25.2325
   463.0000      7.7718      2.4921      0.0203      9.5690     79.8449     25.3689
   463.1000      7.7718      2.4554     -0.0109     11.7969     77.4098     25.1258
   463.2000      7.7718      2.4619      0.0499     11.4022     75.3404     24.5154
   463.3000      7.7840      2.5051      0.0571      8.7827     74.5244     24.0320
   463.4000      7.7840      2.5639      0.1599      5.2153     76.4265     24.0626
   463.5000      7.7813      2.6175      0.1531      1.9676     79.8373     24.5309
   463.6000      7.7813      2.6597      0.1884     -0.5850     82.1232     25.1478
   463.7000      7.7813      2.6902      0.2549     -2.4353     83.5631     25.7775
   463.8000      7.7374      2.7015      0.2515     -3.1199     86.4751     26.2486
   463.9000      7.7374      2.6923      0.2070     -2.5611     91.1235     26.6623
   464.0000      7.7451      2.6761      0.1609     -1.5843     97.3582     27.3883
   464.1000      7.7451      2.6750      0.1228     -1.5139    104.2639     28.0979
   464.2000      7.7451      2.6955      0.2049     -2.7587    108.5396     28.4027
   464.3000      7.7799      2.7212      0.1522     -4.3157    108.2917     28.6930
   464.4000      7.7799      2.7426      0.1130     -5.6097    102.8310     29.2973
   464.5000      7.8526      2.7540      0.1400     -6.3027     94.4417     29.8082
   464.6000      7.8526      2.7434      0.0958     -5.6611     90.5568     29.7936
   464.7000      7.8526      2.7113      0.0991     -3.7134     93.7543     29.2470
   464.8000      7.8382      2.6668      0.0622     -1.0190     97.9150     28.6379
   464.9000      7.8382      2.6192      0.0468      1.8641     97.9921     28.4187
   465.0000      7.8384      2.5818     -0.0737      4.1359     96.0114     28.4942
   465.1000      7.8384      2.5573     -0.0403      5.6181     95.1215     28.4221
   465.2000      7.8384      2.5320     -0.0604      7.1528     96.9203     28.0126
   465.3000      7.8927      2.5040     -0.0155      8.8472    102.2420     27.5686
   465.4000      7.8927      2.4855      0.0230      9.9673    109.5429     27.3426
   465.5000      7.8628      2.4778      0.0875     10.4391    115.8947     27.3841
   465.6000      7.8628      2.4650      0.0694     11.2141    118.8694     27.5379
   465.7000      7.8628      2.4312      0.0915     13.2588    118.3495     27.3399
   465.8000      7.8704      2.3808      0.0432     16.3154    118.3391     26.7486
   465.9000      7.8704      2.3384     -0.0133     18.8824    121.1312     26.2066
   466.0000      7.9373      2.3174     -0.0005     20.1582    124.4970     26.0610
   466.1000      7.9373      2.3166     -0.0023     20.2076    128.2987     26.4074
   466.2000      7.9373      2.3369      0.0295     18.9733    133.6188     27.0791
   466.3000      7.9495      2.3730      0.0892     16.7867    139.5918     27.6216
   466.4000      7.9495      2.4086      0.1461     14.6329    144.5825     27.6476
   466.5000      7.9555      2.4292      0.1424     13.3791    146.0909     27.3126
   466.6000      7.9555      2.4390      0.1521     12.7894    145.0880     27.0294
   466.7000      7.9555      2.4464      0.1724     12.3386    142.7113     26.9096
   466.8000      7.9763      2.4463      0.1569     12.3442    137.9141     26.7965
   466.9000      7.9763      2.4347      0.1199     13.0511    134.6982     26.5586
   467.0000      7.9818      2.4189      0.0884     14.0067    137.4964     26.1977
   467.1000      7.9818      2.4004      0.1463     15.1287    143.6749     25.9020
   467.2000      7.9818      2.3777      0.0784     16.5025    147.4188     26.0455
   467.3000      8.0002      2.3564      0.0656     17.7913    145.2613     26.6832
   467.4000      8.0002      2.3313      0.1147     19.3126    139.5815     27.3399
   467.5000      8.0387      2.3057      0.0851     20.8694    135.8072     27.4883
   467.6000      8.0387      2.3098      0.1344     20.6192    137.1010     27.2908
   467.7000      8.0387      2.3565      0.2371     17.7904    142.7836     27.4676
   467.8000      8.0411      2.4220      0.2661     13.8157    148.1489     28.2127
   467.9000      8.0411      2.4898      0.1867      9.7091    147.1889     29.0053
   468.0000      7.9649      2.5628      0.2697      5.2831    139.6066     29.2724
   468.1000      7.9649      2.6404      0.2951      0.5790    132.6093     28.9032
   468.2000      7.9649      2.7106      0.3554     -3.6735    130.2761     28.3832
   468.3000      7.9391      2.7476      0.4107     -5.9166    129.1837     28.0224
