~Version Information
VERS.                      2.0: CWLS Log ASCII Standard - VERSION 2.0
WRAP.                       NO: One line per depth step
~Well Information Block
STRT.FT               -16.5000: 
STOP.FT              1695.5000: 
STEP.FT                 0.2500: 
NULL.                -999.2500: 
COMP.          Pioneer Natural Resources: COMPANY
WELL.          Rancher 12-35 Tr: WELL
FLD.           Purgatorie River: FIELD
LOC.           2242' FNL & 308' FWL SWNW 35 32S 67W: LOCATION
PROV.                       CO: PROVINCE
CNTY.               Las Animas: COUNTRY
SRVC.                         : SERVICE COMPANY
DATE.         Fri Jul 08 09:39:00 2005: LOG DATE
UWI.                071 08430 : UNIQUE WELL ID
~Curve Information Block
DEPT.FT            0 000 00 00: Depth
CCL.                          : Casing Collar Locator
TT3.usec                      : CBL 3' Travel Time
AMP3.mV                       : CBL 3' Amplitude
GR.GAPI                       : Gamma Ray
~Parameter Information Block
~A  Depth       CCL         TT3         AMP3         GR     
# ...
   988.5000      0.0000    794.4561      6.4851     69.0019
   988.7500      0.0000    781.1280      6.5765     71.5066
   989.0000      0.0000    763.8989      6.5699     73.3392
   989.2500      0.0000    748.2974      6.4947     74.4866
   989.5000      0.0000    738.5544      6.4084     76.5186
   989.7500      0.0000    734.7946      6.3528     81.2606
   990.0000      0.0000    734.4289      6.3366     88.9699
   990.2500      0.0000    734.9872      6.3545     98.1481
   990.5000      0.0000    735.2728      6.4108    107.0109
   990.7500      0.0000    734.8220      6.5196    114.5743
   991.0000      0.0000    733.2434      6.6736    120.3237
   991.2500      0.0000    730.3207      6.8170    123.6657
   991.5000      0.0000    726.5515      6.8716    124.2102
   991.7500      0.0000    723.2935      6.8197    122.3523
   992.0000      0.0000    722.1002      6.7429    119.3485
   992.2500      0.0000    723.7138      6.7453    116.7612
   992.5000      0.0000    727.5425      6.8451    115.6759
   992.7500      0.0000    732.0403      6.9704    116.2782
   993.0000      0.0000    735.7162      7.0478    117.9544
   993.2500      0.0000    737.9305      7.0664    119.5952
   993.5000      0.0000    738.8862      7.0587    119.9410
   993.7500      0.0000    739.1105      7.0543    118.2101
   994.0000      0.0000    739.0508      7.0610    114.7366
   994.2500      0.0000    738.9610      7.0780    110.7302
   994.5000      0.0000    738.9293      7.1070    107.0962
   994.7500      0.0000    738.9419      7.1427    103.6684
   995.0000      0.0000    738.9727      7.1600     99.9064
   995.2500      0.0000    739.0187      7.1280     96.1148
   995.5000      0.0000    739.0710      7.0334     93.4145
   995.7500      0.0000    739.0921      6.8873     92.4699
   996.0000      0.0000    739.0538      6.7160     92.7233
   996.2500      0.0000    739.0845      6.5492     92.9937
   996.5000      0.0000    739.7079      6.4026     92.4128
   996.7500      0.0000    741.9987      6.2632     90.8134
   997.0000      0.0000    747.1878      6.0977     88.7767
   997.2500      0.0000    755.4498      5.8734     87.4023
   997.5000      0.0000    765.0564      5.5750     87.6668
   997.7500      0.0000    773.7859      5.2076     89.6608
   998.0000      0.0000    781.5441      4.8014     92.2108
   998.2500      0.0000    789.7464      4.4181     93.2573
   998.5000      0.0000    796.9816      4.1323     90.9811
   998.7500      0.0000    797.6469      3.9759     85.1439
   999.0000      0.0000    787.4193      3.9052     77.7838
   999.2500      3.0000    769.2563      3.8374     72.4289
   999.5000      3.0000    752.4573      3.7110     71.7926
   999.7500      0.0000    746.2063      3.5086     75.5340
  1000.0000      0.0000    753.9117      3.2500     80.3887
  1000.2500      0.0000    771.5939      2.9850     82.8372
  1000.5000      0.0000    790.5324      2.7858     81.7001
  1000.7500      0.0000    803.3478      2.7270     78.4671
  1001.0000      0.0000    809.3600      2.8584     75.7578
  1001.2500      0.0000    813.8229      3.1773     75.3709
  1001.5000      0.0000    821.7612      3.6143     77.0357
  1001.7500      0.0000    833.2598      4.0580     78.6514
  1002.0000      0.0000    844.4535      4.4208     78.0106
  1002.2500      0.0000    851.5888      4.6901     74.5661
  1002.5000      0.0000    853.5136      4.9135     69.6958
  1002.7500      0.0000    851.3195      5.1403     65.5844
  1003.0000      0.0000    846.6684      5.3881     64.1048
  1003.2500      0.0000    840.5892      5.6537     66.3586
  1003.5000      0.0000    833.6329      5.9294     72.5330
  1003.7500      0.0000    826.8150      6.1950     81.9499
  1004.0000      0.0000    821.5421      6.4104     93.5345
  1004.2500      0.0000    818.3682      6.5439    106.4126
  1004.5000      0.0000    816.9240      6.6083    120.0135
  1004.7500      0.0000    817.5867      6.6518    133.5925
  1005.0000      0.0000    821.6594      6.7084    145.7998
  1005.2500      0.0000    828.8566      6.7670    154.9636
  1005.5000      0.0000    836.0945      6.7916    160.0172
  1005.7500      0.0000    840.1155      6.7622    161.1750
  1006.0000      0.0000    840.3834      6.6931    159.6801
  1006.2500      0.0000    838.4985      6.6189    156.9333
  1006.5000      0.0000    835.8068      6.5663    153.7137
  1006.7500      0.0000    832.7354      6.5351    150.0959
  1007.0000      0.0000    829.6358      6.4990    146.3260
  1007.2500      0.0000    826.8649      6.4298    143.7094
  1007.5000      0.0000    823.5883      6.3282    143.8721
  1007.7500      0.0000    816.9101      6.2237    146.8692
  1008.0000      0.0000    802.9827      6.1417    150.7169
  1008.2500      0.0000    780.3480      6.0799    153.3041
  1008.5000      0.0000    753.0204      6.0222    154.3209
  1008.7500      0.0000    729.9340      5.9630    154.9563
  1009.0000      0.0000    720.6537      5.9084    156.2399
  1009.2500      0.0000    730.4605      5.8609    158.2020
  1009.5000      0.0000    757.3156      5.8182    160.0898
  1009.7500      0.0000    792.2718      5.7843    160.5309
  1010.0000      0.0000    824.2351      5.7643    157.7345
  1010.2500      0.0000    846.1700      5.7454    150.7605
  1010.5000      0.0000    857.4130      5.7084    141.2451
  1010.7500      0.0000    860.9589      5.6612    133.1299
  1011.0000      0.0000    859.7000      5.6276    129.6989
  1011.2500      0.0000    855.0926      5.6072    131.0920
  1011.5000      0.0000    848.0540      5.5871    135.3476
  1011.7500      0.0000    840.0422      5.5832    141.1742
  1012.0000      0.0000    832.9250      5.6279    148.4923
  1012.2500      0.0000    828.0285      5.7163    156.7925
  1012.5000      0.0000    825.6693      5.8012    164.4975
  1012.7500      0.0000    825.6730      5.8391    170.1411
  1013.0000      0.0000    828.0808      5.8152    173.2374
  1013.2500      0.0000    833.0941      5.7285    174.0275
  1013.5000      0.0000    840.2457      5.5837    173.0194
  1013.7500      0.0000    847.7751      5.4116    170.4897
  1014.0000      0.0000    853.1987      5.2777    165.8565
  1014.2500      0.0000    854.7783      5.2402    157.7821
  1014.5000      0.0000    852.4795      5.3001    145.1597
  1014.7500      0.0000    847.5781      5.4139    127.9806
  1015.0000      0.0000    841.5981      5.5466    107.8134
  1015.2500      0.0000    835.7228      5.6836     87.8862
  1015.5000      0.0000    830.7835      5.8061     71.9072
  1015.7500      0.0000    827.1427      5.8941     61.9515
  1016.0000      0.0000    824.3135      5.9485     57.6667
  1016.2500      0.0000    820.7173      5.9777     57.5637
  1016.5000      0.0000    813.9013      5.9708     60.5259
  1016.7500      0.0000    801.6359      5.9134     65.9219
  1017.0000      0.0000    783.9139      5.8193     72.8120
  1017.2500      0.0000    764.1955      5.7238     79.5453
  1017.5000      0.0000    747.7455      5.6604     84.3691
  1017.7500      0.0000    737.9299      5.6567     86.5938
  1018.0000      0.0000    734.2727      5.7266     87.0431
  1018.2500      0.0000    733.9877      5.8492     87.0823
  1018.5000      0.0000    734.6099      5.9820     87.1888
  1018.7500      0.0000    735.0644      6.1052     86.5737
  1019.0000      0.0000    735.1990      6.2364     84.1941
  1019.2500      0.0000    735.1199      6.4013     80.1375
  1019.5000      0.0000    734.9457      6.5971     75.8799
  1019.7500      0.0000    734.8736      6.7864     73.0481
  1020.0000      0.0000    735.3381      6.9255     72.1899
  1020.2500      0.0000    737.1131      6.9996     72.8594
  1020.5000      0.0000    741.0785      7.0258     74.2860
  1020.7500      0.0000    747.4883      7.0328     75.4997
  1021.0000      0.0000    755.4485      7.0498     75.3510
  1021.2500      0.0000    763.7830      7.1041     73.1407
  1021.5000      0.0000    772.5623      7.2105     69.3485
  1021.7500      0.0000    782.6980      7.3580     65.4876
