~Version Information
VERS.                      2.0: CWLS Log ASCII Standard - VERSION 2.0
WRAP.                       NO: One line per depth step
~Well Information Block
STRT.FT                -7.0000: 
STOP.FT              1329.7500: 
STEP.FT                 0.2500: 
NULL.                -999.2500: 
COMP.          Pioneer Natural Resources: COMPANY
WELL.             Raptor 44-26: WELL
FLD.           Purgatorie River: FIELD
LOC.           180' FSL & 812' FEL--: LOCATION
PROV.                       CO: PROVINCE
CNTY.               Las Animas: COUNTRY
SRVC.          Patterson Wireline: SERVICE COMPANY
DATE.          Wed Mar 30 12:38:23 2005: LOG DATE
UWI.           05 071 08187 00: UNIQUE WELL ID
~Curve Information Block
DEPT.FT            0 000 00 00: Depth
CCL.                          : Casing Collar Locator
TT3.usec                      : CBL 3' Travel Time
AMP3.mV                       : CBL 3' Amplitude
GR.GAPI                       : Gamma Ray
~Parameter Information Block
MINATTN.db/ft           0.8000: Minimum Attenuation
~A  Depth       CCL         TT3         AMP3         GR     
    -7.0000   -999.2500   -999.2500   -999.2500   -999.2500
    -6.7500   -999.2500   -999.2500   -999.2500     76.6920
    -6.5000   -999.2500   -999.2500   -999.2500     73.6315
    -6.2500   -999.2500   -999.2500   -999.2500     69.2210
    -6.0000   -999.2500   -999.2500   -999.2500     63.9639
    -5.7500   -999.2500   -999.2500   -999.2500     58.9215
    -5.5000   -999.2500   -999.2500   -999.2500     55.4295
    -5.2500   -999.2500   -999.2500   -999.2500     54.6332
    -5.0000   -999.2500   -999.2500   -999.2500     56.9447
    -4.7500   -999.2500   -999.2500   -999.2500     61.7131
    -4.5000   -999.2500   -999.2500   -999.2500     67.4289
    -4.2500   -999.2500   -999.2500   -999.2500     72.4269
    -4.0000   -999.2500   -999.2500   -999.2500     75.5733
    -3.7500   -999.2500   -999.2500   -999.2500     76.4607
    -3.5000   -999.2500   -999.2500   -999.2500     75.2535
    -3.2500   -999.2500   -999.2500   -999.2500     72.6651
    -3.0000   -999.2500   -999.2500   -999.2500     70.1108
    -2.7500   -999.2500   -999.2500   -999.2500     69.4371
    -2.5000   -999.2500   -999.2500   -999.2500     71.6978
    -2.2500   -999.2500   -999.2500   -999.2500     75.8296
    -2.0000   -999.2500   -999.2500   -999.2500     79.0735
    -1.7500   -999.2500   -999.2500   -999.2500     79.2310
    -1.5000   -999.2500   1167.0000      2.5590     76.3429
    -1.2500   -999.2500   1167.0000      2.5171     72.1752
    -1.0000   -999.2500   1167.0000      2.4682     68.6328
    -0.7500   -999.2500   1167.0000      2.4228     66.5974
    -0.5000   -999.2500   1167.0000      2.3888     65.4133
    -0.2500   -999.2500   1167.0000      2.3712     63.3385
     0.0000   -999.2500   1167.0000      2.3965     53.4832
     0.2500   -999.2500   1167.0000      2.4337     48.3351
     0.5000   -999.2500   1167.0000      2.4745     45.0024
     0.7500   -999.2500   1167.0000      2.5085     42.9966
     1.0000   -999.2500   1167.0000      2.5293     40.9009
     1.2500   -999.2500   1167.0000      2.5326     37.9225
     1.5000   -999.2500   1167.0000      2.5135     34.4012
     1.7500   -999.2500   1167.0000      2.4721     31.2013
     2.0000   -999.2500   1167.0000      2.4193     29.1730
     2.2500   -999.2500   1167.0000      2.3744     29.1202
     2.5000   -999.2500   1167.0000      2.3565     31.5261
     2.7500   -999.2500   1167.0000      2.3756     35.9017
     3.0000   -999.2500   1167.0000      2.4286     40.7931
     3.2500   -999.2500   1167.0000      2.4987     44.8067
     3.5000   -999.2500   1167.0000      2.5624     47.5033
     3.7500      0.0000   1167.0000      2.5996     49.3037
     4.0000      0.0000   1167.0000      2.6008     50.9652
     4.2500      0.0000   1167.0000      2.5683     53.2140
     4.5000      0.0000   1167.0000      2.5149     56.2884
     4.7500      0.0000   1167.0000      2.4620     59.4872
     5.0000      0.0000   1167.0000      2.4305     61.4526
     5.2500      0.0000   1167.0000      2.4287     61.1894
     5.5000      0.0000   1167.0000      2.4452     58.8547
     5.7500      0.0000   1167.0000      2.4574     55.5468
     6.0000      0.0000   1166.9398      2.4530     52.3040
     6.2500      0.0000   1166.5474      2.4516     49.3501
     6.5000      0.0000   1164.5546      2.5446     46.4212
     6.7500      0.0000   1156.6735      2.9943     43.6350
     7.0000      0.0000   1132.3994      4.4003     41.6245
     7.2500      0.0000   1074.1748      7.7483     40.7107
     7.5000      0.0000    965.4103     13.9789     40.3329
     7.7500      0.0000    807.1844     23.0620     39.5832
     8.0000      0.0000    627.9290     33.4284     38.0984
     8.2500      0.0000    469.7824     42.6929     36.2941
     8.5000      0.0000    361.1355     49.1952     34.9636
     8.7500      0.0000    303.0221     52.8211     34.7903
     9.0000      0.0000    278.8333     54.5030     36.0732
     9.2500      0.0000    271.0115     55.2674     38.6252
     9.5000      0.0000    269.0552     55.7373     41.7230
     9.7500      0.0000    268.6774     56.1483     44.1978
    10.0000      0.0000    268.6140     56.5312     45.0084
    10.2500      0.0000    268.6003     56.8589     44.0226
    10.5000      0.0000    268.5787     57.1277     42.0549
    10.7500      0.0000    268.5436     57.3745     39.9960
    11.0000      0.0000    268.4873     57.6594     38.2164
    11.2500      0.0000    268.4112     58.0350     36.9716
    11.5000      0.0000    268.3329     58.5093     36.8915
    11.7500      0.0000    268.2812     59.0199     38.5564
    12.0000      0.0000    268.2783     59.4615     41.7528
    12.2500      0.0000    268.3217     59.7609     45.5353
    12.5000      0.0000    268.3853     59.9236     49.0464
    12.7500      0.0000    268.4389     60.0026     52.1332
    13.0000      0.0000    268.4670     60.0444     55.2191
    13.2500      0.0000    268.4685     60.0803     58.7732
    13.5000      0.0000    268.4483     60.1453     62.9019
    13.7500      0.0000    268.4161     60.2659     67.2331
    14.0000      0.0000    268.3868     60.4332     71.1792
    14.2500      0.0000    268.3729     60.6148     74.3867
    14.5000      0.0000    268.3730     60.7923     76.8121
    14.7500      0.0000    268.3725     60.9720     78.3535
    15.0000      0.0000    268.3561     61.1697     78.7721
    15.2500      0.0000    268.3195     61.3997     78.2263
    15.5000      0.0000    268.2707     61.6626     77.5571
    15.7500      0.0000    268.2249     61.9308     77.5949
    16.0000      0.0000    268.1955     62.1731     78.1948
    16.2500      0.0000    268.1859     62.4076     78.1526
    16.5000      0.0000    268.1866     62.7008     76.1116
    16.7500      0.0000    268.1809     63.0941     71.6325
    17.0000      0.0000    268.1575     63.5520     65.5999
    17.2500      0.0000    268.1190     63.9956     59.6423
    17.5000      0.0000    268.0789     64.3702     54.9566
    17.7500      0.0000    268.0497     64.6701     51.5274
    18.0000      0.0000    268.0329     64.9115     48.4592
    18.2500      0.0000    268.0206     65.1006     45.0164
    18.5000      0.0000    268.0038     65.2360     41.3193
    18.7500      0.0000    267.9775     65.3368     38.1861
    19.0000      0.0000    267.9414     65.4541     36.4344
    19.2500      0.0000    267.9017     65.6388     36.3912
    19.5000      0.0000    267.8710     65.8990     38.0844
    19.7500      0.0000    267.8596     66.1971     41.7328
    20.0000      0.0000    267.8627     66.4933     47.7334
    20.2500      0.0000    267.8619     66.7806     56.0086
    20.5000      0.0000    267.8426     67.0698     65.4971
    20.7500      0.0000    267.8079     67.3543     74.4217
    21.0000      0.0000    267.7736     67.6068     81.0680
    21.2500      0.0000    267.7516     67.8101     84.3717
    21.5000      0.0000    267.7385     67.9844     84.0354
    21.7500      0.0000    267.7200     68.1866     80.5137
    22.0000      0.0000    267.6854     68.4706     75.2041
    22.2500      0.0000    267.6386     68.8318     70.3243
    22.5000      0.0000    267.5959     69.1929     67.8828
    22.7500      0.0000    267.5731     69.4561     68.5413
    23.0000      0.0000    267.5763     69.5733     71.6474
    23.2500      0.0000    267.5971     69.5718     76.1118
    23.5000      0.0000    267.6175     69.5115     80.9907
    23.7500      0.0000    267.6245     69.3975     85.6148
    24.0000      0.0000    267.6248     69.1204     89.6017
    24.2500      0.0000    267.6430     68.5191     92.6810
    24.5000      0.0000    267.6980     67.5537     94.4451
    24.7500      0.0000    267.7808     66.4163     94.3812
    25.0000      0.0000    267.8595     65.4273     92.1739
    25.2500      0.0000    267.9078     64.8125     87.9849
    25.5000      0.0000    267.9245     64.5935     82.5725
    25.7500      0.0000    267.9285     64.6578     77.1917
    26.0000      0.0000    267.9395     64.8753     73.2146
    26.2500      0.0000    267.9658     65.1427     71.4676
