~Version Information
VERS.                      2.0: CWLS Log ASCII Standard - VERSION 2.0
WRAP.                       NO: One line per depth step
~Well Information Block
STRT.FT               423.0000: 
STOP.FT              2308.2500: 
STEP.FT                 0.2500: 
NULL.                -999.2500: 
COMP.          Pioneer Natural Resources: COMPANY
WELL.             Culver 14-12: WELL
FLD.           Purgatoire River: FIELD
LOC.           913' FSL & 1140' FWL: LOCATION
PROV.                 Colorado: PROVINCE
CNTY.               Las Animas: COUNTRY
SRVC.                Patterson: SERVICE COMPANY
DATE.          Tue Jun 07 00:21:41 2005: LOG DATE
UWI.           05 071 08386 00: UNIQUE WELL ID
~Curve Information Block
DEPT.FT            0 000 00 00: Depth
SN.Ohm-m                      : IEL Short Normal
SP.mV                         : IEL Spontaneous Potential
DIR.Ohm-m                     : IEL Induction Resistivity
GR.GAPI                       : Gamma Ray
~Parameter Information Block
~A  Depth        SN          SP         DIR          GR     
# ...
  1294.0000     22.5482   -150.2408 100000.0000    138.9240
  1294.2500     20.8456   -159.4124 100000.0000    141.1121
  1294.5000     18.8361   -170.9481 100000.0000    142.0572
  1294.7500     16.6093   -185.1085     18.9772    142.6545
  1295.0000     14.1294   -201.8022      8.9056    144.4934
  1295.2500     11.4280   -220.4496     10.7019    145.3741
  1295.5000      8.7681   -239.9575     66.2653    143.4745
  1295.7500      6.5479   -258.7332 100000.0000    139.4109
  1296.0000      5.0478   -274.8760 100000.0000    130.7169
  1296.2500      4.2612   -286.8322 100000.0000    124.8207
  1296.5000      4.0114   -294.2095 100000.0000    117.3883
  1296.7500      4.1021   -297.9075 100000.0000    113.2000
  1297.0000      4.2633   -299.3886 100000.0000    107.1595
  1297.2500      4.2364   -299.8576 100000.0000    103.0539
  1297.5000      3.9986   -299.9742 100000.0000     96.7336
  1297.7500      3.7260   -299.9968 100000.0000     92.2503
  1298.0000      3.5616   -300.0002 100000.0000     84.6999
  1298.2500      3.5094   -300.0002 100000.0000     79.1936
  1298.5000      3.5020   -300.0002 100000.0000     71.2820
  1298.7500      3.4797   -300.0002 100000.0000     67.1338
  1299.0000      3.3970   -300.0000 100000.0000     63.7603
  1299.2500      3.2173   -299.9986 100000.0000     63.5758
  1299.5000      2.9755   -299.9918      3.7630     65.6665
  1299.7500      2.7972   -299.9650      1.2021     67.7587
  1300.0000      2.7943   -299.8814      0.6396     70.3998
  1300.2500      2.9534   -299.6652      0.4472     71.3623
  1300.5000      3.1111   -299.1665      0.4039     71.7575
  1300.7500      3.0798   -298.0800      0.4703     71.6970
  1301.0000      2.8395   -295.8509      0.6837     71.7101
  1301.2500      2.5808   -291.8007      1.2133     71.9773
  1301.5000      2.5992   -285.7135      2.7224     72.9223
  1301.7500      3.1965   -278.5806      8.2937     74.0671
  1302.0000      4.5553   -272.6276     19.6040     76.8739
  1302.2500      6.4234   -270.1703      8.3141     79.3267
  1302.5000      7.9172   -272.0858      3.1245     82.7421
  1302.7500      8.0513   -277.2578      1.5213     84.1836
  1303.0000      6.6762   -283.4568      0.8667     85.3335
  1303.2500      4.6910   -288.7578      0.5372     86.3278
  1303.5000      3.1972   -292.2554      0.3481     89.5397
  1303.7500      2.6198   -293.7919      0.2333     92.9818
  1304.0000      2.7166   -293.3818      0.1640     99.6238
  1304.2500      3.1294   -290.8748      0.1236    104.7264
  1304.5000      3.6233   -285.7888      0.1010    112.8180
  1304.7500      3.9870   -277.3269      0.0895    117.9487
  1305.0000      4.1553   -264.9156      0.0860    123.9918
  1305.2500      4.3472   -249.0162      0.0907    126.2433
  1305.5000      4.8153   -231.2705      0.1086    126.1401
  1305.7500      5.7010   -213.7253      0.1514    123.4064
  1306.0000      7.2941   -197.9664      0.2452    115.0009
  1306.2500     10.1218   -184.8101      0.4472    106.9043
  1306.5000     14.4824   -174.3997      0.9366     93.3796
  1306.7500     19.9739   -166.4034      2.7995     85.5799
  1307.0000     25.7356   -160.2449 100000.0000     78.7679
  1307.2500     31.0391   -155.3509 100000.0000     77.9068
  1307.5000     35.4721   -151.3341 100000.0000     80.4357
  1307.7500     38.7677   -148.0607 100000.0000     83.1959
  1308.0000     40.7053   -145.5866 100000.0000     87.5312
  1308.2500     41.2133   -144.0049 100000.0000     90.6754
  1308.5000     40.4243   -143.3281 100000.0000     96.5912
  1308.7500     38.5267   -143.5009 100000.0000    101.4837
  1309.0000     35.6751   -144.5084 100000.0000    109.8600
  1309.2500     32.1107   -146.4584 100000.0000    115.9793
  1309.5000     28.1806   -149.5826 100000.0000    125.7068
  1309.7500     24.1197   -154.1821 100000.0000    131.7162
  1310.0000     19.9329   -160.5608 100000.0000    137.0527
  1310.2500     15.6302   -168.9387 100000.0000    136.5636
  1310.5000     11.5512   -179.3399 100000.0000    129.2942
  1310.7500      8.2454   -191.4777 100000.0000    121.0871
  1311.0000      5.9185   -204.7352 100000.0000    106.1401
  1311.2500      4.2172   -218.2860 100000.0000     95.7653
  1311.5000      2.7090   -231.2898 100000.0000     81.6183
  1311.7500      1.3296   -243.0410 100000.0000     73.9156
  1312.0000      0.2663   -252.8708 100000.0000     65.3627
  1312.2500     -0.3769   -259.7392      9.3935     61.7107
  1312.5000     -0.6870   -262.0472      3.4183     59.9215
  1312.7500     -0.8219   -258.4196      2.0139     61.7715
  1313.0000     -0.8894   -248.8922      1.5488     69.6157
  1313.2500     -0.9156   -234.9392      1.4777     77.9442
  1313.5000     -0.8541   -218.3469      1.7439     93.7057
  1313.7500     -0.5979   -200.5281      2.6626    105.1698
  1314.0000      0.0290   -182.7688      6.5122    121.0544
  1314.2500      1.3019   -166.4261 100000.0000    128.9575
  1314.5000      3.4825   -152.5909 100000.0000    134.3914
  1314.7500      6.4685   -141.7126 100000.0000    133.5216
  1315.0000      9.6788   -133.6064 100000.0000    127.5879
  1315.2500     12.4995   -127.6924 100000.0000    122.5321
  1315.5000     14.7032   -123.1835 100000.0000    116.0622
  1315.7500     16.3999   -119.1962 100000.0000    113.1045
  1316.0000     17.7819   -114.9732 100000.0000    109.9838
  1316.2500     18.9320   -110.2971 100000.0000    107.7831
  1316.5000     19.7776   -105.7526 100000.0000    103.0616
  1316.7500     20.2121   -102.3857 100000.0000     99.2009
  1317.0000     20.3220   -100.8768 100000.0000     94.3145
  1317.2500     20.4620   -100.9810 100000.0000     92.9539
  1317.5000     20.9442   -101.7814 100000.0000     94.6639
  1317.7500     21.6547   -102.4181 100000.0000     97.7925
  1318.0000     22.1725   -102.5508 100000.0000    103.6690
  1318.2500     22.2388   -102.2780 100000.0000    107.6198
  1318.5000     21.9171   -101.8237 100000.0000    113.5587
  1318.7500     21.3983   -101.3387 100000.0000    117.8509
  1319.0000     20.8369   -100.8775 100000.0000    124.5862
  1319.2500     20.3256   -100.4491 100000.0000    128.4385
  1319.5000     19.9055   -100.0575 100000.0000    131.6715
  1319.7500     19.5816    -99.7125 100000.0000    132.1012
  1320.0000     19.3534    -99.4226 100000.0000    132.1234
  1320.2500     19.2185    -99.1872 100000.0000    133.0450
  1320.5000     19.1469    -98.9917     66.6809    136.1379
  1320.7500     19.1023    -98.8102     32.9128    138.4179
  1321.0000     19.0953    -98.6141     23.6486    140.5135
  1321.2500     19.1860    -98.3854     19.7876    140.7524
  1321.5000     19.4296    -98.1228     17.8965    139.6245
  1321.7500     19.8645    -97.8350     16.7889    137.8012
  1322.0000     20.5833    -97.5282     15.9407    132.5868
  1322.2500     21.7625    -97.2042     15.1660    126.8464
  1322.5000     23.6019    -96.8690     14.4696    114.2923
  1322.7500     26.2379    -96.5405     13.9096    103.5030
  1323.0000     29.6570    -96.2448     13.5111     85.3131
  1323.2500     33.6098    -96.0036     13.2519     73.5233
  1323.5000     37.4984    -95.8256     13.0919     59.6079
  1323.7500     40.3494    -95.7094     13.0081     54.3282
  1324.0000     41.1365    -95.6504     13.0089     53.5860
  1324.2500     39.3961    -95.6460     13.1217     57.7840
  1324.5000     35.6009    -95.6960     13.3664     69.8903
  1324.7500     30.8841    -95.8005     13.7290     80.5961
  1325.0000     26.3354    -95.9546     14.1482     97.8479
  1325.2500     22.5323    -96.1417     14.5207    108.4029
  1325.5000     19.5932    -96.3336     14.7306    120.3415
  1325.7500     17.4257    -96.4994     14.6938    125.0798
  1326.0000     15.8780    -96.6174     14.3943    128.2836
  1326.2500     14.7992    -96.6834     13.8871    129.2378
  1326.5000     14.0533    -96.7130     13.2681    131.0741
  1326.7500     13.5074    -96.7374     12.6346    132.7479
  1327.0000     13.0485    -96.7891     12.0581    134.4242
  1327.2500     12.6265    -96.8837     11.5784    134.1019
