~Version Information
VERS.                      2.0: CWLS Log ASCII Standard - VERSION 2.0
WRAP.                       NO: One line per depth step
~Well Information Block
STRT.FT                -0.2500: 
STOP.FT              2376.7500: 
STEP.FT                 0.2500: 
NULL.                -999.2500: 
COMP.          Petrogulf Corporation: COMPANY
WELL.             State 16-23V: WELL
FLD.           Purgatorie River: FIELD
LOC.           2414' FSL & 2215' FWL: LOCATION
PROV.                 Colorado: PROVINCE
CNTY.               Las Animas: COUNTRY
SRVC.          Patterson Wireline: SERVICE COMPANY
DATE.          Wed Jun 25 14:56:54 2003: LOG DATE
UWI.           05 071 07865 00: UNIQUE WELL ID
~Curve Information Block
DEPT.FT            0 000 00 00: Depth
CCL.                          : Casing Collar Locator
TT3.usec                      : CBL 3' Travel Time
AMP3.mV                       : CBL 3' Amplitude
GR.GAPI                       : Gamma Ray
~Parameter Information Block
~A  Depth       CCL         TT3         AMP3         GR     
# ...
   636.2500      0.0000    256.7566     78.8965    101.2319
   636.5000      0.0000    256.7575     78.8611     99.8238
   636.7500      0.0000    256.7591     78.8481     99.3113
   637.0000      0.0000    256.7736     78.8102     99.1790
   637.2500      0.0000    256.8152     78.6794     99.6943
   637.5000      0.0000    256.8764     78.4536    101.1714
   637.7500      0.0000    256.9326     78.2439    102.8520
   638.0000      0.0000    256.9641     78.1997    103.2718
   638.2500      0.0000    256.9638     78.3880    101.5900
   638.5000      0.0000    256.9308     78.7499     98.3062
   638.7500      0.0000    256.8694     79.1504     94.9260
   639.0000      0.0000    256.7947     79.4577     92.9470
   639.2500      0.0000    256.7270     79.5923     92.8842
   639.5000      0.0000    256.6756     79.5387     94.1479
   639.7500      0.0000    256.6360     79.3392     95.7949
   640.0000      0.0000    256.6060     79.0792     97.1854
   640.2500      0.0000    256.5934     78.8459     97.9952
   640.5000      0.0000    256.6034     78.6784     97.9925
   640.7500      0.0000    256.6250     78.5661     97.1233
   641.0000      0.0000    256.6393     78.4982     95.8377
   641.2500      0.0000    256.6325     78.4898     95.2047
   641.5000      0.0000    256.5981     78.5573     96.5918
   641.7500      0.0000    256.5370     78.6973    100.7746
   642.0000      0.0000    256.4652     78.8896    106.7400
   642.2500      0.0000    256.4087     79.1082    111.4302
   642.5000      0.0000    256.3861     79.3248    111.5990
   642.7500      0.0000    256.4008     79.5024    106.7224
   643.0000      0.0000    256.4405     79.5877    100.0001
   643.2500      0.0000    256.4814     79.5267     96.0013
   643.5000      0.0000    256.5058     79.3082     97.0680
   643.7500      0.0000    256.5279     78.9873    101.8052
   644.0000      0.0000    256.5794     78.6498    106.6016
   644.2500      0.0000    256.6649     78.3636    108.4099
   644.5000      0.0000    256.7469     78.1760    106.3407
   644.7500      0.0000    256.7867     78.1315    101.2355
   645.0000      0.0000    256.7881     78.2606     94.4834
   645.2500      0.0000    256.7892     78.5377     87.6114
   645.5000      0.0000    256.8191     78.8529     82.4712
   645.7500      0.0000    256.8697     79.0576     80.7320
   646.0000      0.0000    256.9077     79.0750     82.6418
   646.2500      0.0000    256.9061     78.9609     86.5996
   646.5000      0.0000    256.8616     78.8416     90.3151
   646.7500      0.0000    256.7956     78.8120     92.2685
   647.0000      0.0000    256.7401     78.8794     92.1188
   647.2500      0.0000    256.7254     78.9001     90.3525
   647.5000      0.0000    256.7884     78.4592     87.8994
   647.7500      0.0000    256.9984     76.8172     85.6519
   648.0000      0.0000    257.4572     73.1978     83.9264
   648.2500      0.0000    258.2445     67.4370     82.3700
   648.5000      0.0000    259.3408     60.4285     80.3753
   648.7500      0.0000    260.5980     53.7138     77.5801
   649.0000      0.0000    261.8003     48.5092     74.1166
   649.2500      0.0000    262.7728     45.1693     70.4656
   649.5000     -2.0000    263.4501     43.4063     67.0485
   649.7500      0.0000    263.8638     42.7041     64.0433
   650.0000      0.0000    264.0794     42.5486     61.7745
   650.2500      2.0000    264.1465     42.6070     61.1857
   650.5000      0.0000    264.0894     42.9121     63.4471
   650.7500      0.0000    263.9110     43.9397     68.7165
   651.0000      0.0000    263.5724     46.4376     75.4920
   651.2500      0.0000    262.9799     50.9448     81.5500
   651.5000      0.0000    262.0441     57.2060     85.5185
   651.7500      0.0000    260.7950     64.0682     87.5301
   652.0000      0.0000    259.4293     70.1520     88.6829
   652.2500      0.0000    258.2073     74.6403     90.1539
   652.5000      0.0000    257.3036     77.4522     92.7179
   652.7500      0.0000    256.7544     78.9581     96.6247
   653.0000      0.0000    256.5039     79.6871    101.4880
   653.2500      0.0000    256.4580     80.0880    106.1827
   653.5000      0.0000    256.5130     80.3621    109.1978
   653.7500      0.0000    256.5848     80.5163    109.6025
   654.0000      0.0000    256.6348     80.5618    107.8646
   654.2500      0.0000    256.6624     80.6005    105.3896
   654.5000      0.0000    256.6805     80.7224    103.0820
   654.7500      0.0000    256.6968     80.9104    100.7630
   655.0000      0.0000    256.7025     81.0692     98.1933
   655.2500      0.0000    256.6757     81.1273     95.9426
   655.5000      0.0000    256.6090     81.0924     94.6925
   655.7500      0.0000    256.5322     81.0194     94.3424
   656.0000      0.0000    256.4942     80.9340     94.3704
   656.2500      0.0000    256.5225     80.8011     94.5502
   656.5000      0.0000    256.6056     80.5825     94.9835
   656.7500      0.0000    256.7051     80.3187     96.0326
   657.0000      0.0000    256.7785     80.1254     98.4501
   657.2500      0.0000    256.8033     80.0926    102.9809
   657.5000      0.0000    256.7943     80.2015    109.4502
   657.7500      0.0000    256.7907     80.3471    116.4162
   658.0000      0.0000    256.8190     80.4262    121.8261
   658.2500      0.0000    256.8672     80.4036    123.9023
   658.5000      0.0000    256.8971     80.3229    121.6708
   658.7500      0.0000    256.8721     80.2727    115.2677
   659.0000      0.0000    256.7762     80.3242    105.9889
   659.2500      0.0000    256.6268     80.4712     95.6367
   659.5000      0.0000    256.4734     80.6174     85.4795
   659.7500      0.0000    256.3726     80.6338     76.0717
   660.0000      0.0000    256.3463     80.4496     68.1264
   660.2500      0.0000    256.3682     80.1115     62.9008
   660.5000      0.0000    256.3929     79.7614     61.2190
   660.7500      0.0000    256.3972     79.5432     62.4793
   661.0000      0.0000    256.3920     79.5219     65.0847
   661.2500      0.0000    256.4003     79.6815     67.6336
   661.5000      0.0000    256.4324     79.9677     69.4490
   661.7500      0.0000    256.4845     80.2969     70.4732
   662.0000      0.0000    256.5538     80.5428     71.1020
   662.2500      0.0000    256.6429     80.5845     71.7517
   662.5000      0.0000    256.7459     80.4102     72.2034
   662.7500      0.0000    256.8402     80.1406     71.6253
   663.0000      0.0000    256.8967     79.9106     69.4576
   663.2500      0.0000    256.8972     79.7617     66.0130
   663.5000      0.0000    256.8428     79.6831     62.0993
   663.7500      0.0000    256.7569     79.7012     58.4932
   664.0000      0.0000    256.6791     79.8561     56.0252
   664.2500      0.0000    256.6479     80.1146     55.6693
   664.5000      0.0000    256.6795     80.3610     57.8249
   664.7500      0.0000    256.7588     80.4664     61.3748
   665.0000      0.0000    256.8498     80.3489     63.9060
   665.2500      0.0000    256.9177     80.0023     63.3514
   665.5000      0.0000    256.9438     79.5155     59.6341
   665.7500      0.0000    256.9256     79.0434     54.7660
   666.0000      0.0000    256.8745     78.7083     51.3643
   666.2500      0.0000    256.8143     78.5325     50.9744
   666.5000      0.0000    256.7712     78.4771     53.4662
   666.7500      0.0000    256.7500     78.5034     57.5989
   667.0000      0.0000    256.7289     78.5714     62.0670
   667.2500      0.0000    256.6857     78.6209     66.2110
   667.5000      0.0000    256.6256     78.5995     69.8618
   667.7500      0.0000    256.5744     78.4928     72.6273
   668.0000      0.0000    256.5563     78.3129     73.6685
   668.2500      0.0000    256.5823     78.0793     72.4512
   668.5000      0.0000    256.6503     77.8309     69.6244
   668.7500      0.0000    256.7417     77.6427     66.9211
   669.0000      0.0000    256.8228     77.6008     66.0637
   669.2500      0.0000    256.8612     77.7380     67.6246
   669.5000      0.0000    256.8493     77.9940     70.7186
