~Version Information
VERS.                      2.0: CWLS Log ASCII Standard - VERSION 2.0
WRAP.                       NO: One line per depth step
~Well Information Block
STRT.FT                -9.7500: 
STOP.FT              2566.5000: 
STEP.FT                 0.2500: 
NULL.                -999.2500: 
COMP.          Petrogulf Corporation: COMPANY
WELL.             Valejo 8-12V: WELL
FLD.           Purgatorie River: FIELD
LOC.           1510' FNL & 1460' FWL: LOCATION
CNTY.               Las Animas: COUNTY
SRVC.                         : SERVICE COMPANY
DATE.          Tue Nov 18 14:36:15 2003: LOG DATE
UWI.                          : UNIQUE WELL ID
STAT.                 Colorado: STATE
~Curve Information Block
DEPT.FT            0 000 00 00: Depth
CCL.                          : Casing Collar Locator
TT3.usec                      : CBL 3' Travel Time
AMP3.mV                       : CBL 3' Amplitude
GR.GAPI                       : Gamma Ray
~Parameter Information Block
~A  Depth       CCL         TT3         AMP3         GR     
# ...
  2536.2500      0.0000    748.3116      2.3315     80.0520
  2536.5000      0.0000    740.5134      2.5983     82.4379
  2536.7500      0.0000    745.8867      2.7714     81.0339
  2537.0000      0.0000    763.3029      2.7722     77.6295
  2537.2500      0.0000    782.8333      2.6481     74.3993
  2537.5000      0.0000    792.1572      2.5294     72.3990
  2537.7500      0.0000    785.6849      2.5252     71.4697
  2538.0000      0.0000    768.6429      2.6446     71.0958
  2538.2500      0.0000    752.0161      2.8056     71.0592
  2538.5000      0.0000    744.2013      2.9122     71.4616
  2538.7500      0.0000    747.1765      2.9231     72.5235
  2539.0000      0.0000    757.6987      2.8631     74.5141
  2539.2500      0.0000    770.0015      2.7933     77.5487
  2539.5000      0.0000    778.3184      2.7648     81.0679
  2539.7500      0.0000    778.8085      2.7794     83.6201
  2540.0000      0.0000    770.6571      2.7868     83.6472
  2540.2500      0.0000    756.1783      2.7227     80.9217
  2540.5000      0.0000    739.5565      2.5607     77.2772
  2540.7500      0.0000    724.7379      2.3442     75.6392
  2541.0000      0.0000    714.5552      2.1721     77.9320
  2541.2500      0.0000    711.2805      2.1333     83.5543
  2541.5000      0.0000    716.0889      2.2397     89.6388
  2541.7500      0.0000    726.9913      2.4193     92.8818
  2542.0000      0.0000    738.5104      2.5721     91.5478
  2542.2500      0.0000    744.9962      2.6339     86.2392
  2542.5000      0.0000    744.8553      2.6085     79.0320
  2542.7500      0.0000    741.9187      2.5556     71.9500
  2543.0000      0.0000    742.8783      2.5465     66.1924
  2543.2500      0.0000    752.3182      2.6126     62.2853
  2543.5000      0.0000    768.9219      2.7253     60.2951
  2543.7500      0.0000    786.4874      2.8227     59.7775
  2544.0000      0.0000    798.7776      2.8531     59.8764
  2544.2500      0.0000    803.0383      2.7977     59.7708
  2544.5000      0.0000    799.4879      2.6654     59.1316
  2544.7500      0.0000    789.3917      2.4887     58.2108
  2545.0000      0.0000    774.8508      2.3239     57.5150
  2545.2500      0.0000    759.3228      2.2366     57.4022
  2545.5000      0.0000    746.2642      2.2689     58.0257
  2545.7500      0.0000    737.1733      2.4137     59.5629
  2546.0000      0.0000    732.0083      2.6161     62.1273
  2546.2500      0.0000    730.7393      2.8009     65.2224
  2546.5000      0.0000    733.0995      2.9138     67.5115
  2546.7500      0.0000    737.5795      2.9412     67.5668
  2547.0000      0.0000    742.2093      2.8858     65.1633
  2547.2500      0.0000    746.1099      2.7358     61.8783
  2547.5000      0.0000    749.4206      2.4791     60.1870
  2547.7500      0.0000    752.2632      2.1475     61.6118
  2548.0000      0.0000    754.6116      1.8219     65.5024
  2548.2500      0.0000    756.7294      1.5835     69.5024
  2548.5000      0.0000    759.0278      1.4713     71.2263
  2548.7500      0.0000    761.6977      1.4892     69.8167
  2549.0000      0.0000    764.6899      1.6319     66.3372
  2549.2500      0.0000    767.6149      1.8839     62.7723
  2549.5000      0.0000    769.5608      2.2034     60.4736
  2549.7500      0.0000    769.5057      2.5270     59.5616
  2550.0000      0.0000    767.2061      2.8009     59.6826
  2550.2500      0.0000    764.0085      3.0034     60.7465
  2550.5000      0.0000    762.8033      3.1381     62.6002
  2550.7500      0.0000    765.9853      3.2146     64.5232
  2551.0000      0.0000    772.7617      3.2379     65.5591
  2551.2500      0.0000    779.5571      3.2098     65.2257
  2551.5000      0.0000    784.3831      3.1315     63.8843
  2551.7500      0.0000    789.7297      3.0085     62.5204
  2552.0000      0.0000    798.5511      2.8583     61.8858
  2552.2500      0.0000    806.9775      2.7142     61.4598
  2552.5000      0.0000    804.6421      2.6145     59.2176
  2552.7500      0.0000    785.3776      2.5743     52.8370
  2553.0000      0.0000    755.4965      2.5669     41.7565
  2553.2500      0.0000    728.6105      2.5481     28.2123
  2553.5000      0.0000    714.3393      2.5018     15.8798
  2553.7500      0.0000    714.2513      2.4470      7.3121
  2554.0000      0.0000    725.6648      2.4043      2.7188
  2554.2500      0.0000    745.1367      2.3722      0.8085
  2554.5000      0.0000    768.3392      2.3345      0.1908
  2554.7500      0.0000    789.6964      2.2715      0.0352
  2555.0000      0.0000    804.0989      2.1736      0.0046
  2555.2500      0.0000    808.8513      2.0631   -999.2500
  2555.5000      0.0000    804.3128      1.9913   -999.2500
  2555.7500      0.0000    793.8907      1.9941   -999.2500
  2556.0000      0.0000    783.6155      2.0528   -999.2500
  2556.2500      0.0000    780.0341      2.1107   -999.2500
  2556.5000      0.0000    787.0624      2.1310   -999.2500
  2556.7500      0.0000    804.5078      2.1308   -999.2500
  2557.0000      0.0000    828.5983      2.1622   -999.2500
  2557.2500      0.0000    851.6839      2.2673   -999.2500
  2557.5000      0.0000    860.9492      2.4465   -999.2500
  2557.7500      0.0000    839.6878      2.6458   -999.2500
  2558.0000      0.0000    772.9124      2.7623   -999.2500
  2558.2500      0.0000    655.0432      2.6888   -999.2500
  2558.5000      0.0000    497.0068      2.3941   -999.2500
  2558.7500      0.0000    327.7213      1.9645   -999.2500
  2559.0000      0.0000    182.6538      1.5488   -999.2500
  2559.2500      0.0000     84.0922      1.2534   -999.2500
  2559.5000      0.0000     31.4304      1.0941   -999.2500
  2559.7500      0.0000      9.4171      1.0279   -999.2500
  2560.0000     -2.0000      2.2375      1.0065   -999.2500
  2560.2500     -2.0000      0.4161      1.0012   -999.2500
  2560.5000      0.0000   -999.2500   -999.2500   -999.2500
  2560.7500      0.0000   -999.2500   -999.2500   -999.2500
  2561.0000      0.0000   -999.2500   -999.2500   -999.2500
  2561.2500      0.0000   -999.2500   -999.2500   -999.2500
  2561.5000      0.0000   -999.2500   -999.2500   -999.2500
  2561.7500      0.0000   -999.2500   -999.2500   -999.2500
  2562.0000      0.0000   -999.2500   -999.2500   -999.2500
  2562.2500      0.0000   -999.2500   -999.2500   -999.2500
  2562.5000      0.0000   -999.2500   -999.2500   -999.2500
  2562.7500      0.0000   -999.2500   -999.2500   -999.2500
  2563.0000      0.0000   -999.2500   -999.2500   -999.2500
  2563.2500      0.0000   -999.2500   -999.2500   -999.2500
  2563.5000      0.0000   -999.2500   -999.2500   -999.2500
  2563.7500      0.0000   -999.2500   -999.2500   -999.2500
  2564.0000      0.0000   -999.2500   -999.2500   -999.2500
  2564.2500      0.0000   -999.2500   -999.2500   -999.2500
  2564.5000      0.0000   -999.2500   -999.2500   -999.2500
  2564.7500      0.0000   -999.2500   -999.2500   -999.2500
  2565.0000      0.0000   -999.2500   -999.2500   -999.2500
  2565.2500      0.0000   -999.2500   -999.2500   -999.2500
  2565.5000      0.0000   -999.2500   -999.2500   -999.2500
  2565.7500      0.0000   -999.2500   -999.2500   -999.2500
  2566.0000   -999.2500   -999.2500   -999.2500   -999.2500
  2566.2500   -999.2500   -999.2500   -999.2500   -999.2500
  2566.5000   -999.2500   -999.2500   -999.2500   -999.2500
