~Version Information
VERS.                      2.0: CWLS Log ASCII Standard - VERSION 2.0
WRAP.                       NO: One line per depth step
~Well Information Block
STRT.FT               620.0000: 
STOP.FT              2663.2500: 
STEP.FT                 0.2500: 
NULL.                -999.2500: 
COMP.          Evergreen Operating Corporation: COMPANY
WELL.             Carbon 34-21: WELL
FLD.           Purgatoire River: FIELD
LOC.           56' FSL & 2304' FEL: LOCATION
PROV.                 Colorado: PROVINCE
CNTY.               Las Animas: COUNTRY
SRVC.                Patterson: SERVICE COMPANY
DATE.          Mon Sep 13 11:41:04 2004: LOG DATE
UWI.           05 071 08117 00: UNIQUE WELL ID
~Curve Information Block
DEPT.FT            0 000 00 00: Depth
DIR.Ohm-m                     : IEL Induction Resistivity
SN.Ohm-m                      : IEL Short Normal
SP.mV                         : IEL Spontaneous Potential
GR.GAPI                       : Gamma Ray
~Parameter Information Block
~A  Depth       DIR          SN          SP          GR     
# ...
  1826.0000     11.1652     10.4802    146.0863    114.5528
  1826.2500     11.4107     10.8270    146.0642    107.0465
  1826.5000     11.6902     11.7372    146.0175     99.7182
  1826.7500     11.9822     13.0046    145.9582     98.5622
  1827.0000     12.2466     14.3114    145.8942    102.1169
  1827.2500     12.4395     15.3714    145.8300    106.6690
  1827.5000     12.5325     16.0341    145.7705    113.8859
  1827.7500     12.5281     16.3062    145.7240    117.7301
  1828.0000     12.4616     16.3056    145.7025    121.5641
  1828.2500     12.3871     16.1872    145.7195    123.4086
  1828.5000     12.3530     16.0734    145.7871    126.2803
  1828.7500     12.3808     16.0110    145.9121    128.2037
  1829.0000     12.4556     15.9663    146.0936    129.6137
  1829.2500     12.5335     15.8604    146.3219    128.7403
  1829.5000     12.5609     15.6232    146.5791    124.9846
  1829.7500     12.4972     15.2345    146.8415    122.1061
  1830.0000     12.3286     14.7287    147.0839    119.8316
  1830.2500     12.0697     14.1713    147.2854    120.4645
  1830.5000     11.7539     13.6306    147.4344    123.8704
  1830.7500     11.4205     13.1579    147.5305    126.5408
  1831.0000     11.1032     12.7762    147.5835    129.5859
  1831.2500     10.8230     12.4770    147.6088    131.1567
  1831.5000     10.5865     12.2273    147.6217    134.4088
  1831.7500     10.3892     11.9867    147.6340    137.7351
  1832.0000     10.2221     11.7269    147.6522    143.6066
  1832.2500     10.0773     11.4435    147.6794    146.8475
  1832.5000      9.9506     11.1539    147.7179    148.4430
  1832.7500      9.8397     10.8808    147.7708    146.6295
  1833.0000      9.7408     10.6341    147.8422    140.4282
  1833.2500      9.6463     10.4043    147.9351    135.6218
  1833.5000      9.5456     10.1697    148.0495    130.6801
  1833.7500      9.4295      9.9137    148.1807    130.1329
  1834.0000      9.2940      9.6396    148.3192    133.5718
  1834.2500      9.1427      9.3689    148.4530    137.7222
  1834.5000      8.9844      9.1225    148.5701    144.2551
  1834.7500      8.8279      8.9080    148.6623    147.7583
  1835.0000      8.6789      8.7250    148.7276    151.8033
  1835.2500      8.5386      8.5751    148.7714    154.6454
  1835.5000      8.4069      8.4582    148.8047    160.1616
  1835.7500      8.2839      8.3637    148.8410    163.7013
  1836.0000      8.1703      8.2703    148.8920    164.9144
  1836.2500      8.0661      8.1566    148.9646    161.3985
  1836.5000      7.9694      8.0130    149.0593    151.2172
  1836.7500      7.8772      7.8481    149.1704    144.1903
  1837.0000      7.7884      7.6842    149.2871    138.2405
  1837.2500      7.7059      7.5474    149.3961    138.1056
  1837.5000      7.6357      7.4568    149.4836    140.8981
  1837.7500      7.5831      7.4200    149.5377    142.4856
  1838.0000      7.5497      7.4335    149.5518    143.3374
  1838.2500      7.5325      7.4826    149.5259    144.1843
  1838.5000      7.5259      7.5430    149.4682    148.1356
  1838.7500      7.5248      7.5875    149.3932    152.2791
  1839.0000      7.5274      7.6036    149.3179    158.2688
  1839.2500      7.5353      7.6074    149.2576    161.0142
  1839.5000      7.5527      7.6345    149.2214    163.3272
  1839.7500      7.5833      7.7101    149.2106    164.2688
  1840.0000      7.6279      7.8292    149.2206    165.3432
  1840.2500      7.6830      7.9676    149.2435    165.7682
  1840.5000      7.7427      8.1055    149.2714    165.6237
  1840.7500      7.8004      8.2336    149.2990    164.8238
  1841.0000      7.8517      8.3457    149.3241    162.6776
  1841.2500      7.8955      8.4371    149.3476    161.1202
  1841.5000      7.9349      8.5129    149.3726    159.5885
  1841.7500      7.9776      8.5904    149.4028    159.2296
  1842.0000      8.0354      8.6909    149.4405    159.4863
  1842.2500      8.1232      8.8251    149.4816    160.4762
  1842.5000      8.2564      8.9885    149.5125    164.3325
  1842.7500      8.4486      9.1695    149.5080    168.5852
  1843.0000      8.7090      9.3607    149.4344    175.4127
  1843.2500      9.0419      9.5634    149.2572    178.1835
  1843.5000      9.4489      9.7958    148.9518    177.1630
  1843.7500      9.9342     10.1169    148.5121    173.2315
  1844.0000     10.5073     10.6482    147.9548    165.1245
  1844.2500     11.1838     11.5618    147.3171    159.8632
  1844.5000     11.9796     13.0139    146.6484    153.2382
  1844.7500     12.9032     15.0428    145.9987    149.3833
  1845.0000     13.9458     17.4983    145.4084    143.7063
  1845.2500     15.0747     20.0753    144.9019    139.8307
  1845.5000     16.2348     22.4515    144.4854    134.0612
  1845.7500     17.3612     24.4337    144.1500    130.5317
  1846.0000     18.3960     26.0050    143.8777    126.2934
  1846.2500     19.2998     27.2623    143.6486    124.3338
  1846.5000     20.0545     28.3204    143.4480    122.3665
  1846.7500     20.6646     29.2580    143.2695    121.3459
  1847.0000     21.1560     30.1168    143.1142    119.8717
  1847.2500     21.5672     30.9227    142.9869    118.8473
  1847.5000     21.9342     31.7029    142.8905    117.0411
  1847.7500     22.2775     32.4859    142.8215    115.6639
  1848.0000     22.6026     33.2981    142.7674    114.1367
  1848.2500     22.9129     34.1645    142.7061    114.1612
  1848.5000     23.2243     35.1124    142.6068    116.0205
  1848.7500     23.5681     36.1684    142.4345    117.8111
  1849.0000     23.9787     37.3444    142.1584    119.7494
  1849.2500     24.4753     38.6251    141.7636    120.1020
  1849.5000     25.0510     39.9644    141.2629    119.5527
  1849.7500     25.6751     41.2911    140.6992    118.7403
  1850.0000     26.3017     42.5196    140.1387    116.4905
  1850.2500     26.8794     43.5651    139.6524    113.8957
  1850.5000     27.3553     44.3615    139.2982    108.7697
  1850.7500     27.6814     44.8854    139.1071    105.4691
  1851.0000     27.8263     45.1751    139.0826    101.7883
  1851.2500     27.7881     45.3209    139.2072     99.8731
  1851.5000     27.5958     45.4164    139.4527     96.7064
  1851.7500     27.2905     45.5024    139.7870     94.4025
  1852.0000     26.9027     45.5431    140.1770     92.1657
  1852.2500     26.4446     45.4509    140.5893     92.6617
  1852.5000     25.9241     45.1413    140.9918     97.4195
  1852.7500     25.3619     44.5818    141.3578    102.6821
  1853.0000     24.7944     43.8077    141.6683    110.7435
  1853.2500     24.2585     42.8991    141.9119    114.2923
  1853.5000     23.7762     41.9436    142.0806    115.6088
  1853.7500     23.3549     41.0082    142.1651    114.7082
  1854.0000     23.0005     40.1383    142.1547    113.4477
  1854.2500     22.7300     39.3776    142.0432    113.6592
  1854.5000     22.5713     38.7796    141.8381    115.1934
  1854.7500     22.5481     38.3915    141.5689    116.1094
  1855.0000     22.6615     38.2167    141.2859    115.8801
  1855.2500     22.8760     38.1816    141.0510    114.1873
  1855.5000     23.1201     38.1403    140.9229    109.1857
  1855.7500     23.3030     37.9251    140.9429    104.5808
  1856.0000     23.3427     37.4242    141.1277     96.9160
  1856.2500     23.1926     36.6428    141.4689     91.8340
  1856.5000     22.8545     35.7101    141.9367     84.5800
  1856.7500     22.3740     34.8171    142.4853     80.1706
  1857.0000     21.8215     34.1137    143.0574     75.1908
  1857.2500     21.2705     33.6351    143.5887     73.7934
  1857.5000     20.7819     33.3103    144.0153     75.3207
  1857.7500     20.3979     33.0341    144.2832     78.4027
  1858.0000     20.1443     32.7386    144.3575     84.5729
  1858.2500     20.0335     32.4174    144.2309     88.7785
  1858.5000     20.0638     32.1050    143.9252     94.1001
  1858.7500     20.2170     31.8411    143.4889     96.5460
  1859.0000     20.4592     31.6471    142.9880     98.0919
  1859.2500     20.7527     31.5225    142.4941     97.8421
