~Version Information
VERS.                      2.0: CWLS Log ASCII Standard - VERSION 2.0
WRAP.                       NO: One line per depth step
~Well Information Block
STRT.FT                -7.6500: 
STOP.FT              3097.2500: 
STEP.FT                 0.0500: 
NULL.                -999.2500: 
COMP.          Pioneer Natural Resources: COMPANY
WELL.            Paradise 13-8: WELL
FLD.           Purgatoire River: FIELD
LOC.           1896' FSL & 1120' FWL--: LOCATION
PROV.                 Colorado: PROVINCE
CNTY.               Las Animas: COUNTRY
SRVC.                Patterson: SERVICE COMPANY
DATE.          Fri Feb 04 16:52:25 2005: LOG DATE
UWI.           05 071 07946 00: UNIQUE WELL ID
~Curve Information Block
DEPT.FT            0 000 00 00: Depth
CCL.                          : Casing Collar Locator
TT3.usec                      : CBL 3' Travel Time
AMP3.mV                       : CBL 3' Amplitude
GR.GAPI                       : Gamma Ray
~Parameter Information Block
~A  Depth       CCL         TT3         AMP3         GR     
# ...
  1024.1500      0.0000    710.4495      3.1331    141.1703
  1024.2000      0.0000    710.4495      3.1331    141.1703
  1024.2500      0.0000    684.8247      2.9292    135.0366
  1024.3000      0.0000    684.8247      2.9292    135.0366
  1024.3500      0.0000    684.8247      2.9292    135.0366
  1024.4000      0.0000    684.8247      2.9292    135.0366
  1024.4500      0.0000    684.8247      2.9292    135.0366
  1024.5000      0.0000    669.7432      2.7730    127.5871
  1024.5500      0.0000    669.7432      2.7730    127.5871
  1024.6000      0.0000    669.7432      2.7730    127.5871
  1024.6500      0.0000    669.7432      2.7730    127.5871
  1024.7000      0.0000    669.7432      2.7730    127.5871
  1024.7500      0.0000    668.3386      2.6836    122.1382
  1024.8000      0.0000    668.3386      2.6836    122.1382
  1024.8500      0.0000    668.3386      2.6836    122.1382
  1024.9000      0.0000    668.3386      2.6836    122.1382
  1024.9500      0.0000    668.3386      2.6836    122.1382
  1025.0000      0.0000    676.9975      2.6564    120.8459
  1025.0500      0.0000    676.9975      2.6564    120.8459
  1025.1000      0.0000    676.9975      2.6564    120.8459
  1025.1500      0.0000    676.9975      2.6564    120.8459
  1025.2000      0.0000    676.9975      2.6564    120.8459
  1025.2500      0.0000    690.1263      2.6710    124.1531
  1025.3000      0.0000    690.1263      2.6710    124.1531
  1025.3500      0.0000    690.1263      2.6710    124.1531
  1025.4000      0.0000    690.1263      2.6710    124.1531
  1025.4500      0.0000    690.1263      2.6710    124.1531
  1025.5000      0.0000    703.8254      2.6998    130.5978
  1025.5500      0.0000    703.8254      2.6998    130.5978
  1025.6000      0.0000    703.8254      2.6998    130.5978
  1025.6500      0.0000    703.8254      2.6998    130.5978
  1025.7000      0.0000    703.8254      2.6998    130.5978
  1025.7500      0.0000    716.2281      2.7182    137.2014
  1025.8000      0.0000    716.2281      2.7182    137.2014
  1025.8500      0.0000    716.2281      2.7182    137.2014
  1025.9000      0.0000    716.2281      2.7182    137.2014
  1025.9500      0.0000    716.2281      2.7182    137.2014
  1026.0000      0.0000    726.4891      2.7134    140.9953
  1026.0500      0.0000    726.4891      2.7134    140.9953
  1026.1000      0.0000    726.4891      2.7134    140.9953
  1026.1500      0.0000    726.4891      2.7134    140.9953
  1026.2000      0.0000    726.4891      2.7134    140.9953
  1026.2500      0.0000    734.2289      2.6867    140.6194
  1026.3000      0.0000    734.2289      2.6867    140.6194
  1026.3500      0.0000    734.2289      2.6867    140.6194
  1026.4000      0.0000    734.2289      2.6867    140.6194
  1026.4500      0.0000    734.2289      2.6867    140.6194
  1026.5000      0.0000    738.9431      2.6512    136.5628
  1026.5500      0.0000    738.9431      2.6512    136.5628
  1026.6000      0.0000    738.9431      2.6512    136.5628
  1026.6500      0.0000    738.9431      2.6512    136.5628
  1026.7000      0.0000    738.9431      2.6512    136.5628
  1026.7500      0.0000    739.2350      2.6242    130.1926
  1026.8000      0.0000    739.2350      2.6242    130.1926
  1026.8500      0.0000    739.2350      2.6242    130.1926
  1026.9000      0.0000    739.2350      2.6242    130.1926
  1026.9500      0.0000    739.2350      2.6242    130.1926
  1027.0000      0.0000    733.6282      2.6178    122.9555
  1027.0500      0.0000    733.6282      2.6178    122.9555
  1027.1000      0.0000    733.6282      2.6178    122.9555
  1027.1500      0.0000    733.6282      2.6178    122.9555
  1027.2000      0.0000    733.6282      2.6178    122.9555
  1027.2500      0.0000    722.9866      2.6324    116.1921
  1027.3000      0.0000    722.9866      2.6324    116.1921
  1027.3500      0.0000    722.9866      2.6324    116.1921
  1027.4000      0.0000    722.9866      2.6324    116.1921
  1027.4500      0.0000    722.9866      2.6324    116.1921
  1027.5000      0.0000    711.4072      2.6569    110.8073
  1027.5500      0.0000    711.4072      2.6569    110.8073
  1027.6000      0.0000    711.4072      2.6569    110.8073
  1027.6500      0.0000    711.4072      2.6569    110.8073
  1027.7000      0.0000    711.4072      2.6569    110.8073
  1027.7500      0.0000    704.1048      2.6778    106.7486
  1027.8000      0.0000    704.1048      2.6778    106.7486
  1027.8500      0.0000    704.1048      2.6778    106.7486
  1027.9000      0.0000    704.1048      2.6778    106.7486
  1027.9500      0.0000    704.1048      2.6778    106.7486
  1028.0000      0.0000    704.6821      2.6909    103.3693
  1028.0500      0.0000    704.6821      2.6909    103.3693
  1028.1000      0.0000    704.6821      2.6909    103.3693
  1028.1500      0.0000    704.6821      2.6909    103.3693
  1028.2000      0.0000    704.6821      2.6909    103.3693
  1028.2500      0.0000    713.9865      2.7036    100.5551
  1028.3000      0.0000    713.9865      2.7036    100.5551
  1028.3500      0.0000    713.9865      2.7036    100.5551
  1028.4000      0.0000    713.9865      2.7036    100.5551
  1028.4500      0.0000    713.9865      2.7036    100.5551
  1028.5000      0.0000    729.9568      2.7253     98.8584
  1028.5500      0.0000    729.9568      2.7253     98.8584
  1028.6000      0.0000    729.9568      2.7253     98.8584
  1028.6500      0.0000    729.9568      2.7253     98.8584
  1028.7000      0.0000    729.9568      2.7253     98.8584
  1028.7500      0.0000    747.8748      2.7563     98.4433
  1028.8000      0.0000    747.8748      2.7563     98.4433
  1028.8500      0.0000    747.8748      2.7563     98.4433
  1028.9000      0.0000    747.8748      2.7563     98.4433
  1028.9500      0.0000    747.8748      2.7563     98.4433
  1029.0000      0.0000    761.5963      2.7855     98.8357
  1029.0500      0.0000    761.5963      2.7855     98.8357
  1029.1000      0.0000    761.5963      2.7855     98.8357
  1029.1500      0.0000    761.5963      2.7855     98.8357
  1029.2000      0.0000    761.5963      2.7855     98.8357
  1029.2500      0.0000    765.6117      2.7971    100.1319
  1029.3000      0.0000    765.6117      2.7971    100.1319
  1029.3500      0.0000    765.6117      2.7971    100.1319
  1029.4000      0.0000    765.6117      2.7971    100.1319
  1029.4500      0.0000    765.6117      2.7971    100.1319
  1029.5000      0.0000    757.0389      2.7825    103.6239
  1029.5500      0.0000    757.0389      2.7825    103.6239
  1029.6000      0.0000    757.0389      2.7825    103.6239
  1029.6500      0.0000    757.0389      2.7825    103.6239
  1029.7000      0.0000    757.0389      2.7825    103.6239
  1029.7500      0.0000    736.6471      2.7493    110.4168
  1029.8000      0.0000    736.6471      2.7493    110.4168
  1029.8500      0.0000    736.6471      2.7493    110.4168
  1029.9000      0.0000    736.6471      2.7493    110.4168
  1029.9500      0.0000    736.6471      2.7493    110.4168
  1030.0000      0.0000    708.0554      2.7182    119.7689
  1030.0500      0.0000    708.0554      2.7182    119.7689
  1030.1000      0.0000    708.0554      2.7182    119.7689
  1030.1500      0.0000    708.0554      2.7182    119.7689
  1030.2000      0.0000    708.0554      2.7182    119.7689
  1030.2500      0.0000    676.1010      2.7087    129.3530
  1030.3000      0.0000    676.1010      2.7087    129.3530
  1030.3500      0.0000    676.1010      2.7087    129.3530
  1030.4000      0.0000    676.1010      2.7087    129.3530
  1030.4500      0.0000    676.1010      2.7087    129.3530
  1030.5000      0.0000    646.8831      2.7288    136.9556
  1030.5500      0.0000    646.8831      2.7288    136.9556
  1030.6000      0.0000    646.8831      2.7288    136.9556
  1030.6500      0.0000    646.8831      2.7288    136.9556
  1030.7000      0.0000    646.8831      2.7288    136.9556
  1030.7500      0.0000    628.2337      2.7766    141.6362
  1030.8000      0.0000    628.2337      2.7766    141.6362
