~Version Information
VERS.                      2.0: CWLS Log ASCII Standard - VERSION 2.0
WRAP.                       NO: One line per depth step
~Well Information Block
STRT.FT               375.0000: 
STOP.FT              1727.7000: 
STEP.FT                 0.1000: 
NULL.                -999.2500: 
COMP.          Pioneer Natural Resources: COMPANY
WELL.          Warrior 33-1 Tr: WELL
FLD.           Purgatoire River: FIELD
LOC.           2648' FSL & 2341' FEL--: LOCATION
PROV.                 Colorado: PROVINCE
CNTY.               Las Animas: COUNTRY
SRVC.                Patterson: SERVICE COMPANY
DATE.          Sat Jun 18 07:53:12 2005: LOG DATE
UWI.           05 071 08412 00: UNIQUE WELL ID
~Curve Information Block
DEPT.FT            0 000 00 00: Depth
DCAL.in                       : CDL Caliper
RHOB.g/cc                     : CDL Bulk Density
RHOC.g/cc                     : CDL Density Correction
DPOR.pu                       : CDL Density Porosity
NPOR.pu                       : Neutron Porosity
GR.GAPI                       : Gamma Ray
~Parameter Information Block
~A  Depth       DCAL        RHOB        RHOC        DPOR        NPOR         GR     
# ...
  1171.8000      8.1886      2.5063      0.1151      8.7087     28.8954    133.9201
  1171.9000      8.1886      2.5531      0.1616      5.8755     28.9557    133.3372
  1172.0000      8.1872      2.5884      0.1566      3.7316     28.2772    137.1197
  1172.1000      8.1872      2.6105      0.0948      2.3926     27.9620    137.3572
  1172.2000      8.1872      2.6315      0.1549      1.1222     28.4059    136.0140
  1172.3000      8.1853      2.6417      0.1798      0.5044     28.8716    137.9300
  1172.4000      8.1853      2.6258      0.1534      1.4673     28.9132    138.9301
  1172.5000      8.1838      2.5846      0.1297      3.9617     29.0626    136.7251
  1172.6000      8.1838      2.5362      0.0681      6.8999     29.7670    136.4299
  1172.7000      8.1838      2.5033      0.0362      8.8896     30.3585    140.4854
  1172.8000      8.1853      2.4887      0.0408      9.7752     30.1926    147.1143
  1172.9000      8.1853      2.4887     -0.0385      9.7755     29.7921    155.0610
  1173.0000      8.1938      2.5069      0.0028      8.6707     29.5505    162.1310
  1173.1000      8.1938      2.5220      0.0757      7.7600     29.3503    163.4993
  1173.2000      8.1938      2.5084      0.0305      8.5821     29.1989    157.7267
  1173.3000      8.2055      2.4811      0.0500     10.2338     28.8207    149.8732
  1173.4000      8.2055      2.4619      0.1171     11.4016     28.1720    144.8425
  1173.5000      8.2154      2.4555      0.1078     11.7851     27.6349    144.8206
  1173.6000      8.2154      2.4642      0.1368     11.2628     27.0171    145.5464
  1173.7000      8.2154      2.4837      0.1204     10.0810     26.3621    144.0713
  1173.8000      8.2222      2.5065      0.1521      8.6994     26.2819    145.1078
  1173.9000      8.2222      2.5259      0.1650      7.5198     26.8968    146.4023
  1174.0000      8.2162      2.5354      0.1704      6.9480     27.5751    142.7819
  1174.1000      8.2162      2.5368      0.1242      6.8600     27.6359    140.5833
  1174.2000      8.2162      2.5408      0.1373      6.6174     27.4029    146.7373
  1174.3000      8.1971      2.5547      0.1289      5.7737     27.5507    151.4842
  1174.4000      8.1971      2.5754      0.1907      4.5223     27.8564    144.8776
  1174.5000      8.1819      2.5913      0.1447      3.5588     27.6629    136.2186
  1174.6000      8.1819      2.6002      0.1341      3.0169     26.9906    134.6441
  1174.7000      8.1819      2.5984      0.1189      3.1255     26.4723    137.2648
  1174.8000      8.1740      2.5760      0.0774      4.4826     26.5969    138.8560
  1174.9000      8.1740      2.5408      0.0389      6.6190     27.1158    138.9045
  1175.0000      8.1717      2.5141     -0.0012      8.2371     27.2948    140.3822
  1175.1000      8.1717      2.5032      0.0449      8.8967     27.0616    143.8893
  1175.2000      8.1717      2.4951      0.0519      9.3864     26.9769    149.8296
  1175.3000      8.1728      2.4898     -0.0080      9.7107     27.4807    157.0973
  1175.4000      8.1728      2.4995      0.0580      9.1209     28.3099    157.5045
  1175.5000      8.1757      2.5183      0.0595      7.9797     28.5265    149.1336
  1175.6000      8.1757      2.5278      0.0685      7.4066     27.9228    144.0189
  1175.7000      8.1757      2.5164      0.0756      8.0952     27.4684    146.3783
  1175.8000      8.1783      2.4900      0.0463      9.6952     27.5115    149.0425
  1175.9000      8.1783      2.4678      0.0395     11.0438     27.2784    149.0270
  1176.0000      8.1785      2.4621      0.0218     11.3905     26.4467    147.7643
  1176.1000      8.1785      2.4711      0.0190     10.8408     25.6024    145.5602
  1176.2000      8.1785      2.4872      0.0866      9.8638     24.9668    141.3567
  1176.3000      8.1770      2.5001      0.1002      9.0876     24.2361    138.0303
  1176.4000      8.1770      2.5064      0.0838      8.7050     23.8277    137.6087
  1176.5000      8.1666      2.5143      0.0429      8.2260     24.1055    135.6295
  1176.6000      8.1666      2.5253      0.0849      7.5554     24.7282    130.8776
  1176.7000      8.1666      2.5302      0.0888      7.2634     25.5918    126.4182
  1176.8000      8.1462      2.5341      0.0258      7.0250     26.6128    124.4012
  1176.9000      8.1462      2.5523      0.0761      5.9225     27.2452    125.9978
  1177.0000      8.1371      2.5819      0.0706      4.1281     27.4094    132.0211
  1177.1000      8.1371      2.6071      0.1111      2.6012     27.6652    138.9758
  1177.2000      8.1371      2.6105      0.1790      2.3963     27.9609    142.3519
  1177.3000      8.1528      2.5943      0.1072      3.3775     27.6373    145.5445
  1177.4000      8.1528      2.5874      0.1177      3.7926     26.8550    150.1576
  1177.5000      8.1848      2.6002      0.1450      3.0184     26.2600    150.3305
  1177.6000      8.1848      2.6125      0.1366      2.2712     25.8086    145.4429
  1177.7000      8.1848      2.6135      0.0828      2.2131     25.3262    141.5949
  1177.8000      8.2075      2.6050      0.1148      2.7264     25.1122    142.3682
  1177.9000      8.2075      2.5863      0.0181      3.8591     25.2544    144.3443
  1178.0000      8.2120      2.5668      0.0093      5.0417     25.4157    143.0667
  1178.1000      8.2120      2.5510      0.0109      6.0030     25.4197    142.0542
  1178.2000      8.2120      2.5327      0.0411      7.1100     25.4301    145.5775
  1178.3000      8.2123      2.5255      0.0176      7.5437     25.7541    148.2053
  1178.4000      8.2123      2.5473      0.0605      6.2270     25.9550    146.9192
  1178.5000      8.2151      2.5833      0.1061      4.0408     25.2909    147.2425
  1178.6000      8.2151      2.6098      0.0747      2.4389     24.2691    148.1192
  1178.7000      8.2151      2.6238      0.0674      1.5898     23.8279    146.0292
  1178.8000      8.2191      2.6273      0.0983      1.3738     24.2886    143.7983
  1178.9000      8.2191      2.6183      0.0966      1.9238     25.3823    142.4836
  1179.0000      8.2250      2.6027      0.0603      2.8639     26.2316    136.9933
  1179.1000      8.2250      2.5874      0.0617      3.7925     26.2475    124.2752
  1179.2000      8.2250      2.5744      0.0596      4.5803     25.8299    113.1527
  1179.3000      8.2341      2.5717      0.0006      4.7476     25.6084    111.4489
  1179.4000      8.2341      2.5783      0.0446      4.3438     25.5829    114.5398
  1179.5000      8.2416      2.5832      0.0047      4.0491     25.4397    114.3495
  1179.6000      8.2416      2.5888      0.0349      3.7066     25.2616    112.1672
  1179.7000      8.2416      2.5977      0.0186      3.1685     25.3853    112.4988
  1179.8000      8.2417      2.6003      0.0446      3.0123     25.8499    113.2579
  1179.9000      8.2417      2.5925      0.0652      3.4834     26.5835    111.1867
  1180.0000      8.2325      2.5891      0.0577      3.6908     27.2397    111.0839
  1180.1000      8.2325      2.6062      0.0624      2.6569     27.2936    115.0090
  1180.2000      8.2325      2.6364      0.0965      0.8256     27.0301    117.5350
  1180.3000      8.2210      2.6557      0.0958     -0.3440     26.9527    116.8881
  1180.4000      8.2210      2.6491      0.1216      0.0541     26.9240    113.8820
  1180.5000      8.2187      2.6249      0.0956      1.5208     26.9085    110.1859
  1180.6000      8.2187      2.6071      0.0654      2.6014     26.9605    107.0340
  1180.7000      8.2187      2.6094      0.0527      2.4601     26.8417    104.6501
  1180.8000      8.2275      2.6222      0.0765      1.6827     26.7137    107.3613
  1180.9000      8.2275      2.6279      0.0653      1.3374     26.8727    115.8926
  1181.0000      8.2468      2.6192      0.0413      1.8669     26.9762    125.7546
  1181.1000      8.2468      2.5950      0.0610      3.3348     26.7556    135.0907
  1181.2000      8.2468      2.5601      0.0721      5.4479     26.6350    144.8558
  1181.3000      8.2714      2.5321      0.0853      7.1435     26.9790    153.8125
