~Version Information
VERS.                      2.0: CWLS Log ASCII Standard - VERSION 2.0
WRAP.                       NO: One line per depth step
~Well Information Block
STRT.FT               700.0000: 
STOP.FT              1869.5000: 
STEP.FT                 0.2500: 
NULL.                -999.2500: 
COMP.          Petrogulf Corporation: COMPANY
WELL.             State 16-24R: WELL
FLD.           Purgatorie River: FIELD
LOC.           541' FSL & 2371' FWL: LOCATION
PROV.                 Colorado: PROVINCE
CNTY.               Las Animas: COUNTRY
SRVC.                Patterson: SERVICE COMPANY
DATE.          Fri Aug 12 09:07:22 2005: LOG DATE
UWI.                071-08312 : UNIQUE WELL ID
~Curve Information Block
DEPT.FT            0 000 00 00: Depth
SP.mV                         : DIL Spontaneous Potential
RILD.Ohm-m                    : DIL Deep Resistivity
RILM.Ohm-m                    : DIL Medium Resistivity
RLL3.Ohm-m                    : DIL Shallow Resistivity
GR.GAPI                       : Gamma Ray
~Parameter Information Block
~A  Depth        SP         RILD        RILM        RLL3         GR     
# ...
  1708.0000     90.6344      9.1478     13.1316     10.1131     85.7248
  1708.2500     89.3691      9.1037     12.9991     11.4922     82.7314
  1708.5000     89.6709      8.8834     13.2792     13.5515     90.3825
  1708.7500     89.0040      8.6196     13.0844     14.4668     90.9744
  1709.0000     88.3026      8.4421     12.9014     13.0851     85.8093
  1709.2500     87.0710      7.7667     12.1922     11.4750     89.4623
  1709.5000     85.3017      7.5099     11.7401     11.6118     89.9224
  1709.7500     84.2758      7.1862     11.0508     12.5544     84.1807
  1710.0000     81.4265      6.9832     10.5627     12.1485     92.5505
  1710.2500     86.2573      6.7523      9.5334     10.2691     97.4847
  1710.5000     87.8203      6.4558      9.1573      9.4207    104.2927
  1710.7500     91.1656      6.2503      8.2192      8.6580    102.1267
  1711.0000     90.9650      5.9981      8.0536      8.3070    107.8172
  1711.2500     91.5207      5.8703      7.5028      8.3559    111.8375
  1711.5000     88.4662      5.6328      7.3534      8.4715    117.7316
  1711.7500     87.7382      5.5581      7.0343      8.4535    118.1008
  1712.0000     90.1778      5.4752      6.7503      8.3161    123.2946
  1712.2500     89.2445      5.3083      6.6568      8.1653    121.4474
  1712.5000     88.4391      5.1425      6.3943      7.7709    118.2808
  1712.7500     87.4585      4.9640      6.3159      7.7607    113.8877
  1713.0000     87.7822      4.8715      6.2422      7.9822    114.8790
  1713.2500     87.8627      4.6819      6.2333      8.2161    118.9939
  1713.5000     86.8734      4.7451      6.1888      8.3264    127.9265
  1713.7500     87.2873      4.6954      6.1074      8.4236    128.7906
  1714.0000     86.1002      4.6520      6.0736      8.3917    112.1815
  1714.2500     86.4894      4.5947      5.9997      8.1709    108.3831
  1714.5000     86.5363      4.5861      6.0190      8.0442    113.7873
  1714.7500     85.6270      4.5808      5.9998      7.8745    112.7864
  1715.0000     86.9940      4.5194      6.0273      8.0438    119.7827
  1715.2500     87.2145      4.5011      6.0703      8.3085    121.1224
  1715.5000     87.6281      4.4807      6.0339      8.6223    114.9357
  1715.7500     87.4999      4.4077      5.9186      8.5967    116.9862
  1716.0000     88.2252      4.4167      5.7900      8.1773    127.0756
  1716.2500     87.6466      4.3966      5.7280      7.9357    119.7741
  1716.5000     87.7175      4.4116      5.6017      7.5793    123.9724
  1716.7500     87.6017      4.4065      5.6096      7.5133    125.5946
  1717.0000     87.5071      4.4948      5.7064      7.6003    122.2339
  1717.2500     88.6479      4.4957      5.6918      7.7040    121.6486
  1717.5000     87.8418      4.5499      5.7978      7.7654    115.2190
  1717.7500     88.2773      4.5644      5.9751      7.9644    115.0263
  1718.0000     86.1832      4.6528      6.1107      8.0773    116.4032
  1718.2500     85.9748      4.6598      6.2305      8.2800    115.4094
  1718.5000     86.8969      4.7743      6.3024      8.2870    105.7666
  1718.7500     86.6855      4.8356      6.5788      8.3860     95.9116
  1719.0000     85.3313      4.9661      6.7108      8.9140     80.9562
  1719.2500     84.7352      5.0189      6.8975     10.2737     74.7381
  1719.5000     83.0595      5.2737      7.0999     13.5385     84.4303
  1719.7500     83.0195      5.4208      7.1289     12.5402     85.6726
  1720.0000     82.6817      5.7224      7.2351      9.1198     89.8002
  1720.2500     82.4000      5.9418      7.3860      8.5526     93.9028
  1720.5000     83.2882      6.2425      7.7905      8.5785     97.0512
  1720.7500     82.4423      6.6443      8.0372      8.8501     94.5673
  1721.0000     82.1714      7.0233      8.6972      9.3748     93.3436
  1721.2500     80.6903      7.6402      9.4396      9.8186     93.1876
  1721.5000     79.7753      7.9382     10.4125     10.5243     80.3231
  1721.7500     78.0134      8.3095     11.4892     13.8777     82.3346
  1722.0000     81.1771      8.8118     12.8425     15.9071     77.3559
  1722.2500     79.0506      9.4607     13.8637     20.5251     73.8673
  1722.5000     77.7830      9.9399     15.2530     23.0765     67.7919
  1722.7500     78.4901     10.5517     16.7856     23.0067     66.8625
  1723.0000     77.7163     11.2053     18.9459     25.1909     60.9010
  1723.2500     78.7486     11.8233     20.8277     28.3914     60.2923
  1723.5000     78.0750     12.1181     22.3504     31.2922     50.5450
  1723.7500     78.6708     12.2244     24.8912     36.9571     50.0919
  1724.0000     79.0661     12.4794     25.3612     62.8604     47.5317
  1724.2500     78.7476     12.2211     27.2658     63.6884     52.1170
  1724.5000     79.6742     11.2670     24.7068     53.9326     61.6452
  1724.7500     79.6406     10.6337     23.0359     45.4831     63.7652
  1725.0000     84.1216     10.3683     18.9150     33.9866     87.6976
  1725.2500     84.7978      9.7946     16.4470     20.2388     97.1074
  1725.5000     86.4271      9.4757     13.8487     15.8890    116.0547
  1725.7500     88.0466      8.8383     12.5265     10.4645    117.5319
  1726.0000     88.0887      8.3328     10.8827      8.7793    128.4454
  1726.2500     88.8234      7.8978     10.1594      8.4411    124.7120
  1726.5000     88.5378      7.6117      9.5823      8.7796    133.4064
  1726.7500     88.9406      7.3077      9.2723      9.1204    129.7557
  1727.0000     88.1524      6.8577      8.9844      9.4777    122.4809
  1727.2500     89.0067      6.6481      8.6228      9.7936    119.7268
  1727.5000     88.3444      6.1703      8.4273      9.9736    133.1826
  1727.7500     88.0225      5.9898      7.8877      9.9033    131.8951
  1728.0000     88.9756      5.7249      7.7115      9.6261    118.3275
  1728.2500     87.6966      5.6009      7.3826      9.3821    119.2478
  1728.5000     88.5261      5.7074      7.2119      9.2257    123.9645
  1728.7500     88.7010      5.7814      7.0368      9.0649    120.2218
  1729.0000     88.6714      5.9017      6.9434      8.7191    122.6542
  1729.2500     89.0095      6.0750      7.0166      8.6689    125.0275
  1729.5000     88.5245      6.1448      7.2706      8.7609    125.5625
  1729.7500     89.3920      6.2518      7.5371      8.9565    116.1680
  1730.0000     89.8322      6.2761      7.8762      9.4382    111.4650
  1730.2500     91.1798      6.3644      8.0708      9.8935    115.1473
  1730.5000     91.1064      6.3467      8.4418     10.0707    117.8111
  1730.7500     92.6128      6.2860      8.9558     10.2997    109.6379
  1731.0000     93.7441      6.3143      9.1061     11.6911     86.8936
  1731.2500     95.4313      6.2665      9.2229     19.2745     81.6934
  1731.5000     96.4318      6.3400      9.2037     21.0137     85.3297
  1731.7500     97.4935      6.4059      9.0712     13.9832     95.0053
  1732.0000     97.5189      6.5221      8.8620     10.2558    103.1996
  1732.2500     98.4344      6.6813      8.5910      9.0592    111.3513
  1732.5000    100.5567      6.9197      8.4703      8.6194    120.4910
  1732.7500    101.2719      6.9890      8.4391      8.5330    121.4877
  1733.0000    102.8165      7.0334      8.8771      8.7964    116.1264
  1733.2500    103.4159      6.9995      9.1287      9.2069    108.0276
  1733.5000    102.7299      6.9677      9.4788     10.9508    100.9524
  1733.7500    103.2376      6.7888      9.7515     12.4956    104.2397
  1734.0000    103.1589      6.6839      9.6374     12.9733    104.2691
  1734.2500    103.5971      6.5426      9.2829     11.3713    107.7197
  1734.5000    103.6392      6.4589      9.0855     10.5219    116.0288
  1734.7500    103.4519      6.4655      8.8001      9.7715    112.7089
  1735.0000    102.8478      6.3978      8.7151      9.8588    116.4408
  1735.2500    103.8573      6.4086      8.6931     10.1316    117.8251
  1735.5000    104.1419      6.3316      8.6395     10.1691    110.7737
  1735.7500    103.7610      6.3316      8.5118     10.0369    115.5216
