~Version Information
 VERS.                                  2.0 : CWLS LAS VERSION
 WRAP.                                   NO : WRAPING MODE
 SWARE .                 MController 2.5.0H : SOFTWARE VERSION
~Well Information
 WELL.                        TAMI J. 23-18 : WELL
 COMP.            PIONEER NATURAL RESOURCES : COMPANY
 FLD.                      PURGATOIRE RIVER : FIELD
 LOC.                 NE/SW Sec18 T33S R65W : LOCATION
 DATE.                             12/12/04 : DATE(S) LOGGED
 SRVC.        BLANCO GEOLOGICAL SEVICES LLC : SERVICE COMPANY
 STAT.                                   CO : STATE
 CNTY.                           LAS ANIMAS : COUNTY
 CTRY.                                  USA : COUNTRY
 API.                          05-071-08073 : API NUMBER
 STRT.FT                             263.00 : START DEPTH
 STOP.FT                            1765.00 : STOP DEPTH
 STEP.FT                               1.00 : DEPTH INCREMENT
 NULL.                                -9999 : NULL VALUE
~Curve information
 DEPTH.FT                                   :
 ROP.MIN/FT                                 :
 GAS.UNITS                                  :
~ASCII Log data
# ...
      863.00        0.233          6.8 
      864.00        0.267          6.4 
      865.00        0.267          7.2 
      866.00        1.833          7.1 
      867.00        0.367          6.4 
      868.00        0.317          7.0 
      869.00        0.233          6.9 
      870.00        0.233          6.5 
      871.00        0.233          6.3 
      872.00        0.300          6.3 
      873.00        0.100          6.3 
      874.00        0.167          7.0 
      875.00        0.267          6.2 
      876.00        0.300          6.2 
      877.00        0.267          6.6 
      878.00        0.233          7.0 
      879.00        0.233          6.9 
      880.00        0.267          6.3 
      881.00        0.267          6.9 
      882.00        0.283          6.5 
      883.00        0.267          6.2 
      884.00        0.233          6.9 
      885.00        0.200          6.4 
      886.00        0.200          6.4 
      887.00        0.100          6.3 
      888.00        0.167          6.3 
      889.00        0.133          6.1 
      890.00        0.133          6.1 
      891.00        0.100          6.2 
      892.00        0.067          6.4 
      893.00        0.100          7.1 
      894.00        0.100          6.7 
      895.00        0.100          6.7 
      896.00        1.783          7.2 
      897.00        0.333          6.8 
      898.00        0.267          6.6 
      899.00        0.267          7.2 
      900.00        0.267          6.4 
      901.00        0.300          6.6 
      902.00        0.267          6.6 
      903.00        0.267          6.5 
      904.00        0.167          6.5 
      905.00        0.267          6.8 
      906.00        0.167          7.1 
      907.00        0.167          6.9 
      908.00        0.100          6.9 
      909.00        0.150          7.2 
      910.00        0.300          6.7 
      911.00        0.267          6.6 
      912.00        0.267          6.7 
      913.00        0.267          6.6 
      914.00        0.300          6.7 
      915.00        0.233          6.7 
      916.00        0.233          6.6 
      917.00        0.167          6.5 
      918.00        0.167          7.1 
      919.00        0.267          7.6 
      920.00        0.233          8.7 
      921.00        0.267          7.8 
      922.00        0.317          8.0 
      923.00        0.300          7.8 
      924.00        0.200          7.9 
      925.00        0.167          8.2 
      926.00        2.400          8.8 
      927.00        0.350          8.7 
      928.00        0.300          8.2 
      929.00        0.333          8.1 
      930.00        0.267          8.6 
      931.00        0.233          7.9 
      932.00        0.267          8.1 
      933.00        0.267          8.8 
      934.00        0.200          8.1 
      935.00        0.133          8.1 
      936.00        0.133          8.5 
      937.00        0.233          8.4 
      938.00        0.200          8.4 
      939.00        0.267          8.0 
      940.00        0.200          8.2 
      941.00        0.217          8.7 
      942.00        0.233          9.0 
      943.00        0.233          8.2 
      944.00        0.267          8.0 
      945.00        0.200          8.4 
      946.00        0.200          8.1 
      947.00        0.200          8.0 
      948.00        0.233          8.2 
      949.00        0.333          8.6 
      950.00        0.233          8.2 
      951.00        0.267          8.4 
      952.00        0.233          8.2 
      953.00        0.233          8.0 
      954.00        0.233          8.1 
      955.00        0.133          7.9 
      956.00        2.317          8.5 
      957.00        0.367          8.1 
      958.00        0.300          8.1 
      959.00        0.300          8.0 
      960.00        0.317          8.2 
      961.00        0.267          8.2 
      962.00        0.267          8.2 
      963.00        0.267          9.0 
      964.00        0.233          8.8 
      965.00        0.233          8.2 
      966.00        0.233          8.4 
      967.00        0.267          8.5 
      968.00        0.233          9.0 
      969.00        0.233          8.4 
      970.00        0.233          8.2 
      971.00        0.200          8.1 
      972.00        0.233          8.2 
      973.00        0.250          8.4 
      974.00        0.200          8.4 
      975.00        0.233          8.9 
      976.00        0.167          8.4 
      977.00        0.167          8.9 
      978.00        0.233          8.5 
      979.00        0.233          8.9 
      980.00        0.267          8.7 
      981.00        0.233          8.4 
      982.00        0.367          8.3 
      983.00        0.267          9.2 
      984.00        0.200          8.3 
      985.00        0.167          8.3 
      986.00        2.417          9.3 
      987.00        0.333          8.6 
      988.00        0.267          9.2 
      989.00        0.267          9.2 
      990.00        0.267          8.9 
      991.00        0.133          8.9 
      992.00        0.233          9.1 
      993.00        0.217          8.8 
      994.00        0.100          8.8 
      995.00        0.233          8.9 
      996.00        0.333          9.2 
      997.00        0.400          9.6 
      998.00        0.267          9.0 
      999.00        0.200          8.8 
     1000.00        0.233          8.9 
     1001.00        0.267          9.4 
     1002.00        0.267          9.1 
     1003.00        0.267          9.5 
     1004.00        0.200          9.0 
     1005.00        0.233          9.4 
     1006.00        0.250          9.2 
     1007.00        0.267          9.6 
     1008.00        0.233          8.8 
     1009.00        0.267          8.7 
     1010.00        0.200          9.6 
     1011.00        0.200          8.7 
     1012.00        0.300          9.0 
     1013.00        0.300          9.0 
     1014.00        0.200          8.8 
     1015.00        0.233          8.8 
     1016.00        2.383          9.9 
     1017.00        0.467          9.6 
     1018.00        0.400          9.1 
     1019.00        0.267          9.4 
     1020.00        0.267          9.1 
     1021.00        0.300          8.9 
     1022.00        0.233          8.9 
     1023.00        0.250          9.5 
     1024.00        0.233          9.0 
     1025.00        0.267          9.2 
     1026.00        0.233          8.8 
     1027.00        0.167          8.8 
     1028.00        0.133          8.8 
     1029.00        0.200          9.5 
     1030.00        0.167          9.2 
     1031.00        0.300          9.0 
     1032.00        0.233          8.9 
     1033.00        0.367          8.9 
     1034.00        0.200          9.0 
     1035.00        0.200          9.0 
     1036.00        0.267          9.1 
     1037.00        0.283          9.4 
     1038.00        0.167          9.4 
     1039.00        0.233          9.7 
     1040.00        0.233          9.0 
     1041.00        0.233          9.8 
     1042.00        0.267          8.9 
     1043.00        0.233         10.0 
     1044.00        0.200          9.9 
     1045.00        0.700          9.6 
     1046.00        1.283          9.9 
     1047.00        0.400          9.2 
     1048.00        0.333          9.0 
     1049.00        0.333          9.4 
     1050.00        0.300          9.0 
     1051.00        0.267          9.3 
     1052.00        0.233          9.4 
     1053.00        0.233          9.2 
     1054.00        0.233          9.0 
     1055.00        0.333          9.1 
     1056.00        0.267          9.7 
     1057.00        0.283          9.1 
     1058.00        0.233          9.7 
     1059.00        0.133          9.6 
     1060.00        0.133          9.6 
     1061.00        0.267          9.8 
     1062.00        0.200         10.0 
