~Version Information
VERS.                      2.0: CWLS Log ASCII Standard - VERSION 2.0
WRAP.                       NO: One line per depth step
~Well Information Block
STRT.FT               423.0000: 
STOP.FT              2308.2500: 
STEP.FT                 0.2500: 
NULL.                -999.2500: 
COMP.          Pioneer Natural Resources: COMPANY
WELL.             Culver 14-12: WELL
FLD.           Purgatoire River: FIELD
LOC.           913' FSL & 1140' FWL: LOCATION
PROV.                 Colorado: PROVINCE
CNTY.               Las Animas: COUNTRY
SRVC.                Patterson: SERVICE COMPANY
DATE.          Tue Jun 07 00:21:41 2005: LOG DATE
UWI.           05 071 08386 00: UNIQUE WELL ID
~Curve Information Block
DEPT.FT            0 000 00 00: Depth
SN.Ohm-m                      : IEL Short Normal
SP.mV                         : IEL Spontaneous Potential
DIR.Ohm-m                     : IEL Induction Resistivity
GR.GAPI                       : Gamma Ray
~Parameter Information Block
~A  Depth        SN          SP         DIR          GR     
# ...
  1528.5000     11.8111   -105.5510      9.6321    137.0349
  1528.7500     11.3692   -105.7072      9.4240    136.2621
  1529.0000     10.9078   -105.8214      9.2212    136.2723
  1529.2500     10.4856   -105.9086      9.0350    137.3901
  1529.5000     10.1243   -105.9905      8.8761    139.8246
  1529.7500      9.8161   -106.0869      8.7558    140.9260
  1530.0000      9.5588   -106.2052      8.6857    140.6371
  1530.2500      9.3945   -106.3365      8.6740    139.2240
  1530.5000      9.3713   -106.4623      8.7228    136.1367
  1530.7500      9.4850   -106.5688      8.8262    133.7991
  1531.0000      9.7073   -106.6562      8.9747    129.6864
  1531.2500     10.0246   -106.7297      9.1622    126.0837
  1531.5000     10.4279   -106.7771      9.3916    118.8296
  1531.7500     10.9341   -106.7652      9.6743    113.0707
  1532.0000     11.6328   -106.6673     10.0247    104.9750
  1532.2500     12.6831   -106.4951     10.4580    101.3417
  1532.5000     14.2826   -106.2958     10.9916     99.5662
  1532.7500     16.6208   -106.1180     11.6488    100.0563
  1533.0000     19.7082   -105.9829     12.4602    100.6103
  1533.2500     23.1880   -105.8772     13.4607     99.6741
  1533.5000     26.4407   -105.7652     14.6813     96.3018
  1533.7500     28.9510   -105.6096     16.1341     93.7580
  1534.0000     30.5745   -105.3912     17.7922     91.5372
  1534.2500     31.5087   -105.1165     19.5740     91.6500
  1534.5000     32.0793   -104.8066     21.3481     93.5068
  1534.7500     32.5081   -104.4782     22.9655     95.0535
  1535.0000     32.8005   -104.1359     24.3030     97.1230
  1535.2500     32.8362   -103.7841     25.2935     98.5005
  1535.5000     32.5563   -103.4381     25.9304    101.0297
  1535.7500     32.0245   -103.1193     26.2508    103.0648
  1536.0000     31.3217   -102.8434     26.3110    106.5044
  1536.2500     30.4723   -102.6165     26.1676    108.9899
  1536.5000     29.5023   -102.4388     25.8678    112.5262
  1536.7500     28.4962   -102.3057     25.4447    114.1290
  1537.0000     27.5651   -102.2069     24.9147    114.3779
  1537.2500     26.7808   -102.1281     24.2827    113.0454
  1537.5000     26.1532   -102.0553     23.5551    109.7987
  1537.7500     25.6595   -101.9805     22.7534    107.7007
  1538.0000     25.2637   -101.9078     21.9146    105.9614
  1538.2500     24.9080   -101.8566     21.0761    106.1131
  1538.5000     24.5186   -101.8535     20.2546    108.2050
  1538.7500     24.0407   -101.9127     19.4366    110.4544
  1539.0000     23.4662   -102.0221     18.5916    114.2733
  1539.2500     22.8200   -102.1535     17.7037    116.8166
  1539.5000     22.1223   -102.2826     16.7969    120.7434
  1539.7500     21.3629   -102.3997     15.9323    123.7258
  1540.0000     20.5142   -102.5039     15.1802    129.1789
  1540.2500     19.5750   -102.5926     14.5919    133.5791
  1540.5000     18.5948   -102.6577     14.1873    141.2627
  1540.7500     17.6426   -102.6901     13.9582    146.8409
  1541.0000     16.7689   -102.6845     13.8790    154.7509
  1541.2500     16.0157   -102.6399     13.9203    158.5616
  1541.5000     15.4467   -102.5540     14.0575    159.7934
  1541.7500     15.1629   -102.4173     14.2749    156.7595
  1542.0000     15.3110   -102.2093     14.5633    146.5024
  1542.2500     16.0702   -101.9092     14.9203    136.6001
  1542.5000     17.6032   -101.5156     15.3522    118.8219
  1542.7500     20.0446   -101.0564     15.8769    106.0438
  1543.0000     23.5730   -100.5722     16.5240     87.2561
  1543.2500     28.4146   -100.0956     17.3321     75.9399
  1543.5000     34.5995    -99.6454     18.3482     62.0378
  1543.7500     41.6133    -99.2301     19.6272     55.1900
  1544.0000     48.4640    -98.8450     21.2292     48.4546
  1544.2500     54.3447    -98.4720     23.2116     45.9586
  1544.5000     59.0760    -98.0921     25.6138     44.5370
  1544.7500     62.7047    -97.7014     28.4377     44.9146
  1545.0000     65.0132    -97.3120     31.6230     47.4594
  1545.2500     65.6256    -96.9369     35.0202     50.5992
  1545.5000     64.3466    -96.5746     38.3725     57.6235
  1545.7500     61.4229    -96.2066     41.3338     63.7065
  1546.0000     57.5786    -95.8119     43.5446     73.9261
  1546.2500     53.6321    -95.3838     44.7426     80.3847
  1546.5000     50.0937    -94.9365     44.8548     87.3591
  1546.7500     47.1734    -94.4951     44.0385     89.2712
  1547.0000     44.9352    -94.0770     42.6435     87.7615
  1547.2500     43.3218    -93.6806     41.0832     84.5297
  1547.5000     42.1638    -93.2883     39.6756     78.6226
  1547.7500     41.2778    -92.8817     38.5595     75.4277
  1548.0000     40.5725    -92.4559     37.7107     73.2426
  1548.2500     40.0252    -92.0235     37.0203     73.6484
  1548.5000     39.5476    -91.6057     36.3706     76.8698
  1548.7500     38.9760    -91.2194     35.6756     80.8221
  1549.0000     38.2147    -90.8704     34.8845     89.3050
  1549.2500     37.2692    -90.5555     33.9720     95.9324
  1549.5000     36.1660    -90.2695     32.9333    105.1613
  1549.7500     34.9231    -90.0079     31.7840    109.7435
  1550.0000     33.5664    -89.7662     30.5588    113.8057
  1550.2500     32.1417    -89.5459     29.2953    115.2410
  1550.5000     30.7010    -89.3622     28.0120    117.1711
  1550.7500     29.2772    -89.2378     26.6976    119.1539
  1551.0000     27.8879    -89.1840     25.3320    123.8439
  1551.2500     26.5616    -89.1888     23.9235    128.0193
  1551.5000     25.3441    -89.2276     22.5279    135.0358
  1551.7500     24.2782    -89.2799     21.2322    139.5167
  1552.0000     23.3524    -89.3387     20.1192    144.8860
  1552.2500     22.4820    -89.4078     19.2405    147.3318
  1552.5000     21.6285    -89.4936     18.6092    149.7239
  1552.7500     20.8867    -89.6010     18.2067    150.8980
  1553.0000     20.3796    -89.7373     17.9972    152.1821
  1553.2500     20.1761    -89.9160     17.9410    152.1768
  1553.5000     20.2996    -90.1512     18.0011    149.2703
  1553.7500     20.6966    -90.4485     18.1421    144.6840
  1554.0000     21.2367    -90.8008     18.3319    133.9626
  1554.2500     21.8338    -91.1916     18.5487    125.1740
  1554.5000     22.5496    -91.6028     18.7909    111.9143
  1554.7500     23.5218    -92.0211     19.0776    104.4129
  1555.0000     24.8378    -92.4403     19.4377     96.6767
  1555.2500     26.4721    -92.8597     19.8982     93.9564
  1555.5000     28.2889    -93.2777     20.4838     92.5169
  1555.7500     30.1187    -93.6852     21.2263     92.4455
  1556.0000     31.8505    -94.0624     22.1689     92.3047
  1556.2500     33.4566    -94.3827     23.3551     91.5427
  1556.5000     34.9725    -94.6203     24.8049     88.6450
  1556.7500     36.4560    -94.7612     26.4946     85.5561
  1557.0000     37.9451    -94.8118     28.3600     80.2700
  1557.2500     39.4477    -94.8007     30.3199     77.1869
  1557.5000     40.9539    -94.7675     32.2923     73.7679
  1557.7500     42.4447    -94.7434     34.1821     71.8012
  1558.0000     43.8951    -94.7389     35.8649     68.3508
  1558.2500     45.2819    -94.7435     37.2164     65.9031
  1558.5000     46.6048    -94.7390     38.1857     63.3873
  1558.7500     47.8769    -94.7149     38.8535     62.9806
  1559.0000     49.0672    -94.6780     39.4089     63.6080
  1559.2500     50.0974    -94.6544     40.0619     63.9620
  1559.5000     50.9153    -94.6824     40.9543     63.3565
  1559.7500     51.5289    -94.8003     42.1178     62.1899
  1560.0000     51.9693    -95.0325     43.4870     59.9616
  1560.2500     52.2420    -95.3817     44.9384     58.5186
  1560.5000     52.3189    -95.8303     46.3128     56.4826
  1560.7500     52.1733    -96.3463     47.4082     55.0291
  1561.0000     51.8174    -96.8920     47.9927     52.7388
  1561.2500     51.3069    -97.4322     47.8868     51.5554
  1561.5000     50.6979    -97.9402     47.0695     51.2081
  1561.7500     49.9734    -98.4015     45.6906     52.2024
