~Version Information
VERS.                      2.0: CWLS Log ASCII Standard - VERSION 2.0
WRAP.                       NO: One line per depth step
~Well Information Block
STRT.FT               930.0000: 
STOP.FT              2783.2500: 
STEP.FT                 0.2500: 
NULL.                -999.2500: 
COMP.          Pioneer Natural Resources: COMPANY
WELL.           Desoto 13-7TR: WELL
FLD.           Purgatoire River: FIELD
LOC.           1404' FSL & 1115' FWL: LOCATION
PROV.                 Colorado: PROVINCE
CNTY.               Las Animas: COUNTRY
SRVC.                Patterson: SERVICE COMPANY
DATE.          Fri Jan 14 11:02:13 2005: LOG DATE
UWI.           05 071 08216 00: UNIQUE WELL ID
~Curve Information Block
DEPT.FT            0 000 00 00: Depth
SN.Ohm-m                      : IEL Short Normal
SP.mV                         : IEL Spontaneous Potential
DIR.Ohm-m                     : IEL Induction Resistivity
GR.GAPI                       : Gamma Ray
~Parameter Information Block
~A  Depth        SN          SP         DIR          GR     
# ...
  1298.5000   2000.0000   2000.0000     25.6784     98.6907
  1298.7500   2000.0000   2000.0000     26.6001     98.0485
  1299.0000   2000.0000   2000.0000     27.8020     96.0035
  1299.2500   2000.0000   2000.0000     29.0986     94.1094
  1299.5000   2000.0000   2000.0000     30.2575     91.2396
  1299.7500   2000.0000   2000.0000     31.1272     89.9597
  1300.0000   2000.0000   2000.0000     31.7195     90.0902
  1300.2500   2000.0000   2000.0000     32.1665     91.7219
  1300.5000   2000.0000   2000.0000     32.6041     95.5317
  1300.7500   2000.0000   2000.0000     33.0866     98.0168
  1301.0000   2000.0000   2000.0000     33.5727    100.4506
  1301.2500   2000.0000   2000.0000     33.9611    101.1125
  1301.5000   2000.0000   2000.0000     34.1409    101.2672
  1301.7500   2000.0000   2000.0000     34.0379    101.2703
  1302.0000   2000.0000   2000.0000     33.6486    101.8169
  1302.2500   2000.0000   2000.0000     33.0551    102.9364
  1302.5000   2000.0000   2000.0000     32.3947    106.3164
  1302.7500   2000.0000   2000.0000     31.7923    109.6936
  1303.0000   2000.0000   2000.0000     31.3039    115.4135
  1303.2500   2000.0000   2000.0000     30.9118    118.6270
  1303.5000   2000.0000   2000.0000     30.5680    120.9956
  1303.7500   2000.0000   2000.0000     30.2494    120.6529
  1304.0000   2000.0000   2000.0000     29.9804    117.9454
  1304.2500   2000.0000   2000.0000     29.8159    115.4743
  1304.5000   2000.0000   2000.0000     29.8076    112.1299
  1304.7500   2000.0000   2000.0000     29.9809    110.6558
  1305.0000   2000.0000   2000.0000     30.3312    109.6979
  1305.2500   2000.0000   2000.0000     30.8315    109.5438
  1305.5000   2000.0000   2000.0000     31.4457    109.0649
  1305.7500   2000.0000   2000.0000     32.1384    108.0779
  1306.0000   2000.0000   2000.0000     32.8823    105.3789
  1306.2500   2000.0000   2000.0000     33.6603    103.1798
  1306.5000   2000.0000   2000.0000     34.4616    100.5033
  1306.7500   2000.0000   2000.0000     35.2732     99.5178
  1307.0000   2000.0000   2000.0000     36.0776     98.4953
  1307.2500   2000.0000   2000.0000     36.8623     97.2379
  1307.5000   2000.0000   2000.0000     37.6390     93.9093
  1307.7500   2000.0000   2000.0000     38.4440     91.3256
  1308.0000   2000.0000   2000.0000     39.3083     88.4342
  1308.2500   2000.0000   2000.0000     40.2090     87.5768
  1308.5000   2000.0000   2000.0000     41.0307     87.6731
  1308.7500   2000.0000   2000.0000     41.5693     88.3999
  1309.0000   2000.0000   2000.0000     41.6026     90.0814
  1309.2500   2000.0000   2000.0000     41.0099     91.2957
  1309.5000   2000.0000   2000.0000     39.8568     92.9379
  1309.7500   2000.0000   2000.0000     38.3670     94.1514
  1310.0000   2000.0000   2000.0000     36.7986     97.0087
  1310.2500   2000.0000   2000.0000     35.3259     99.7645
  1310.5000   2000.0000   2000.0000     33.9943    104.3176
  1310.7500   2000.0000   2000.0000     32.7448    106.8972
  1311.0000   2000.0000   2000.0000     31.4804    109.5172
  1311.2500   2000.0000   2000.0000     30.1412    110.6120
  1311.5000   2000.0000   2000.0000     28.7517    111.7818
  1311.7500   2000.0000   2000.0000     27.4071    112.3469
  1312.0000   2000.0000   2000.0000     26.2152    112.7690
  1312.2500   2000.0000   2000.0000     25.2446    112.7845
  1312.5000   2000.0000   2000.0000     24.5131    112.9354
  1312.7500   2000.0000   2000.0000     24.0068    113.6385
  1313.0000   2000.0000   2000.0000     23.7045    116.2305
  1313.2500   2000.0000   2000.0000     23.5900    118.9052
  1313.5000   2000.0000   2000.0000     23.6533    123.4281
  1313.7500   2000.0000   2000.0000     23.8885    125.9427
  1314.0000   2000.0000   2000.0000     24.2943    127.2527
  1314.2500   2000.0000   2000.0000     24.8721    125.6286
  1314.5000   2000.0000   2000.0000     25.6208    119.0920
  1314.7500   2000.0000   2000.0000     26.5262    112.7253
  1315.0000   2000.0000   2000.0000     27.5514    102.6174
  1315.2500   2000.0000   2000.0000     28.6304     96.9924
  1315.5000   2000.0000   2000.0000     29.6663     91.5600
  1315.7500   2000.0000   2000.0000     30.5367     89.7959
  1316.0000   2000.0000   2000.0000     31.1077     89.0355
  1316.2500   2000.0000   2000.0000     31.2654     89.5924
  1316.5000   2000.0000   2000.0000     30.9567     92.5992
  1316.7500   2000.0000   2000.0000     30.2139     96.4592
  1317.0000   2000.0000   2000.0000     29.1418    104.7272
  1317.2500   2000.0000   2000.0000     27.8722    110.9272
  1317.5000   2000.0000   2000.0000     26.5170    119.0247
  1317.7500   2000.0000   2000.0000     25.1495    122.7227
  1318.0000   2000.0000   2000.0000     23.8171    125.6687
  1318.2500   2000.0000   2000.0000     22.5675    126.5608
  1318.5000   2000.0000   2000.0000     21.4601    127.6650
  1318.7500   2000.0000   2000.0000     20.5523    128.7435
  1319.0000   2000.0000   2000.0000     19.8786    130.7029
  1319.2500   2000.0000   2000.0000     19.4419    131.5479
  1319.5000   2000.0000   2000.0000     19.2192    130.8723
  1319.7500   2000.0000   2000.0000     19.1723    129.0600
  1320.0000   2000.0000   2000.0000     19.2566    125.4681
  1320.2500   2000.0000   2000.0000     19.4253    123.2557
  1320.5000   2000.0000   2000.0000     19.6357    120.7310
  1320.7500   2000.0000   2000.0000     19.8574    119.6678
  1321.0000   2000.0000   2000.0000     20.0770    119.5099
  1321.2500   2000.0000   2000.0000     20.2899    120.6575
  1321.5000   2000.0000   2000.0000     20.4841    123.9224
  1321.7500   2000.0000   2000.0000     20.6273    126.4506
  1322.0000   2000.0000   2000.0000     20.6756    129.5693
  1322.2500   2000.0000   2000.0000     20.6045    130.8285
  1322.5000   2000.0000   2000.0000     20.4369    131.5874
  1322.7500   2000.0000   2000.0000     20.2427    131.6590
  1323.0000   2000.0000   2000.0000     20.1099    131.5626
  1323.2500   2000.0000   2000.0000     20.1124    131.4773
  1323.5000   2000.0000   2000.0000     20.2902    131.5096
  1323.7500   2000.0000   2000.0000     20.6454    131.7145
  1324.0000   2000.0000   2000.0000     21.1472    131.9641
  1324.2500   2000.0000   2000.0000     21.7438    131.6619
  1324.5000   2000.0000   2000.0000     22.3770    130.1769
  1324.7500   2000.0000   2000.0000     22.9922    128.8859
  1325.0000   2000.0000   2000.0000     23.5419    127.6782
  1325.2500   2000.0000   2000.0000     23.9863    127.7131
  1325.5000   2000.0000   2000.0000     24.2974    128.3679
  1325.7500   2000.0000   2000.0000     24.4589    128.4103
  1326.0000   2000.0000   2000.0000     24.4645    127.1747
  1326.2500   2000.0000   2000.0000     24.3183    125.8464
  1326.5000   2000.0000   2000.0000     24.0413    124.4286
  1326.7500   2000.0000   2000.0000     23.6737    124.4027
  1327.0000   2000.0000   2000.0000     23.2592    125.6493
  1327.2500   2000.0000   2000.0000     22.8259    126.8219
  1327.5000   2000.0000   2000.0000     22.3811    128.0002
  1327.7500   2000.0000   2000.0000     21.9317    127.9046
  1328.0000   2000.0000   2000.0000     21.5095    126.1930
  1328.2500   2000.0000   2000.0000     21.1711    124.2859
  1328.5000   2000.0000   2000.0000     20.9651    121.2355
  1328.7500   2000.0000   2000.0000     20.8915    119.6074
  1329.0000   2000.0000   2000.0000     20.8873    118.0998
  1329.2500   2000.0000   2000.0000     20.8581    117.5114
  1329.5000   2000.0000   2000.0000     20.7421    116.7671
  1329.7500   2000.0000   2000.0000     20.5539    116.3866
  1330.0000   2000.0000   2000.0000     20.3667    116.5202
  1330.2500   2000.0000   2000.0000     20.2547    117.2826
  1330.5000   2000.0000   2000.0000     20.2494    119.2030
  1330.7500   2000.0000   2000.0000     20.3319    120.6280
  1331.0000   2000.0000   2000.0000     20.4548    122.2149
  1331.2500   2000.0000   2000.0000     20.5734    122.5282
  1331.5000   2000.0000   2000.0000     20.6687    121.7853
  1331.7500   2000.0000   2000.0000     20.7518    120.8384
