~Version Information
 VERS.                                  2.0 : CWLS LAS VERSION
 WRAP.                                   NO : WRAPING MODE
 SWARE .                 MController 2.5.0J : SOFTWARE VERSION
~Well Information
 WELL.                        Harlee L 34-9 : WELL
 COMP.    Pioneer natural Resources USA Inc : COMPANY
 FLD.                      Purgatoire River : FIELD
 LOC.                 SW/SE Sec 9 T32S R65W : LOCATION
 DATE.                              1/25/05 : DATE(S) LOGGED
 SRVC.       Blanco Geological Services LLC : SERVICE COMPANY
 STAT.                                   CO : STATE
 CNTY.                           Las Animas : COUNTY
 CTRY.                                  USA : COUNTRY
 API.                       05-071-08009-00 : API NUMBER
 STRT.FT                             404.00 : START DEPTH
 STOP.FT                            1773.00 : STOP DEPTH
 STEP.FT                               1.00 : DEPTH INCREMENT
 NULL.                                -9999 : NULL VALUE
~Curve information
 DEPTH.FT                                   :
 ROP.MIN/FT                                 :
 GAS.UNITS                                  :
~ASCII Log data
       404.0     -9999.00          6.7 
       405.0         9.52         16.3 
       406.0         0.77         16.8 
       407.0         0.60         17.0 
       408.0         0.47         17.3 
       409.0         0.13         17.3 
       410.0         1.12         17.4 
       411.0         1.07         17.9 
       412.0         0.13         17.6 
       413.0         0.13         17.6 
       414.0         1.00         17.9 
       415.0         0.13         18.0 
       416.0         1.65         18.2 
       417.0         1.13         18.0 
       418.0         0.27         18.3 
       419.0         0.27         12.5 
       420.0         0.17          4.8 
       421.0         0.28          5.3 
       422.0         0.70          5.2 
       423.0         0.27          4.6 
       424.0         0.20          5.1 
       425.0         0.17          5.1 
       426.0         0.10          5.0 
       427.0         0.30          4.5 
       428.0         0.13          4.7 
       429.0         0.17          4.5 
       430.0         0.13          4.7 
       431.0         0.10          4.7 
       432.0         0.28          4.8 
       433.0         0.27          5.6 
       434.0         0.17          5.8 
       435.0         0.17          5.2 
       436.0         0.13          5.5 
       437.0         0.13          5.5 
       438.0         0.17          5.4 
       439.0         0.13          6.1 
       440.0         0.17          6.2 
       441.0         0.10          6.1 
       442.0         0.13          5.6 
       443.0         0.13          6.0 
       444.0         0.13          6.0 
       445.0         0.27          6.3 
       446.0         0.27          5.7 
       447.0         0.40          6.2 
       448.0         0.23          6.3 
       449.0         0.17          5.3 
       450.0         0.20          5.2 
       451.0         0.13          5.8 
       452.0         0.17          6.3 
       453.0         0.13          5.9 
       454.0         0.17          8.0 
       455.0         0.13         56.1 
       456.0         0.13         73.7 
       457.0         0.13         86.5 
       458.0         0.13         77.5 
       459.0         0.13         65.2 
       460.0         0.10         48.6 
       461.0         0.13         35.1 
       462.0         0.20         29.8 
       463.0         0.20         18.7 
       464.0         0.20          7.7 
       465.0         0.20          6.4 
       466.0         0.15          6.1 
       467.0         0.17          5.6 
       468.0         0.17          5.8 
       469.0         0.17          5.5 
       470.0         0.20          6.1 
       471.0         0.20          5.8 
       472.0         0.13          5.7 
       473.0         0.23          5.5 
       474.0         0.20          6.2 
       475.0         0.20          5.8 
       476.0         0.27          5.8 
       477.0         0.27          6.2 
       478.0         0.20          6.2 
       479.0         0.17          5.8 
       480.0         0.13          6.3 
       481.0         0.23          6.1 
       482.0         0.17          6.8 
       483.0         0.17          7.0 
       484.0         0.13          5.9 
       485.0         0.13          6.3 
       486.0         0.13          6.8 
       487.0         0.13          6.8 
       488.0         0.13          6.8 
       489.0         0.13          6.8 
       490.0         0.20          6.7 
       491.0         0.10          6.7 
       492.0         0.13          6.7 
       493.0         0.22          6.7 
       494.0         0.20          6.2 
       495.0         0.20          6.6 
       496.0         0.23          7.0 
       497.0         0.20          7.2 
       498.0         0.20          7.2 
       499.0         0.17          7.2 
       500.0         0.17          7.2 
       501.0         0.17          7.8 
       502.0         0.20          7.1 
       503.0         0.20          7.5 
       504.0         0.27          6.8 
       505.0         0.20          6.8 
       506.0         0.27          7.1 
       507.0         0.40          6.7 
       508.0         0.27          6.6 
       509.0         0.13          6.6 
       510.0         0.37          6.7 
       511.0         0.27          6.8 
       512.0         0.37          7.2 
       513.0         0.20          7.0 
       514.0         0.17          6.5 
       515.0         0.20          6.9 
       516.0         0.28          6.8 
       517.0         0.23          6.7 
       518.0         0.23          6.7 
       519.0         0.20          7.4 
       520.0         0.20          6.8 
       521.0         0.17          6.4 
       522.0         0.17          7.2 
       523.0         0.20          6.8 
       524.0         0.20          6.5 
       525.0         0.17          7.2 
       526.0         0.13          7.2 
       527.0         0.13          6.9 
       528.0         0.13          6.6 
       529.0         0.13          7.4 
       530.0         0.10          7.4 
       531.0         0.13          6.8 
       532.0         0.20          6.6 
       533.0         0.20          7.6 
       534.0         0.13          7.5 
       535.0         0.13          7.5 
       536.0         0.25          7.5 
       537.0         0.27          7.2 
       538.0         0.30          7.5 
       539.0         0.20          7.2 
       540.0         0.23          7.2 
       541.0         0.13          7.2 
       542.0         0.13          7.3 
       543.0         0.20          7.7 
       544.0         0.13          6.7 
       545.0         0.15          7.1 
       546.0         0.17          6.9 
       547.0         0.13          7.0 
       548.0         0.13          7.0 
       549.0         0.13          7.1 
       550.0         0.13          7.1 
       551.0         0.13          6.9 
       552.0         0.17          7.9 
       553.0         0.13          7.5 
       554.0         0.13          7.8 
       555.0         0.13          7.7 
       556.0         0.17          7.7 
       557.0         0.13          7.6 
       558.0         0.13          8.1 
       559.0         0.13          7.3 
       560.0         0.13          7.5 
       561.0         0.17          7.7 
       562.0         0.13          7.7 
       563.0         0.13          7.7 
       564.0         0.27          7.2 
       565.0         0.27          7.6 
       566.0         0.10          7.6 
       567.0         0.27          7.7 
       568.0         0.23          8.0 
       569.0         0.23          7.9 
       570.0         0.17          7.3 
       571.0         0.17          7.3 
       572.0         0.13          7.1 
       573.0         0.17          8.1 
       574.0         0.17          8.1 
       575.0         0.18          7.7 
       576.0         0.27          7.5 
       577.0         0.13          7.8 
       578.0         0.20          8.0 
       579.0         0.17          8.2 
       580.0         0.20          8.0 
       581.0         0.30          7.7 
       582.0         0.20          7.7 
       583.0         0.20          7.7 
       584.0         0.23          7.2 
       585.0         0.23          7.6 
       586.0         0.20          7.9 
       587.0         0.17          7.4 
       588.0         0.17          8.0 
       589.0         0.20          7.5 
       590.0         0.13          7.8 
       591.0         0.25          7.4 
       592.0         0.23          8.6 
       593.0         0.27          7.9 
       594.0         0.27          7.5 
       595.0         0.27          7.6 
       596.0         0.17          7.6 
       597.0         0.27          7.2 
       598.0         0.13          7.6 
       599.0         0.07          7.6 
       600.0         0.20          8.1 
       601.0         0.13          8.1 
       602.0         0.17          7.8 
       603.0         0.17          8.0 
