~Version Information
VERS.                      2.0: CWLS Log ASCII Standard - VERSION 2.0
WRAP.                       NO: One line per depth step
~Well Information Block
STRT.FT               480.0000: 
STOP.FT              1625.5000: 
STEP.FT                 0.1000: 
NULL.                -999.2500: 
COMP.          Pioneer Natural Resources: COMPANY
WELL.          Dude Canyon 22-32 Tr: WELL
FLD.           Purgatoire River: FIELD
LOC.           1741' FNL & 2331' FWL: LOCATION
PROV.                 Colorado: PROVINCE
CNTY.               Las Animas: COUNTRY
SRVC.                Patterson: SERVICE COMPANY
DATE.          Mon Jul 11 10:33:06 2005: LOG DATE
UWI.           05 071 08421 00: UNIQUE WELL ID
~Curve Information Block
DEPT.FT            0 000 00 00: Depth
DCAL.in                       : CDL Caliper
RHOB.g/cc                     : CDL Bulk Density
RHOC.g/cc                     : CDL Density Correction
DPOR.pu                       : CDL Density Porosity
GR.GAPI                       : Gamma Ray
NPOR.pu                       : Neutron Porosity
~Parameter Information Block
~A  Depth       DCAL        RHOB        RHOC        DPOR         GR         NPOR    
# ...
  1161.6000      8.0901      2.6224      0.0762      1.6721    135.2690     28.8140
  1161.7000      8.0901      2.6336      0.1426      0.9940    135.9023     28.9657
  1161.8000      8.0656      2.6315      0.1266      1.1218    135.4528     28.6420
  1161.9000      8.0656      2.6315      0.0942      1.1199    135.0987     27.7651
  1162.0000      8.0373      2.6537      0.1722     -0.2218    134.0062     26.6666
  1162.1000      8.0373      2.6697      0.2479     -1.1962    130.1294     26.2511
  1162.2000      8.0373      2.6427      0.1597      0.4420    123.9151     26.7813
  1162.3000      8.0222      2.5894      0.0913      3.6735    118.5767     27.1568
  1162.4000      8.0222      2.5551      0.0324      5.7510    117.6787     27.0529
  1162.5000      8.0238      2.5507      0.0916      6.0168    121.2866     26.9304
  1162.6000      8.0238      2.5429      0.1378      6.4889    125.8768     26.8657
  1162.7000      8.0238      2.5080      0.0895      8.6046    126.7116     26.7848
  1162.8000      8.0218      2.4572      0.0531     11.6858    120.0025     26.9579
  1162.9000      8.0218      2.4092      0.0738     14.5956    107.4200     27.9517
  1163.0000      8.0270      2.3773      0.0067     16.5274     99.1890     29.3949
  1163.1000      8.0270      2.3808     -0.0116     16.3166    102.3629     30.0513
  1163.2000      8.0270      2.4143      0.1503     14.2819    112.0085     30.3925
  1163.3000      8.0236      2.4360      0.1643     12.9677    120.6201     31.4943
  1163.4000      8.0236      2.4224      0.1516     13.7924    124.9542     32.3967
  1163.5000      7.9888      2.3844      0.1419     16.0975    124.6366     32.2958
  1163.6000      7.9888      2.3426      0.1013     18.6312    122.5095     32.0601
  1163.7000      7.9888      2.3114      0.0952     20.5207    125.0634     32.4038
  1163.8000      7.9548      2.2962      0.0724     21.4441    132.7050     32.7144
  1163.9000      7.9548      2.2931      0.0958     21.6291    136.3817     32.0931
  1164.0000      7.9856      2.2988      0.0108     21.2826    133.2788     30.8656
  1164.1000      7.9856      2.3136      0.0430     20.3903    131.3021     30.0414
  1164.2000      7.9856      2.3211      0.0489     19.9354    132.7789     29.9882
  1164.3000      8.1368      2.3030      0.0576     21.0322    134.3992     30.5629
  1164.4000      8.1368      2.2658     -0.0186     23.2862    133.4966     31.4046
  1164.5000      8.1355      2.2360     -0.0411     25.0914    128.7258     32.2553
  1164.6000      8.1355      2.2313      0.0203     25.3786    127.0246     32.9032
  1164.7000      8.1355      2.2416      0.0866     24.7505    132.1913     33.2959
  1164.8000      8.1240      2.2485      0.0581     24.3324    138.7620     33.9932
  1164.9000      8.1240      2.2462      0.0947     24.4719    143.0987     35.1203
  1165.0000      8.1595      2.2335      0.1050     25.2412    144.5156     36.0301
  1165.1000      8.1595      2.2139      0.0943     26.4320    142.6204     35.8497
  1165.2000      8.1595      2.1993      0.1286     27.3173    136.5830     34.6027
  1165.3000      8.2190      2.1972      0.1160     27.4415    128.3880     33.6602
  1165.4000      8.2190      2.2034      0.0936     27.0651    121.3679     33.6320
  1165.5000      8.1434      2.1976      0.1698     27.4176    118.2092     33.7978
  1165.6000      8.1434      2.1657      0.1140     29.3507    121.0475     33.6346
  1165.7000      8.1434      2.1224      0.0880     31.9762    127.2829     33.3044
  1165.8000      8.1423      2.0869      0.1279     34.1293    132.4782     33.1615
  1165.9000      8.1423      2.0636      0.1260     35.5384    134.9188     33.5881
  1166.0000      8.2311      2.0472      0.0871     36.5312    134.2456     34.6993
  1166.1000      8.2311      2.0344      0.0828     37.3120    132.1592     35.7710
  1166.2000      8.2311      2.0283      0.0664     37.6793    132.5755     36.0639
  1166.3000      8.2285      2.0341      0.0342     37.3302    134.7977     35.6641
  1166.4000      8.2285      2.0421      0.1365     36.8442    132.0014     35.0379
  1166.5000      8.1926      2.0207      0.1940     38.1419    121.5874     34.4326
  1166.6000      8.1926      1.9555      0.0937     42.0891    109.6282     33.8126
  1166.7000      8.1926      1.8662      0.0891     47.5058    102.1952     33.0872
  1166.8000      8.1559      1.7676      0.0107     53.4806     97.6822     32.7831
  1166.9000      8.1559      1.6580     -0.0439     60.1240     94.0110     33.1217
  1167.0000      8.1656      1.5381     -0.0834     67.3850     90.5317     33.6001
  1167.1000      8.1656      1.4376     -0.1521     73.4763     86.1270     34.0648
  1167.2000      8.1656      1.3886     -0.0533     76.4460     81.9195     34.3928
  1167.3000      8.2499      1.3721      0.0442     77.4496     77.5731     34.5630
  1167.4000      8.2499      1.3537      0.0581     78.5656     71.6281     34.7455
  1167.5000      8.3708      1.3324      0.0436     79.8559     63.4728     34.8012
  1167.6000      8.3708      1.3183      0.0572     80.7063     52.3322     34.8457
  1167.7000      8.3708      1.3113      0.0414     81.1311     41.2279     34.8747
  1167.8000      8.5535      1.3058      0.0220     81.4679     36.1596     34.4810
  1167.9000      8.5535      1.2976      0.0266     81.9644     35.9011     33.8519
  1168.0000      8.8695      1.2901      0.0117     82.4209     34.9330     33.6273
  1168.1000      8.8695      1.2913     -0.0220     82.3441     31.9235     34.1758
  1168.2000      8.8695      1.2976      0.0231     81.9621     27.0663     35.3986
  1168.3000      8.8373      1.2918      0.0474     82.3173     23.4762     36.4247
  1168.4000      8.8373      1.2707     -0.0133     83.5912     25.7189     36.7419
  1168.5000      8.6899      1.2489      0.0034     84.9180     31.2677     36.7374
  1168.6000      8.6899      1.2324      0.0035     85.9172     33.4495     36.6829
  1168.7000      8.6899      1.2218      0.0170     86.5572     30.6463     36.6478
  1168.8000      8.5348      1.2188      0.0280     86.7404     26.4692     36.1686
  1168.9000      8.5348      1.2218      0.0336     86.5592     24.5984     35.0648
  1169.0000      8.4784      1.2343      0.0280     85.8024     25.5666     34.0314
  1169.1000      8.4784      1.2723      0.0083     83.4957     26.8747     33.6060
  1169.2000      8.4784      1.3422      0.0775     79.2616     27.2137     33.8090
  1169.3000      8.4117      1.4279      0.1027     74.0648     28.6154     34.3401
  1169.4000      8.4117      1.5326      0.0906     67.7183     34.5469     34.8635
  1169.5000      8.4341      1.6876      0.0809     58.3255     45.4136     35.3625
  1169.6000      8.4341      1.8844      0.2036     46.4006     56.3863     35.9679
  1169.7000      8.4341      2.0593      0.2850     35.7971     64.6143     36.1312
  1169.8000      8.6471      2.1778      0.3147     28.6176     71.9142     35.1671
  1169.9000      8.6471      2.2740      0.2522     22.7876     79.3510     33.5326
  1170.0000      8.8171      2.3835      0.2748     16.1514     87.3320     32.4128
  1170.1000      8.8171      2.4801      0.3039     10.2953     96.0216     32.5890
  1170.2000      8.8171      2.5337      0.1084      7.0465    106.3926     33.3596
  1170.3000      8.8240      2.5662      0.1025      5.0769    117.8426     33.0109
  1170.4000      8.8240      2.5891      0.1484      3.6930    125.5766     31.3878
  1170.5000      8.1837      2.5837      0.1594      4.0164    126.8721     29.6730
  1170.6000      8.1837      2.5563      0.1284      5.6812    126.9644     28.8492
  1170.7000      8.1837      2.5356      0.1249      6.9361    131.3958     28.9753
  1170.8000      8.0278      2.5326      0.1264      7.1141    134.1931     28.8624
  1170.9000      8.0278      2.5443      0.0965      6.4091    131.7950     27.7957
  1171.0000      7.9679      2.5696      0.0917      4.8707    129.6478     26.2347
  1171.1000      7.9679      2.6005      0.0985      2.9973    128.2414     25.0758
