~Version Information
VERS.                      2.0: CWLS Log ASCII Standard - VERSION 2.0
WRAP.                       NO: One line per depth step
~Well Information Block
STRT.FT                -9.5000: 
STOP.FT              1862.5000: 
STEP.FT                 0.2500: 
NULL.                -999.2500: 
COMP.          Petrogulf Corporation: COMPANY
WELL.             State 16-34R: WELL
FLD.           Purgatoire River: FIELD
LOC.           1095' FSL & 1498' FEL--: LOCATION
CNTY.               Las Animas: COUNTY
SRVC.                         : SERVICE COMPANY
DATE.          Mon May 10 14:56:57 2004: LOG DATE
UWI.                          : UNIQUE WELL ID
STAT.                       CO: STATE
~Curve Information Block
DEPT.FT            0 000 00 00: Depth
GR.GAPI                       : Gamma Ray
CCL.                          : Casing Collar Locator
TT3.usec                      : CBL 3' Travel Time
AMP3.mV                       : CBL 3' Amplitude
~Parameter Information Block
~A  Depth        GR         CCL         TT3         AMP3    
# ...
  1230.0000    134.2961      0.0000    889.9037      8.4608
  1230.2500    133.9505      0.0000    867.9468      8.9475
  1230.5000    131.6713      0.0000    876.9714      9.5475
  1230.7500    127.6894      0.0000    941.3466     10.0254
  1231.0000    122.1217      0.0000   1029.4802     10.1880
  1231.2500    114.6421      0.0000   1077.2441     10.0847
  1231.5000    105.7510      0.0000   1065.1794      9.8062
  1231.7500     97.6683      0.0000   1028.6475      9.2836
  1232.0000     93.3696      0.0000    993.2787      8.4943
  1232.2500     94.6942      0.0000    967.8159      7.6070
  1232.5000    101.1269      0.0000    960.4264      6.8052
  1232.7500    110.1437      0.0000    964.3937      6.2095
  1233.0000    118.9753      0.0000    971.3093      5.9356
  1233.2500    126.3587      0.0000    979.3199      5.9512
  1233.5000    132.6315      0.0000    969.9707      6.0448
  1233.7500    138.4994      0.0000    922.5615      6.0596
  1234.0000    144.2227      0.0000    851.5231      5.9225
  1234.2500    149.6955      0.0000    794.7640      5.6554
  1234.5000    154.4848      0.0000    769.6148      5.5419
  1234.7500    157.6745      0.0000    765.7407      5.8371
  1235.0000    158.3828      0.0000    771.0214      6.3497
  1235.2500    156.7906      0.0000    780.2319      6.7028
  1235.5000    154.2445      0.0000    789.8397      6.7706
  1235.7500    152.2087      0.0000    800.7984      6.6727
  1236.0000    151.4081      0.0000    819.3625      6.5469
  1236.2500    151.8506      0.0000    843.6881      6.4391
  1236.5000    153.1161      0.0000    854.6290      6.3356
  1236.7500    154.5192      0.0000    837.4222      6.2205
  1237.0000    155.4442      0.0000    803.9041      6.1265
  1237.2500    155.8311      0.0000    775.2576      6.1346
  1237.5000    156.2104      0.0000    759.3288      6.2392
  1237.7500    157.2842      0.0000    752.8209      6.2445
  1238.0000    159.9347      0.0000    750.9534      5.9783
  1238.2500    165.4563      0.0000    751.5071      5.5729
  1238.5000    174.5154      0.0000    754.4489      5.3030
  1238.7500    185.1629      0.0000    759.1780      5.2251
  1239.0000    192.9371      0.0000    762.8936      5.2274
  1239.2500    193.9337      0.0000    764.2826      5.3068
  1239.5000    187.4344      0.0000    766.2256      5.5166
  1239.7500    175.4427      0.0000    771.6542      5.7510
  1240.0000    160.4587      0.0000    782.3929      5.8457
  1240.2500    144.0199      0.0000    802.2224      5.8347
  1240.5000    126.7687      0.0000    835.1937      5.9419
  1240.7500    109.3624      0.0000    877.0835      6.4414
  1241.0000     93.2672      0.0000    909.2801      7.5704
  1241.2500     80.6963      0.0000    917.4664      9.2145
  1241.5000     73.5132      0.0000    909.2908     10.7029
  1241.7500     71.9912      0.0000    893.5297     11.4287
  1242.0000     74.6814      0.0000    873.7340     11.4974
  1242.2500     79.2732      0.0000    868.8307     11.4540
  1242.5000     83.3493      0.0000    894.4722     11.7213
  1242.7500     85.0509      0.0000    926.6146     12.3189
  1243.0000     84.2919      0.0000    920.9727     12.9137
  1243.2500     83.2672      0.0000    870.6788     13.1405
  1243.5000     84.6908      0.0000    814.6582     12.8651
  1243.7500     89.2969      0.0000    787.3419     12.2057
  1244.0000     95.4535      0.0000    789.5980     11.3819
  1244.2500    100.9522      0.0000    803.9479     10.5602
  1244.5000    104.6541      0.0000    815.2403      9.7844
  1244.7500    106.5944      0.0000    823.6135      9.0249
  1245.0000    107.2187      0.0000    846.0845      8.3243
  1245.2500    106.9837      0.0000    892.4985      7.8302
  1245.5000    106.4603      0.0000    940.4462      7.6165
  1245.7500    106.2855      0.0000    956.9485      7.5300
  1246.0000    106.8672      0.0000    934.3657      7.3032
  1246.2500    108.3112      0.0000    879.0844      6.8530
  1246.5000    110.5272      0.0000    801.8075      6.3570
  1246.7500    113.1254      0.0000    731.0085      6.0157
  1247.0000    115.2521      0.0000    691.1564      5.9360
  1247.2500    115.8442      0.0000    679.9887      6.1058
  1247.5000    114.4101      0.0000    683.1935      6.3447
  1247.7500    111.6569      0.0000    688.6111      6.4856
  1248.0000    109.0017      0.0000    688.9310      6.5957
  1248.2500    107.1890      0.0000    685.3957      6.9780
  1248.5000    105.6826      0.0000    685.0287      8.1069
  1248.7500    103.7218      0.0000    691.7825     10.3121
  1249.0000    101.7702      0.0000    704.3312     12.8059
  1249.2500    101.5068      0.0000    717.2863     13.5754
  1249.5000    104.2837      0.0000    722.8112     11.7377
  1249.7500    109.7203      0.0000    717.0228      8.9173
  1250.0000    115.8736      0.0000    701.5070      6.9904
  1250.2500    120.7196      0.0000    680.0046      6.2646
  1250.5000    123.4866      0.0000    661.6827      6.1800
  1250.7500    124.6897      0.0000    659.5188      6.2075
  1251.0000    125.0909      0.0000    675.7978      6.0865
  1251.2500    124.7655      0.0000    697.5447      5.8375
  1251.5000    123.3043      0.0000    712.4861      5.5998
  1251.7500    120.8985      0.0000    720.5437      5.4243
  1252.0000    118.9012      0.0000    726.5543      5.2860
  1252.2500    118.9770      0.0000    732.7756      5.1544
  1252.5000    121.7344      0.0000    739.4297      4.9706
  1252.7500    126.2174      0.0000    745.1761      4.7177
  1253.0000    130.5861      0.0000    748.5033      4.5128
  1253.2500    133.4064      0.0000    749.6567      4.5003
  1253.5000    134.7135      0.0000    749.7723      4.6640
  1253.7500    136.0536      0.0000    749.3177      4.8882
  1254.0000    139.3732      0.0000    747.5499      5.1795
  1254.2500    145.4891      0.0000    742.5809      5.5134
  1254.5000    153.2966      0.0000    732.9486      5.5683
  1254.7500    160.3672      0.0000    720.3970      5.1073
  1255.0000    164.4769      0.0000    709.4172      4.4018
  1255.2500    164.8233      0.0000    703.6595      3.8921
  1255.5000    162.0668      0.0000    704.9447      3.7506
  1255.7500    157.3919      0.0000    713.8736      3.8738
  1256.0000    151.5953      0.0000    729.5806      4.0353
  1256.2500    144.9465      0.0000    751.7584      4.0448
  1256.5000    137.5117      0.0000    779.8569      3.8556
  1256.7500    129.3056      0.0000    805.7835      3.5590
  1257.0000    120.4214      0.0000    819.0381      3.3054
  1257.2500    111.3657      0.0000    823.5471      3.2069
  1257.5000    103.1285      0.0000    829.0841      3.2629
  1257.7500     96.7557      0.0000    827.5618      3.3639
  1258.0000     92.9424      0.0000    806.1962      3.3922
  1258.2500     91.9806      0.0000    774.7068      3.3247
  1258.5000     93.7499      0.0000    753.0919      3.2251
  1258.7500     97.5947      0.0000    748.1986      3.1628
  1259.0000    102.3016      0.0000    754.8258      3.1705
  1259.2500    106.3509      0.0000    764.7783      3.2389
  1259.5000    108.3765      0.0000    771.1435      3.3445
  1259.7500    107.7549      0.0000    770.3794      3.5316
  1260.0000    105.1474      0.0000    761.9902      3.9354
  1260.2500    102.3847      0.0000    748.3944      4.5738
  1260.5000    101.4387      0.0000    735.4977      5.1326
  1260.7500    103.2232      0.0000    729.6720      5.2245
  1261.0000    106.9624      0.0000    732.0330      4.8705
  1261.2500    110.4651      0.0000    737.2407      4.4588
  1261.5000    111.6575      0.0000    739.3995      4.2835
  1261.7500    110.6059      0.0000    736.5417      4.3087
  1262.0000    109.8793      0.0000    730.0482      4.2866
  1262.2500    112.3971      0.0000    722.7998      4.0376
  1262.5000    118.9208      0.0000    716.6180      3.6325
  1262.7500    127.6586      0.0000    711.9712      3.2605
  1263.0000    135.7460      0.0000    709.2726      3.0177
  1263.2500    140.7272      0.0000    706.9394      2.9023
