~Version Information
 VERS.                                  2.0 : CWLS LAS VERSION
 WRAP.                                   NO : WRAPING MODE
 SWARE .                 MController 2.5.0J : SOFTWARE VERSION
~Well Information
 WELL.                        Montoya 1-44R : WELL
 COMP.                       Petrogulf Corp : COMPANY
 FLD.                      Purgatoire River : FIELD
 LOC.                 SE/SE Sec 1 T33S R68W : LOCATION
 DATE.                             11/15/04 : DATE(S) LOGGED
 SRVC.       Blanco Geological Services LLC : SERVICE COMPANY
 STAT.                                   CO : STATE
 CNTY.                           Las Animas : COUNTY
 CTRY.                                  USA : COUNTRY
 API.                       05-071-08239-00 : API NUMBER
 STRT.FT                             615.00 : START DEPTH
 STOP.FT                            2140.00 : STOP DEPTH
 STEP.FT                               1.00 : DEPTH INCREMENT
 NULL.                                -9999 : NULL VALUE
~Curve information
 DEPTH.FT                                   :
 ROP.MIN/FT                                 :
 GAS.UNITS                                  :
~ASCII Log data
# ...
      1415.0         0.30          6.5 
      1416.0         0.23          6.6 
      1417.0         0.17          7.0 
      1418.0         0.17          6.0 
      1419.0         0.37          6.5 
      1420.0         0.23          6.6 
      1421.0         0.27          6.3 
      1422.0         0.28          6.1 
      1423.0         0.30          6.0 
      1424.0         0.17          6.4 
      1425.0         0.17          6.6 
      1426.0         0.17          6.6 
      1427.0         0.20          6.8 
      1428.0         0.20          6.5 
      1429.0         0.23          7.4 
      1430.0         0.27          7.4 
      1431.0         0.23          8.0 
      1432.0         0.27          8.5 
      1433.0         0.27          9.8 
      1434.0         0.23         13.1 
      1435.0         0.30         14.6 
      1436.0         0.58         14.6 
      1437.0         0.37         10.3 
      1438.0         0.40         10.2 
      1439.0         0.38          8.5 
      1440.0         0.20          8.5 
      1441.0         0.17          8.5 
      1442.0         0.33         10.0 
      1443.0         0.20         10.1 
      1444.0         0.30          9.4 
      1445.0         0.27          8.9 
      1446.0         0.27          8.6 
      1447.0         0.27          8.6 
      1448.0         0.27          7.9 
      1449.0         0.27          8.6 
      1450.0         0.23          8.0 
      1451.0         0.20          8.3 
      1452.0         0.22          8.2 
      1453.0         0.13          8.8 
      1454.0         0.17          8.8 
      1455.0         0.10          9.7 
      1456.0         0.10          9.7 
      1457.0         0.13          9.9 
      1458.0         0.10          9.9 
      1459.0         0.37         10.3 
      1460.0         0.40          9.8 
      1461.0         0.30          7.4 
      1462.0         0.20          7.8 
      1463.0         0.23          9.3 
      1464.0         0.27         10.1 
      1465.0         0.23         10.1 
      1466.0         0.40         12.1 
      1467.0         0.80         10.9 
      1468.0         0.27          8.2 
      1469.0         0.17          7.5 
      1470.0         0.32          7.4 
      1471.0         0.37          7.1 
      1472.0         0.33          6.7 
      1473.0         0.33          5.7 
      1474.0         0.33          6.3 
      1475.0         0.30          6.3 
      1476.0         0.30          6.6 
      1477.0         0.30          6.9 
      1478.0         0.27          7.0 
      1479.0         0.27          6.2 
      1480.0         0.32          7.1 
      1481.0         0.27          8.2 
      1482.0         0.23          8.0 
      1483.0         0.23          7.4 
      1484.0         0.27          7.6 
      1485.0         0.20          6.5 
      1486.0         0.23          6.9 
      1487.0         0.20          7.0 
      1488.0         0.20          6.9 
      1489.0         0.23          6.9 
      1490.0         0.23          6.8 
      1491.0         0.17          6.8 
      1492.0         0.17          7.2 
      1493.0         0.17          7.3 
      1494.0         0.20          7.4 
      1495.0         0.25          7.1 
      1496.0         0.30          7.1 
      1497.0         0.47          7.1 
      1498.0         0.38          7.6 
      1499.0         0.37          7.3 
      1500.0         0.37          7.4 
      1501.0         0.37          7.0 
      1502.0         0.27          7.0 
      1503.0         0.27          7.1 
      1504.0         0.20          7.1 
      1505.0         0.23          7.4 
      1506.0         0.43          7.3 
      1507.0         0.62          7.5 
      1508.0         0.27          7.4 
      1509.0         0.30          7.6 
      1510.0         0.23          6.7 
      1511.0         0.20          7.2 
      1512.0         0.20          7.7 
      1513.0         0.17          7.3 
      1514.0         0.17          6.7 
      1515.0         0.20          6.7 
      1516.0         0.20          6.7 
      1517.0         0.20          7.6 
      1518.0         0.20          7.2 
      1519.0         0.23          7.0 
      1520.0         0.20          7.0 
      1521.0         0.20          7.4 
      1522.0         0.20          7.1 
      1523.0         0.22          6.8 
      1524.0         0.20          6.9 
      1525.0         0.30          7.4 
      1526.0         0.27          7.1 
      1527.0         0.27          7.5 
      1528.0         0.28          7.5 
      1529.0         0.43          7.4 
      1530.0         0.23          7.3 
      1531.0         0.27          6.9 
      1532.0         0.30          7.1 
      1533.0         0.33          7.3 
      1534.0         0.57          7.5 
      1535.0         0.37          8.0 
      1536.0         0.33          8.0 
      1537.0         0.30          7.2 
      1538.0         0.32          7.3 
      1539.0         0.27          7.4 
      1540.0         0.23          7.2 
      1541.0         0.23          7.8 
      1542.0         0.23          7.5 
      1543.0         0.33          7.3 
      1544.0         0.47          8.2 
      1545.0         0.30          7.1 
      1546.0         0.23          7.4 
      1547.0         0.27          8.0 
      1548.0         0.23          7.0 
      1549.0         0.23          7.0 
      1550.0         0.25          8.1 
      1551.0         0.33          7.4 
      1552.0         0.47          7.3 
      1553.0         0.33          7.8 
      1554.0         0.37          7.9 
      1555.0         0.23          7.3 
      1556.0         0.13          7.3 
      1557.0         0.20          8.0 
      1558.0         0.60          8.2 
      1559.0         0.07          8.2 
      1560.0         0.10          8.2 
      1561.0         0.30          7.6 
      1562.0         0.40          7.6 
      1563.0         0.40          7.2 
      1564.0         0.27          7.4 
      1565.0         0.27          7.6 
      1566.0         0.32          7.3 
      1567.0         0.37          7.9 
      1568.0         0.27          7.1 
      1569.0         0.27          7.0 
      1570.0         0.23          7.8 
      1571.0         0.20          8.0 
      1572.0         0.20          8.0 
      1573.0         0.20          7.7 
      1574.0         0.17          6.9 
      1575.0         0.20          6.7 
      1576.0         0.20          7.3 
      1577.0         0.17          7.8 
      1578.0         0.30          7.5 
      1579.0         0.20          8.0 
      1580.0         0.25          7.7 
      1581.0         0.23          7.7 
      1582.0         0.20          7.0 
      1583.0         0.20          7.3 
      1584.0         0.23          7.8 
      1585.0         0.27          8.0 
      1586.0         0.33          7.2 
      1587.0         0.13          7.6 
      1588.0         0.53          8.0 
      1589.0         0.33          7.6 
      1590.0         0.23          7.5 
      1591.0         0.32          7.8 
      1592.0         0.37          7.1 
      1593.0         0.40          7.3 
      1594.0         0.23          7.2 
      1595.0         0.43          8.0 
      1596.0         0.37          7.8 
      1597.0         0.27          7.5 
      1598.0         0.23          6.9 
      1599.0         0.27          7.1 
      1600.0         0.20          7.3 
      1601.0         0.20          7.3 
      1602.0         0.18          7.6 
      1603.0         0.23          7.8 
      1604.0         0.27          7.6 
      1605.0         0.23          7.9 
      1606.0         0.20          8.2 
      1607.0         0.27          7.6 
      1608.0         0.30          7.4 
      1609.0         0.40          7.2 
      1610.0         0.27          7.9 
      1611.0         0.27          7.7 
      1612.0         0.27          7.3 
      1613.0         0.40          7.8 
      1614.0         0.28          6.6 
