~Version Information
VERS.                      2.0: CWLS Log ASCII Standard - VERSION 2.0
WRAP.                       NO: One line per depth step
~Well Information Block
STRT.FT               998.8000: 
STOP.FT              2235.5000: 
STEP.FT                 0.1000: 
NULL.                -999.2500: 
COMP.          Petrogulf Corporation: COMPANY
WELL.          Latiluppe 8-13R: WELL
FLD.           Purgatorie River: FIELD
LOC.           1495' FSL & 946' FWL: LOCATION
CNTY.               Las Animas: COUNTY
SRVC.                         : SERVICE COMPANY
DATE.          Wed Apr 21 10:46:16 2004: LOG DATE
UWI.           05 071 08035 00: UNIQUE WELL ID
STAT.                 Colorado: STATE
~Curve Information Block
DEPT.FT            0 000 00 00: Depth
DCAL.in                       : CDL Caliper
RHOB.g/cc                     : CDL Bulk Density
RHOC.g/cc                     : CDL Density Correction
DPOR.pu                       : CDL Density Porosity
NPOR.pu                       : Neutron Porosity
GR.GAPI                       : Gamma Ray
~Parameter Information Block
~A  Depth       DCAL        RHOB        RHOC        DPOR        NPOR         GR     
# ...
  2198.8000      7.8291      2.5809      0.0843      4.1909     25.7766   -999.2500
  2198.9000      7.8291      2.5750      0.0621      4.5431     25.6184   -999.2500
  2199.0000      7.8347      2.5693      0.0329      4.8922     25.4470   -999.2500
  2199.1000      7.8347      2.5697      0.0765      4.8685     25.5928   -999.2500
  2199.2000      7.8347      2.5790      0.0456      4.3058     26.0438   -999.2500
  2199.3000      7.8217      2.5923      0.0644      3.4959     26.3908   -999.2500
  2199.4000      7.8217      2.6006      0.0861      2.9969     26.4831   -999.2500
  2199.5000      7.8302      2.6054      0.0514      2.7023     26.4667   -999.2500
  2199.6000      7.8302      2.6099      0.1046      2.4284     26.6235   -999.2500
  2199.7000      7.8302      2.6014      0.0837      2.9443     27.0796   -999.2500
  2199.8000      7.8332      2.5737      0.0848      4.6249     27.6056   -999.2500
  2199.9000      7.8332      2.5397      0.0291      6.6877     27.6298   -999.2500
  2200.0000      7.8264      2.5226      0.0210      7.7227     27.3148   -999.2500
  2200.1000      7.8264      2.5352      0.0289      6.9582     27.7455   -999.2500
  2200.2000      7.8264      2.5609      0.0798      5.3972     30.1562   -999.2500
  2200.3000      7.8245      2.5691      0.0637      4.9014     35.9775   -999.2500
  2200.4000      7.8245      2.5547      0.0345      5.7759     43.8019   -999.2500
  2200.5000      7.8266      2.5364      0.0550      6.8844     49.2022   -999.2500
  2200.6000      7.8266      2.5287      0.0176      7.3490     51.1644   -999.2500
  2200.7000      7.8266      2.5281      0.0519      7.3854     51.5521   -999.2500
  2200.8000      7.8259      2.5166      0.0464      8.0877     51.5932   -999.2500
  2200.9000      7.8259      2.4939     -0.0041      9.4592     51.5955   -999.2500
  2201.0000      7.8342      2.4833     -0.0042     10.1024   -999.2500   -999.2500
  2201.1000      7.8342      2.4971      0.0329      9.2659   -999.2500   -999.2500
  2201.2000      7.8342      2.5221      0.0960      7.7508   -999.2500   -999.2500
  2201.3000      7.8512      2.5361      0.0936      6.9049   -999.2500   -999.2500
  2201.4000      7.8512      2.5312      0.0973      7.1982   -999.2500   -999.2500
  2201.5000      7.8586      2.5159      0.1070      8.1273   -999.2500   -999.2500
  2201.6000      7.8586      2.5061      0.0830      8.7185   -999.2500   -999.2500
  2201.7000      7.8586      2.5108      0.1374      8.4392   -999.2500   -999.2500
  2201.8000      7.8830      2.5146      0.1058      8.2041   -999.2500   -999.2500
  2201.9000      7.8830      2.5060      0.0652      8.7258   -999.2500   -999.2500
  2202.0000      7.8150      2.4977      0.0980      9.2311   -999.2500   -999.2500
  2202.1000      7.8150      2.4988      0.0986      9.1652   -999.2500   -999.2500
  2202.2000      7.8150      2.5035      0.1319      8.8794   -999.2500   -999.2500
  2202.3000      7.7949      2.5067      0.0920      8.6857   -999.2500   -999.2500
  2202.4000      7.7949      2.5135      0.0808      8.2734   -999.2500   -999.2500
  2202.5000      7.7981      2.5222      0.1052      7.7475   -999.2500   -999.2500
  2202.6000      7.7981      2.5170      0.1474      8.0633   -999.2500   -999.2500
  2202.7000      7.7981      2.4926      0.0750      9.5421   -999.2500   -999.2500
  2202.8000      7.8120      2.4635      0.0351     11.3011   -999.2500   -999.2500
  2202.9000      7.8120      2.4442      0.0452     12.4719   -999.2500   -999.2500
  2203.0000      7.8318      2.4359      0.0523     12.9741   -999.2500   -999.2500
  2203.1000      7.8318      2.4317      0.0865     13.2320   -999.2500   -999.2500
  2203.2000      7.8318      2.4285      0.0275     13.4232   -999.2500   -999.2500
  2203.3000      7.8317      2.4303      0.0295     13.3124   -999.2500   -999.2500
  2203.4000      7.8317      2.4315      0.0670     13.2413   -999.2500   -999.2500
  2203.5000      7.8277      2.4115      0.1121     14.4548   -999.2500   -999.2500
  2203.6000      7.8277      2.3505      0.1077     18.1507   -999.2500   -999.2500
  2203.7000      7.8277      2.2544      0.0770     23.9752   -999.2500   -999.2500
  2203.8000      7.8325      2.1441      0.1247     30.6591   -999.2500   -999.2500
  2203.9000      7.8325      2.0258      0.0733     37.8277   -999.2500   -999.2500
  2204.0000      7.8355      1.9097     -0.0474     44.8658   -999.2500   -999.2500
  2204.1000      7.8355      1.8160     -0.0443     50.5456   -999.2500   -999.2500
  2204.2000      7.8355      1.7447     -0.0266     54.8690   -999.2500   -999.2500
  2204.3000      7.8399      1.6849     -0.0556     58.4920   -999.2500   -999.2500
  2204.4000      7.8399      1.6380     -0.0262     61.3303   -999.2500   -999.2500
  2204.5000      7.8484      1.6075      0.0139     63.1831   -999.2500   -999.2500
  2204.6000      7.8484      1.5900      0.0784     64.2395   -999.2500   -999.2500
  2204.7000      7.8484      1.5827      0.1023     64.6853   -999.2500   -999.2500
  2204.8000      7.8625      1.5878      0.1008     64.3740   -999.2500   -999.2500
  2204.9000      7.8625      1.6118      0.1059     62.9227   -999.2500   -999.2500
  2205.0000      7.8431      1.6591      0.0847     60.0564   -999.2500   -999.2500
  2205.1000      7.8431      1.7302      0.0829     55.7459   -999.2500   -999.2500
  2205.2000      7.8431      1.8203      0.1425     50.2828   -999.2500   -999.2500
  2205.3000      7.6633      1.9211      0.1792     44.1783   -999.2500   -999.2500
  2205.4000      7.6633      2.0238      0.2165     37.9490   -999.2500   -999.2500
  2205.5000      7.6387      2.1234      0.2136     31.9135   -999.2500   -999.2500
  2205.6000      7.6387      2.2189      0.2505     26.1254   -999.2500   -999.2500
  2205.7000      7.6387      2.3089      0.2437     20.6740   -999.2500   -999.2500
  2205.8000      7.6414      2.3908      0.2211     15.7102   -999.2500   -999.2500
  2205.9000      7.6414      2.4560      0.2217     11.7546   -999.2500   -999.2500
  2206.0000      7.6440      2.4932      0.1534      9.5042   -999.2500   -999.2500
  2206.1000      7.6440      2.5074      0.0957      8.6421   -999.2500   -999.2500
  2206.2000      7.6440      2.5147      0.1160      8.2012   -999.2500   -999.2500
  2206.3000      7.6421      2.5216      0.0785      7.7834   -999.2500   -999.2500
  2206.4000      7.6421      2.5306      0.0704      7.2383   -999.2500   -999.2500
  2206.5000      7.6439      2.5516      0.0389      5.9657   -999.2500   -999.2500
  2206.6000      7.6439      2.5853      0.1134      3.9228   -999.2500   -999.2500
  2206.7000      7.6439      2.6108      0.1123      2.3733   -999.2500   -999.2500
  2206.8000      7.6441      2.6124      0.1160      2.2772   -999.2500   -999.2500
  2206.9000      7.6441      2.5955      0.0921      3.3010   -999.2500   -999.2500
  2207.0000      7.6309      2.5758      0.0803      4.4957   -999.2500   -999.2500
  2207.1000      7.6309      2.5623      0.0710      5.3123   -999.2500   -999.2500
  2207.2000      7.6309      2.5539      0.0744      5.8229   -999.2500   -999.2500
  2207.3000      7.6350      2.5499      0.0603      6.0660   -999.2500   -999.2500
  2207.4000      7.6350      2.5524      0.0552      5.9180   -999.2500   -999.2500
  2207.5000      7.6093      2.5571      0.0823      5.6327   -999.2500   -999.2500
  2207.6000      7.6093      2.5639      0.0553      5.2211   -999.2500   -999.2500
  2207.7000      7.6093      2.5920      0.0776      3.5168   -999.2500   -999.2500
  2207.8000      7.5889      2.6670      0.0906     -1.0279   -999.2500   -999.2500
  2207.9000      7.5889      2.6722      0.0675     -1.3480   -999.2500   -999.2500
  2208.0000      7.5345      2.2175      0.5839     26.2105   -999.2500   -999.2500
  2208.1000      7.5345      1.2538      0.0300     84.6188   -999.2500   -999.2500
  2208.2000      7.5345      0.4244      0.0300    134.8878   -999.2500   -999.2500
  2208.3000      6.9730      0.0805   -999.2500    155.7263   -999.2500   -999.2500
