~Version Information
VERS.                      2.0: CWLS Log ASCII Standard - VERSION 2.0
WRAP.                       NO: One line per depth step
~Well Information Block
STRT.FT                -7.0000: 
STOP.FT              1329.7500: 
STEP.FT                 0.2500: 
NULL.                -999.2500: 
COMP.          Pioneer Natural Resources: COMPANY
WELL.             Raptor 44-26: WELL
FLD.           Purgatorie River: FIELD
LOC.           180' FSL & 812' FEL--: LOCATION
PROV.                       CO: PROVINCE
CNTY.               Las Animas: COUNTRY
SRVC.          Patterson Wireline: SERVICE COMPANY
DATE.          Wed Mar 30 12:38:23 2005: LOG DATE
UWI.           05 071 08187 00: UNIQUE WELL ID
~Curve Information Block
DEPT.FT            0 000 00 00: Depth
CCL.                          : Casing Collar Locator
TT3.usec                      : CBL 3' Travel Time
AMP3.mV                       : CBL 3' Amplitude
GR.GAPI                       : Gamma Ray
~Parameter Information Block
MINATTN.db/ft           0.8000: Minimum Attenuation
~A  Depth       CCL         TT3         AMP3         GR     
# ...
   428.5000      0.0000    748.8377     10.0254    145.5940
   428.7500      0.0000    748.4933     10.1424    148.5097
   429.0000      0.0000    748.4037     10.2360    150.4756
   429.2500      0.0000    748.2236     10.2808    150.4528
   429.5000      0.0000    747.3488     10.2716    147.8818
   429.7500      0.0000    744.9236     10.2345    143.2963
   430.0000      0.0000    740.2578     10.2033    138.2395
   430.2500      0.0000    733.6404     10.1884    134.8817
   430.5000      0.0000    726.8729     10.1695    135.0031
   430.7500      0.0000    722.6608     10.1153    138.5281
   431.0000      0.0000    722.8867     10.0087    143.1313
   431.2500      0.0000    727.0292      9.8573    145.8378
   431.5000      0.0000    732.3661      9.6830    145.2157
   431.7500      0.0000    736.4030      9.5044    141.9221
   432.0000      0.0000    739.3895      9.3313    137.4169
   432.2500      0.0000    743.7805      9.1685    132.4791
   432.5000      0.0000    750.9882      9.0149    126.8368
   432.7500      0.0000    759.5982      8.8617    119.9975
   433.0000      0.0000    767.1320      8.7050    112.4184
   433.2500      0.0000    772.4451      8.5614    105.8162
   433.5000      0.0000    775.6749      8.4599    102.2323
   433.7500      0.0000    776.7864      8.4113    102.7110
   434.0000      0.0000    775.3972      8.3877    106.6636
   434.2500      0.0000    771.9854      8.3350    112.1734
   434.5000      0.0000    768.4677      8.2109    116.8484
   434.7500      0.0000    767.2070      8.0194    118.7817
   435.0000      0.0000    769.5282      7.8128    117.3179
   435.2500      0.0000    774.9875      7.6553    113.3477
   435.5000      0.0000    781.4923      7.5793    108.7889
   435.7500      0.0000    786.1288      7.5695    105.2563
   436.0000      0.0000    786.5413      7.5775    102.9451
   436.2500      0.0000    781.8271      7.5415    100.8991
   436.5000      0.0000    772.3899      7.4025     98.3865
   436.7500      0.0000    759.9426      7.1306     95.7882
   437.0000      0.0000    748.1793      6.7605     94.0972
   437.2500      0.0000    741.9697      6.3993     93.7262
   437.5000      0.0000    744.0933      6.1770     93.9340
   437.7500      0.0000    752.7238      6.1718     93.3386
   438.0000      0.0000    763.2350      6.3701     91.0189
   438.2500      0.0000    772.6348      6.6839     87.3261
   438.5000      0.0000    781.7969      7.0045     83.9012
   438.7500      2.0000    793.7124      7.2601     83.0442
   439.0000      2.0000    810.1465      7.4462     86.6346
   439.2500      0.0000    829.6350      7.6281     94.7943
   439.5000      0.0000    847.6942      7.9133    105.3019
   439.7500      0.0000    859.0051      8.3807    114.8438
   440.0000      0.0000    860.9036      8.9832    121.1582
   440.2500      0.0000    855.5326      9.5335    123.7958
   440.5000      0.0000    847.9814      9.8444    123.3282
   440.7500      0.0000    842.2451      9.8880    120.8505
   441.0000      0.0000    839.3044      9.7883    118.1289
   441.2500      0.0000    838.2305      9.6762    117.0141
   441.5000      0.0000    837.9476      9.5924    118.2629
   441.7500      0.0000    837.8979      9.5084    121.3679
   442.0000      0.0000    837.9084      9.3913    125.2750
   442.2500      0.0000    837.9378      9.2386    128.7068
   442.5000      0.0000    837.9632      9.0748    130.3350
   442.7500      0.0000    837.9702      8.9338    129.4870
   443.0000      0.0000    837.9627      8.8368    126.8932
   443.2500      0.0000    837.9639      8.7789    124.7111
   443.5000      0.0000    837.9952      8.7340    125.4693
   443.7500      0.0000    838.0570      8.6766    130.0728
   444.0000      0.0000    838.1364      8.6022    136.4554
   444.2500      0.0000    838.2271      8.5296    140.9370
   444.5000      0.0000    838.3325      8.4859    141.4279
   444.7500      0.0000    838.4529      8.4845    138.8419
   445.0000      0.0000    838.5710      8.5103    135.3493
   445.2500      0.0000    838.6478      8.5223    132.1700
   445.5000      0.0000    838.6295      8.4764    129.3902
   445.7500      0.0000    838.4691      8.3571    127.0015
   446.0000      0.0000    838.1299      8.1946    125.3370
   446.2500      0.0000    837.5087      8.0462    124.8210
   446.5000      0.0000    836.2560      7.9525    125.8209
   446.7500      0.0000    833.6694      7.9079    128.4611
   447.0000      0.0000    829.0004      7.8719    132.0535
   447.2500      0.0000    822.1970      7.8117    134.8790
   447.5000      0.0000    814.3965      7.7357    134.8977
   447.7500      0.0000    807.4135      7.6935    130.6528
   448.0000      0.0000    802.5500      7.7408    121.7455
   448.2500      0.0000    799.9092      7.8955    109.0677
   448.5000      0.0000    798.7501      8.1205     94.7685
   448.7500      0.0000    798.2762      8.3495     81.6321
   449.0000      0.0000    798.0455      8.5333     71.9651
   449.2500      0.0000    797.8279      8.6646     66.5563
   449.5000      0.0000    797.2640      8.7654     64.4535
   449.7500      0.0000    795.8455      8.8628     64.0327
   450.0000      0.0000    793.4395      8.9715     64.6496
   450.2500      0.0000    790.8649      9.0880     67.2576
   450.5000      0.0000    789.6059      9.1912     73.3209
   450.7500      0.0000    790.6407      9.2490     82.9885
   451.0000      0.0000    793.7106      9.2349     94.1517
   451.2500      0.0000    797.8226      9.1439    103.3587
   451.5000      0.0000    801.9913      8.9956    107.9943
   451.7500      0.0000    805.2521      8.8171    107.9391
   452.0000      0.0000    806.6342      8.6253    105.3640
   452.2500      0.0000    805.8194      8.4286    103.1185
   452.5000      0.0000    803.6364      8.2456    103.0529
   452.7500      0.0000    801.4419      8.1103    105.1027
   453.0000      0.0000    800.1022      8.0540    107.6033
   453.2500      0.0000    799.7632      8.0757    108.8383
   453.5000      0.0000    800.3427      8.1328    108.4277
   453.7500      0.0000    801.8447      8.1646    107.1093
   454.0000      0.0000    804.0454      8.1343    105.7299
   454.2500      0.0000    806.0571      8.0489    105.1296
   454.5000      0.0000    806.6265      7.9419    106.4537
   454.7500      0.0000    805.1745      7.8406    110.4049
   455.0000      0.0000    802.3997      7.7505    116.0785
   455.2500      0.0000    799.6408      7.6630    121.3589
   455.5000      0.0000    797.7623      7.5728    124.7446
   455.7500      0.0000    796.7090      7.4841    126.2793
   456.0000      0.0000    795.8033      7.4058    126.7255
   456.2500      0.0000    794.2671      7.3425    126.7042
   456.5000      0.0000    791.7243      7.2887    126.8361
   456.7500      0.0000    788.4804      7.2316    127.8938
   457.0000      0.0000    785.1964      7.1637    130.2678
   457.2500      0.0000    782.2616      7.0943    133.4452
   457.5000      0.0000    779.9206      7.0428    136.2632
   457.7500      0.0000    778.9894      7.0140    137.6752
   458.0000      0.0000    780.5587      6.9896    137.3053
   458.2500      0.0000    784.5560      6.9483    135.5436
   458.5000      0.0000    789.2086      6.8913    133.4544
   458.7500      0.0000    792.2006      6.8433    132.4590
   459.0000      0.0000    791.9667      6.8330    133.4222
   459.2500      0.0000    788.0580      6.8705    135.5611
   459.5000      0.0000    781.1392      6.9397    136.4422
   459.7500      0.0000    772.9295      7.0122    133.5145
   460.0000      0.0000    765.5303      7.0738    125.8967
   460.2500      0.0000    760.3033      7.1351    114.9996
   460.5000      0.0000    757.3967      7.2134    103.8102
   460.7500      0.0000    756.3002      7.3088     95.3076
   461.0000      0.0000    756.6486      7.3994     90.7494
   461.2500      0.0000    758.4894      7.4607     89.1258
   461.5000      0.0000    761.9442      7.4867     88.4306
   461.7500      0.0000    766.7311      7.4973     87.4726
