~Version Information
VERS.                      2.0: CWLS Log ASCII Standard - VERSION 2.0
WRAP.                       NO: One line per depth step
~Well Information Block
STRT.FT               590.0000: 
STOP.FT              1563.5000: 
STEP.FT                 0.2500: 
NULL.                -999.2500: 
COMP.          Petrogulf Corporation: COMPANY
WELL.             State 16-43R: WELL
FLD.           Purgatorie River: FIELD
LOC.           2538' FSL & 716' FEL: LOCATION
PROV.                 Colorado: PROVINCE
CNTY.               Las Animas: COUNTRY
SRVC.                Patterson: SERVICE COMPANY
DATE.          Tue Aug 09 14:21:37 2005: LOG DATE
UWI.                          : UNIQUE WELL ID
~Curve Information Block
DEPT.FT            0 000 00 00: Depth
RILD.Ohm-m                    : DIL Deep Resistivity
RILM.Ohm-m                    : DIL Medium Resistivity
GR.GAPI                       : Gamma Ray
~Parameter Information Block
~A  Depth       RILD        RILM         GR     
# ...
  1007.5000     11.8951     12.1767    166.2424
  1007.7500     11.5714     11.0684    169.2462
  1008.0000     11.5591     10.3304    164.7265
  1008.2500     11.5207     10.0393    166.9014
  1008.5000     11.7639      9.5262    170.8438
  1008.7500     11.6346      9.6100    165.5368
  1009.0000     11.8010     10.4910    163.0775
  1009.2500     11.9415     11.2970    158.9727
  1009.5000     11.9763     10.7436    140.9385
  1009.7500     11.6403     11.6407    121.8298
  1010.0000     12.2851     12.8775    100.4822
  1010.2500     12.2251     13.7319     90.8250
  1010.5000     13.0775     14.8111     98.8942
  1010.7500     13.2435     15.3208    107.4590
  1011.0000     14.2297     16.4538    124.3585
  1011.2500     15.8199     16.8395    127.1725
  1011.5000     15.7822     17.8302    129.3192
  1011.7500     17.9018     19.1375    125.4205
  1012.0000     19.2085     21.3728    131.6804
  1012.2500     20.0548     21.7573    125.0549
  1012.5000     21.1679     22.9400    130.6421
  1012.7500     20.7067     22.9608    125.9704
  1013.0000     21.0705     23.6444    125.4824
  1013.2500     21.2966     23.3197    120.4186
  1013.5000     20.8733     24.8265    120.5949
  1013.7500     20.9667     23.3420    127.7381
  1014.0000     20.7257     23.6391    141.4210
  1014.2500     20.2271     22.8349    137.5897
  1014.5000     19.1548     23.2104    130.6031
  1014.7500     20.1116     22.8050    129.4364
  1015.0000     19.8552     21.6979    136.5416
  1015.2500     19.1022     22.6160    140.5385
  1015.5000     18.8373     20.4408    151.9280
  1015.7500     18.5393     19.7036    149.1133
  1016.0000     18.4762     19.0639    150.0685
  1016.2500     17.8006     18.0492    155.5338
  1016.5000     17.6541     18.1683    148.0665
  1016.7500     17.1547     18.1648    142.8412
  1017.0000     16.2803     17.8427    137.7120
  1017.2500     15.8378     18.2675    141.7903
  1017.5000     15.2253     17.5161    127.4956
  1017.7500     14.6054     16.7625    130.4904
  1018.0000     13.6797     16.2966    146.7474
  1018.2500     13.5411     15.3328    158.7143
  1018.5000     12.8353     14.1114    166.4686
  1018.7500     12.5687     13.9524    167.8577
  1019.0000     12.5108     12.5551    163.0864
  1019.2500     12.0935     12.0321    160.2954
  1019.5000     11.4633     11.6800    165.0167
  1019.7500     11.0739     11.4084    159.1507
  1020.0000     10.6724     11.1809    157.6536
  1020.2500     10.4834     10.6032    159.1900
  1020.5000     10.2155     10.1538    165.9737
  1020.7500      9.9539      9.7054    161.2878
  1021.0000      9.9570      9.1160    157.3434
  1021.2500     10.0111      8.8625    167.1312
  1021.5000     10.0084      8.7519    164.3920
  1021.7500     10.1390      8.8714    159.7735
  1022.0000     10.4223      8.9939    156.2755
  1022.2500     11.0540      9.5992    159.8140
  1022.5000     11.3770     10.0136    160.7865
  1022.7500     11.5968     10.6178    152.1088
  1023.0000     11.9105     11.4044    129.9570
  1023.2500     12.7243     12.5243    119.1748
  1023.5000     13.0786     13.5607    115.2967
  1023.7500     13.1956     14.6975    112.0879
  1024.0000     14.0810     15.3835    113.7699
  1024.2500     14.8662     16.3434    113.7689
  1024.5000     16.4229     17.4824    116.0725
  1024.7500     16.8229     18.9077    118.0240
  1025.0000     18.1888     19.3398    125.0097
  1025.2500     19.6181     20.5636    124.0676
  1025.5000     19.8124     22.3080    114.9122
  1025.7500     20.2357     22.8117    116.1541
  1026.0000     20.1358     23.5839    113.9031
  1026.2500     20.3675     23.6856    116.7766
  1026.5000     20.6802     23.7397    124.7211
  1026.7500     20.0855     22.7920    125.8886
  1027.0000     20.0041     20.5799    128.5129
  1027.2500     19.6934     21.0892    126.9294
  1027.5000     19.7979     21.6715    118.4519
  1027.7500     19.1576     21.1053    120.9891
  1028.0000     19.6468     21.3899    123.2819
  1028.2500     19.5430     20.4913    125.4136
  1028.5000     19.2328     21.0061    132.0031
  1028.7500     18.9361     20.8353    128.5635
  1029.0000     18.3687     20.5562    117.7312
  1029.2500     17.9319     20.7122    118.8891
  1029.5000     16.5762     20.2549    122.1437
  1029.7500     17.1318     20.3394    127.4725
  1030.0000     16.8664     19.3829    129.9811
  1030.2500     16.1919     18.0947    136.1423
  1030.5000     15.9903     17.3791    144.5443
  1030.7500     14.9821     16.2211    152.9975
  1031.0000     14.3795     15.5633    157.2508
  1031.2500     14.2033     14.9181    160.4280
  1031.5000     14.3249     14.5249    155.4464
  1031.7500     13.6755     13.5677    160.5168
  1032.0000     13.2659     13.1595    165.9585
  1032.2500     12.9526     12.6400    167.9802
  1032.5000     12.2244     12.3904    163.7706
  1032.7500     12.1665     12.0581    166.2542
  1033.0000     11.8625     11.5357    157.6682
  1033.2500     11.7695     11.7613    156.2096
  1033.5000     11.5220     11.4846    158.1365
  1033.7500     11.4474     11.3274    158.4624
  1034.0000     11.4691     11.3946    163.9262
  1034.2500     11.0455     11.2591    159.5693
  1034.5000     11.2585     11.5375    164.2852
  1034.7500     10.8706     11.7228    165.4371
  1035.0000     10.9084     11.6615    159.4300
  1035.2500     10.9747     11.2675    160.5180
  1035.5000     11.0023     11.1532    165.8922
  1035.7500     10.9567     10.9688    170.1006
  1036.0000     10.7662     10.9746    166.2017
  1036.2500     10.8600     11.1633    163.9519
  1036.5000     10.8462     10.8861    163.5572
  1036.7500     10.9172     10.8546    165.8268
  1037.0000     10.7025     10.6568    166.7889
  1037.2500     10.5036     10.8006    165.2067
  1037.5000     10.4790     10.6027    168.0594
  1037.7500     10.3696     10.4567    166.7950
  1038.0000     10.3220     10.3042    163.9821
  1038.2500     10.3609     10.0716    167.7053
  1038.5000     10.2252     10.0867    171.9502
  1038.7500     10.2737      9.8949    170.4426
  1039.0000     10.1008      9.8432    169.4258
  1039.2500     10.2270      9.8642    171.7771
  1039.5000     10.4548      9.9889    157.9512
  1039.7500     10.5082     10.2229    158.6182
  1040.0000     10.5849     10.2999    150.3200
  1040.2500     10.4601     10.4438    150.5367
  1040.5000     10.5790     10.6025    144.8798
  1040.7500     10.3968     10.8195    142.1756
  1041.0000     10.2470     10.9558    155.7390
  1041.2500     10.1420     10.9906    146.1139
  1041.5000     10.0998     10.9679    139.7187
  1041.7500     10.3907     10.8910    140.0858
  1042.0000     10.2046     10.7469    151.7936
  1042.2500     10.3102     10.5213    155.6245
  1042.5000     10.3257     10.4294    159.5891
  1042.7500     10.2967     10.4657    170.1289
  1043.0000     10.3547     10.4369    164.1394
  1043.2500     10.0115     10.3274    157.0239
  1043.5000      9.9428     10.2592    150.6798
  1043.7500      9.8612     10.2013    150.6072
  1044.0000      9.6254     10.1140    144.9967
  1044.2500      9.5270      9.5695    153.6106
  1044.5000      9.5285      9.4634    151.0040
  1044.7500      9.3160      9.2505    159.7393
  1045.0000      9.3116      9.1121    168.2680
  1045.2500      9.1608      9.1130    175.6277
  1045.5000      9.2844      9.0399    171.9968
  1045.7500      9.4189      9.1592    160.9641
  1046.0000      9.6133      9.1421    173.4394
  1046.2500      9.6209      9.2141    173.0956
  1046.5000      9.7400      9.2717    170.0586
  1046.7500      9.5728      9.4851    161.6869
  1047.0000     10.0317      9.9282    160.8112
  1047.2500     10.6370     10.2146    155.3910
  1047.5000     10.6577     10.5848    136.5710
  1047.7500     10.7124     11.3392    129.8916
  1048.0000     10.7324     11.8336    128.8886
  1048.2500     11.0467     11.9609    135.2599
  1048.5000     11.1081     12.3369    145.2046
  1048.7500     11.2402     12.2866    139.8446
  1049.0000     11.6187     12.5038    147.1098
