~Version Information
VERS.                      2.0: CWLS Log ASCII Standard - VERSION 2.0
WRAP.                       NO: One line per depth step
~Well Information Block
STRT.FT               500.0000: 
STOP.FT              2732.5000: 
STEP.FT                 0.1000: 
NULL.                -999.2500: 
COMP.          Pioneer Natural Resources: COMPANY
WELL.          Dude Canyon 22-32: WELL
FLD.           Purgatoire River: FIELD
LOC.           1662' FNL & 2446' FWL----: LOCATION
PROV.                 Colorado: PROVINCE
CNTY.               Las Animas: COUNTRY
SRVC.                Patterson: SERVICE COMPANY
DATE.          Thu Mar 10 07:06:34 2005: LOG DATE
UWI.           05 071 08257 00: UNIQUE WELL ID
~Curve Information Block
DEPT.FT            0 000 00 00: Depth
GR.GAPI                       : Gamma Ray
DCAL.in                       : CDL Caliper
DPOR.pu                       : CDL Density Porosity
NPOR.pu                       : Neutron Porosity
RHOB.g/cc                     : CDL Bulk Density
RHOC.g/cc                     : CDL Density Correction
~Parameter Information Block
~A  Depth        GR         DCAL        DPOR        NPOR        RHOB        RHOC    
# ...
  2276.0000    150.5789      8.2673     34.9731     31.1824      2.0729     -0.1234
  2276.1000    142.1377      8.2673     38.8704     31.8827      2.0086     -0.0847
  2276.2000    121.4491      8.2673     41.1949     32.3026      1.9703     -0.0982
  2276.3000    103.5167      8.2708     41.3885     32.1851      1.9671     -0.0250
  2276.4000    101.2652      8.2708     40.2684     31.6808      1.9856      0.0373
  2276.5000    112.7876      8.2730     38.6295     31.0561      2.0126      0.0694
  2276.6000    118.9036      8.2730     36.6267     30.4420      2.0457      0.1055
  2276.7000    108.1681      8.2730     34.9221     30.3596      2.0738      0.1478
  2276.8000     94.7770      8.2738     34.4463     31.0426      2.0816      0.1240
  2276.9000     93.0039      8.2738     34.8086     31.6438      2.0757      0.0890
  2277.0000    100.0927      8.2759     34.4348     31.7092      2.0818      0.0394
  2277.1000    104.9152      8.2759     31.9541     31.8279      2.1228     -0.0276
  2277.2000    102.5966      8.2759     27.4277     32.3058      2.1974      0.0030
  2277.3000    101.7575      8.2900     22.6140     32.7672      2.2769      0.0597
  2277.4000    104.2804      8.2900     19.4686     33.0422      2.3288      0.0747
  2277.5000    101.7332      8.3686     18.4946     33.3330      2.3448      0.0945
  2277.6000     93.0105      8.3686     18.8144     33.7255      2.3396      0.1086
  2277.7000     81.7458      8.3686     19.2745     34.0482      2.3320      0.0940
  2277.8000     73.1298      8.6345     19.2913     34.1476      2.3317      0.1230
  2277.9000     73.2048      8.6345     19.0052     34.0012      2.3364      0.1577
  2278.0000     82.4011      9.1545     18.9619     33.8797      2.3371      0.1060
  2278.1000     92.4501      9.1545     19.9190     34.0387      2.3213      0.0902
  2278.2000     96.0098      9.1545     22.4496     33.9766      2.2796      0.0340
  2278.3000     99.5293      9.7562     25.9796     33.4516      2.2213     -0.0034
  2278.4000    103.9852      9.7562     29.5307     33.3903      2.1627     -0.0033
  2278.5000    102.5043      9.9538     33.9087     34.0390      2.0905      0.0543
  2278.6000     96.7695      9.9538     40.3795     34.2956      1.9837     -0.0407
  2278.7000     93.4554      9.9538     47.4224     33.7783      1.8675     -0.1215
  2278.8000     96.5184      9.3533     52.5283     33.0495      1.7833     -0.0869
  2278.9000     99.2866      9.3533     54.8541     32.3365      1.7449     -0.1367
  2279.0000    100.2617      8.4779     54.2244     31.6421      1.7553     -0.0581
  2279.1000    103.3225      8.4779     50.9015     31.0294      1.8101      0.0413
  2279.2000    103.0068      8.4779     46.0577     30.2773      1.8900      0.1238
  2279.3000    100.8858      8.0279     40.9090     29.3716      1.9750      0.1525
  2279.4000    100.0274      8.0279     35.6299     28.4288      2.0621      0.1646
  2279.5000     93.8677      7.9295     29.8769     27.0275      2.1570      0.1781
  2279.6000     86.4683      7.9295     24.0755     25.1995      2.2528      0.2140
  2279.7000     86.2029      7.9295     19.0074     23.9502      2.3364      0.1679
  2279.8000     88.9734      7.9153     14.7280     23.6649      2.4070      0.1429
  2279.9000     87.2520      7.9153     11.0160     23.5230      2.4682      0.1315
  2280.0000     83.8762      7.9095      7.9459     23.2305      2.5189      0.0829
  2280.1000     85.9114      7.9095      5.8138     23.1830      2.5541      0.0618
  2280.2000     90.3261      7.9095      4.9730     23.2771      2.5679      0.0585
  2280.3000     93.5355      7.9020      5.0742     23.2397      2.5663      0.0162
  2280.4000     97.1999      7.9020      5.4416     23.0674      2.5602      0.0544
  2280.5000    103.4158      7.8941      6.0580     22.6214      2.5500      0.0255
  2280.6000    118.3902      7.8941      6.8242     22.0211      2.5374     -0.0053
  2280.7000    136.5951      7.8941      7.5166     21.9130      2.5260      0.0069
  2280.8000    138.7071      7.8892      8.1625     22.3214      2.5153      0.0063
  2280.9000    121.6154      7.8892      8.3868     22.8104      2.5116     -0.0380
  2281.0000    106.2164      7.8896      7.9300     23.3513      2.5192     -0.0052
  2281.1000    105.7804      7.8896      7.6737     23.9252      2.5234      0.0300
  2281.2000    111.3587      7.8896      8.5430     24.2110      2.5090      0.0092
  2281.3000    119.2650      7.8904      9.6745     24.2818      2.4904     -0.0551
  2281.4000    131.6777      7.8904      9.4918     24.2464      2.4934     -0.0082
  2281.5000    133.6134      7.8867      8.1666     23.8836      2.5153      0.0338
  2281.6000    122.6274      7.8867      6.8986     23.5767      2.5362      0.0012
  2281.7000    119.1888      7.8867      6.1756     23.8023      2.5481      0.0231
  2281.8000    126.8755      7.8819      6.0580     24.0990      2.5500      0.0388
  2281.9000    132.4577      7.8819      6.5748     24.0403      2.5415      0.0400
  2282.0000    134.3912      7.8813      7.0782     23.8061      2.5332     -0.0089
  2282.1000    131.9407      7.8813      6.7309     23.6917      2.5389      0.0116
  2282.2000    125.8647      7.8813      5.9867     23.7901      2.5512      0.0350
  2282.3000    121.7573      7.8850      5.9675     23.8391      2.5515      0.0636
  2282.4000    113.0702      7.8850      6.8143     23.4537      2.5376      0.0247
  2282.5000     97.1106      7.8893      7.8104     22.9585      2.5211      0.0175
  2282.6000     82.2196      7.8893      8.8635     23.1688      2.5038      0.0229
  2282.7000     71.7051      7.8893     10.4120     24.0884      2.4782      0.0114
  2282.8000     67.8371      7.8898     12.0626     25.1149      2.4510     -0.0270
  2282.9000     76.4884      7.8898     13.5120     26.0995      2.4271      0.0013
  2283.0000     88.3114      7.8882     15.5702     27.4021      2.3931     -0.0092
  2283.1000     90.6304      7.8882     19.2186     29.1595      2.3329      0.0309
  2283.2000     94.0755      7.8882     24.9053     30.7780      2.2391     -0.0613
  2283.3000    104.3790      7.8915     32.1505     31.6848      2.1195     -0.0629
  2283.4000    109.8033      7.8915     40.0165     32.2411      1.9897     -0.1051
  2283.5000    104.9277      7.8993     47.4459     32.8025      1.8671     -0.1411
  2283.6000     93.2724      7.8993     53.8284     33.3694      1.7618     -0.1386
  2283.7000     79.5151      7.8993     59.6469     34.1568      1.6658     -0.1136
  2283.8000     66.3078      7.9047     65.1347     34.9065      1.5753     -0.1265
  2283.9000     52.3261      7.9047     69.4623     35.1211      1.5039     -0.0802
  2284.0000     37.5324      7.9156     72.5785     35.1770      1.4525     -0.0075
  2284.1000     32.4783      7.9156     75.6932     35.5531      1.4011      0.0110
  2284.2000     41.7624      7.9156     79.1371     35.9635      1.3442     -0.0109
  2284.3000     50.3371      7.9375     81.8315     36.1474      1.2998     -0.0074
  2284.4000     45.9245      7.9375     83.0644     36.3578      1.2794      0.0143
  2284.5000     35.1471      7.9568     83.0647     36.6925      1.2794     -0.0010
  2284.6000     29.0881      7.9568     82.1818     36.9252      1.2940      0.0266
  2284.7000     29.3350      7.9568     80.4103     36.9469      1.3232      0.0337
  2284.8000     30.3596      7.9629     77.5409     36.7095      1.3706      0.0635
  2284.9000     29.2983      7.9629     73.7319     36.1044      1.4334      0.0918
  2285.0000     28.7309      7.9588     69.3311     35.3444      1.5060      0.0992
  2285.1000     31.0716      7.9588     64.1008     34.7803      1.5923      0.1202
  2285.2000     37.1697      7.9588     57.5392     34.1269      1.7006      0.1312
  2285.3000     45.5424      7.9577     49.8852     32.8375      1.8269      0.1793
  2285.4000     53.4385      7.9577     42.2392     31.1273      1.9531      0.1953
  2285.5000     58.2956      7.9625     35.4965     29.6933      2.0643      0.2009
