~Version Information
VERS.                      2.0: CWLS Log ASCII Standard - VERSION 2.0
WRAP.                       NO: One line per depth step
~Well Information Block
STRT.FT               801.5000: 
STOP.FT              2513.0000: 
STEP.FT                 0.2500: 
NULL.                -999.2500: 
COMP.          Petrogulf Corporation: COMPANY
WELL.               YWAM 7-32V: WELL
FLD.           Purgatoire River: FIELD
LOC.           2423' FNL & 2412' FEL: LOCATION
PROV.                 Colorado: PROVINCE
CNTY.               Las Animas: COUNTRY
SRVC.                Patterson: SERVICE COMPANY
DATE.          Sun Dec 14 06:58:17 2003: LOG DATE
UWI.                          : UNIQUE WELL ID
~Curve Information Block
DEPT.FT            0 000 00 00: Depth
SP.mV                         : DIL Spontaneous Potential
RILD.Ohm-m                    : DIL Deep Resistivity
RILM.Ohm-m                    : DIL Medium Resistivity
RLL3.Ohm-m                    : DIL Shallow Resistivity
GR.GAPI                       : Gamma Ray
~Parameter Information Block
~A  Depth        SP         RILD        RILM        RLL3         GR     
# ...
  1277.5000   -574.7331      6.9353      7.9777      9.4241    129.4894
  1277.7500   -574.3278      6.8291      7.8345      9.4211    130.3038
  1278.0000   -573.6585      6.7609      7.6982      9.2524    133.3566
  1278.2500   -572.7602      6.7373      7.5814      9.0101    135.9231
  1278.5000   -571.7354      6.7568      7.4973      8.7862    139.2066
  1278.7500   -570.7213      6.8134      7.4597      8.6073    140.6365
  1279.0000   -569.8536      6.8988      7.4820      8.4677    141.6626
  1279.2500   -569.2288      7.0046      7.5755      8.4117    141.6167
  1279.5000   -568.8659      7.1219      7.7452      8.5787    140.3073
  1279.7500   -568.6893      7.2420      7.9870      9.1600    138.7104
  1280.0000   -568.5565      7.3581      8.2839     10.2399    135.8493
  1280.2500   -568.3271      7.4672      8.6063     11.6179    133.8985
  1280.5000   -567.9310      7.5698      8.9162     12.8522    130.8638
  1280.7500   -567.3909      7.6679      9.1765     13.5729    128.6669
  1281.0000   -566.7845      7.7631      9.3616     13.7314    125.1779
  1281.2500   -566.1859      7.8559      9.4641     13.5040    122.9211
  1281.5000   -565.6270      7.9469      9.4941     13.0410    120.3801
  1281.7500   -565.0975      8.0363      9.4726     12.4021    119.9178
  1282.0000   -564.5626      8.1220      9.4228     11.6697    121.8320
  1282.2500   -563.9976      8.1984      9.3646     10.9962    124.5648
  1282.5000   -563.4301      8.2581      9.3118     10.5159    129.3686
  1282.7500   -562.9667      8.2954      9.2724     10.2604    132.2869
  1283.0000   -562.7565      8.3113      9.2498     10.1754    135.8398
  1283.2500   -562.8942      8.3134      9.2439     10.1959    137.6593
  1283.5000   -563.3459      8.3122      9.2519     10.2940    139.2938
  1283.7500   -563.9631      8.3148      9.2702     10.4722    139.5142
  1284.0000   -564.5649      8.3231      9.2971     10.7256    139.0672
  1284.2500   -565.0128      8.3361      9.3329     11.0168    138.8845
  1284.5000   -565.2428      8.3553      9.3794     11.2808    139.3569
  1284.7500   -565.2668      8.3873      9.4385     11.4525    139.9451
  1285.0000   -565.1611      8.4406      9.5111     11.4991    140.5135
  1285.2500   -565.0467      8.5203      9.5965     11.4391    140.4758
  1285.5000   -565.0522      8.6227      9.6897     11.3266    139.9388
  1285.7500   -565.2561      8.7348      9.7804     11.2082    139.3699
  1286.0000   -565.6426      8.8396      9.8552     11.1082    138.0808
  1286.2500   -566.1043      8.9249      9.9045     11.0583    136.8680
  1286.5000   -566.4885      8.9901      9.9287     11.1093    134.9963
  1286.7500   -566.6610      9.0458      9.9382     11.2781    134.2034
  1287.0000   -566.5554      9.1062      9.9490     11.5022    133.9134
  1287.2500   -566.1872      9.1804      9.9762     11.6799    133.8040
  1287.5000   -565.6346      9.2675     10.0305     11.7575    132.4427
  1287.7500   -565.0063      9.3570     10.1163     11.7635    130.3519
  1288.0000   -564.4173      9.4344     10.2328     11.7652    125.8207
  1288.2500   -563.9675      9.4900     10.3760     11.8137    122.3978
  1288.5000   -563.7216      9.5254     10.5420     11.9469    117.6108
  1288.7500   -563.6974      9.5530     10.7267     12.2330    115.1791
  1289.0000   -563.8668      9.5878     10.9215     12.7682    113.0600
  1289.2500   -564.1639      9.6374     11.1080     13.5811    112.2977
  1289.5000   -564.5047      9.7002     11.2599     14.5111    110.9602
  1289.7500   -564.8174      9.7724     11.3563     15.2241    109.6151
  1290.0000   -565.0728      9.8575     11.3945     15.4288    107.5479
  1290.2500   -565.2884      9.9660     11.3920     15.1101    106.8069
  1290.5000   -565.5071     10.1066     11.3747     14.5265    107.1605
  1290.7500   -565.7736     10.2782     11.3638     13.9879    108.0067
  1291.0000   -566.1226     10.4723     11.3705     13.6684    109.0093
  1291.2500   -566.5686     10.6825     11.4008     13.5946    109.0840
  1291.5000   -567.0984     10.9108     11.4621     13.7219    108.5350
  1291.7500   -567.6816     11.1655     11.5676     13.9837    108.0893
  1292.0000   -568.2989     11.4552     11.7340     14.3067    107.5102
  1292.2500   -568.9667     11.7870     11.9762     14.6310    106.9414
  1292.5000   -569.7187     12.1704     12.3026     14.9417    105.2302
  1292.7500   -570.5488     12.6204     12.7139     15.2874    103.4533
  1293.0000   -571.3766     13.1578     13.2057     15.7673    100.4591
  1293.2500   -572.0819     13.8047     13.7731     16.5101     98.7406
  1293.5000   -572.5652     14.5802     14.4184     17.6632     96.9039
  1293.7500   -572.7764     15.4985     15.1576     19.3823     96.0075
  1294.0000   -572.7168     16.5686     16.0216     21.8102     94.6542
  1294.2500   -572.4485     17.7973     17.0502     25.0739     93.4672
  1294.5000   -572.0953     19.1923     18.2862     29.3480     90.9009
  1294.7500   -571.8008     20.7650     19.7729     34.9532     88.5816
  1295.0000   -571.6566     22.5263     21.5534     42.3836     84.1993
  1295.2500   -571.6554     24.4752     23.6644     52.2573     80.6592
  1295.5000   -571.6988     26.5841     26.1235     65.2953     74.2841
  1295.7500   -571.6451     28.7889     28.9141     82.2228     69.3103
  1296.0000   -571.3634     30.9814     31.9727    103.2945     61.1105
  1296.2500   -570.7635     32.9996     35.1772    127.6453     55.5801
  1296.5000   -569.8057     34.6169     38.3286    153.3245     48.0870
  1296.7500   -568.5034     35.5611     41.1274    178.2705     44.0775
  1297.0000   -566.9246     35.5927     43.1671    200.9346     39.8638
  1297.2500   -565.1874     34.6207     43.9962    219.1014     38.1707
  1297.5000   -563.4446     32.7652     43.2858    227.9736     37.2945
  1297.7500   -561.8326     30.3025     41.0260    220.9762     38.2664
  1298.0000   -560.4001     27.5435     37.5737    194.6366     43.5895
  1298.2500   -559.0878     24.7431     33.4872    153.3773     50.7186
  1298.5000   -557.7880     22.0758     29.2949    108.4662     67.9595
  1298.7500   -556.4208     19.6488     25.3617     71.2043     83.7604
  1299.0000   -554.9714     17.5180     21.8750     46.6943    111.8632
  1299.2500   -553.4976     15.6989     18.8926     33.2391    131.1937
  1299.5000   -552.1096     14.1767     16.4003     26.1394    156.0703
  1299.7500   -550.9186     12.9197     14.3547     21.4960    167.2601
  1300.0000   -549.9833     11.8914     12.7054     17.5707    173.6425
  1300.2500   -549.2947     11.0585     11.4017     14.1941    171.4176
  1300.5000   -548.8012     10.3921     10.3938     11.6736    161.5640
  1300.7500   -548.4459      9.8663      9.6340     10.1203    153.0852
  1301.0000   -548.1902      9.4555      9.0784      9.3505    141.3147
  1301.2500   -548.0193      9.1360      8.6892      9.0790    135.6819
  1301.5000   -547.9392      8.8896      8.4364      9.0942    131.6705
  1301.7500   -547.9780      8.7063      8.2979      9.3094    131.7223
  1302.0000   -548.1723      8.5838      8.2584      9.7232    134.5821
  1302.2500   -548.5239      8.5231      8.3069     10.3407    137.3037
  1302.5000   -548.9621      8.5240      8.4347     11.1065    140.6073
  1302.7500   -549.3622      8.5831      8.6337     11.9105    141.4937
  1303.0000   -549.6094      8.6945      8.8952     12.6668    141.3649
  1303.2500   -549.6508      8.8530      9.2102     13.3633    141.4713
  1303.5000   -549.5183      9.0566      9.5688     14.0151    143.0328
  1303.7500   -549.3326      9.3055      9.9613     14.5957    144.4489
  1304.0000   -549.2700      9.5992     10.3786     15.0384    145.7180
  1304.2500   -549.4719      9.9318     10.8120     15.2893    145.9670
  1304.5000   -549.9501     10.2927     11.2512     15.3483    146.3287
  1304.7500   -550.5781     10.6707     11.6831     15.2804    146.7150
  1305.0000   -551.1811     11.0586     12.0921     15.2020    146.8454
  1305.2500   -551.6392     11.4509     12.4638     15.2297    146.2924
