~Version Information
VERS.                      2.0: CWLS Log ASCII Standard - VERSION 2.0
WRAP.                       NO: One line per depth step
~Well Information Block
STRT.FT                10.0000: 
STOP.FT              1066.5000: 
STEP.FT                 0.2500: 
NULL.                -999.2500: 
COMP.          Pioneer Natural Resources: COMPANY
WELL.            Redland 23-24: WELL
FLD.           Purgatoire River: FIELD
LOC.           2356' FSL & 1880' FWL----: LOCATION
PROV.                 Colorado: PROVINCE
CNTY.               Las Animas: COUNTRY
SRVC.                         : SERVICE COMPANY
DATE.          Thu Mar 24 10:01:02 2005: LOG DATE
UWI.           05 071 08221   : UNIQUE WELL ID
~Curve Information Block
DEPT.FT            0 000 00 00: Depth
CCL.                          : Casing Collar Locator
TT3.usec                      : CBL 3' Travel Time
AMP3.mV                       : CBL 3' Amplitude
AMP5.mV                       : CBL 5' Amplitude
GR.GAPI                       : Gamma Ray
~Parameter Information Block
~A  Depth       CCL         TT3         AMP3        AMP5         GR     
# ...
   990.0000      0.0000    725.0053      7.9557      1.5187    102.5639
   990.2500      0.0000    729.1608      8.3073      0.5611    108.9820
   990.5000      0.0000    727.2842      8.2091      0.3000    114.3167
   990.7500      0.0000    720.8080      7.6072      0.5611    117.0577
   991.0000      0.0000    714.3571      6.6210      0.5611    116.5609
   991.2500      0.0000    711.3525      5.4756      0.7352    113.5064
   991.5000      0.0000    710.3563      4.3920      0.8223    109.5817
   991.7500      0.0000    707.2369      3.5040      0.3870    106.1040
   992.0000      0.0000    700.2691      2.8422      0.3870    102.8878
   992.2500      0.0000    691.3641      2.3748      0.4741     98.6428
   992.5000      0.0000    682.9985      2.0569      0.5611     92.4426
   992.7500      0.0000    676.0876      1.8534      0.9093     84.8363
   993.0000      0.0000    671.2164      1.7395      0.5611     77.5876
   993.2500      0.0000    670.2401      1.6915      0.3870     72.1958
   993.5000      0.0000    675.3449      1.6808      0.5611     68.6146
   993.7500      0.0000    686.7527      1.6832      0.6482     65.7013
   994.0000      0.0000    701.9600      1.7003      0.5611     62.8888
   994.2500      0.0000    717.1122      1.7656      0.7352     60.7943
   994.5000      0.0000    729.1210      1.9180      0.3000     60.0443
   994.7500      0.0000    737.4776      2.1723      0.5611     60.2731
   995.0000      0.0000    744.5232      2.5173      0.5611     60.6777
   995.2500      0.0000    752.5206      2.9310      0.9093     61.0529
   995.5000      0.0000    760.1337      3.3905      0.5611     61.8864
   995.7500      0.0000    763.7891      3.8767      0.8223     63.7036
   996.0000      0.0000    762.4363      4.3740      0.6482     66.5523
   996.2500      0.0000    758.6915      4.8567      0.3000     69.9269
   996.5000      0.0000    755.5085      5.2782      0.5611     72.9598
   996.7500      0.0000    753.5317      5.5981      1.5187     74.7030
   997.0000      0.0000    751.2635      5.8394      2.5632     74.4312
   997.2500      0.0000    745.7625      6.1114      2.5632     72.0532
   997.5000      0.0000    732.5306      6.5530      2.6503     68.4621
   997.7500      0.0000    705.9554      7.2368      1.4316     65.2224
   998.0000      0.0000    662.1262      8.1181      0.8223     63.4397
   998.2500      0.0000    603.5269      9.0625      0.3000     62.8349
   998.5000      0.0000    542.5972      9.9109      0.4741     62.0949
   998.7500      0.0000    499.5693     10.5398     -0.0482     60.1730
   999.0000      0.0000    491.7711     10.9039      0.4741     57.3535
   999.2500      0.0000    518.7744     11.0583      5.1746     55.1928
   999.5000      0.0000    556.8358     11.1376     10.1363     55.3200
   999.7500      0.0000    573.1681     11.2774     13.1829     58.1313
  1000.0000      0.0000    551.3527     11.5063     10.2233     62.5812
  1000.2500      0.0000    504.8102     11.6828      9.4399     67.0210
  1000.5000      0.0000    465.4257     11.5449      8.3083     70.1509
  1000.7500      0.0000    458.5459     10.8728      8.6565     71.5191
  1001.0000      0.0000    485.8900      9.6667      7.3508     71.4798
  1001.2500      0.0000    528.2326      8.1935      5.5228     70.6625
  1001.5000      0.0000    563.2436      6.8558      2.6503     69.4621
  1001.7500      0.0000    582.4219      5.9883      3.4337     68.1784
  1002.0000      0.0000    592.2712      5.7238      2.9984     67.4854
  1002.2500      0.0000    601.9691      5.9631      0.2130     68.4565
  1002.5000      0.0000    614.7327      6.4154      1.9539     72.1075
  1002.7500      0.0000    631.1943      6.7230      4.5653     78.7391
  1003.0000      0.0000    653.5978      6.6751      1.2575     87.2216
  1003.2500      0.0000    681.1385      6.3510      1.6057     95.0881
  1003.5000      0.0000    705.5281      5.9944      1.2575    100.1367
  1003.7500      0.0000    717.4834      5.7434      3.1725    101.9757
  1004.0000      0.0000    716.8411      5.5602      3.7819    101.5517
  1004.2500      0.0000    712.7925      5.3935      4.0430     99.7701
  1004.5000      0.0000    714.2269      5.2855      4.2171     97.4214
  1004.7500      0.0000    721.9556      5.3019      3.4337     95.8192
  1005.0000      0.0000    730.9967      5.4327      3.0855     96.2974
  1005.2500      1.0000    737.7169      5.5875      2.9984     99.0222
  1005.5000      0.0000    741.4488      5.6862      3.3466    102.8593
  1005.7500      0.0000    740.9249      5.7622      3.6078    106.3980
  1006.0000      0.0000    734.0214      5.9516      2.2150    108.8698
  1006.2500      0.0000    721.7212      6.3470      2.9114    110.3294
  1006.5000      0.0000    708.6302      6.8941      3.7819    111.3051
  1006.7500      0.0000    697.9609      7.4709      5.1746    112.1834
  1007.0000      0.0000    687.5827      8.0065      2.6503    112.7911
  1007.2500      0.0000    672.5437      8.4728      3.5207    112.6715
  1007.5000      0.0000    651.1779      8.8335      8.3953    111.6906
  1007.7500      0.0000    627.5635      9.0561      2.3891    110.0317
  1008.0000      0.0000    607.7848      9.1281      4.3041    107.6086
  1008.2500      0.0000    595.0067      9.0381      5.4358    103.9619
  1008.5000      0.0000    588.4557      8.7911      5.7839     98.8809
  1008.7500      0.0000    585.5092      8.4592      4.4782     92.8041
  1009.0000      0.0000    583.5930      8.1760      5.3487     86.5230
  1009.2500      0.0000    580.6613      8.0443      5.2617     80.8009
  1009.5000      0.0000    575.4158      8.0621      6.2192     76.3049
  1009.7500      0.0000    567.9246      8.1479      5.0876     73.4831
  1010.0000      0.0000    559.8649      8.2291      5.4358     72.1592
  1010.2500      0.0000    553.1753      8.2923      5.3487     71.5021
  1010.5000      0.0000    547.8759      8.3586      7.0026     70.8600
  1010.7500      0.0000    541.5800      8.4374      6.2192     70.5367
  1011.0000      0.0000    531.9160      8.5143      6.5674     71.3027
  1011.2500      0.0000    519.6176      8.5695      5.2617     73.1638
  1011.5000      0.0000    508.3066      8.5980      7.0026     75.1868
  1011.7500      0.0000    499.9781      8.6198      6.7415     76.6456
  1012.0000      0.0000    491.1737      8.6763      7.6119     77.9177
  1012.2500      0.0000    475.9362      8.7990      6.3062     80.1675
  1012.5000      0.0000    453.0744      8.9695      5.8710     84.3580
  1012.7500      0.0000    428.3276      9.1173      5.2617     90.4783
  1013.0000      0.0000    408.8674      9.1672      4.5653     97.5182
  1013.2500      0.0000    397.7367      9.0919      4.8264    104.2069
  1013.5000      0.0000    393.8706      8.9202      4.6523    109.8172
  1013.7500      0.0000    395.2234      8.6985      4.3912    114.1763
  1014.0000      0.0000    400.4541      8.4555      3.9560    117.1506
  1014.2500      0.0000    408.4159      8.2110      3.8689    118.5216
  1014.5000      0.0000    417.3267      8.0079      3.3466    118.2266
  1014.7500      0.0000    424.7777      7.9147      4.0430    116.2410
  1015.0000      0.0000    428.5310      7.9847      3.3466    112.4081
  1015.2500      0.0000    428.0478      8.2080      2.9114    106.8793
  1015.5000      0.0000    426.6414      8.4970      2.6503    100.5219
  1015.7500      0.0000    431.3418      8.7284      2.3891     94.4376
  1016.0000      0.0000    447.6519      8.8188      2.7373     89.3238
  1016.2500      0.0000    473.2704      8.7706      2.3021     85.7038
  1016.5000      0.0000    498.9058      8.6444      3.6948     84.5462
  1016.7500      0.0000    516.9290      8.4918      2.3021     87.0869
  1017.0000      0.0000    528.3762      8.3204      2.9984     93.7028
  1017.2500      0.0000    541.0200      8.1168      3.9560    102.8753
  1017.5000      0.0000    562.3544      7.8967      3.1725    111.4503
  1017.7500      0.0000    595.3376      7.7315      4.6523    116.4072
