~Version Information
VERS.                      2.0: CWLS Log ASCII Standard - VERSION 2.0
WRAP.                       NO: One line per depth step
~Well Information Block
STRT.FT               298.0000: 
STOP.FT              1302.0000: 
STEP.FT                 0.1000: 
NULL.                -999.2500: 
COMP.          Pioneer Natural Resources: COMPANY
WELL.          Bouncer 41-27 Tr: WELL
FLD.           Purgatoire River: FIELD
LOC.           292' FNL & 222' FEL: LOCATION
PROV.                 Colorado: PROVINCE
CNTY.               Las Animas: COUNTRY
SRVC.                Patterson: SERVICE COMPANY
DATE.          Mon Feb 07 12:55:19 2005: LOG DATE
UWI.           05 071 08291 00: UNIQUE WELL ID
~Curve Information Block
DEPT.FT            0 000 00 00: Depth
DCAL.in                       : CDL Caliper
RHOB.g/cc                     : CDL Bulk Density
RHOC.g/cc                     : CDL Density Correction
DPOR.pu                       : CDL Density Porosity
GR.GAPI                       : Gamma Ray
NPOR.pu                       : Neutron Porosity
~Parameter Information Block
~A  Depth       DCAL        RHOB        RHOC        DPOR         GR         NPOR    
# ...
   557.2000      8.0954      2.3230     -0.0139     19.8183    138.1881     26.7883
   557.3000      8.0921      2.3465      0.0225     18.3969    134.2643     27.3752
   557.4000      8.0921      2.3890      0.0509     15.8187    132.4559     27.9427
   557.5000      8.0902      2.4318      0.1258     13.2222    130.5981     28.4049
   557.6000      8.0902      2.4661      0.0996     11.1480    125.4988     28.8444
   557.7000      8.0902      2.4956      0.1427      9.3556    120.1603     29.7300
   557.8000      8.0517      2.5125      0.1228      8.3311    120.4922     30.7327
   557.9000      8.0517      2.5085      0.0986      8.5755    124.6872     31.1636
   558.0000      8.0333      2.5003      0.0626      9.0717    125.6261     31.2575
   558.1000      8.0333      2.5202     -0.0069      7.8657    122.5312     31.5315
   558.2000      8.0333      2.5844      0.0529      3.9768    117.6016     32.2489
   558.3000      7.9766      2.6888      0.0911     -2.3487    110.8384     33.5888
   558.4000      7.9766      2.8262      0.1498    -10.6804    103.7760     35.1812
   558.5000      7.9432      2.9786      0.2143    -19.9141     95.7896     36.3370
   558.6000      7.9432      3.1203      0.2929    -28.5014     86.0613     37.1138
   558.7000      7.9432      3.2396      0.3507    -35.7341     77.3570     37.6918
   558.8000      7.8969      3.3266      0.3308    -41.0057     70.6339     37.6850
   558.9000      7.8969      3.3539      0.3432    -42.6579     66.6700     37.0852
   559.0000      7.8811      3.3081      0.2109    -39.8842     66.6885     36.3646
   559.1000      7.8811      3.2239      0.0512    -34.7804     69.1327     35.2326
   559.2000      7.8811      3.1702     -0.0915    -31.5259     71.2273     33.2642
   559.3000      7.8736      3.1756      0.0022    -31.8528     71.7452     31.0308
   559.4000      7.8736      3.1704      0.1362    -31.5368     71.8450     29.2070
   559.5000      7.9128      3.0902      0.0847    -26.6792     75.0790     27.7657
   559.6000      7.9128      2.9667      0.0413    -19.1919     84.4436     26.2926
   559.7000      7.9128      2.8454      0.0481    -11.8397     96.7056     24.8845
   559.8000      7.8466      2.7401      0.0107     -5.4621    106.6424     23.9223
   559.9000      7.8466      2.6554     -0.0532     -0.3269    113.3809     23.1749
   560.0000      7.8007      2.5871     -0.0521      3.8145    116.2561     22.4249
   560.1000      7.8007      2.5337     -0.0025      7.0467    116.4081     21.8985
   560.2000      7.8007      2.5072      0.0243      8.6523    118.1645     21.7974
   560.3000      7.9490      2.5102      0.1313      8.4713    122.3951     22.1710
   560.4000      7.9490      2.5245      0.1162      7.6065    125.4338     22.7832
   560.5000      7.9993      2.5414      0.1331      6.5797    125.2017     23.3712
   560.6000      7.9993      2.5540      0.2015      5.8178    122.5374     23.9126
   560.7000      7.9993      2.5453      0.1350      6.3485    120.0036     24.4547
   560.8000      7.9797      2.5199      0.1018      7.8840    119.0253     25.0269
   560.9000      7.9797      2.4927      0.1329      9.5336    118.1969     25.5974
   561.0000      7.9774      2.4656      0.0799     11.1745    118.5263     25.9822
   561.1000      7.9774      2.4390      0.0632     12.7886    122.5235     26.2665
   561.2000      7.9774      2.4193      0.0119     13.9799    126.7988     26.5770
   561.3000      7.9823      2.4168      0.0375     14.1363    126.3045     26.7238
   561.4000      7.9823      2.4298      0.0700     13.3454    123.7696     26.6245
   561.5000      8.0195      2.4469      0.0641     12.3071    123.5305     26.4170
   561.6000      8.0195      2.4686      0.0612     10.9959    125.5041     26.5122
   561.7000      8.0195      2.4939      0.1051      9.4591    127.7563     26.8366
   561.8000      8.0422      2.5021      0.1523      8.9662    128.9045     26.7796
   561.9000      8.0422      2.4882      0.1539      9.8033    130.6022     26.3609
   562.0000      8.0406      2.4756      0.1781     10.5700    132.2971     25.9192
   562.1000      8.0406      2.4664      0.1958     11.1293    129.7738     25.6506
   562.2000      8.0406      2.4530      0.1228     11.9412    125.7016     25.6092
   562.3000      7.9652      2.4545      0.0852     11.8491    126.0096     25.3790
   562.4000      7.9652      2.4773      0.1518     10.4655    126.3333     24.8268
   562.5000      7.9384      2.4956      0.1964      9.3589    123.7253     24.6197
   562.6000      7.9384      2.4945      0.1555      9.4242    123.0530     24.8761
   562.7000      7.9384      2.4851      0.1682      9.9933    124.4786     24.9809
   562.8000      7.9433      2.4822      0.1819     10.1726    126.3295     24.8366
   562.9000      7.9433      2.4864      0.1803      9.9164    129.6536     24.6747
   563.0000      7.9966      2.4931      0.1584      9.5083    134.4503     24.5926
   563.1000      7.9966      2.5012      0.1744      9.0159    139.3897     24.7298
   563.2000      7.9966      2.5038      0.1563      8.8599    141.0743     25.1014
   563.3000      8.0126      2.4931      0.1574      9.5076    139.0578     25.3312
   563.4000      8.0126      2.4712      0.1329     10.8355    134.6294     25.0707
   563.5000      8.0387      2.4457      0.1385     12.3845    127.1588     24.6686
   563.6000      8.0387      2.4290      0.0496     13.3968    122.8022     24.6086
   563.7000      8.0387      2.4357      0.0796     12.9886    128.2102     24.8832
   563.8000      8.0482      2.4552      0.0840     11.8050    137.6324     24.8032
   563.9000      8.0482      2.4483      0.0962     12.2248    143.6822     23.7154
   564.0000      8.0643      2.3925      0.0381     15.6057    145.4483     21.9929
   564.1000      8.0643      2.3097      0.0184     20.6216    144.1168     20.5391
   564.2000      8.0643      2.2314     -0.0825     25.3669    142.3505     19.7596
   564.3000      8.1064      2.1610     -0.0225     29.6363    140.9098     19.3981
   564.4000      8.1064      2.0806     -0.0389     34.5079    136.0967     19.1211
   564.5000      8.1542      1.9893     -0.0849     40.0419    127.5687     18.9919
   564.6000      8.1542      1.9065     -0.1071     45.0611    119.4359     19.0042
   564.7000      8.1542      1.8487     -0.0975     48.5645    114.0017     19.1158
   564.8000      8.1647      1.8195     -0.0488     50.3305    111.6305     19.4787
   564.9000      8.1647      1.8202     -0.0177     50.2939    112.9293     19.9499
   565.0000      8.1911      1.8621      0.0255     47.7520    117.1763     20.4594
   565.1000      8.1911      1.9429      0.1619     42.8524    121.5128     21.2291
   565.2000      8.1911      2.0252      0.1957     37.8647    123.8717     22.2444
   565.3000      8.2394      2.0807      0.1294     34.5060    125.0304     23.3453
   565.4000      8.2394      2.1245      0.0994     31.8483    127.0040     24.2944
   565.5000      8.2840      2.1819      0.1465     28.3698    131.7133     25.0443
   565.6000      8.2840      2.2544      0.1312     23.9781    138.2379     25.7578
   565.7000      8.2840      2.3250      0.1535     19.6947    140.0159     26.0850
   565.8000      8.1749      2.3765      0.0953     16.5759    136.3010     25.8671
   565.9000      8.1749      2.4060      0.0924     14.7893    136.0818     25.8554
   566.0000      8.0892      2.4132      0.1040     14.3488    141.3930     26.5024
   566.1000      8.0892      2.4049      0.0003     14.8569    144.2085     27.1427
   566.2000      8.0892      2.4001      0.0641     15.1466    140.2182     27.0149
   566.3000      8.0683      2.3987      0.0329     15.2319    132.8277     26.1818
   566.4000      8.0683      2.3884      0.0470     15.8562    125.6442     25.1240
   566.5000      8.0837      2.3781     -0.0229     16.4767    118.9358     24.0636
   566.6000      8.0837      2.3836      0.0414     16.1441    113.6700     23.2051
   566.7000      8.0837      2.3933      0.0509     15.5558    111.3720     22.8387
