~Version Information
VERS.                      2.0: CWLS Log ASCII Standard - VERSION 2.0
WRAP.                       NO: One line per depth step
~Well Information Block
STRT.FT               292.0000: 
STOP.FT               801.0000: 
STEP.FT                 0.1000: 
NULL.                -999.2500: 
COMP.          Pioneer Natural Resources: COMPANY
WELL.          HG Duran 34-27 Tr: WELL
FLD.           Purgatoire River: FIELD
LOC.           1076' FSL & 1465' FEL: LOCATION
PROV.                 Colorado: PROVINCE
CNTY.               Las Animas: COUNTRY
SRVC.                Patterson: SERVICE COMPANY
DATE.          Wed Apr 13 08:36:06 2005: LOG DATE
UWI.           05 071 08218 00: UNIQUE WELL ID
~Curve Information Block
DEPT.FT            0 000 00 00: Depth
DCAL.in                       : CDL Caliper
RHOB.g/cc                     : CDL Bulk Density
RHOC.g/cc                     : CDL Density Correction
DPOR.pu                       : CDL Density Porosity
GR.GAPI                       : Gamma Ray
NPOR.pu                       : Neutron Porosity
~Parameter Information Block
~A  Depth       DCAL        RHOB        RHOC        DPOR         GR         NPOR    
   292.0000      4.8631      0.5692     -0.1718    126.1065    123.3979     19.3419
   292.1000      4.8631      0.5595     -0.2517    126.6992    123.3682     18.1590
   292.2000      4.8631      0.5540     -0.2546    127.0306    120.6655     17.3048
   292.3000      4.8573      0.5656     -0.2212    126.3301    116.8645     17.0294
   292.4000      4.8573      0.5847     -0.1479    125.1676    112.2236     17.3124
   292.5000      4.8428      0.5971     -0.1859    124.4212    108.3621     18.1946
   292.6000      4.8428      0.6011     -0.1956    124.1758    110.8146     19.2806
   292.7000      4.8428      0.5906     -0.1004    124.8136    116.6487     19.8570
   292.8000      4.8544      0.5657     -0.2289    126.3224    118.4382     19.8551
   292.9000      4.8544      0.5513     -0.2366    127.1946    116.8652     19.5887
   293.0000      4.8590      0.5540     -0.1697    127.0277    116.6831     18.9851
   293.1000      4.8590      0.5551     -0.2168    126.9614    118.5384     18.0182
   293.2000      4.8590      0.5485     -0.2456    127.3623    119.7437     17.0948
   293.3000      4.8486      0.5404     -0.2265    127.8544    118.3219     16.5844
   293.4000      4.8486      0.5410     -0.2659    127.8183    115.9307     16.4627
   293.5000      4.8529      0.5569     -0.1992    126.8550    116.5309     16.1552
   293.6000      4.8529      0.5681     -0.1660    126.1778    120.4499     15.5544
   293.7000      4.8529      0.5505     -0.2172    127.2449    121.6013     15.1715
   293.8000      4.8570      0.5181     -0.3043    129.2083    117.0710     15.1390
   293.9000      4.8570      0.4968     -0.2676    130.4944    112.9306     15.6987
   294.0000      4.8539      0.4879     -0.2798    131.0353    111.6378     16.7028
   294.1000      4.8539      0.4929     -0.3292    130.7353    109.4613     17.4235
   294.2000      4.8539      0.5174     -0.2570    129.2470    108.7659     18.0245
   294.3000      4.8535      0.5430     -0.1933    127.6988    112.0252     18.7458
   294.4000      4.8535      0.5544     -0.2468    127.0075    114.7622     18.8656
   294.5000      4.8438      0.5654     -0.2349    126.3386    114.2232     18.2337
   294.6000      4.8438      0.5826     -0.1958    125.2996    111.0922     17.5260
   294.7000      4.8438      0.5880     -0.1688    124.9709    107.1794     16.7880
   294.8000      4.8440      0.5706     -0.2240    126.0244    105.4811     15.8850
   294.9000      4.8440      0.5466     -0.2600    127.4778    105.4452     15.1575
   295.0000      4.8581      0.5401     -0.2944    127.8749    105.0661     14.8731
   295.1000      4.8581      0.5559     -0.2358    126.9180    101.8592     14.6794
   295.2000      4.8581      0.5830     -0.2046    125.2738     96.4231     14.1573
   295.3000      4.8561      0.6145     -0.2107    123.3626     94.3117     13.6935
   295.4000      4.8561      0.6476     -0.1378    121.3589    100.9233     13.6938
   295.5000      4.8502      0.6801     -0.1599    119.3850    113.6328     13.8792
   295.6000      4.8502      0.7182     -0.1449    117.0805    120.0222     14.2208
   295.7000      4.8502      0.7630     -0.0987    114.3618    112.1609     14.9764
   295.8000      4.8442      0.8072     -0.1133    111.6822     97.9233     15.7812
   295.9000      4.8442      0.8542     -0.0985    108.8353     88.3740     16.0778
   296.0000      4.8585      0.9159     -0.1021    105.0965     88.0429     15.8251
   296.1000      4.8585      0.9996     -0.0828    100.0230     96.3405     15.4984
   296.2000      4.8585      1.1048     -0.0019     93.6472    106.7965     15.7486
   296.3000      4.8472      1.2288      0.0501     86.1331    112.3046     16.5491
   296.4000      4.8472      1.3682      0.1733     77.6844    110.6188     17.3922
   296.5000      4.8611      1.5093      0.2386     69.1355    103.7023     17.8619
   296.6000      4.8611      1.6404      0.2969     61.1872     99.6134     17.5601
   296.7000      4.8611      1.7644      0.3439     53.6757    103.8024     16.5371
   296.8000      4.8502      1.8807      0.4305     46.6241    109.8959     15.2357
   296.9000      4.8502      1.9822      0.4995     40.4743    114.2433     14.5127
   297.0000      4.8586      2.0796      0.4918     34.5707    121.4694     14.7796
   297.1000      4.8586      2.1892      0.5774     27.9296    129.5255     15.1795
   297.2000      4.8586      2.2962      0.6400     21.4418    131.3658     14.9996
   297.3000      4.8663      2.3789      0.6800     16.4279    125.4489     15.0372
   297.4000      4.8663      2.4716      0.6322     10.8133    113.4059     16.0504
   297.5000      4.8764      2.6627      0.7164     -0.7692    102.3957     17.1151
   297.6000      4.8764      2.9902      0.7804    -20.6198    102.9672     16.9008
   297.7000      4.8764      3.3597      0.9120    -43.0118    113.7003     16.0105
   297.8000      2.7218      3.6194      0.9569    -58.7513    122.7881     15.9121
   297.9000      2.7218      3.7131      0.9399    -64.4330    126.0993     16.6645
   298.0000    -10.7667      3.6770      0.8909    -62.2409    129.6772     17.2059
   298.1000    -10.7667      3.5035      0.9244    -51.7296    138.3936     17.1573
   298.2000    -10.7667      3.1600      0.4246    -30.9068    145.8508     17.0076
   298.3000      5.5622      2.7562     -0.3500     -6.4355    144.7116     17.0840
   298.4000      5.5622      2.4762     -0.4843     10.5341    139.1705     17.3548
   298.5000      8.0582      2.3607     -0.5312     17.5308    137.5807     17.4992
   298.6000      8.0582      2.3302     -0.4833     19.3835    142.8068     17.5628
   298.7000      8.0582      2.3085     -0.4322     20.6966    150.0403     17.9024
   298.8000      8.0644      2.2741     -0.5261     22.7817    151.4871     18.1230
   298.9000      8.0644      2.2513     -0.5792     24.1626    146.1753     17.9766
   299.0000      8.0581      2.2502     -0.4998     24.2322    135.9998     18.2270
   299.1000      8.0581      2.2427     -0.4491     24.6862    125.0440     18.7687
   299.2000      8.0581      2.2056     -0.4677     26.9316    119.2221     18.4756
   299.3000      8.0511      2.1529     -0.5040     30.1290    118.4628     17.6033
   299.4000      8.0511      2.1350     -0.5800     31.2106    118.5664     17.0453
   299.5000      8.0297      2.1899     -0.5040     27.8840    119.4024     16.7321
   299.6000      8.0297      2.2907     -0.3388     21.7764    124.2714     16.6034
   299.7000      8.0297      2.3937     -0.3534     15.5354    133.0589     16.6986
   299.8000      7.9690      2.4789     -0.1790     10.3712    141.7027     16.9361
   299.9000      7.9690      2.5259     -0.2281      7.5194    147.8105     17.1247
   300.0000      7.9408      2.5262     -0.2119      7.5029    151.3460     17.1286
   300.1000      7.9408      2.4867     -0.2494      9.8974    151.9288     17.4433
   300.2000      7.9408      2.4279     -0.3139     13.4615    146.3897     18.1950
   300.3000      7.9023      2.3677     -0.3384     17.1074    136.4566     18.6432
   300.4000      7.9023      2.3149     -0.4287     20.3097    128.8399     18.7808
   300.5000      7.8605      2.2998     -0.4742     21.2261    124.0243     19.3459
   300.6000      7.8605      2.3418     -0.4057     18.6768    117.6171     20.1831
   300.7000      7.8605      2.4022     -0.3272     15.0168    109.5852     20.5747
   300.8000      7.7729      2.4330     -0.3385     13.1488    105.1260     20.7284
   300.9000      7.7729      2.4551     -0.4312     11.8114    107.8020     21.0274
   301.0000      7.7434      2.4937     -0.2513      9.4719    115.4414     21.4532
   301.1000      7.7434      2.5102     -0.2810      8.4720    124.6669     21.8669
   301.2000      7.7434      2.4847     -0.3299     10.0168    134.7107     22.1574
   301.3000      7.7383      2.4388     -0.2799     12.8017    141.7583     22.0712
   301.4000      7.7383      2.4039     -0.3586     14.9180    138.2132     21.0046
   301.5000      7.7413      2.4108     -0.3371     14.4955    126.4300     18.9356
