~Version Information
VERS.                      2.0: CWLS Log ASCII Standard - VERSION 2.0
WRAP.                       NO: One line per depth step
~Well Information Block
STRT.FT               392.5000: 
STOP.FT              2252.6000: 
STEP.FT                 0.1000: 
NULL.                -999.2500: 
COMP.          Petrogulf Corporation: COMPANY
WELL.          Alexander 9-43V: WELL
FLD.           Purgatorie River: FIELD
LOC.           1651' FSL & 1081' FEL: LOCATION
CNTY.               Las Animas: COUNTY
SRVC.                         : SERVICE COMPANY
DATE.          Mon Mar 17 08:48:25 2003: LOG DATE
UWI.           05 071 07727 00: UNIQUE WELL ID
STAT.                 Colorado: STATE
~Curve Information Block
DEPT.FT            0 000 00 00: Depth
DCAL.in                       : CDL Caliper
RHOB.g/cc                     : CDL Bulk Density
RHOC.g/cc                     : CDL Density Correction
DPOR.pu                       : CDL Density Porosity
GR.GAPI                       : Gamma Ray
NPOR.pu                       : Neutron Porosity
~Parameter Information Block
~A  Depth       DCAL        RHOB        RHOC        DPOR         GR         NPOR    
# ...
  1150.9000      8.2467      1.7724      0.1465     53.1855     90.8468     19.8420
  1151.0000      8.3568      1.7835      0.1693     52.5146     90.6970     21.0086
  1151.1000      8.3568      1.8007      0.1887     51.4736     90.6970     22.2595
  1151.2000      8.3568      1.8236      0.2033     50.0871     90.6970     23.5513
  1151.3000      8.4448      1.8516      0.2124     48.3866     94.6808     24.8375
  1151.4000      8.4448      1.8842      0.2156     46.4093     94.6808     26.0722
  1151.5000      8.3754      1.9208      0.2132     44.1969    102.8647     27.2132
  1151.6000      8.3754      1.9604      0.2055     41.7952    102.8647     28.2254
  1151.7000      8.3754      2.0023      0.1935     39.2531    102.8647     29.0829
  1151.8000      8.2002      2.0457      0.1783     36.6214    114.4033     29.7705
  1151.9000      8.2002      2.0898      0.1612     33.9521    114.4033     30.2843
  1152.0000      8.0669      2.1336      0.1433     31.2969    127.4753     30.6314
  1152.1000      8.0669      2.1764      0.1259     28.7052    127.4753     30.8280
  1152.2000      8.0669      2.2173      0.1098     26.2227    127.4753     30.8978
  1152.3000      8.0169      2.2558      0.0954     23.8889    139.8832     30.8685
  1152.4000      8.0169      2.2914      0.0831     21.7358    139.8832     30.7687
  1152.5000      8.0140      2.3235      0.0728     19.7865    150.0692     30.6257
  1152.6000      8.0140      2.3521      0.0644     18.0541    150.0692     30.4624
  1152.7000      8.0140      2.3771      0.0579     16.5421    150.0692     30.2964
  1152.8000      8.0264      2.3985      0.0530     15.2447    157.6659     30.1394
  1152.9000      8.0264      2.4165      0.0498     14.1487    157.6659     29.9975
  1153.0000      8.0376      2.4316      0.0482     13.2347    163.0820     29.8725
  1153.1000      8.0376      2.4441      0.0479     12.4797    163.0820     29.7634
  1153.2000      8.0376      2.4543      0.0489     11.8591    163.0820     29.6674
  1153.3000      8.0420      2.4627      0.0507     11.3486    166.5967     29.5815
  1153.4000      8.0420      2.4697      0.0530     10.9258    166.5967     29.5028
  1153.5000      8.0352      2.4756      0.0554     10.5710    167.8288     29.4288
  1153.6000      8.0352      2.4806      0.0576     10.2684    167.8288     29.3563
  1153.7000      8.0352      2.4849      0.0592     10.0056    167.8288     29.2818
  1153.8000      8.0200      2.4887      0.0600      9.7735    166.0592     29.2001
  1153.9000      8.0200      2.4922      0.0598      9.5660    166.0592     29.1045
  1154.0000      8.0099      2.4952      0.0586      9.3790    161.1003     28.9873
  1154.1000      8.0099      2.4980      0.0564      9.2097    161.1003     28.8406
  1154.2000      8.0099      2.5006      0.0533      9.0563    161.1003     28.6579
  1154.3000      8.0044      2.5029      0.0495      8.9169    153.8235     28.4352
  1154.4000      8.0044      2.5050      0.0452      8.7896    153.8235     28.1730
  1154.5000      7.9910      2.5069      0.0407      8.6719    145.8048     27.8759
  1154.6000      7.9910      2.5087      0.0363      8.5608    145.8048     27.5533
  1154.7000      7.9910      2.5105      0.0322      8.4531    145.8048     27.2179
  1154.8000      7.9680      2.5123      0.0289      8.3452    138.4943     26.8838
  1154.9000      7.9680      2.5141      0.0264      8.2339    138.4943     26.5652
  1155.0000      7.9525      2.5161      0.0252      8.1164    132.6786     26.2738
  1155.1000      7.9525      2.5182      0.0253      7.9907    132.6786     26.0179
  1155.2000      7.9525      2.5204      0.0267      7.8558    132.6786     25.8014
  1155.3000      7.9472      2.5227      0.0296      7.7121    128.3809     25.6237
  1155.4000      7.9472      2.5252      0.0335      7.5613    128.3809     25.4799
  1155.5000      7.9356      2.5278      0.0382      7.4058    124.9067     25.3621
  1155.6000      7.9356      2.5304      0.0433      7.2493    124.9067     25.2598
  1155.7000      7.9356      2.5329      0.0483      7.0960    124.9067     25.1613
  1155.8000      7.9172      2.5353      0.0528      6.9501    120.9718     25.0550
  1155.9000      7.9172      2.5375      0.0563      6.8156    120.9718     24.9297
  1156.0000      7.9056      2.5395      0.0586      6.6959    115.1437     24.7760
  1156.1000      7.9056      2.5412      0.0597      6.5939    115.1437     24.5867
  1156.2000      7.9056      2.5426      0.0595      6.5111    115.1437     24.3572
  1156.3000      7.9012      2.5436      0.0583      6.4483    106.6652     24.0862
  1156.4000      7.9012      2.5443      0.0564      6.4051    106.6652     23.7753
  1156.5000      7.8991      2.5447      0.0541      6.3806     96.1960     23.4295
  1156.6000      7.8991      2.5448      0.0517      6.3731     96.1960     23.0565
  1156.7000      7.8991      2.5447      0.0496      6.3803     96.1960     22.6667
  1156.8000      7.8996      2.5444      0.0478      6.4002     85.7084     22.2718
  1156.9000      7.8996      2.5439      0.0464      6.4300     85.7084     21.8847
  1157.0000      7.9027      2.5433      0.0455      6.4675     77.3106     21.5175
  1157.1000      7.9027      2.5426      0.0449      6.5101     77.3106     21.1806
  1157.2000      7.9027      2.5418      0.0447      6.5557     77.3106     20.8818
  1157.3000      7.9053      2.5411      0.0445      6.6021     71.8853     20.6253
  1157.4000      7.9053      2.5403      0.0444      6.6473     71.8853     20.4114
  1157.5000      7.9037      2.5396      0.0444      6.6893     68.7995     20.2367
  1157.6000      7.9037      2.5390      0.0443      6.7267     68.7995     20.0951
  1157.7000      7.9037      2.5385      0.0442      6.7579     68.7995     19.9790
  1157.8000      7.9004      2.5381      0.0441      6.7818     66.8078     19.8805
  1157.9000      7.9004      2.5378      0.0442      6.7974     66.8078     19.7929
  1158.0000      7.9013      2.5377      0.0444      6.8041     65.0932     19.7114
  1158.1000      7.9013      2.5378      0.0449      6.8015     65.0932     19.6342
  1158.2000      7.9013      2.5380      0.0457      6.7895     65.0932     19.5622
  1158.3000      7.9050      2.5383      0.0467      6.7680     63.5721     19.4983
  1158.4000      7.9050      2.5388      0.0481      6.7371     63.5721     19.4468
  1158.5000      7.9070      2.5395      0.0497      6.6975     62.5325     19.4120
  1158.6000      7.9070      2.5403      0.0516      6.6497     62.5325     19.3975
  1158.7000      7.9070      2.5412      0.0538      6.5948     62.5325     19.4052
  1158.8000      7.9069      2.5422      0.0560      6.5342     62.1611     19.4347
  1158.9000      7.9069      2.5432      0.0585      6.4702     62.1611     19.4840
  1159.0000      7.9065      2.5443      0.0609      6.4055     62.3802     19.5495
  1159.1000      7.9065      2.5453      0.0633      6.3437     62.3802     19.6271
  1159.2000      7.9065      2.5462      0.0655      6.2886     62.3802     19.7126
  1159.3000      7.9066      2.5470      0.0673      6.2451     62.9923     19.8033
  1159.4000      7.9066      2.5474      0.0685      6.2175     62.9923     19.8977
  1159.5000      7.9053      2.5475      0.0690      6.2105     63.8014     19.9955
  1159.6000      7.9053      2.5472      0.0686      6.2275     63.8014     20.0974
  1159.7000      7.9053      2.5465      0.0674      6.2713     63.8014     20.2041
  1159.8000      7.9019      2.5453      0.0652      6.3426     64.5725     20.3161
  1159.9000      7.9019      2.5437      0.0622      6.4406     64.5725     20.4323
  1160.0000      7.9006      2.5417      0.0585      6.5622     65.1060     20.5511
  1160.1000      7.9006      2.5394      0.0545      6.7026     65.1060     20.6696
  1160.2000      7.9006      2.5369      0.0505      6.8548     65.1060     20.7847
  1160.3000      7.9040      2.5343      0.0468      7.0110     65.4805     20.8940
  1160.4000      7.9040      2.5318      0.0438      7.1623     65.4805     20.9962
