~Version Information
VERS.                      2.0: CWLS Log ASCII Standard - VERSION 2.0
WRAP.                       NO: One line per depth step
~Well Information Block
STRT.FT                -7.0000: 
STOP.FT              1863.5000: 
STEP.FT                 0.2500: 
NULL.                -999.2500: 
COMP.          Pioneer Natural Resources: COMPANY
WELL.            Formula 23-11: WELL
FLD.           Purgatorie River: FIELD
LOC.           1976' FSL & 1935' FWL--: LOCATION
PROV.                       CO: PROVINCE
CNTY.               Las Animas: COUNTRY
SRVC.          Patterson Wireline: SERVICE COMPANY
DATE.          Wed Jun 15 14:44:40 2005: LOG DATE
UWI.           05 071 08399 00: UNIQUE WELL ID
~Curve Information Block
DEPT.FT            0 000 00 00: Depth
CCL.                          : Casing Collar Locator
TT3.usec                      : CBL 3' Travel Time
AMP3.mV                       : CBL 3' Amplitude
GR.GAPI                       : Gamma Ray
~Parameter Information Block
~A  Depth       CCL         TT3         AMP3         GR     
# ...
   227.5000      0.0000    814.2782      7.3372     62.5128
   227.7500      0.0000    800.5145      7.2983     63.8745
   228.0000      0.0000    788.7043      7.2581     64.8542
   228.2500      0.0000    782.9439      7.1970     64.9763
   228.5000      0.0000    782.1353      7.1089     64.3797
   228.7500      0.0000    782.7661      7.0053     63.4732
   229.0000      0.0000    782.9593      6.9114     62.7666
   229.2500      0.0000    782.7299      6.8554     62.7314
   229.5000      0.0000    781.8376      6.8532     63.3400
   229.7500      0.0000    779.3071      6.8987     63.6015
   230.0000      0.0000    774.8726      6.9678     62.0267
   230.2500      0.0000    769.6574      7.0327     58.0676
   230.5000      0.0000    764.9958      7.0788     53.0159
   230.7500      0.0000    761.1505      7.1113     49.1487
   231.0000      0.0000    757.6390      7.1409     48.0272
   231.2500      0.0000    754.3425      7.1661     49.6423
   231.5000      0.0000    751.7094      7.1807     52.7178
   231.7500      0.0000    750.0925      7.1923     55.5108
   232.0000      0.0000    749.3622      7.2169     56.7945
   232.2500      0.0000    749.1130      7.2576     56.5984
   232.5000      0.0000    748.9841      7.3038     55.8896
   232.7500      0.0000    748.7974      7.3433     55.3872
   233.0000      0.0000    748.5480      7.3638     54.8816
   233.2500      0.0000    748.3298      7.3528     53.8902
   233.5000      0.0000    748.2401      7.3121     52.6457
   233.7500      0.0000    748.3052      7.2653     51.9304
   234.0000      0.0000    748.4541      7.2380     51.9480
   234.2500      0.0000    748.5651      7.2362     51.8232
   234.5000      0.0000    748.5519      7.2527     50.4259
   234.7500      0.0000    748.4149      7.2801     47.5236
   235.0000      0.0000    748.2573      7.3118     44.0570
   235.2500      0.0000    748.3105      7.3402     41.4509
   235.5000      0.0000    748.9570      7.3628     40.6085
   235.7500      0.0000    750.5826      7.3814     41.3522
   236.0000      0.0000    753.1313      7.3916     42.7905
   236.2500      0.0000    755.7124      7.3847     44.1779
   236.5000      0.0000    756.9795      7.3637     45.2703
   236.7500      0.0000    756.2583      7.3466     46.0891
   237.0000      0.0000    754.2177      7.3459     46.7980
   237.2500      0.0000    752.2707      7.3509     47.7410
   237.5000      0.0000    751.5356      7.3421     49.1105
   237.7500      0.0000    752.3854      7.3159     50.4655
   238.0000      0.0000    754.4288      7.2848     50.8760
   238.2500      0.0000    756.5352      7.2590     49.7636
   238.5000      0.0000    757.2975      7.2447     47.5493
   238.7500      0.0000    756.0620      7.2562     45.3761
   239.0000      0.0000    753.4778      7.3074     44.1296
   239.2500      0.0000    750.8020      7.3888     43.7532
   239.5000      0.0000    748.8387      7.4704     43.5131
   239.7500      0.0000    747.6885      7.5265     42.8136
   240.0000      0.0000    747.1876      7.5436     41.7575
   240.2500      0.0000    747.2087      7.5086     41.1215
   240.5000      0.0000    747.5111      7.4091     41.7526
   240.7500      0.0000    747.4825      7.2446     43.8407
   241.0000      0.0000    746.6131      7.0248     46.8432
   241.2500      0.0000    746.0015      6.7596     50.0768
   241.5000      0.0000    749.0627      6.4623     53.1014
   241.7500      0.0000    759.0444      6.1587     55.5148
   242.0000      0.0000    775.3529      5.8832     56.8191
   242.2500      0.0000    793.7786      5.6682     56.7554
   242.5000      0.0000    810.8806      5.5330     55.5779
   242.7500      0.0000    826.8035      5.4692     53.8029
   243.0000      0.0000    843.3088      5.4406     51.8076
   243.2500     -2.0000    860.3796      5.4098     49.8444
   243.5000      0.0000    875.8879      5.3700     48.4331
   243.7500      0.0000    888.0444      5.3574     48.5094
   244.0000      0.0000    896.2211      5.4459     50.9375
   244.2500      0.0000    898.7234      5.7173     55.6932
   244.5000      0.0000    891.8569      6.1868     61.4999
   244.7500      0.0000    873.1948      6.7422     66.4739
   245.0000      0.0000    845.9329      7.2021     69.3448
   245.2500      0.0000    819.6305      7.4523     70.1875
   245.5000      0.0000    805.5565      7.5104     70.1421
   245.7500      0.0000    808.9209      7.4684     70.6021
   246.0000      0.0000    823.7867      7.4045     72.6044
   246.2500      0.0000    836.0793      7.3521     76.5692
   246.5000      0.0000    833.9896      7.3234     82.0643
   246.7500      0.0000    817.0715      7.3338     87.5683
   247.0000      0.0000    795.6303      7.3890     90.7800
   247.2500      0.0000    781.9705      7.4582     89.7765
   247.5000      0.0000    782.2690      7.4834     84.3837
   247.7500      0.0000    794.4524      7.4292     76.5254
   248.0000      0.0000    811.1652      7.3206     69.0562
   248.2500      0.0000    824.6951      7.2225     63.9172
   248.5000      0.0000    830.7139      7.1822     60.9974
   248.7500      0.0000    829.2968      7.1991     58.5582
   249.0000      0.0000    824.5372      7.2480     55.0223
   249.2500      0.0000    823.4579      7.3159     50.5838
   249.5000      0.0000    832.6218      7.4075     46.8803
   249.7500      0.0000    853.1891      7.5209     45.1208
   250.0000      0.0000    878.8109      7.6294     44.9458
   250.2500      0.0000    898.3308      7.6926     45.1596
   250.5000      0.0000    901.2999      7.6867     45.1212
   250.7500      0.0000    883.6653      7.6215     45.1873
   251.0000      0.0000    850.5381      7.5311     46.0379
   251.2500      0.0000    813.2363      7.4457     47.9565
   251.5000      0.0000    782.3836      7.3725     50.8090
   251.7500      0.0000    762.6912      7.3023     54.2974
   252.0000      0.0000    752.8767      7.2306     57.8783
   252.2500      0.0000    749.0507      7.1623     60.6619
   252.5000      0.0000    747.8961      7.0986     61.8496
   252.7500      0.0000    747.8304      7.0276     61.3789
   253.0000      0.0000    748.7106      6.9343     59.9712
   253.2500      0.0000    751.1093      6.8198     58.5267
   253.5000      0.0000    755.5126      6.7060     57.6170
   253.7500      0.0000    761.4141      6.6182     57.5047
   254.0000      0.0000    766.9880      6.5681     58.3133
   254.2500      0.0000    770.1609      6.5505     60.0372
   254.5000      0.0000    770.5154      6.5510     62.5401
   254.7500      0.0000    769.9170      6.5531     65.4908
   255.0000      0.0000    770.7985      6.5425     67.9407
   255.2500      0.0000    773.9005      6.5122     68.2545
   255.5000      0.0000    777.9649      6.4648     65.4003
   255.7500      0.0000    781.3251      6.4112     60.4578
   256.0000      0.0000    783.2608      6.3654     55.9770
   256.2500      0.0000    783.9902      6.3349     53.5367
   256.5000      0.0000    784.0135      6.3171     52.5336
   256.7500      0.0000    783.7169      6.3026     51.6182
   257.0000      0.0000    783.3478      6.2869     50.6924
   257.2500      0.0000    783.0716      6.2780     50.9581
   257.5000      0.0000    782.9721      6.2880     53.3311
   257.7500      0.0000    783.0032      6.3170     57.2534
   258.0000      0.0000    782.9542      6.3485     61.0420
   258.2500      0.0000    782.4724      6.3635     63.1850
   258.5000      0.0000    781.2243      6.3514     63.1986
   258.7500      0.0000    779.2661      6.3055     61.3103
   259.0000      0.0000    777.3547      6.2254     57.7568
   259.2500      0.0000    776.6125      6.1304     52.9329
   259.5000      0.0000    777.5562      6.0560     48.0616
   259.7500      0.0000    779.5596      6.0220     44.9315
   260.0000      0.0000    781.4669      6.0136     44.5383
   260.2500      0.0000    782.5747      6.0074     46.2067
   260.5000      0.0000    782.9101      6.0059     48.3418
   260.7500      0.0000    782.8396      6.0289     49.9042
