~Version Information
VERS.                      2.0: CWLS Log ASCII Standard - VERSION 2.0
WRAP.                       NO: One line per depth step
~Well Information Block
STRT.FT                -4.2500: 
STOP.FT              2018.7500: 
STEP.FT                 0.2500: 
NULL.                -999.2500: 
COMP.          Petrogulf Corporation: COMPANY
WELL.             State 16-21R: WELL
FLD.           Purgatoire River: FIELD
LOC.           203' FNL & 1560' FWL----: LOCATION
PROV.                 Colorado: PROVINCE
CNTY.               Las Animas: COUNTRY
SRVC.                         : SERVICE COMPANY
DATE.          Thu Sep 29 11:32:19 2005: LOG DATE
API.           05-071-08313 : API Number
~Curve Information Block
DEPT.FT            0 000 00 00: Depth
GR.GAPI                       : Gamma Ray
CCL.                          : Casing Collar Locator
AMP3.mV                       : CBL 3' Amplitude
AMP5.mV                       : CBL 5' Amplitude
~Parameter Information Block
~A  Depth        GR         CCL         AMP3        AMP5    
# ...
   799.7500    104.1504      0.0000      3.0608      0.2910
   800.0000    102.7750      0.0000      3.0924      0.2958
   800.2500    102.7610      0.0000      3.1385      0.2977
   800.5000    103.7564      0.0000      3.2018      0.2956
   800.7500    104.8039      0.0000      3.2770      0.2923
   801.0000    104.6446      0.0000      3.3457      0.2962
   801.2500    102.4566      0.0000      3.3855      0.3133
   801.5000     98.4540      0.0000      3.3904      0.3416
   801.7500     93.7925      0.0000      3.3823      0.3732
   802.0000     90.0102      0.0000      3.3965      0.4015
   802.2500     88.3376      0.0000      3.4512      0.4261
   802.5000     89.0060      0.0000      3.5288      0.4513
   802.7500     91.0009      0.0000      3.5933      0.4781
   803.0000     92.7061      0.0000      3.6291      0.4996
   803.2500     93.0733      0.0000      3.6572      0.5058
   803.5000     92.3117      0.0000      3.7090      0.4965
   803.7500     91.4382      0.0000      3.7876      0.4817
   804.0000     91.1973      0.0000      3.8637      0.4712
   804.2500     91.4121      0.0000      3.9061      0.4663
   804.5000     91.2204      0.0000      3.9062      0.4624
   804.7500     89.8819      0.0000      3.8734      0.4564
   805.0000     87.5961      0.0000      3.8164      0.4490
   805.2500     85.6579      0.0000      3.7378      0.4416
   805.5000     85.6247      0.0000      3.6424      0.4344
   805.7500     88.0868      0.0000      3.5415      0.4276
   806.0000     92.1267      0.0000      3.4455      0.4221
   806.2500     96.0747      0.0000      3.3583      0.4193
   806.5000     98.9346      0.0000      3.2811      0.4195
   806.7500    100.8698      0.0000      3.2154      0.4208
   807.0000    102.1350      0.0000      3.1600      0.4196
   807.2500    101.9080      0.0000      3.1112      0.4135
   807.5000     98.7652      0.0000      3.0750      0.4039
   807.7500     92.2259      0.0000      3.0721      0.3942
   808.0000     83.3549      0.0000      3.1224      0.3852
   808.2500     73.8824      0.0000      3.2248      0.3763
   808.5000     65.1626      0.0000      3.3545      0.3685
   808.7500     57.9727      0.0000      3.4764      0.3635
   809.0000     52.7297      0.0000      3.5632      0.3593
   809.2500     49.4776      0.0000      3.6100      0.3508
   809.5000     47.7882      0.0000      3.6330      0.3362
   809.7500     46.8897      0.0000      3.6510      0.3227
   810.0000     46.0218      0.0000      3.6672      0.3215
   810.2500     44.9157      0.0000      3.6705      0.3356
   810.5000     44.0643      0.0000      3.6509      0.3557
   810.7500     44.2769      0.0000      3.6083      0.3699
   811.0000     45.7894      0.0000      3.5516      0.3741
   811.2500     47.8722      0.0000      3.4916      0.3714
   811.5000     49.3661      0.0000      3.4361      0.3634
   811.7500     49.5170      0.0000      3.3882      0.3485
   812.0000     48.2508      0.0000      3.3482      0.3274
   812.2500     45.8237      0.0000      3.3154      0.3080
   812.5000     42.5940      0.0000      3.2916      0.3012
   812.7500     39.2284      0.0000      3.2807      0.3120
   813.0000     36.6633      0.0000      3.2833      0.3345
   813.2500     35.4486      0.0000      3.2936      0.3571
   813.5000     35.2668      0.0000      3.3024      0.3726
   813.7500     35.3698      0.0000      3.3010      0.3834
   814.0000     35.3925      0.0000      3.2867      0.3943
   814.2500     35.5804      0.0000      3.2697      0.4021
   814.5000     36.3455      0.0000      3.2676      0.4000
   814.7500     37.7567      0.0000      3.2855      0.3892
   815.0000     39.4569      0.0000      3.3075      0.3792
   815.2500     40.9967      0.0000      3.3170      0.3770
   815.5000     42.2698      0.0000      3.3208      0.3810
   815.7500     43.6783      0.0000      3.3459      0.3873
   816.0000     45.7029      0.0000      3.4114      0.3952
   816.2500     48.0117      0.0000      3.5070      0.4051
   816.5000     49.1028      0.0000      3.6004      0.4146
   816.7500     47.4070      0.0000      3.6655      0.4199
   817.0000     43.0506      0.0000      3.7002      0.4207
   817.2500     38.2562      0.0000      3.7194      0.4209
   817.5000     35.7571      0.0000      3.7353      0.4236
   817.7500     36.8606      0.0000      3.7512      0.4284
   818.0000     40.8808      0.0000      3.7677      0.4342
   818.2500     46.0147      0.0000      3.7907      0.4427
   818.5000     50.7190      0.0000      3.8244      0.4562
   818.7500     54.6812      0.0000      3.8622      0.4723
   819.0000     58.7381      0.0000      3.8910      0.4832
   819.2500     63.7725      0.0000      3.9078      0.4822
   819.5000     69.6679      0.0000      3.9232      0.4715
   819.7500     75.4539      0.0000      3.9466      0.4602
   820.0000     80.3447      0.0000      3.9755      0.4545
   820.2500     84.3378      0.0000      4.0038      0.4493
   820.5000     87.7793      0.0000      4.0339      0.4310
   820.7500     90.6989      0.0000      4.0733      0.3913
   821.0000     92.7848      0.0000      4.1210      0.3373
   821.2500     93.8517      0.0000      4.1623      0.2848
   821.5000     94.0415      0.0000      4.1814      0.2429
   821.7500     93.5404      0.0000      4.1737      0.2091
   822.0000     92.4107      0.0000      4.1448      0.1767
   822.2500     90.8911      0.0000      4.0950      0.1434
   822.5000     89.6076      0.0000      4.0091      0.1128
   822.7500     89.1532      0.0000      3.8686      0.0904
   823.0000     89.4825      0.0000      3.6832      0.0779
   823.2500     89.9081      0.0000      3.5107      0.0711
   823.5000     89.6115      0.0000      3.4278      0.0651
   823.7500     88.0735      0.0000      3.4522      0.0582
   824.0000     85.2979      0.0000      3.5001      0.0513
   824.2500     81.8601      0.0000      3.4571      0.0461
   824.5000     78.4791      0.0000      3.2913      0.0426
   824.7500     75.3778      0.0000      3.0653      0.0383
   825.0000     72.4090      0.0000      2.8497      0.0296
   825.2500     69.9383      1.4655      2.6683      0.0161
   825.5000     69.0000      0.0000      2.5227      0.0030
   825.7500     70.2192      0.0000      2.4357     -0.0029
   826.0000     73.0665      0.0000      2.4518      0.0007
   826.2500     76.5422      0.0000      2.5932      0.0105
   826.5000     80.1456      0.0000      2.8132      0.0208
   826.7500     83.7920      0.0000      3.0013      0.0298
   827.0000     87.1819      0.0000      3.0548      0.0434
   827.2500     89.7371      0.0000      2.9501      0.0706
   827.5000     91.2493      0.0000      2.7469      0.1116
   827.7500     92.4150      0.0000      2.5344      0.1514
   828.0000     94.3648      0.0000      2.3791      0.1706
   828.2500     97.4165      0.0000      2.3027      0.1636
   828.5000    100.5879      0.0000      2.2843      0.1422
   828.7500    102.6471      0.0000      2.2787      0.1239
   829.0000    103.3123      0.0000      2.2434      0.1191
   829.2500    103.1333      0.0000      2.1610      0.1278
   829.5000    102.5881      0.0000      2.0433      0.1458
   829.7500    101.6350      0.0000      1.9173      0.1696
   830.0000     99.8821      0.0000      1.8130      0.1957
   830.2500     97.0582      0.0000      1.7603      0.2168
   830.5000     93.6093      0.0000      1.7808      0.2252
   830.7500     90.8439      0.0000      1.8719      0.2210
   831.0000     90.0704      0.0000      2.0002      0.2118
   831.2500     91.4860      0.0000      2.1198      0.2041
   831.5000     94.1345      0.0000      2.2002      0.1987
   831.7500     96.7859      0.0000      2.2414      0.1946
   832.0000     98.5760      0.0000      2.2668      0.1919
   832.2500     98.9977      0.0000      2.3023      0.1908
   832.5000     97.6727      0.0000      2.3615      0.1900
   832.7500     94.2895      0.0000      2.4488      0.1880
   833.0000     88.8556      0.0000      2.5655      0.1869
