~Version Information
VERS.                      2.0: CWLS Log ASCII Standard - VERSION 2.0
WRAP.                       NO: One line per depth step
~Well Information Block
STRT.FT               620.0000: 
STOP.FT              2660.0000: 
STEP.FT                 0.1000: 
NULL.                -999.2500: 
COMP.          Evergreen Operating Corporation: COMPANY
WELL.             Carbon 34-21: WELL
FLD.           Purgatoire River: FIELD
LOC.           56' FSL & 2304' FEL: LOCATION
PROV.                 Colorado: PROVINCE
CNTY.               Las Animas: COUNTRY
SRVC.                Patterson: SERVICE COMPANY
DATE.          Mon Sep 13 14:13:15 2004: LOG DATE
UWI.           05 071 08117 00: UNIQUE WELL ID
~Curve Information Block
DEPT.FT            0 000 00 00: Depth
DCAL.in                       : CDL Caliper
DPOR.pu                       : CDL Density Porosity
NPOR.pu                       : Neutron Porosity
RHOB.g/cc                     : CDL Bulk Density
RHOC.g/cc                     : CDL Density Correction
GR.GAPI                       : Gamma Ray
~Parameter Information Block
~A  Depth       DCAL        DPOR        NPOR        RHOB        RHOC         GR     
# ...
  1570.4000      8.1499      4.7721     27.0611      2.5713      0.0193    112.6594
  1570.5000      8.1599      6.0653     27.4936      2.5499      0.0800    113.6179
  1570.6000      8.1599      7.9514     28.0192      2.5188      0.0780    118.5299
  1570.7000      8.1599     10.4906     28.3204      2.4769      0.0243    127.6493
  1570.8000      8.1610     11.8032     28.7124      2.4552      0.0071    130.9737
  1570.9000      8.1610     11.2863     29.3571      2.4638      0.0577    124.4805
  1571.0000      8.1599     10.4822     29.8939      2.4770      0.0700    120.9857
  1571.1000      8.1599     10.3544     30.0109      2.4792      0.0747    129.7486
  1571.2000      8.1599     10.5436     29.6565      2.4760      0.0815    140.1690
  1571.3000      8.1588     10.6951     29.5025      2.4735      0.0730    143.3426
  1571.4000      8.1588     10.8196     29.8264      2.4715      0.0883    143.2328
  1571.5000      8.1600     11.0015     29.7674      2.4685      0.0915    141.8543
  1571.6000      8.1600     10.9878     29.1060      2.4687      0.0490    137.9666
  1571.7000      8.1600     10.5306     28.7703      2.4762      0.1100    132.6074
  1571.8000      8.1655     10.0465     29.1020      2.4842      0.0971    129.8138
  1571.9000      8.1655      9.8171     29.6054      2.4880      0.0966    135.0406
  1572.0000      8.1699      9.7662     29.9584      2.4889      0.1125    148.7113
  1572.1000      8.1699      9.5343     29.9492      2.4927      0.0501    160.0254
  1572.2000      8.1699      8.6013     29.6371      2.5081      0.0672    163.0282
  1572.3000      8.1666      7.3484     29.7258      2.5288      0.0737    165.7006
  1572.4000      8.1666      6.5929     30.2529      2.5412      0.1183    171.9162
  1572.5000      8.1627      6.6706     30.4301      2.5399      0.1389    168.8405
  1572.6000      8.1627      7.3951     30.0562      2.5280      0.1165    149.9104
  1572.7000      8.1627      8.4906     29.3290      2.5099      0.0734    136.4462
  1572.8000      8.1613     10.4288     28.5506      2.4779      0.0714    144.3967
  1572.9000      8.1613     13.2879     28.0333      2.4307     -0.0149    157.8046
  1573.0000      8.1626     15.0450     27.6843      2.4018     -0.0516    159.0421
  1573.1000      8.1626     14.1605     27.5101      2.4164     -0.0136    149.9216
  1573.2000      8.1626     11.9974     27.7703      2.4520      0.0067    138.7792
  1573.3000      8.1712     10.4132     28.2793      2.4782      0.0119    134.3966
  1573.4000      8.1712      9.6930     28.3960      2.4901      0.0937    135.0380
  1573.5000      8.1853      9.3496     27.9396      2.4957      0.0981    134.2671
  1573.6000      8.1853      9.3982     27.8213      2.4949      0.1231    135.4701
  1573.7000      8.1853     10.2887     28.4054      2.4802      0.0647    135.3807
  1573.8000      8.1967     11.9417     29.0105      2.4530      0.0781    128.4618
  1573.9000      8.1967     14.1866     29.4081      2.4159      0.1077    120.5868
  1574.0000      8.2044     16.7196     29.5595      2.3741      0.0884    115.3839
  1574.1000      8.2044     18.8740     29.4533      2.3386      0.0809    112.9835
  1574.2000      8.2044     20.1366     29.5649      2.3177     -0.0194    113.7704
  1574.3000      8.2073     20.9426     30.0454      2.3044      0.0448    113.9003
  1574.4000      8.2073     22.8872     30.7012      2.2724      0.0354    113.7043
  1574.5000      8.2091     26.4648     31.1242      2.2133      0.0026    119.7047
  1574.6000      8.2091     31.1766     31.0922      2.1356      0.0499    129.2867
  1574.7000      8.2091     36.9519     31.3673      2.0403     -0.0108    131.6810
  1574.8000      8.2107     43.2111     32.3429      1.9370     -0.0196    122.8007
  1574.9000      8.2107     49.0863     33.5782      1.8401     -0.0439    112.4827
  1575.0000      8.2104     54.1873     34.4979      1.7559     -0.0630    109.3034
  1575.1000      8.2104     58.3093     34.6310      1.6879     -0.1068    107.1947
  1575.2000      8.2104     61.0154     34.3582      1.6432     -0.0992    100.5756
  1575.3000      8.2061     62.0368     34.2760      1.6264     -0.0562     91.4672
  1575.4000      8.2061     61.9257     34.1174      1.6282      0.0587     78.5936
  1575.5000      8.1974     61.5658     33.6744      1.6342      0.1190     63.5406
  1575.6000      8.1974     60.7233     33.1990      1.6481      0.0997     52.2530
  1575.7000      8.1974     58.0061     33.0041      1.6929      0.0963     49.7543
  1575.8000      8.1934     52.7996     33.3523      1.7788      0.1494     58.3349
  1575.9000      8.1934     46.3594     33.9938      1.8851      0.1847     72.2142
  1576.0000      8.2029     40.6815     33.9953      1.9788      0.1790     83.3475
  1576.1000      8.2029     36.6722     33.0803      2.0449      0.1496     90.0478
  1576.2000      8.2029     33.5232     32.2564      2.0969      0.1396     95.9724
  1576.3000      8.2151     30.2983     31.9889      2.1501      0.1841    104.6658
  1576.4000      8.2151     27.2028     31.4237      2.2012      0.1554    113.6281
  1576.5000      8.2306     24.5274     30.0843      2.2453      0.1219    118.4776
  1576.6000      8.2306     21.7815     28.6487      2.2906      0.0915    119.2013
  1576.7000      8.2306     18.5566     27.9982      2.3438      0.0880    119.1843
  1576.8000      8.2802     15.6260     28.1635      2.3922      0.1146    122.0309
  1576.9000      8.2802     14.0687     28.5787      2.4179      0.0872    124.9952
  1577.0000      8.4114     14.0340     28.9416      2.4184      0.1348    120.2704
  1577.1000      8.4114     14.8970     29.3741      2.4042      0.0932    112.1418
  1577.2000      8.4114     15.8668     30.1428      2.3882      0.1070    113.8977
  1577.3000      8.5906     17.3907     31.2871      2.3631      0.1349    126.3664
  1577.4000      8.5906     20.7402     32.3055      2.3078      0.1206    141.4409
  1577.5000      8.6936     25.7730     33.0802      2.2247      0.0610    149.0084
  1577.6000      8.6936     31.2003     33.7688      2.1352      0.0308    141.6339
  1577.7000      8.6936     36.3712     34.0635      2.0499     -0.0185    125.6690
  1577.8000      8.7039     41.7222     34.0953      1.9616     -0.0296    111.4760
  1577.9000      8.7039     47.8653     34.4833      1.8602     -0.0269    104.9242
  1578.0000      8.6121     54.3170     35.1097      1.7538     -0.0561    105.3544
  1578.1000      8.6121     60.2608     35.4723      1.6557     -0.0220    103.1253
  1578.2000      8.6121     65.9884     35.8275      1.5612      0.0023     93.4258
  1578.3000      8.4123     71.5613     36.3995      1.4692     -0.0127     79.9770
  1578.4000      8.4123     75.9353     36.5068      1.3971     -0.0301     64.8604
  1578.5000      8.2670     78.8394     35.8235      1.3491      0.0228     50.6815
  1578.6000      8.2670     81.1555     35.2055      1.3109      0.0031     42.4784
  1578.7000      8.2670     83.1099     35.4349      1.2787      0.0164     39.4614
  1578.8000      8.2509     84.2839     36.0555      1.2593      0.0093     37.1119
  1578.9000      8.2509     84.5247     36.1832      1.2553      0.0154     34.5855
  1579.0000      8.3060     83.9981     35.7729      1.2640      0.0451     30.7946
  1579.1000      8.3060     83.0387     35.5632      1.2799      0.0458     26.3865
  1579.2000      8.3060     81.7738     35.7524      1.3007      0.0550     26.9824
  1579.3000      8.3362     79.6823     35.8802      1.3352      0.0358     33.2505
  1579.4000      8.3362     76.2445     35.3480      1.3920      0.0731     39.6746
  1579.5000      8.2922     72.2518     34.3204      1.4578      0.1145     43.8794
  1579.6000      8.2922     69.2385     33.5014      1.5076      0.1480     49.7670
  1579.7000      8.2922     67.8861     33.2096      1.5299      0.1430     59.1514
  1579.8000      8.2443     67.8260     33.3418      1.5309      0.1451     66.3382
  1579.9000      8.2443     68.4645     34.0484      1.5203      0.1194     66.0503
