~Version Information
 VERS.                                  2.0 : CWLS LAS VERSION
 WRAP.                                   NO : WRAPING MODE
 SWARE .                 MController 2.5.0J : SOFTWARE VERSION
~Well Information
 WELL.                       Ei-Ei-Oh 31-24 : WELL
 COMP.    Pioneer Natural Resources USA Inc : COMPANY
 FLD.                      Purgatoire River : FIELD
 LOC.                NW/NE Sec 24 T32S R67W : LOCATION
 DATE.                         6/12-13/2005 : DATE(S) LOGGED
 SRVC.       Blanco Geological Services LLC : SERVICE COMPANY
 STAT.                                   CO : STATE
 CNTY.                           Las Animas : COUNTY
 CTRY.                                  USA : COUNTRY
 API.                       05-071-08403-00 : API NUMBER
 STRT.FT                             436.00 : START DEPTH
 STOP.FT                            2853.00 : STOP DEPTH
 STEP.FT                               1.00 : DEPTH INCREMENT
 NULL.                                -9999 : NULL VALUE
~Curve information
 DEPTH.FT                                   :
 ROP.MIN/FT                                 :
 GAS.UNITS                                  :
~ASCII Log data
       436.0     -9999.00          2.8 
       437.0        10.08          5.6 
       438.0        15.17          6.1 
       439.0         2.28         12.3 
       440.0         0.10          4.4 
       441.0         0.20          5.1 
       442.0         0.10          4.6 
       443.0         0.30          5.3 
       444.0         0.13          4.9 
       445.0         0.23          5.2 
       446.0         4.73          6.9 
       447.0         0.47          5.4 
       448.0         0.27          6.3 
       449.0         0.23          6.3 
       450.0         0.17          5.7 
       451.0         0.17          5.9 
       452.0         0.20          7.2 
       453.0         0.17          6.5 
       454.0         0.17          6.9 
       455.0         0.20          6.6 
       456.0         0.20          6.1 
       457.0         0.17          6.5 
       458.0         0.20          6.3 
       459.0         0.17          6.0 
       460.0         0.17          6.0 
       461.0         0.18          6.3 
       462.0         0.13          6.3 
       463.0         0.20          6.2 
       464.0         0.20          6.4 
       465.0         0.23          6.4 
       466.0         0.20          6.6 
       467.0         0.17          6.4 
       468.0         0.17          6.3 
       469.0         0.17          6.3 
       470.0         0.20          6.7 
       471.0         0.20          6.5 
       472.0         0.20          6.9 
       473.0         0.17          6.6 
       474.0         0.23          6.9 
       475.0         0.20          6.4 
       476.0         2.55          7.9 
       477.0         0.27          7.1 
       478.0         0.30          8.4 
       479.0         0.23          7.2 
       480.0         0.20          6.9 
       481.0         0.17          6.2 
       482.0         0.22          6.1 
       483.0         0.17          6.4 
       484.0         0.20          6.8 
       485.0         0.17          7.2 
       486.0         0.17          6.6 
       487.0         0.20          7.2 
       488.0         0.13          7.0 
       489.0         0.17          7.5 
       490.0         0.20          7.3 
       491.0         0.20          8.0 
       492.0         0.17          6.7 
       493.0         0.20          7.1 
       494.0         0.17          7.2 
       495.0         0.20          7.5 
       496.0         0.17          7.0 
       497.0         0.20          7.6 
       498.0         0.17          6.9 
       499.0         0.18          6.5 
       500.0         0.17          6.3 
       501.0         0.17          6.4 
       502.0         0.17          7.6 
       503.0         0.20          7.1 
       504.0         0.20          6.8 
       505.0         0.27          7.4 
       506.0        50.10          8.2 
       507.0        24.58          3.8 
       508.0         1.58          3.2 
       509.0         0.30          2.9 
       510.0         0.23          2.8 
       511.0         0.20          2.8 
       512.0         0.17          2.7 
       513.0         0.17          2.5 
       514.0         0.17          2.6 
       515.0         0.17          1.4 
       516.0         0.17          2.1 
       517.0         0.23          2.1 
       518.0         0.20          2.4 
       519.0         0.20          2.3 
       520.0         0.20          2.5 
       521.0         0.23          3.2 
       522.0         0.25          3.0 
       523.0         0.20          3.9 
       524.0         0.20          3.0 
       525.0         0.20          3.2 
       526.0         0.17          3.3 
       527.0         0.17          3.1 
       528.0         0.17          2.9 
       529.0         0.17          3.1 
       530.0         0.20          2.5 
       531.0         0.20          2.2 
       532.0         0.20          2.6 
       533.0         0.17          2.4 
       534.0         0.13          2.6 
       535.0         0.17          2.2 
       536.0         1.78          3.8 
       537.0         0.20          2.9 
       538.0         0.33          3.0 
       539.0         0.33          3.4 
       540.0         0.27          3.5 
       541.0         0.20          3.4 
       542.0         0.20          3.2 
       543.0         0.17          3.2 
       544.0         0.17          3.3 
       545.0         0.17          2.9 
       546.0         0.13          2.8 
       547.0         0.18          2.7 
       548.0         0.17          2.5 
       549.0         0.13          2.7 
       550.0         0.17          2.2 
       551.0         0.17          2.6 
       552.0         0.17          2.8 
       553.0         0.13          2.2 
       554.0         0.17          2.5 
       555.0         0.17          2.5 
       556.0         0.13          2.7 
       557.0         0.17          3.2 
       558.0         0.20          3.0 
       559.0         0.37          3.4 
       560.0         0.13          3.4 
       561.0         0.20          4.4 
       562.0         0.20          5.6 
       563.0         0.17          6.5 
       564.0         0.17          6.9 
       565.0         0.13          8.3 
       566.0         1.98         17.8 
       567.0         0.23         35.9 
       568.0         0.17         52.1 
       569.0         0.20         66.6 
       570.0         0.20         75.6 
       571.0         0.20         78.4 
       572.0         0.20         78.1 
       573.0         0.32         71.7 
       574.0         0.10         50.7 
       575.0         0.20         44.0 
       576.0         0.27         32.7 
       577.0         0.20         21.7 
       578.0         0.20         18.0 
       579.0         0.23         12.9 
       580.0         0.20          9.8 
       581.0         0.20          8.7 
       582.0         0.20          8.4 
       583.0         0.23          8.0 
       584.0         0.17          7.5 
       585.0         0.17          7.7 
       586.0         0.17          7.2 
       587.0         0.20          6.9 
       588.0         0.17          6.6 
       589.0         0.22          5.7 
       590.0         0.13          5.4 
       591.0         0.17          5.4 
       592.0         0.30          4.7 
       593.0         0.20          4.3 
       594.0         0.17          4.4 
       595.0         0.23          4.6 
       596.0         1.80          5.4 
       597.0         0.10          5.5 
       598.0         0.25          6.0 
       599.0         0.27         14.4 
       600.0         0.30         31.5 
       601.0         0.20         39.3 
       602.0         0.23         46.0 
       603.0         0.20         48.5 
       604.0         0.17         48.8 
       605.0         0.20         47.6 
       606.0         0.20         43.0 
       607.0         0.23         35.7 
       608.0         0.20         27.3 
       609.0         0.20         21.1 
       610.0         0.20         15.9 
       611.0         0.23         12.6 
       612.0         0.17         10.0 
       613.0         0.22          7.6 
       614.0         0.17          5.7 
       615.0         0.20          4.6 
       616.0         0.17          3.9 
       617.0         0.17          3.2 
       618.0         0.17          3.1 
       619.0         0.17          2.7 
       620.0         0.23          2.4 
       621.0         0.20          2.8 
       622.0         0.20          3.0 
       623.0         0.20          2.9 
       624.0         0.20          2.5 
       625.0         0.17          2.5 
       626.0         2.42          4.1 
       627.0         0.30          6.2 
       628.0         0.23         12.7 
       629.0         0.23         24.5 
       630.0         0.20         34.0 
       631.0         0.17         39.5 
       632.0         0.20         45.3 
       633.0         0.17         48.9 
       634.0         0.20         49.9 
       635.0         0.22         49.3 
