~Version Information
 VERS.                                  2.0 : CWLS LAS VERSION
 WRAP.                                   NO : WRAPING MODE
 SWARE .                 MController 2.5.0J : SOFTWARE VERSION
~Well Information
 WELL.                  Dude Canyon 22-32Tr : WELL
 COMP.   Pioneer Natural Resources USA Inc. : COMPANY
 FLD.                      Purgatoire River : FIELD
 LOC.                SE/NW Sec 32 T32S R67W : LOCATION
 DATE.                             07/08/04 : DATE(S) LOGGED
 SRVC.       BLANCO Geological Services LLC : SERVICE COMPANY
 STAT.                                   CO : STATE
 CNTY.                           Las Animas : COUNTY
 CTRY.                                  USA : COUNTRY
 API.                       05-071-08421-00 : API NUMBER
 STRT.FT                             476.00 : START DEPTH
 STOP.FT                             1630.00 : STOP DEPTH
 STEP.FT                               1.00 : DEPTH INCREMENT
 NULL.                                -9999 : NULL VALUE
~Curve information
 DEPTH.FT                                   :
 ROP.MIN/FT                                 :
 GAS.UNITS                                  :
~ASCII Log data
# ...
      1274.0         0.23          1.5 
      1275.0         0.37          1.9 
      1276.0         0.27          2.0 
      1277.0         0.27          1.6 
      1278.0         0.27          1.6 
      1279.0         0.27          2.2 
      1280.0         0.30          1.8 
      1281.0         0.27          1.4 
      1282.0         0.30          1.8 
      1283.0         0.27          2.4 
      1284.0         0.32          2.1 
      1285.0         0.17          1.9 
      1286.0         9.98         22.7 
      1287.0         0.73          7.0 
      1288.0         0.40          3.8 
      1289.0         0.40          3.1 
      1290.0         0.35          2.6 
      1291.0         0.33          2.1 
      1292.0         0.30          1.8 
      1293.0         0.33          1.6 
      1294.0         0.33          1.2 
      1295.0         0.30          0.7 
      1296.0         0.33          0.8 
      1297.0         0.27          0.8 
      1298.0         0.30          0.8 
      1299.0         0.27          1.0 
      1300.0         0.27          0.7 
      1301.0         0.28          0.8 
      1302.0         0.23          0.8 
      1303.0         0.20          1.5 
      1304.0         0.23          1.7 
      1305.0         0.20          1.3 
      1306.0         0.23          1.3 
      1307.0         0.23          1.7 
      1308.0         0.23          1.5 
      1309.0         0.27          1.4 
      1310.0         0.27          0.7 
      1311.0         0.27          0.3 
      1312.0         0.30          0.2 
      1313.0         0.23          0.7 
      1314.0         0.17          1.0 
      1315.0         0.15          1.4 
      1316.0         3.42         25.8 
      1317.0         0.33          9.7 
      1318.0         0.27         12.7 
      1319.0         0.17         14.1 
      1320.0         0.23         13.4 
      1321.0         0.30         12.7 
      1322.0         0.30         12.0 
      1323.0         0.30          9.3 
      1324.0         0.30          7.3 
      1325.0         0.27          6.9 
      1326.0         0.33          5.2 
      1327.0         0.23          3.4 
      1328.0         0.28          2.8 
      1329.0         0.23          2.0 
      1330.0         0.27          1.1 
      1331.0         0.33          0.7 
      1332.0         0.20          0.6 
      1333.0         0.23          0.7 
      1334.0         0.23          0.9 
      1335.0         0.20          0.9 
      1336.0         0.33          0.8 
      1337.0         0.27          0.4 
      1338.0         0.23          0.3 
      1339.0         0.20          0.3 
      1340.0         0.23          0.3 
      1341.0         0.28          0.0 
      1342.0         0.20          0.2 
      1343.0         0.17          0.3 
      1344.0         0.20          0.8 
      1345.0         0.13          0.7 
      1346.0         2.92         11.7 
      1347.0         0.33          6.0 
      1348.0         0.30          4.0 
      1349.0         0.23          4.0 
      1350.0         0.13          4.2 
      1351.0         0.13          4.2 
      1352.0         0.27          4.7 
      1353.0         0.23          5.8 
      1354.0         0.27          5.3 
      1355.0         0.20          4.2 
      1356.0         0.27          4.1 
      1357.0         0.23          4.5 
      1358.0         0.17          6.0 
      1359.0         0.25          6.0 
      1360.0         0.23          6.2 
      1361.0         0.23          6.5 
      1362.0         0.23          6.4 
      1363.0         0.27          5.1 
      1364.0         0.27          3.8 
      1365.0         0.27          2.7 
      1366.0         0.23          1.1 
      1367.0         0.27          0.3 
      1368.0         0.27          0.7 
      1369.0         0.20          1.0 
      1370.0         0.27          1.1 
      1371.0         0.30          1.0 
      1372.0         0.45          0.9 
      1373.0         0.23          0.9 
      1374.0         0.23          1.2 
      1375.0         0.30          0.9 
      1376.0         4.35         30.9 
      1377.0         0.30          6.5 
      1378.0         0.33          3.2 
      1379.0         0.37          3.0 
      1380.0         0.42          1.0 
      1381.0         0.37          0.9 
      1382.0         0.27          0.5 
      1383.0         0.27          0.0 
      1384.0         0.23          0.1 
      1385.0         0.27          0.4 
      1386.0         0.23          0.8 
      1387.0         0.17          0.3 
      1388.0         0.17          0.0 
      1389.0         0.20          0.4 
      1390.0         0.17          2.4 
      1391.0         0.23          5.5 
      1392.0         0.13          5.5 
      1393.0         0.07          5.5 
      1394.0         0.10         14.1 
      1395.0         0.27         22.4 
      1396.0         0.28         27.1 
      1397.0         0.27         27.4 
      1398.0         0.33         24.6 
      1399.0         0.27         23.1 
      1400.0         0.30         18.3 
      1401.0         0.20         13.7 
      1402.0         0.23          9.7 
      1403.0         0.23          6.4 
      1404.0         0.23          4.8 
      1405.0         0.17          3.8 
      1406.0         3.88         41.7 
      1407.0         0.45         22.3 
      1408.0         0.27         13.7 
      1409.0         0.30         14.2 
      1410.0         0.27         11.8 
      1411.0         0.37          9.1 
      1412.0         0.40          5.3 
      1413.0         0.33          5.3 
      1414.0         0.17          5.6 
      1415.0         0.23          4.9 
      1416.0         0.27          3.6 
      1417.0         0.30          3.6 
      1418.0         0.33          2.1 
      1419.0         0.32          1.5 
      1420.0         0.30          1.2 
      1421.0         0.30          0.6 
      1422.0         0.27          0.2 
      1423.0         0.27          0.7 
      1424.0         0.43          1.1 
      1425.0         0.40          0.7 
      1426.0         0.37          0.7 
      1427.0         0.27          0.9 
      1428.0         0.23          1.3 
      1429.0         0.32          1.4 
      1430.0         0.23          1.5 
      1431.0         0.20          1.8 
      1432.0         0.23          1.6 
      1433.0         0.20          0.7 
      1434.0         0.23          1.4 
      1435.0         0.13          1.4 
      1436.0         3.68         36.4 
      1437.0         0.50         17.1 
      1438.0         0.27          5.1 
      1439.0         0.20          4.3 
      1440.0         0.40          3.3 
      1441.0         0.27          0.8 
      1442.0         0.28          0.3 
      1443.0         0.30          0.0 
      1444.0         0.30          0.5 
      1445.0         0.23          0.4 
      1446.0         0.23          1.0 
      1447.0         0.27          1.3 
      1448.0         0.27          1.3 
      1449.0         0.23          1.9 
      1450.0         0.17          2.0 
      1451.0         0.23          2.0 
      1452.0         0.23          2.0 
      1453.0         0.13          2.0 
      1454.0         0.10          0.7 
      1455.0         0.13          0.7 
      1456.0         0.10          9.8 
      1457.0         0.13          9.8 
      1458.0         0.12          9.8 
      1459.0         0.13         23.3 
      1460.0         0.10         23.3 
      1461.0         0.07         38.0 
      1462.0         0.10         38.0 
      1463.0         0.07         38.0 
      1464.0         0.10         47.0 
      1465.0         0.17         47.0 
      1466.0         3.52         83.2 
      1467.0         0.20         65.6 
      1468.0         0.13         49.0 
      1469.0         0.13         44.1 
      1470.0         0.23         39.2 
      1471.0         0.27         39.8 
      1472.0         0.30         39.6 
      1473.0         0.33         33.5 
