~Version Information
VERS.                      2.0: CWLS Log ASCII Standard - VERSION 2.0
WRAP.                       NO: One line per depth step
~Well Information Block
STRT.FT               866.0000: 
STOP.FT              2027.5000: 
STEP.FT                 0.1000: 
NULL.                -999.2500: 
COMP.          Petrogulf Corporation: COMPANY
WELL.             State 16-21R: WELL
FLD.           Purgatorie River: FIELD
LOC.           203' FNL & 1560' FWL: LOCATION
PROV.                 Colorado: PROVINCE
CNTY.               Las Animas: COUNTRY
SRVC.                Patterson: SERVICE COMPANY
DATE.          Tue Aug 16 13:32:09 2005: LOG DATE
UWI.                071 08313 : UNIQUE WELL ID
~Curve Information Block
DEPT.FT            0 000 00 00: Depth
DCAL.in                       : CDL Caliper
RHOB.g/cc                     : CDL Bulk Density
RHOC.g/cc                     : CDL Density Correction
DPOR.pu                       : CDL Density Porosity
GR.GAPI                       : Gamma Ray
NPOR.pu                       : Neutron Porosity
~Parameter Information Block
~A  Depth       DCAL        RHOB        RHOC        DPOR         GR         NPOR    
# ...
  1701.2000      8.0388      2.5405      0.1204      6.6382    151.3650     28.8566
  1701.3000      8.0784      2.5443      0.1337      6.4082    147.7649     28.9458
  1701.4000      8.0784      2.5402      0.0900      6.6539    143.2886     28.9670
  1701.5000      8.1291      2.5445      0.1249      6.3965    141.7600     29.0448
  1701.6000      8.1291      2.5541      0.1842      5.8098    142.6508     29.1883
  1701.7000      8.1291      2.5524      0.1338      5.9175    144.2702     29.1134
  1701.8000      8.1138      2.5358      0.1332      6.9212    148.0933     28.6303
  1701.9000      8.1138      2.5156      0.0946      8.1455    153.3367     28.0911
  1702.0000      8.0325      2.4978      0.1105      9.2253    156.9937     27.8556
  1702.1000      8.0325      2.4741      0.0615     10.6593    158.7491     27.7920
  1702.2000      8.0325      2.4402      0.0628     12.7139    157.3736     27.7509
  1702.3000      8.0411      2.4066      0.0302     14.7489    152.6389     27.7474
  1702.4000      8.0411      2.3908      0.0090     15.7096    149.5725     27.8477
  1702.5000      8.0476      2.3974      0.0726     15.3071    150.0352     28.1023
  1702.6000      8.0476      2.4185      0.0559     14.0317    149.8503     28.2450
  1702.7000      8.0476      2.4492      0.1131     12.1698    147.1618     28.1371
  1702.8000      8.0624      2.4792      0.1451     10.3524    145.2232     28.0362
  1702.9000      8.0624      2.4979      0.1427      9.2160    147.5021     28.1361
  1703.0000      8.0425      2.5137      0.1468      8.2597    151.0344     28.2667
  1703.1000      8.0425      2.5354      0.1596      6.9429    150.3368     28.1998
  1703.2000      8.0425      2.5506      0.1778      6.0261    146.4210     28.1071
  1703.3000      8.0698      2.5511      0.1036      5.9964    143.9371     28.0098
  1703.4000      8.0698      2.5554      0.0682      5.7307    143.6693     27.6088
  1703.5000      8.0249      2.5745      0.0941      4.5779    142.8589     26.9710
  1703.6000      8.0249      2.5970      0.0780      3.2125    139.7896     26.3759
  1703.7000      8.0249      2.6191      0.0813      1.8752    133.4755     25.7696
  1703.8000      8.0255      2.6431      0.1032      0.4178    124.5920     24.8536
  1703.9000      8.0255      2.6602      0.1437     -0.6207    115.7424     23.6855
  1704.0000      8.0261      2.6577      0.1055     -0.4659    109.4262     22.9127
  1704.1000      8.0261      2.6348      0.0820      0.9217    106.5888     22.7186
  1704.2000      8.0261      2.6073      0.0169      2.5855    106.7093     22.5267
  1704.3000      8.0381      2.5930     -0.0007      3.4562    108.9696     22.2121
  1704.4000      8.0381      2.5938     -0.0045      3.4083    109.7635     21.9465
  1704.5000      8.0176      2.6026      0.0352      2.8701    106.9808     21.7822
  1704.6000      8.0176      2.6134      0.0941      2.2159    105.1284     21.7697
  1704.7000      8.0176      2.6176      0.0821      1.9651    107.3822     21.8619
  1704.8000      8.0330      2.6058      0.0872      2.6802    111.5245     21.9369
  1704.9000      8.0330      2.5769      0.0563      4.4327    115.1372     21.8419
  1705.0000      8.0400      2.5408      0.0262      6.6178    119.9088     21.7357
  1705.1000      8.0400      2.5119     -0.0143      8.3720    128.4418     22.0148
  1705.2000      8.0400      2.4979      0.0081      9.2183    137.7308     22.6129
  1705.3000      7.9857      2.4927      0.0458      9.5324    143.2691     23.2097
  1705.4000      7.9857      2.4882      0.0288      9.8036    144.4352     23.8737
  1705.5000      8.0285      2.4843      0.0582     10.0419    142.5074     24.7750
  1705.6000      8.0285      2.4823      0.0297     10.1640    140.1533     25.8444
  1705.7000      8.0285      2.4834      0.0705     10.0976    139.9177     26.8760
  1705.8000      8.0437      2.4846      0.0913     10.0237    141.6622     27.6272
  1705.9000      8.0437      2.4768      0.1173     10.4944    143.9850     28.0367
  1706.0000      8.0948      2.4531      0.1286     11.9328    145.3542     28.3785
  1706.1000      8.0948      2.4215      0.0974     13.8480    145.4555     28.9747
  1706.2000      8.0948      2.3965      0.0917     15.3648    145.1919     29.8003
  1706.3000      8.1042      2.3809      0.0914     16.3099    144.2581     30.3659
  1706.4000      8.1042      2.3736      0.0803     16.7539    142.7879     30.4525
  1706.5000      8.1353      2.3813      0.0914     16.2868    141.6145     30.4334
  1706.6000      8.1353      2.4155      0.1114     14.2101    140.3338     30.5568
  1706.7000      8.1353      2.4742      0.2239     10.6550    138.7057     30.6226
  1706.8000      8.1868      2.5341      0.3223      7.0273    137.2541     30.4793
  1706.9000      8.1868      2.5726      0.3081      4.6885    137.8929     30.1550
  1707.0000      8.3124      2.5800      0.3179      4.2444    140.1708     29.7588
  1707.1000      8.3124      2.5602      0.2458      5.4422    142.0408     29.4291
  1707.2000      8.3124      2.5380      0.1851      6.7904    143.1228     29.2598
  1707.3000      8.1156      2.5316      0.2033      7.1783    142.4981     29.1717
  1707.4000      8.1156      2.5272      0.2072      7.4403    141.4160     28.9489
  1707.5000      7.9887      2.5052      0.1953      8.7754    144.2800     28.6379
  1707.6000      7.9887      2.4780      0.0731     10.4223    151.4008     28.4809
  1707.7000      7.9887      2.4745      0.1074     10.6385    156.1975     28.5001
  1707.8000      7.9922      2.4913      0.1542      9.6206    155.2381     28.6431
  1707.9000      7.9922      2.5108      0.1178      8.4357    152.6442     28.9387
  1708.0000      7.9727      2.5348      0.1511      6.9798    151.0806     29.1571
  1708.1000      7.9727      2.5666      0.2014      5.0556    150.4273     29.1154
  1708.2000      7.9727      2.5957      0.2233      3.2905    150.3376     28.7996
  1708.3000      8.0070      2.6072      0.2293      2.5954    149.3114     28.3600
  1708.4000      8.0070      2.5942      0.1983      3.3814    144.1355     28.0983
  1708.5000      8.0977      2.5685      0.1381      4.9398    135.1296     27.8645
  1708.6000      8.0977      2.5548      0.1206      5.7712    127.7686     27.1559
  1708.7000      8.0977      2.5683      0.0973      4.9504    124.8401     25.9263
  1708.8000      8.2596      2.5982      0.1294      3.1402    124.3726     24.7416
  1708.9000      8.2596      2.6201      0.0861      1.8140    124.6257     24.0647
  1709.0000      8.2236      2.6216      0.1230      1.7186    124.9720     23.8192
  1709.1000      8.2236      2.6115      0.0807      2.3339    123.5636     23.6660
  1709.2000      8.2236      2.6062      0.0947      2.6549    120.5804     23.3898
  1709.3000      8.0297      2.6074      0.1293      2.5825    118.9047     23.1048
  1709.4000      8.0297      2.6061      0.1095      2.6633    119.0569     23.1743
  1709.5000      8.0195      2.5974      0.0926      3.1863    118.6614     23.4852
  1709.6000      8.0195      2.5801      0.0646      4.2334    115.8114     23.4868
  1709.7000      8.0195      2.5573      0.0527      5.6206    112.6520     23.3373
  1709.8000      8.0402      2.5376      0.0624      6.8103    113.2080     23.6718
  1709.9000      8.0402      2.5314      0.0243      7.1867    116.3732     24.3581
  1710.0000      8.0364      2.5394      0.0626      6.7055    116.8136     24.8157
  1710.1000      8.0364      2.5509      0.0509      6.0056    113.7561     24.8553
  1710.2000      8.0364      2.5598      0.0796      5.4638    111.6869     24.7375
  1710.3000      8.0277      2.5675      0.0492      5.0019    111.0182     24.5165
  1710.4000      8.0277      2.5758      0.0598      4.4989    109.6291     23.9975
  1710.5000      8.0289      2.5807      0.1101      4.1996    110.2097     23.4065
  1710.6000      8.0289      2.5824      0.0374      4.0969    114.3123     23.1239
  1710.7000      8.0289      2.5912      0.0523      3.5647    118.0459     23.1783
