~Version Information
 VERS.                                  2.0 : CWLS LAS VERSION
 WRAP.                                   NO : WRAPING MODE
 SWARE .                 MController 2.5.0J : SOFTWARE VERSION
~Well Information
 WELL.                       Costello 44-24 : WELL
 COMP.    Pioneer Natural Resources USA Inc : COMPANY
 FLD.                      Purgatoire River : FIELD
 LOC.                SE/SE Sec 24 T32S R67W : LOCATION
 DATE.                            7/10/2005 : DATE(S) LOGGED
 SRVC.       BLANCO Geological Services LLC : SERVICE COMPANY
 STAT.                                   CO : STATE
 CNTY.                           Las Animas : COUNTY
 CTRY.                                  USA : COUNTRY
 API.                       05-071-08413-00 : API NUMBER
 STRT.FT                             305.00 : START DEPTH
 STOP.FT                            2545.00 : STOP DEPTH
 STEP.FT                               1.00 : DEPTH INCREMENT
 NULL.                                 999 : NULL VALUE
~Curve information
 DEPTH.FT                                   :
 ROP.MIN/FT                                 :
 GAS.UNITS                                  :
~ASCII Log data
# ...
      1705.0         0.20        174.1 
      1706.0         3.65       1730.8 
      1707.0         0.30       1548.0 
      1708.0         0.20       1499.2 
      1709.0         0.20       1253.8 
      1710.0         0.30       1193.5 
      1711.0         0.37        928.8 
      1712.0         0.37        844.1 
      1713.0         0.52        744.7 
      1714.0         0.40        663.2 
      1715.0         0.27        596.2 
      1716.0         0.33        573.3 
      1717.0         0.27        547.0 
      1718.0         0.20        528.9 
      1719.0         0.30        524.2 
      1720.0         0.43        522.2 
      1721.0         0.27        514.0 
      1722.0         0.32        506.4 
      1723.0         0.33        491.8 
      1724.0         0.30        479.4 
      1725.0         0.30        478.8 
      1726.0         0.27        472.4 
      1727.0         0.30        471.5 
      1728.0         0.33        471.5 
      1729.0         0.33        473.1 
      1730.0         0.30        473.1 
      1731.0         0.37        477.2 
      1732.0         0.30        479.1 
      1733.0         0.35        479.7 
      1734.0         0.23        480.7 
      1735.0         0.20        478.4 
      1736.0         2.10        479.4 
      1737.0         0.72        397.9 
      1738.0         0.47        409.2 
      1739.0         0.30        427.0 
      1740.0         0.30        465.1 
      1741.0         0.33        479.7 
      1742.0         0.30        461.7 
      1743.0         0.30        434.9 
      1744.0         0.33        406.8 
      1745.0         0.30        363.7 
      1746.0         0.30        350.7 
      1747.0         0.28        325.9 
      1748.0         0.27        322.3 
      1749.0         0.17        304.8 
      1750.0         0.27        299.6 
      1751.0         0.20        296.4 
      1752.0         0.17        295.8 
      1753.0         0.20        293.1 
      1754.0         0.30        292.2 
      1755.0         0.47        287.8 
      1756.0         0.47        282.1 
      1757.0         0.37        272.6 
      1758.0         0.27        264.3 
      1759.0         0.22        264.1 
      1760.0         0.23        259.4 
      1761.0         0.30        258.4 
      1762.0         0.30        258.9 
      1763.0         0.23        259.7 
      1764.0         0.20        258.3 
      1765.0         0.30        257.3 
      1766.0         2.88        880.6 
      1767.0         0.37       1030.7 
      1768.0         0.30       1044.7 
      1769.0         0.27        942.5 
      1770.0         0.20        920.6 
      1771.0         0.47        825.0 
      1772.0         0.82        738.1 
      1773.0         0.70        544.8 
      1774.0         0.23        481.3 
      1775.0         0.23        477.5 
      1776.0         0.20        471.1 
      1777.0         0.30        475.9 
      1778.0         0.33        478.8 
      1779.0         0.27        491.5 
      1780.0         0.43        497.2 
      1781.0         0.42        494.3 
      1782.0         0.43        478.8 
      1783.0         0.53        466.7 
      1784.0         0.47        469.2 
      1785.0         0.27        470.2 
      1786.0         0.27        467.7 
      1787.0         0.27        461.0 
      1788.0         0.47        460.4 
      1789.0         0.43        467.0 
      1790.0         0.32        464.8 
      1791.0         0.30        465.4 
      1792.0         0.30        465.8 
      1793.0         0.33        454.3 
      1794.0         0.37        455.6 
      1795.0         0.63        452.1 
      1796.0         1.25        214.8 
      1797.0         0.37        282.6 
      1798.0         0.33        376.5 
      1799.0         0.30        470.3 
      1800.0         0.33        965.0 
      1801.0         0.30        933.9 
      1802.0         0.27        879.0 
      1803.0         0.27        824.4 
      1804.0         0.27        809.8 
      1805.0         0.27        740.6 
      1806.0         0.23        727.6 
      1807.0         0.17        660.3 
      1808.0         0.25        650.8 
      1809.0         0.23        593.0 
      1810.0         0.20        581.3 
      1811.0         0.20        528.9 
      1812.0         0.40        520.3 
      1813.0         0.33        511.8 
      1814.0         0.23        518.8 
      1815.0         0.27        529.5 
      1816.0         0.27        528.9 
      1817.0         0.23        527.3 
      1818.0         0.30        514.6 
      1819.0         0.30        501.9 
      1820.0         0.23        497.2 
      1821.0         0.42        499.4 
      1822.0         0.33        501.9 
      1823.0         0.37        501.3 
      1824.0         0.23        498.8 
      1825.0         0.20        495.6 
      1826.0         2.32        494.6 
      1827.0         0.43        336.7 
      1828.0         0.40        432.8 
      1829.0         0.40        868.2 
      1830.0         0.40        890.7 
      1831.0         0.60        797.7 
      1832.0         0.50        700.9 
      1833.0         0.48        652.7 
      1834.0         0.30        575.2 
      1835.0         0.27        566.0 
      1836.0         0.53        548.9 
      1837.0         0.43        545.4 
      1838.0         0.50        553.0 
      1839.0         0.30        531.1 
      1840.0         0.37        517.8 
      1841.0         0.35        495.6 
      1842.0         0.33        525.1 
      1843.0         0.33        529.2 
      1844.0         0.27        533.4 
      1845.0         0.23        532.7 
      1846.0         0.27        524.5 
      1847.0         0.33        519.4 
      1848.0         0.47        515.6 
      1849.0         0.57        504.2 
      1850.0         0.27        495.3 
      1851.0         0.28        492.4 
      1852.0         0.27        488.9 
      1853.0         0.23        486.1 
      1854.0         0.23        481.0 
      1855.0         0.17        474.6 
      1856.0         2.07        456.5 
      1857.0         0.27        219.2 
      1858.0         0.25        265.5 
      1859.0         0.27        322.9 
      1860.0         0.30        364.9 
      1861.0         0.30        388.5 
      1862.0         0.37        388.6 
      1863.0         0.40        355.1 
      1864.0         0.43        294.6 
      1865.0         0.23        238.0 
      1866.0         0.27        235.2 
      1867.0         0.23        210.4 
      1868.0         0.23        197.3 
      1869.0         0.42        193.7 
      1870.0         0.37        187.5 
      1871.0         0.17        187.5 
      1872.0         0.23        193.5 
      1873.0         0.23        197.4 
      1874.0         0.23        200.7 
      1875.0         0.17        202.6 
      1876.0         0.17        202.1 
      1877.0         0.20        199.0 
      1878.0         0.17        196.5 
      1879.0         0.17        194.6 
      1880.0         0.23        193.9 
      1881.0         0.23        193.2 
      1882.0         0.17        191.8 
      1883.0         0.20        191.8 
      1884.0         0.22        190.4 
      1885.0         0.20        189.6 
      1886.0         3.82        377.6 
      1887.0         0.10        377.6 
      1888.0         0.23        345.9 
      1889.0         0.27        330.4 
      1890.0         0.27        291.5 
      1891.0         0.47        258.4 
      1892.0         0.40        258.2 
      1893.0         0.33        264.5 
      1894.0         0.27        262.2 
      1895.0         0.23        256.6 
      1896.0         0.25        247.7 
      1897.0         0.27        235.1 
      1898.0         0.23        232.4 
      1899.0         0.20        215.9 
      1900.0         0.23        213.3 
      1901.0         0.17        209.8 
      1902.0         0.23        209.8 
      1903.0         0.20        209.3 
      1904.0         0.20        196.1 
