~Version Information
VERS.                      2.0: CWLS Log ASCII Standard - VERSION 2.0
WRAP.                       NO: One line per depth step
~Well Information Block
STRT.FT               652.0000: 
STOP.FT              1880.0000: 
STEP.FT                 0.1000: 
NULL.                -999.2500: 
COMP.          Pioneer Natural Resources: COMPANY
WELL.          Corkscrew 33-12 Tr: WELL
FLD.           Purgatoire River: FIELD
LOC.           1870' FSL & 1706' FEL: LOCATION
PROV.                 Colorado: PROVINCE
CNTY.               Las Animas: COUNTRY
SRVC.                Patterson: SERVICE COMPANY
DATE.          Tue Mar 29 09:18:51 2005: LOG DATE
UWI.           05 071 08295 00: UNIQUE WELL ID
~Curve Information Block
DEPT.FT            0 000 00 00: Depth
DCAL.in                       : CDL Caliper
RHOB.g/cc                     : CDL Bulk Density
RHOC.g/cc                     : CDL Density Correction
DPOR.pu                       : CDL Density Porosity
GR.GAPI                       : Gamma Ray
NPOR.pu                       : Neutron Porosity
~Parameter Information Block
~A  Depth       DCAL        RHOB        RHOC        DPOR         GR         NPOR    
# ...
  1784.8000      7.8643      2.5799      0.0957      4.2470    112.6682     26.7959
  1784.9000      7.8643      2.5593      0.0228      5.4941    105.3989     26.3113
  1785.0000      7.8487      2.5505      0.0050      6.0286    100.8445     25.9935
  1785.1000      7.8487      2.5565      0.0440      5.6693    102.5003     26.7459
  1785.2000      7.8487      2.5530      0.0426      5.8766    108.0769     28.4995
  1785.3000      7.8464      2.5339      0.0394      7.0345    113.1014     30.0057
  1785.4000      7.8464      2.5135      0.0105      8.2742    112.9470     30.0770
  1785.5000      7.8332      2.5012      0.0237      9.0165    106.6689     29.3461
  1785.6000      7.8332      2.5005      0.0024      9.0591     99.7078     29.0181
  1785.7000      7.8332      2.5100      0.0314      8.4836     98.3230     28.9027
  1785.8000      7.8318      2.5205     -0.0137      7.8485    102.9517     28.1864
  1785.9000      7.8318      2.5302      0.0152      7.2590    105.5981     26.7956
  1786.0000      7.8352      2.5453      0.0260      6.3475    103.3830     25.6311
  1786.1000      7.8352      2.5599      0.0668      5.4621    103.5087     25.5790
  1786.2000      7.8352      2.5572      0.0810      5.6222    106.9245     26.6929
  1786.3000      7.8409      2.5264      0.0550      7.4909    106.5011     28.1239
  1786.4000      7.8409      2.4721      0.0429     10.7803     99.0671     28.5761
  1786.5000      7.8529      2.4095      0.0069     14.5788     92.2449     28.0779
  1786.6000      7.8529      2.3548     -0.0187     17.8880     92.8407     27.8712
  1786.7000      7.8529      2.3137     -0.0190     20.3832     97.3093     28.3338
  1786.8000      7.8578      2.2794     -0.0032     22.4592     99.9654     29.1686
  1786.9000      7.8578      2.2465      0.0203     24.4552    102.0806     29.8451
  1787.0000      7.8660      2.2179      0.0296     26.1856    108.0403     29.6523
  1787.1000      7.8660      2.2034      0.0398     27.0668    115.8801     28.9896
  1787.2000      7.8660      2.2133      0.0074     26.4682    116.6815     28.9472
  1787.3000      7.9031      2.2606      0.0147     23.5974    106.4973     29.4804
  1787.4000      7.9031      2.3442      0.1100     18.5360     96.7182     30.1113
  1787.5000      7.9621      2.4220      0.1900     13.8189     95.1108     30.8325
  1787.6000      7.9621      2.4517      0.0782     12.0189     95.7132     31.2576
  1787.7000      7.9621      2.4473      0.0668     12.2862     97.2207     31.0502
  1787.8000      7.9685      2.4517      0.0139     12.0181    103.8713     30.3768
  1787.9000      7.9685      2.4840      0.0168     10.0588    112.5453     29.5301
  1788.0000      7.8734      2.5267      0.0641      7.4709    114.4519     28.6703
  1788.1000      7.8734      2.5487      0.0936      6.1385    108.2690     27.5193
  1788.2000      7.8734      2.5392      0.0210      6.7154    102.9778     26.2371
  1788.3000      7.8627      2.5150      0.0188      8.1813    101.2284     25.5193
  1788.4000      7.8627      2.4993      0.0035      9.1322     99.6436     25.6456
  1788.5000      7.8166      2.5074     -0.0263      8.6409     99.5084     26.1840
  1788.6000      7.8166      2.5314      0.0333      7.1876    100.9168     26.5127
  1788.7000      7.8166      2.5471      0.0527      6.2356    100.7647     26.3528
  1788.8000      7.8175      2.5500      0.0046      6.0589    100.9668     26.2811
  1788.9000      7.8175      2.5531      0.0399      5.8741    103.5135     26.6589
  1789.0000      7.8069      2.5611      0.0724      5.3893    103.3290     26.7089
  1789.1000      7.8069      2.5696      0.0820      4.8742     98.8197     26.3099
  1789.2000      7.8069      2.5791      0.0672      4.2974     95.0542     26.4504
  1789.3000      7.8031      2.5897      0.1179      3.6547     94.0852     27.0495
  1789.4000      7.8031      2.5846      0.1412      3.9656     96.4998     27.3274
  1789.5000      7.7497      2.5648      0.0329      5.1627    103.0142     27.5685
  1789.6000      7.7497      2.5588      0.0360      5.5243    111.2162     27.6280
  1789.7000      7.7497      2.5653      0.0879      5.1313    117.6216     27.0682
  1789.8000      7.7505      2.5636      0.0302      5.2376    120.7760     26.5702
  1789.9000      7.7505      2.5552      0.0404      5.7480    119.5304     26.2991
  1790.0000      7.7726      2.5494     -0.0069      6.0977    113.9138     26.0211
  1790.1000      7.7726      2.5456      0.0703      6.3291    105.7755     26.0212
  1790.2000      7.7726      2.5344      0.0381      7.0051     99.7041     26.0266
  1790.3000      7.7776      2.5209      0.0055      7.8242    100.1932     25.9732
  1790.4000      7.7776      2.5226      0.0060      7.7196    106.5112     26.1195
  1790.5000      7.7798      2.5343      0.0792      7.0097    114.0101     26.2715
  1790.6000      7.7798      2.5393     -0.0067      6.7081    115.1545     26.6772
  1790.7000      7.7798      2.5386      0.0310      6.7511    108.8264     27.8659
  1790.8000      7.7810      2.5379     -0.0511      6.7949    105.0856     29.1944
  1790.9000      7.7810      2.5430      0.0175      6.4838    109.8674     29.1534
  1791.0000      7.7594      2.5533     -0.0064      5.8595    116.5306     28.0123
  1791.1000      7.7594      2.5551     -0.0078      5.7531    116.2678     27.3634
  1791.2000      7.7594      2.5388      0.0212      6.7390    109.7782     27.3628
  1791.3000      7.7793      2.5169     -0.0077      8.0690    103.4326     27.1574
  1791.4000      7.7793      2.5073     -0.0011      8.6503     99.7155     26.7574
  1791.5000      7.8010      2.5150     -0.0111      8.1842     97.7071     26.8433
  1791.6000      7.8010      2.5306      0.0290      7.2370     96.8746     27.3958
  1791.7000      7.8010      2.5432      0.0051      6.4701     98.5280     27.6494
  1791.8000      7.8017      2.5536     -0.0051      5.8411    104.2894     27.7062
  1791.9000      7.8017      2.5645      0.0305      5.1838    111.6073     28.5724
  1792.0000      7.8052      2.5731      0.0433      4.6623    116.1933     29.7039
  1792.1000      7.8052      2.5713      0.0631      4.7681    116.7629     29.9184
  1792.2000      7.8052      2.5515      0.0581      5.9668    115.6548     29.7219
  1792.3000      7.8068      2.5216      0.0175      7.7822    115.8989     29.8544
  1792.4000      7.8068      2.4970     -0.0146      9.2723    117.1775     29.9775
  1792.5000      7.8169      2.4789      0.0185     10.3706    116.1995     29.9864
  1792.6000      7.8169      2.4632     -0.0155     11.3213    111.9008     30.2079
  1792.7000      7.8169      2.4567      0.0154     11.7167    107.7463     30.3030
  1792.8000      7.8089      2.4591      0.0021     11.5689    108.6597     30.1781
  1792.9000      7.8089      2.4560      0.0383     11.7593    114.2290     30.1693
  1793.0000      7.8079      2.4406      0.0192     12.6897    119.2108     29.9780
  1793.1000      7.8079      2.4260      0.0084     13.5778    120.8161     29.6354
  1793.2000      7.8079      2.4163      0.0906     14.1625    122.7801     29.3816
  1793.3000      7.8067      2.3919      0.0512     15.6445    127.6586     29.1768
  1793.4000      7.8067      2.3379      0.0364     18.9157    128.3151     29.1802
  1793.5000      7.8107      2.2613      0.0039     23.5550    123.3269     29.4680
  1793.6000      7.8107      2.1779     -0.0112     28.6128    121.0670     29.7877
  1793.7000      7.8107      2.1001     -0.0355     33.3272    122.8128     29.7214
  1793.8000      7.8104      2.0419     -0.0891     36.8554    121.2353     29.5453
  1793.9000      7.8104      2.0200     -0.1047     38.1792    113.6618     29.7119
  1794.0000      7.8337      2.0408     -0.0584     36.9236    106.8871     30.1526
  1794.1000      7.8337      2.0941     -0.0185     33.6915    104.9671     30.6673
  1794.2000      7.8337      2.1610      0.0882     29.6371    104.9145     31.3107
  1794.3000      7.8489      2.2249      0.1462     25.7619    104.0934     32.0429
