~Version Information
VERS.                      2.0: CWLS Log ASCII Standard - VERSION 2.0
WRAP.                       NO: One line per depth step
~Well Information Block
STRT.FT               475.0000: 
STOP.FT              2336.7500: 
STEP.FT                 0.2500: 
NULL.                -999.2500: 
COMP.          Pioneer Natural Resources: COMPANY
WELL.              Bobsy 34-11: WELL
FLD.           Purgatoire River: FIELD
LOC.           1937' FEL & 451' FSL----: LOCATION
PROV.                 Colorado: PROVINCE
CNTY.               Las Animas: COUNTRY
SRVC.                Patterson: SERVICE COMPANY
DATE.          Fri Apr 08 05:21:25 2005: LOG DATE
UWI.           05 071 08330 00: UNIQUE WELL ID
~Curve Information Block
DEPT.FT            0 000 00 00: Depth
SN.Ohm-m                      : IEL Short Normal
SP.mV                         : IEL Spontaneous Potential
DIR.Ohm-m                     : IEL Induction Resistivity
GR.GAPI                       : Gamma Ray
~Parameter Information Block
~A  Depth        SN          SP         DIR          GR     
# ...
  1714.5000     24.0684   -144.9529     18.5158    115.2448
  1714.7500     21.9555   -144.3671     17.0558    121.9330
  1715.0000     20.0030   -143.8126     15.7391    129.9636
  1715.2500     18.2412   -143.3057     14.5917    134.5463
  1715.5000     16.6907   -142.8546     13.6150    140.5975
  1715.7500     15.3626   -142.4603     12.7953    143.7344
  1716.0000     14.2585   -142.1183     12.1124    146.4685
  1716.2500     13.3705   -141.8216     11.5456    147.0098
  1716.5000     12.6838   -141.5626     11.0781    146.5985
  1716.7500     12.1775   -141.3349     10.6973    146.0517
  1717.0000     11.8234   -141.1348     10.3929    145.5393
  1717.2500     11.5857   -140.9619     10.1537    145.4843
  1717.5000     11.4273   -140.8190      9.9660    145.2173
  1717.7500     11.3180   -140.7116      9.8154    144.3044
  1718.0000     11.2395   -140.6476      9.6897    141.2172
  1718.2500     11.1838   -140.6352      9.5828    138.3649
  1718.5000     11.1535   -140.6824      9.4961    134.8015
  1718.7500     11.1614   -140.7955      9.4376    134.2288
  1719.0000     11.2266   -140.9795      9.4192    137.2057
  1719.2500     11.3668   -141.2387      9.4545    141.2397
  1719.5000     11.5918   -141.5785      9.5574    147.5966
  1719.7500     11.9037   -142.0054      9.7426    149.9021
  1720.0000     12.3017   -142.5270     10.0239    147.6607
  1720.2500     12.7885   -143.1481     10.4129    142.0257
  1720.5000     13.3757   -143.8672     10.9172    128.8876
  1720.7500     14.0847   -144.6714     11.5401    118.3646
  1721.0000     14.9434   -145.5322     12.2829    101.9451
  1721.2500     15.9781   -146.4030     13.1443     91.5141
  1721.5000     17.1969   -147.2202     14.1144     78.0755
  1721.7500     18.5630   -147.9068     15.1597     71.2522
  1722.0000     19.9678   -148.3817     16.2033     64.9088
  1722.2500     21.2263   -148.5734     17.1139     63.5406
  1722.5000     22.1153   -148.4366     17.7275     66.2365
  1722.7500     22.4485   -147.9679     17.9107     71.2783
  1723.0000     22.1519   -147.2142     17.6316     82.9738
  1723.2500     21.2941   -146.2704     16.9760     92.5599
  1723.5000     20.0487   -145.2632     16.0961    107.6178
  1723.7500     18.6165   -144.3251     15.1401    117.0820
  1724.0000     17.1583   -143.5670     14.2110    129.1485
  1724.2500     15.7708   -143.0560     13.3615    135.2325
  1724.5000     14.5018   -142.8082     12.6075    140.6729
  1724.7500     13.3789   -142.7941     11.9449    141.6381
  1725.0000     12.4298   -142.9555     11.3640    139.7584
  1725.2500     11.6812   -143.2247     10.8586    137.4071
  1725.5000     11.1451   -143.5406     10.4296    134.6106
  1725.7500     10.8069   -143.8574     10.0828    134.1954
  1726.0000     10.6252   -144.1474      9.8236    136.1271
  1726.2500     10.5438   -144.3976      9.6508    138.7866
  1726.5000     10.5097   -144.6067      9.5545    143.8525
  1726.7500     10.4891   -144.7812      9.5175    147.3427
  1727.0000     10.4728   -144.9331      9.5207    151.9112
  1727.2500     10.4677   -145.0774      9.5482    154.1116
  1727.5000     10.4844   -145.2293      9.5913    155.3439
  1727.7500     10.5323   -145.4023      9.6499    154.3962
  1728.0000     10.6226   -145.6063      9.7333    150.5400
  1728.2500     10.7721   -145.8464      9.8586    147.0725
  1728.5000     11.0008   -146.1232     10.0474    141.8973
  1728.7500     11.3247   -146.4323     10.3200    138.7948
  1729.0000     11.7458   -146.7638     10.6878    134.2288
  1729.2500     12.2439   -147.1023     11.1473    130.7220
  1729.5000     12.7768   -147.4271     11.6759    124.2431
  1729.7500     13.2897   -147.7146     12.2323    119.2768
  1730.0000     13.7296   -147.9422     12.7619    111.8152
  1730.2500     14.0585   -148.0920     13.2072    107.5131
  1730.5000     14.2566   -148.1554     13.5206    103.0232
  1730.7500     14.3177   -148.1341     13.6744    101.7657
  1731.0000     14.2428   -148.0391     13.6643    103.2542
  1731.2500     14.0362   -147.8885     13.5066    106.8718
  1731.5000     13.7070   -147.7036     13.2293    116.0645
  1731.7500     13.2714   -147.5061     12.8629    123.8645
  1732.0000     12.7559   -147.3157     12.4345    135.6883
  1732.2500     12.1934   -147.1491     11.9680    142.1752
  1732.5000     11.6153   -147.0192     11.4852    148.1257
  1732.7500     11.0457   -146.9351     11.0060    149.4625
  1733.0000     10.5045   -146.9011     10.5478    148.8086
  1733.2500     10.0115   -146.9175     10.1246    147.8299
  1733.5000      9.5841   -146.9803      9.7466    147.4729
  1733.7500      9.2300   -147.0826      9.4190    148.4677
  1734.0000      8.9416   -147.2141      9.1411    151.2332
  1734.2500      8.6973   -147.3622      8.9060    153.1191
  1734.5000      8.4715   -147.5124      8.7021    154.8604
  1734.7500      8.2475   -147.6491      8.5153    155.0405
  1735.0000      8.0219   -147.7579      8.3328    154.2159
  1735.2500      7.8009   -147.8282      8.1462    153.7162
  1735.5000      7.5914   -147.8555      7.9530    154.9274
  1735.7500      7.3949   -147.8418      7.7561    157.6613
  1736.0000      7.2101   -147.7949      7.5612    163.5664
  1736.2500      7.0400   -147.7245      7.3743    167.1310
  1736.5000      6.8965   -147.6389      7.2014    169.5181
  1736.7500      6.7939   -147.5429      7.0475    168.5288
  1737.0000      6.7374   -147.4368      6.9167    163.3189
  1737.2500      6.7171   -147.3188      6.8117    158.0412
  1737.5000      6.7136   -147.1881      6.7328    149.7067
  1737.7500      6.7084   -147.0468      6.6781    145.4776
  1738.0000      6.6904   -146.9013      6.6431    142.8226
  1738.2500      6.6560   -146.7606      6.6226    143.4597
  1738.5000      6.6062   -146.6347      6.6115    146.7996
  1738.7500      6.5447   -146.5313      6.6048    149.8026
  1739.0000      6.4746   -146.4560      6.5979    154.2551
  1739.2500      6.3976   -146.4113      6.5866    156.5221
  1739.5000      6.3143   -146.3975      6.5684    158.0429
  1739.7500      6.2274   -146.4136      6.5434    157.7604
  1740.0000      6.1403   -146.4574      6.5136    156.1462
  1740.2500      6.0558   -146.5250      6.4821    154.9708
  1740.5000      5.9772   -146.6113      6.4524    154.2027
  1740.7500      5.9130   -146.7094      6.4277    154.7337
  1741.0000      5.8791   -146.8126      6.4114    156.7897
  1741.2500      5.8918   -146.9149      6.4068    158.2625
  1741.5000      5.9560   -147.0122      6.4167    159.2644
  1741.7500      6.0576   -147.1027      6.4430    158.9029
  1742.0000      6.1687   -147.1857      6.4864    157.5928
  1742.2500      6.2637   -147.2613      6.5454    156.7573
  1742.5000      6.3360   -147.3297      6.6169    155.6042
  1742.7500      6.4002   -147.3912      6.6971    154.4744
  1743.0000      6.4782   -147.4462      6.7818    151.8183
  1743.2500      6.5797   -147.4957      6.8676    149.8129
  1743.5000      6.6930   -147.5405      6.9503    147.9126
  1743.7500      6.7936   -147.5811      7.0256    147.9173
  1744.0000      6.8606   -147.6164      7.0896    149.2623
  1744.2500      6.8879   -147.6444      7.1413    150.2095
  1744.5000      6.8832   -147.6619      7.1843    150.7608
  1744.7500      6.8600   -147.6659      7.2256    150.5976
  1745.0000      6.8303   -147.6545      7.2723    150.1147
  1745.2500      6.8014   -147.6280      7.3283    149.7392
  1745.5000      6.7760   -147.5892      7.3920    148.6461
  1745.7500      6.7530   -147.5438      7.4567    147.3940
  1746.0000      6.7305   -147.4999      7.5135    145.3922
  1746.2500      6.7079   -147.4675      7.5549    144.5484
  1746.5000      6.6870   -147.4571      7.5775    144.0141
  1746.7500      6.6722   -147.4784      7.5812    143.6566
  1747.0000      6.6668   -147.5377      7.5667    143.0089
  1747.2500      6.6701   -147.6370      7.5341    143.1798
  1747.5000      6.6771   -147.7722      7.4834    145.4916
  1747.7500      6.6824   -147.9345      7.4163    148.2387
