~Version Information
VERS.                      2.0: CWLS Log ASCII Standard - VERSION 2.0
WRAP.                       NO: One line per depth step
~Well Information Block
STRT.FT               845.0000: 
STOP.FT              2308.2500: 
STEP.FT                 0.2500: 
NULL.                -999.2500: 
COMP.          Pioneer Natural Resources: COMPANY
WELL.             Vector 33-23: WELL
FLD.           Purgatoire River: FIELD
LOC.           1560' FEL & 1988' FSL----: LOCATION
PROV.                 Colorado: PROVINCE
CNTY.               Las Animas: COUNTRY
SRVC.                Patterson: SERVICE COMPANY
DATE.          Sat Mar 26 12:39:07 2005: LOG DATE
UWI.           05 071 08336 00: UNIQUE WELL ID
~Curve Information Block
DEPT.FT            0 000 00 00: Depth
SN.Ohm-m                      : IEL Short Normal
SP.mV                         : IEL Spontaneous Potential
DIR.Ohm-m                     : IEL Induction Resistivity
GR.GAPI                       : Gamma Ray
~Parameter Information Block
~A  Depth        SN          SP         DIR          GR     
# ...
  1213.5000   2000.0000   2000.0000     15.8990     91.3222
  1213.7500   2000.0000   2000.0000     16.6311     87.6074
  1214.0000   2000.0000   2000.0000     17.1081     81.9111
  1214.2500   2000.0000   2000.0000     17.3715     78.9365
  1214.5000   2000.0000   2000.0000     17.4683     76.3102
  1214.7500   2000.0000   2000.0000     17.4377     75.6381
  1215.0000   2000.0000   2000.0000     17.3113     75.9686
  1215.2500   2000.0000   2000.0000     17.1126     77.0977
  1215.5000   2000.0000   2000.0000     16.8514     80.0313
  1215.7500   2000.0000   2000.0000     16.5204     82.4483
  1216.0000   2000.0000   2000.0000     16.1037     85.8661
  1216.2500   2000.0000   2000.0000     15.5960     87.5881
  1216.5000   2000.0000   2000.0000     15.0173     89.2064
  1216.7500   2000.0000   2000.0000     14.4131     89.9762
  1217.0000   2000.0000   2000.0000     13.8375     91.5496
  1217.2500   2000.0000   2000.0000     13.3353     93.1981
  1217.5000   2000.0000   2000.0000     12.9294     96.4102
  1217.7500   2000.0000   2000.0000     12.6185     98.6675
  1218.0000   2000.0000   2000.0000     12.3827    101.7487
  1218.2500   2000.0000   2000.0000     12.1942    103.6703
  1218.5000   2000.0000   2000.0000     12.0305    106.7719
  1218.7500   2000.0000   2000.0000     11.8813    108.9042
  1219.0000   2000.0000   2000.0000     11.7469    111.0595
  1219.2500   2000.0000   2000.0000     11.6321    110.9068
  1219.5000   2000.0000   2000.0000     11.5405    107.5515
  1219.7500   2000.0000   2000.0000     11.4725    103.6002
  1220.0000   2000.0000   2000.0000     11.4255     96.8753
  1220.2500   2000.0000   2000.0000     11.3951     93.2076
  1220.5000   2000.0000   2000.0000     11.3756     90.9327
  1220.7500   2000.0000   2000.0000     11.3605     92.0335
  1221.0000   2000.0000   2000.0000     11.3415     96.7089
  1221.2500   2000.0000   2000.0000     11.3089    100.6710
  1221.5000   2000.0000   2000.0000     11.2530    106.0479
  1221.7500   2000.0000   2000.0000     11.1683    108.6894
  1222.0000   2000.0000   2000.0000     11.0572    111.0246
  1222.2500   2000.0000   2000.0000     10.9321    111.6272
  1222.5000   2000.0000   2000.0000     10.8109    111.5503
  1222.7500   2000.0000   2000.0000     10.7105    111.1299
  1223.0000   2000.0000   2000.0000     10.6384    110.3287
  1223.2500   2000.0000   2000.0000     10.5878    109.8622
  1223.5000   2000.0000   2000.0000     10.5412    109.6234
  1223.7500   2000.0000   2000.0000     10.4801    110.0302
  1224.0000   2000.0000   2000.0000     10.3974    111.7447
  1224.2500   2000.0000   2000.0000     10.3010    113.4117
  1224.5000   2000.0000   2000.0000     10.2094    115.7287
  1224.7500   2000.0000   2000.0000     10.1406    116.6004
  1225.0000   2000.0000   2000.0000     10.1042    116.5109
  1225.2500   2000.0000   2000.0000     10.0992    115.5679
  1225.5000   2000.0000   2000.0000     10.1158    113.1729
  1225.7500   2000.0000   2000.0000     10.1408    111.2434
  1226.0000   2000.0000   2000.0000     10.1636    108.3528
  1226.2500   2000.0000   2000.0000     10.1797    106.4781
  1226.5000   2000.0000   2000.0000     10.1909    103.4113
  1226.7500   2000.0000   2000.0000     10.2008    101.0996
  1227.0000   2000.0000   2000.0000     10.2112     97.8639
  1227.2500   2000.0000   2000.0000     10.2205     96.5588
  1227.5000   2000.0000   2000.0000     10.2244     96.4992
  1227.7500   2000.0000   2000.0000     10.2180     97.3614
  1228.0000   2000.0000   2000.0000     10.1968     98.8397
  1228.2500   2000.0000   2000.0000     10.1574     99.6338
  1228.5000   2000.0000   2000.0000     10.0998    100.9015
  1228.7500   2000.0000   2000.0000     10.0279    102.0841
  1229.0000   2000.0000   2000.0000      9.9489    104.2049
  1229.2500   2000.0000   2000.0000      9.8707    105.4859
  1229.5000   2000.0000   2000.0000      9.7996    106.9502
  1229.7500   2000.0000   2000.0000      9.7393    107.8676
  1230.0000   2000.0000   2000.0000      9.6910    109.5775
  1230.2500   2000.0000   2000.0000      9.6532    110.7261
  1230.5000   2000.0000   2000.0000      9.6229    111.3682
  1230.7500   2000.0000   2000.0000      9.5975    110.5129
  1231.0000   2000.0000   2000.0000      9.5762    107.4177
  1231.2500   2000.0000   2000.0000      9.5617    104.9297
  1231.5000   2000.0000   2000.0000      9.5586    102.2676
  1231.7500   2000.0000   2000.0000      9.5714    101.7427
  1232.0000   2000.0000   2000.0000      9.6019    102.5108
  1232.2500   2000.0000   2000.0000      9.6486    103.4469
  1232.5000   2000.0000   2000.0000      9.7070    104.4394
  1232.7500   2000.0000   2000.0000      9.7714    104.4486
  1233.0000   2000.0000   2000.0000      9.8360    103.4438
  1233.2500   2000.0000   2000.0000      9.8957    102.3697
  1233.5000   2000.0000   2000.0000      9.9464    100.6581
  1233.7500   2000.0000   2000.0000      9.9844     99.5241
  1234.0000   2000.0000   2000.0000     10.0085     97.6437
  1234.2500   2000.0000   2000.0000     10.0232     96.2387
  1234.5000   2000.0000   2000.0000     10.0404     94.3882
  1234.7500     11.4573   2000.0000     10.0772     93.8291
  1235.0000     11.6357   2000.0000     10.1516     94.4437
  1235.2500     11.8424   2000.0000     10.2787     95.4435
  1235.5000     12.0669   2000.0000     10.4681     96.3149
  1235.7500     12.2804   2000.0000     10.7221     95.6833
  1236.0000     12.4242   2000.0000     11.0342     92.5882
  1236.2500     12.4421   -143.6327     11.3888     89.4447
  1236.5000     12.3559   -144.2301     11.7661     83.9691
  1236.7500     12.3197   -144.8755     12.1507     80.2749
  1237.0000     12.5773   -145.5477     12.5423     75.5316
  1237.2500     13.3266   -146.2091     12.9578     91.8400
  1237.5000     14.5950   -146.8065     13.4241     90.8625
  1237.7500     16.2247   -147.2780     13.9598     92.0487
  1238.0000     17.9493   -147.5638     14.5549     95.4915
  1238.2500     19.4640   -147.6201     15.1526    117.5484
  1238.5000     20.4683   -147.4294     15.6448    120.3057
  1238.7500     20.7546   -147.0055     15.8924    120.1450
  1239.0000     20.3369   -146.3900     15.7741    116.6278
  1239.2500     19.4845   -145.6422     15.2435    112.9846
  1239.5000     18.5856   -144.8266     14.3592    108.6078
  1239.7500     17.9545   -144.0011     13.2647    108.2226
  1240.0000     17.7224   -143.2093     12.1313    112.4387
  1240.2500     17.8456   -142.4789     11.1011    117.3599
  1240.5000     18.1795   -141.8236     10.2598    124.6671
  1240.7500     18.5628   -141.2479      9.6422    128.0454
  1241.0000     18.8701   -140.7517      9.2587    130.2015
  1241.2500     19.0310   -140.3347      9.1364    130.0890
  1241.5000     19.0369   -139.9980      9.3737    128.6704
  1241.7500     18.9364   -139.7464     10.2565    127.4254
  1242.0000     18.8049   -139.5873     12.6641    125.7514
  1242.2500     18.7032   -139.5311     20.6702    125.0744
  1242.5000     18.6565   -139.5901    179.5009    125.2408
  1242.7500     18.6647   -139.7784 100000.0000    126.2873
  1243.0000     18.7237   -140.1131 100000.0000    128.5940
  1243.2500     18.8357   -140.6147 100000.0000    129.5428
  1243.5000     19.0095   -141.3104 100000.0000    128.0477
  1243.7500     19.2632   -142.2370 100000.0000    124.8114
  1244.0000     19.6312   -143.4439 100000.0000    118.3911
  1244.2500     20.1609   -144.9962 100000.0000    114.7293
  1244.5000     20.8893   -146.9760 100000.0000    112.2049
  1244.7500     21.8156   -149.4803 100000.0000    112.8708
  1245.0000     22.8910   -152.6149     27.2931    116.7657
  1245.2500     24.0334   -156.4836     13.2021    120.1817
  1245.5000     25.1543   -161.1698      9.7431    123.7913
  1245.7500     26.1852   -166.7155      8.5217    123.9187
  1246.0000     27.0963   -173.0983      8.4354    120.2806
  1246.2500     27.8878   -180.2136      9.7755    115.8219
  1246.5000     28.5468   -187.8698     15.6266    107.0909
  1246.7500     28.9897   -195.8024    335.9632    100.4555
