~Version Information
VERS.                      2.0: CWLS Log ASCII Standard - VERSION 2.0
WRAP.                       NO: One line per depth step
~Well Information Block
STRT.FT               475.0000: 
STOP.FT              2336.7500: 
STEP.FT                 0.2500: 
NULL.                -999.2500: 
COMP.          Pioneer Natural Resources: COMPANY
WELL.              Bobsy 34-11: WELL
FLD.           Purgatoire River: FIELD
LOC.           1937' FEL & 451' FSL----: LOCATION
PROV.                 Colorado: PROVINCE
CNTY.               Las Animas: COUNTRY
SRVC.                Patterson: SERVICE COMPANY
DATE.          Fri Apr 08 05:21:25 2005: LOG DATE
UWI.           05 071 08330 00: UNIQUE WELL ID
~Curve Information Block
DEPT.FT            0 000 00 00: Depth
SN.Ohm-m                      : IEL Short Normal
SP.mV                         : IEL Spontaneous Potential
DIR.Ohm-m                     : IEL Induction Resistivity
GR.GAPI                       : Gamma Ray
~Parameter Information Block
~A  Depth        SN          SP         DIR          GR     
# ...
  1212.0000     25.7973   -171.8928     22.3973    111.4079
  1212.2500     25.0229   -172.0388     22.5329    105.2343
  1212.5000     24.2083   -172.1565     22.5130     94.9307
  1212.7500     23.4825   -172.2395     22.2754     88.3163
  1213.0000     23.0158   -172.2890     21.8198     81.4144
  1213.2500     22.9315   -172.3144     21.2072     80.4512
  1213.5000     23.2153   -172.3310     20.5291     85.6788
  1213.7500     23.7031   -172.3570     19.8677     92.7797
  1214.0000     24.1607   -172.4093     19.2701    105.3144
  1214.2500     24.3934   -172.4997     18.7460    112.6775
  1214.5000     24.3101   -172.6326     18.2802    119.8770
  1214.7500     23.9216   -172.8045     17.8517    121.8455
  1215.0000     23.3057   -173.0040     17.4501    121.2325
  1215.2500     22.5685   -173.2141     17.0831    119.0387
  1215.5000     21.8118   -173.4144     16.7711    114.0619
  1215.7500     21.1081   -173.5842     16.5307    110.1355
  1216.0000     20.4924   -173.7055     16.3579    104.1964
  1216.2500     19.9706   -173.7655     16.2224    100.8494
  1216.5000     19.5285   -173.7583     16.0752     98.0300
  1216.7500     19.1340   -173.6851     15.8663     98.0834
  1217.0000     18.7417   -173.5542     15.5601    100.9575
  1217.2500     18.3036   -173.3784     15.1428    104.3886
  1217.5000     17.7790   -173.1741     14.6211    111.1929
  1217.7500     17.1474   -172.9581     14.0169    116.4055
  1218.0000     16.4235   -172.7465     13.3624    124.2544
  1218.2500     15.6567   -172.5532     12.6951    128.9314
  1218.5000     14.9074   -172.3888     12.0529    134.5492
  1218.7500     14.2216   -172.2599     11.4676    137.3997
  1219.0000     13.6299   -172.1686     10.9610    140.7841
  1219.2500     13.1621   -172.1123     10.5432    142.6207
  1219.5000     12.8510   -172.0847     10.2131    144.5984
  1219.7500     12.7154   -172.0768      9.9608    145.2099
  1220.0000     12.7404   -172.0786      9.7709    144.9331
  1220.2500     12.8728   -172.0813      9.6273    144.0560
  1220.5000     13.0385   -172.0789      9.5183    142.1328
  1220.7500     13.1742   -172.0692      9.4401    140.7406
  1221.0000     13.2522   -172.0546      9.3962    138.8075
  1221.2500     13.2859   -172.0412      9.3918    137.6597
  1221.5000     13.3142   -172.0376      9.4267    136.0978
  1221.7500     13.3751   -172.0528      9.4914    135.1252
  1222.0000     13.4886   -172.0940      9.5699    133.5739
  1222.2500     13.6549   -172.1640      9.6531    132.1305
  1222.5000     13.8618   -172.2607      9.7613    128.4736
  1222.7500     14.0897   -172.3768      9.9671    124.8290
  1223.0000     14.3092   -172.5024     10.4093    118.5019
  1223.2500     14.4782   -172.6279     11.3016    114.8020
  1223.5000     14.5501   -172.7467     12.9483    111.5584
  1223.7500     14.4924   -172.8573     15.7272    111.2624
  1224.0000     14.3001   -172.9621     19.7595    113.5245
  1224.2500     13.9910   -173.0653     23.6214    116.6543
  1224.5000     13.5892   -173.1669     23.7192    123.3133
  1224.7500     13.1192   -173.2578     19.5481    128.5788
  1225.0000     12.6142   -173.3168     14.9295    136.4360
  1225.2500     12.1236   -173.3116     11.8732    140.8375
  1225.5000     11.7027   -173.2068     10.3316    145.3922
  1225.7500     11.3925   -172.9761      9.8558    147.1572
  1226.0000     11.2087   -172.6167      9.9961    148.5611
  1226.2500     11.1473   -172.1607     10.1909    148.9067
  1226.5000     11.2012   -171.6771      9.8779    148.3353
  1226.7500     11.3766   -171.2631      9.0224    146.9276
  1227.0000     11.6950   -171.0255      8.1433    143.1974
  1227.2500     12.1752   -171.0575      7.7422    140.1722
  1227.5000     12.8074   -171.4194      8.1738    136.4417
  1227.7500     13.5421   -172.1280     10.0595    135.1808
  1228.0000     14.3025   -173.1587     15.7199    134.9338
  1228.2500     15.0118   -174.4566     44.5255    135.0958
  1228.5000     15.6155   -175.9531 100000.0000    134.4390
  1228.7500     16.0863   -177.5807 100000.0000    133.0093
  1229.0000     16.4139   -179.2836 100000.0000    129.6325
  1229.2500     16.5907   -181.0243 100000.0000    127.0471
  1229.5000     16.5999   -182.7863 100000.0000    123.6944
  1229.7500     16.4086   -184.5767     11.2086    122.4786
  1230.0000     15.9600   -186.4264      3.2260    123.2789
  1230.2500     15.1798   -188.3873      1.5138    125.6973
  1230.5000     14.0146   -190.5239      0.9005    130.6706
  1230.7500     12.4953   -192.8960      0.6442    133.2724
  1231.0000     10.7707   -195.5390      0.5530    133.7297
  1231.2500      9.0638   -198.4432      0.5715    131.2512
  1231.5000      7.5720   -201.5434      0.6918    123.7589
  1231.7500      6.3923   -204.7231      0.9092    116.5494
  1232.0000      5.5204   -207.8330      1.1376    102.5662
  1232.2500      4.9008   -210.7193      1.1835     91.4307
  1232.5000      4.4751   -213.2542      1.0372     73.7859
  1232.7500      4.1991   -215.3568      0.8823     63.0240
  1233.0000      4.0373   -217.0025      0.8048     50.9111
  1233.2500      3.9564   -218.2171      0.7818     46.1967
  1233.5000      3.9247   -219.0617      0.7307     43.7464
  1233.7500      3.9161   -219.6132      0.5840     44.4867
  1234.0000      3.9125   -219.9469      0.3931     48.3308
  1234.2500      3.9037   -220.1238      0.2417     52.7218
  1234.5000      3.8863   -220.1819      0.1530     62.4093
  1234.7500      3.8615   -220.1336      0.1144     70.9468
  1235.0000      3.8343   -219.9652      0.1090     86.2970
  1235.2500      3.8196   -219.6374      0.1273     97.5599
  1235.5000      3.8563   -219.0884      0.1581    114.0942
  1235.7500      4.0274   -218.2390      0.1764    123.2914
  1236.0000      4.4706   -217.0015      0.1620    131.7866
  1236.2500      5.3545   -215.2955      0.1304    133.4107
  1236.5000      6.8003   -213.0658      0.1090    131.2653
  1236.7500      8.7839   -210.3013      0.1121    128.4809
  1237.0000     11.0981   -207.0505      0.1528    125.0716
  1237.2500     13.4196   -203.4242      0.2647    124.3450
  1237.5000     15.4338   -199.5845      0.5323    126.0923
  1237.7500     16.9331   -195.7188      1.2916    128.8330
  1238.0000     17.8491   -192.0070      6.2641    133.8875
  1238.2500     18.2335   -188.5899 100000.0000    136.5270
  1238.5000     18.2102   -185.5497 100000.0000    136.6071
  1238.7500     17.9207   -182.9061 100000.0000    132.9802
  1239.0000     17.4850   -180.6318 100000.0000    122.6893
  1239.2500     16.9919   -178.6753 100000.0000    114.6179
  1239.5000     16.5053   -176.9862     24.3433    105.1814
  1239.7500     16.0662   -175.5308      7.3883    102.4276
  1240.0000     15.6883   -174.2947      5.4451    103.7837
  1240.2500     15.3576   -173.2721      5.5951    107.3701
  1240.5000     15.0406   -172.4495      7.4665    115.0127
  1240.7500     14.7001   -171.7926     13.7301    120.7339
  1241.0000     14.3163   -171.2435     56.0944    128.4120
  1241.2500     13.9043   -170.7324 100000.0000    131.8273
  1241.5000     13.5150   -170.1974 100000.0000    133.7423
  1241.7500     13.2119   -169.6058 100000.0000    133.5001
  1242.0000     13.0381   -168.9666 100000.0000    132.5434
  1242.2500     12.9976   -168.3274 100000.0000    132.0368
  1242.5000     13.0606   -167.7582 100000.0000    131.1361
  1242.7500     13.1865   -167.3275 100000.0000    130.0075
  1243.0000     13.3473   -167.0800 100000.0000    127.4645
  1243.2500     13.5397   -167.0244 100000.0000    125.6074
  1243.5000     13.7809   -167.1361 100000.0000    123.0658
  1243.7500     14.0963   -167.3690     86.6982    121.3814
  1244.0000     14.5092   -167.6735     23.1741    118.4944
  1244.2500     15.0350   -168.0119     13.7689    116.4924
  1244.5000     15.6824   -168.3667     10.6616    114.2124
  1244.7500     16.4603   -168.7420      9.5737    113.5924
  1245.0000     17.3908   -169.1572      9.4618    114.0373
  1245.2500     18.5162   -169.6361      9.9830    114.7587
