~Version Information
VERS.                      2.0: CWLS Log ASCII Standard - VERSION 2.0
WRAP.                       NO: One line per depth step
~Well Information Block
STRT.FT               450.0000: 
STOP.FT              1642.0000: 
STEP.FT                 0.1000: 
NULL.                -999.2500: 
COMP.          Pioneer Natural Resources: COMPANY
WELL.           Buckhorn 12-21: WELL
FLD.           Purgatoire River: FIELD
LOC.           2450' FNL & 608' FWL: LOCATION
PROV.                 Colorado: PROVINCE
CNTY.               Las Animas: COUNTRY
SRVC.                Patterson: SERVICE COMPANY
DATE.          Wed Dec 01 15:08:21 2004: LOG DATE
UWI.           05 071 08129 00: UNIQUE WELL ID
~Curve Information Block
DEPT.FT            0 000 00 00: Depth
NPOR.pu                       : Neutron Porosity
CCL.                          : Casing Collar Locator
GR.GAPI                       : Gamma Ray
~Parameter Information Block
~A  Depth       NPOR        CCL          GR     
# ...
  1001.1000     27.2097      0.0000    142.7862
  1001.2000     27.2097      0.0000    142.7862
  1001.3000     27.9490      0.0000    144.2707
  1001.4000     27.9490      0.0000    144.2707
  1001.5000     28.5840      0.0000    146.3981
  1001.6000     28.5840      0.0000    146.3981
  1001.7000     28.5840      0.0000    146.3981
  1001.8000     28.9031      0.0000    149.2220
  1001.9000     28.9031      0.0000    149.2220
  1002.0000     28.7774      0.0000    152.9043
  1002.1000     28.7774      0.0000    152.9043
  1002.2000     28.7774      0.0000    152.9043
  1002.3000     28.2050      0.0000    157.0378
  1002.4000     28.2050      0.0000    157.0378
  1002.5000     27.2933      0.0000    159.9461
  1002.6000     27.2933      0.0000    159.9461
  1002.7000     27.2933      0.0000    159.9461
  1002.8000     26.1833      0.0000    159.4724
  1002.9000     26.1833      0.0000    159.4724
  1003.0000     24.9575      0.0000    154.8752
  1003.1000     24.9575      0.0000    154.8752
  1003.2000     24.9575      0.0000    154.8752
  1003.3000     23.6281      0.0000    147.6372
  1003.4000     23.6281      0.0000    147.6372
  1003.5000     22.2378      0.0000    140.0778
  1003.6000     22.2378      0.0000    140.0778
  1003.7000     22.2378      0.0000    140.0778
  1003.8000     20.9462      0.0000    133.3932
  1003.9000     20.9462      0.0000    133.3932
  1004.0000     19.9744      0.0000    127.3985
  1004.1000     19.9744      0.0000    127.3985
  1004.2000     19.9744      0.0000    127.3985
  1004.3000     19.4736      0.0000    121.8422
  1004.4000     19.4736      0.0000    121.8422
  1004.5000     19.4631      0.0000    117.3606
  1004.6000     19.4631      0.0000    117.3606
  1004.7000     19.4631      0.0000    117.3606
  1004.8000     19.8675      0.0000    115.1260
  1004.9000     19.8675      0.0000    115.1260
  1005.0000     20.5823      0.0000    115.8725
  1005.1000     20.5823      0.0000    115.8725
  1005.2000     20.5823      0.0000    115.8725
  1005.3000     21.5181      0.0000    119.3061
  1005.4000     21.5181      0.0000    119.3061
  1005.5000     22.6095      0.0000    124.3033
  1005.6000     22.6095      0.0000    124.3033
  1005.7000     22.6095      0.0000    124.3033
  1005.8000     23.7821      0.0000    129.5046
  1005.9000     23.7821      0.0000    129.5046
  1006.0000     24.9189      0.0000    133.5846
  1006.1000     24.9189      0.0000    133.5846
  1006.2000     24.9189      0.0000    133.5846
  1006.3000     25.8856      0.0000    135.3260
  1006.4000     25.8856      0.0000    135.3260
  1006.5000     26.6083      0.0000    134.1914
  1006.6000     26.6083      0.0000    134.1914
  1006.7000     26.6083      0.0000    134.1914
  1006.8000     27.1243      0.0000    131.0661
  1006.9000     27.1243      0.0000    131.0661
  1007.0000     27.5562      0.0000    128.0040
  1007.1000     27.5562      0.0000    128.0040
  1007.2000     27.5562      0.0000    128.0040
  1007.3000     28.0220      0.0000    127.0190
  1007.4000     28.0220      0.0000    127.0190
  1007.5000     28.5382     -1.5564    129.0537
  1007.6000     28.5382      2.0000    129.0537
  1007.7000     28.5382     -2.0000    129.0537
  1007.8000     28.9883      0.0000    133.7018
  1007.9000     28.9883      2.0000    133.7018
  1008.0000     29.1988      0.0000    139.6389
  1008.1000     29.1988      0.0000    139.6389
  1008.2000     29.1988      0.0000    139.6389
  1008.3000     29.0707      0.0000    145.3819
  1008.4000     29.0707      0.0000    145.3819
  1008.5000     28.6523      0.0000    149.8368
  1008.6000     28.6523      0.0000    149.8368
  1008.7000     28.6523      0.0000    149.8368
  1008.8000     28.0946      0.0000    152.4298
  1008.9000     28.0946      0.0000    152.4298
  1009.0000     27.5461      0.0000    153.1019
  1009.1000     27.5461      0.0000    153.1019
  1009.2000     27.5461      0.0000    153.1019
  1009.3000     27.0705      0.0000    152.3139
  1009.4000     27.0705      0.0000    152.3139
  1009.5000     26.6230      0.0000    150.8959
  1009.6000     26.6230      0.0000    150.8959
  1009.7000     26.6230      0.0000    150.8959
  1009.8000     26.0651      0.0000    149.6201
  1009.9000     26.0651      0.0000    149.6201
  1010.0000     25.2299      0.0000    148.6002
  1010.1000     25.2299      0.0000    148.6002
  1010.2000     25.2299      0.0000    148.6002
  1010.3000     24.0410      0.0000    147.0147
  1010.4000     24.0410      0.0000    147.0147
  1010.5000     22.5910      0.0000    143.5574
  1010.6000     22.5910      0.0000    143.5574
  1010.7000     22.5910      0.0000    143.5574
  1010.8000     21.0891      0.0000    137.2781
  1010.9000     21.0891      0.0000    137.2781
  1011.0000     19.7528      0.0000    128.2254
  1011.1000     19.7528      0.0000    128.2254
  1011.2000     19.7528      0.0000    128.2254
  1011.3000     18.7669      0.0000    117.9510
  1011.4000     18.7669      0.0000    117.9510
  1011.5000     18.2900      0.0000    109.5850
  1011.6000     18.2900      0.0000    109.5850
  1011.7000     18.2900      0.0000    109.5850
  1011.8000     18.4239      0.0000    106.5960
  1011.9000     18.4239      0.0000    106.5960
  1012.0000     19.1500      0.0000    110.5538
  1012.1000     19.1500      0.0000    110.5538
  1012.2000     19.1500      0.0000    110.5538
  1012.3000     20.3085      0.0000    119.9266
  1012.4000     20.3085      0.0000    119.9266
  1012.5000     21.6622      0.0000    131.2907
  1012.6000     21.6622      0.0000    131.2907
  1012.7000     21.6622      0.0000    131.2907
  1012.8000     22.9919      0.0000    141.7713
  1012.9000     22.9919      0.0000    141.7713
  1013.0000     24.1353      0.0000    150.2087
  1013.1000     24.1353      0.0000    150.2087
  1013.2000     24.1353      0.0000    150.2087
  1013.3000     24.9894      0.0000    156.2387
  1013.4000     24.9894      0.0000    156.2387
  1013.5000     25.5455      0.0000    159.1891
  1013.6000     25.5455      0.0000    159.1891
  1013.7000     25.5455      0.0000    159.1891
  1013.8000     25.9176      0.0000    158.6448
  1013.9000     25.9176      0.0000    158.6448
  1014.0000     26.2795      0.0000    155.6977
  1014.1000     26.2795      0.0000    155.6977
  1014.2000     26.2795      0.0000    155.6977
  1014.3000     26.7327      0.0000    152.5235
  1014.4000     26.7327      0.0000    152.5235
  1014.5000     27.2261      0.0000    150.3195
  1014.6000     27.2261      0.0000    150.3195
  1014.7000     27.2261      0.0000    150.3195
  1014.8000     27.6097      0.0000    148.4429
  1014.9000     27.6097      0.0000    148.4429
  1015.0000     27.7842      0.0000    146.1685
  1015.1000     27.7842      0.0000    146.1685
  1015.2000     27.7842      0.0000    146.1685
  1015.3000     27.8053      0.0000    144.4412
  1015.4000     27.8053      0.0000    144.4412
  1015.5000     27.8377      0.0000    144.8430
  1015.6000     27.8377      0.0000    144.8430
  1015.7000     27.8377      0.0000    144.8430
  1015.8000     28.0118      0.0000    147.2379
  1015.9000     28.0118      0.0000    147.2379
  1016.0000     28.3304      0.0000    149.5170
  1016.1000     28.3304      0.0000    149.5170
  1016.2000     28.3304      0.0000    149.5170
  1016.3000     28.7039      0.0000    149.8074
  1016.4000     28.7039      0.0000    149.8074
  1016.5000     29.0797      0.0000    148.1964
  1016.6000     29.0797      0.0000    148.1964
  1016.7000     29.0797      0.0000    148.1964
  1016.8000     29.5295      0.0000    146.0248
  1016.9000     29.5295      0.0000    146.0248
  1017.0000     30.1607      0.0000    144.2831
  1017.1000     30.1607      0.0000    144.2831
  1017.2000     30.1607      0.0000    144.2831
  1017.3000     30.9075      0.0000    143.2832
  1017.4000     30.9075      0.0000    143.2832
  1017.5000     31.4628      0.0000    143.1318
  1017.6000     31.4628      0.0000    143.1318
  1017.7000     31.4628      0.0000    143.1318
