~Version Information
VERS.                      2.0: CWLS Log ASCII Standard - VERSION 2.0
WRAP.                       NO: One line per depth step
~Well Information Block
STRT.FT               430.0000: 
STOP.FT              2417.0000: 
STEP.FT                 0.1000: 
NULL.                -999.2500: 
COMP.          Evergreen Operating Corporation: COMPANY
WELL.          McCullough 34-32: WELL
FLD.           Purgatorie River: FIELD
LOC.           261' FSL & 2098' FEL: LOCATION
PROV.                 Colorado: PROVINCE
CNTY.               Las Animas: COUNTRY
SRVC.                Patterson: SERVICE COMPANY
DATE.          Mon May 17 11:25:23 2004: LOG DATE
UWI.           05 071 07953 00: UNIQUE WELL ID
~Curve Information Block
DEPT.FT            0 000 00 00: Depth
DCAL.in                       : CDL Caliper
RHOB.g/cc                     : CDL Bulk Density
RHOC.g/cc                     : CDL Density Correction
DPOR.pu                       : CDL Density Porosity
NPOR.pu                       : Neutron Porosity
GR.GAPI                       : Gamma Ray
~Parameter Information Block
~A  Depth       DCAL        RHOB        RHOC        DPOR        NPOR         GR     
# ...
  2254.0000      8.1012      2.5878      0.0970      3.7668     15.1538     46.4116
  2254.1000      8.1012      2.5656      0.0529      5.1134     14.9317     41.6417
  2254.2000      8.1012      2.5508      0.0398      6.0100     15.0989     38.8979
  2254.3000      7.9477      2.5532      0.0452      5.8691     15.5008     38.3230
  2254.4000      7.9477      2.5659      0.0860      5.0969     16.3625     38.1774
  2254.5000      7.9224      2.5783      0.0519      4.3477     17.6129     38.5532
  2254.6000      7.9224      2.5916      0.0742      3.5413     18.6277     40.3433
  2254.7000      7.9224      2.6064      0.0884      2.6396     19.2477     42.0874
  2254.8000      7.9416      2.6035      0.1319      2.8210     19.8258     44.3821
  2254.9000      7.9416      2.5532      0.0841      5.8647     20.4007     48.2789
  2255.0000      7.9698      2.4494      0.0285     12.1588     21.1017     49.7015
  2255.1000      7.9698      2.3167     -0.0226     20.2018     22.2783     46.3386
  2255.2000      7.9698      2.1922     -0.1183     27.7471     23.8555     43.2804
  2255.3000      7.9639      2.0960     -0.0662     33.5775     25.3759     45.1672
  2255.4000      7.9639      2.0179     -0.0574     38.3109     26.4434     47.5077
  2255.5000      8.0090      1.9516     -0.1100     42.3249     27.0918     47.3691
  2255.6000      8.0090      1.9164     -0.0541     44.4604     27.5434     49.1996
  2255.7000      8.0090      1.9330     -0.0165     43.4548     27.6692     52.9889
  2255.8000      8.0112      2.0039      0.1045     39.1583     27.2292     55.4525
  2255.9000      8.0112      2.1123      0.2540     32.5874     26.7166     58.1596
  2256.0000      8.0186      2.2281      0.4122     25.5701     26.7557     62.5914
  2256.1000      8.0186      2.3228      0.4507     19.8303     26.8109     66.9229
  2256.2000      8.0186      2.3942      0.3698     15.5008     26.1866     72.6341
  2256.3000      8.0289      2.4594      0.3526     11.5537     25.3653     82.0308
  2256.4000      8.0289      2.5156      0.3608      8.1478     25.0756     91.4024
  2256.5000      8.0643      2.5402      0.3243      6.6542     25.3102     96.7534
  2256.6000      8.0643      2.5341      0.1819      7.0258     25.5448    100.3603
  2256.7000      8.0643      2.5282      0.1601      7.3826     25.3949    105.3087
  2256.8000      8.2555      2.5383      0.1633      6.7700     25.1991    109.0414
  2256.9000      8.2555      2.5546      0.1464      5.7801     25.6382    109.3456
  2257.0000      8.1471      2.5664      0.1828      5.0638     26.4561    108.0520
  2257.1000      8.1471      2.5720      0.1194      4.7278     26.7569    106.6639
  2257.2000      8.1471      2.5731      0.0984      4.6619     26.3904    108.2944
  2257.3000      8.1701      2.5649      0.1270      5.1558     25.8579    114.6613
  2257.4000      8.1701      2.5416      0.1399      6.5699     25.4062    119.8207
  2257.5000      8.4136      2.5179      0.0598      8.0031     25.0690    118.4137
  2257.6000      8.4136      2.5188      0.0531      7.9492     25.1122    113.5351
  2257.7000      8.4136      2.5412      0.1036      6.5913     25.4337    109.2484
  2257.8000      8.4262      2.5644      0.1276      5.1897     25.5407    107.3283
  2257.9000      8.4262      2.5832      0.1132      4.0502     25.4869    105.8276
  2258.0000      8.3584      2.5998      0.1301      3.0423     25.6509    103.4439
  2258.1000      8.3584      2.5935      0.1960      3.4248     26.0589    104.0684
  2258.2000      8.3584      2.5412      0.1275      6.5952     26.4414    109.0084
  2258.3000      8.2649      2.4649      0.0501     11.2176     26.5510    113.7347
  2258.4000      8.2649      2.4103      0.0500     14.5255     26.3479    114.8978
  2258.5000      8.1842      2.3975     -0.0029     15.3042     25.8802    114.5799
  2258.6000      8.1842      2.4136      0.0820     14.3297     25.3342    115.0808
  2258.7000      8.1842      2.4347      0.0488     13.0477     24.8782    113.5929
  2258.8000      8.1412      2.4588      0.0714     11.5908     24.4939    108.4582
  2258.9000      8.1412      2.4916      0.1473      9.6001     24.2361     99.8860
  2259.0000      8.1181      2.5247      0.1527      7.5943     24.0734     89.5563
  2259.1000      8.1181      2.5520      0.1357      5.9374     23.7478     84.7105
  2259.2000      8.1181      2.5743      0.1854      4.5898     23.0061     85.8611
  2259.3000      8.1065      2.5887      0.1720      3.7155     21.9848     87.7242
  2259.4000      8.1065      2.5977      0.1455      3.1698     21.0963     90.5721
  2259.5000      8.1364      2.6104      0.1269      2.4013     20.7333     98.5629
  2259.6000      8.1364      2.6294      0.1092      1.2468     21.0313    110.6322
  2259.7000      8.1364      2.6411      0.1441      0.5365     21.6493    119.1192
  2259.8000      8.2367      2.6335      0.0874      0.9984     22.0996    119.0627
  2259.9000      8.2367      2.6179      0.0595      1.9439     22.2244    114.1112
  2260.0000      8.3245      2.6048      0.0572      2.7403     22.1816    105.7745
  2260.1000      8.3245      2.5927      0.0321      3.4738     22.1778     95.2265
  2260.2000      8.3245      2.5817      0.0325      4.1402     22.3252     92.7102
  2260.3000      8.3525      2.5722      0.0345      4.7151     22.6862    100.0747
  2260.4000      8.3525      2.5678      0.0441      4.9819     23.0995    104.8186
  2260.5000      8.4597      2.5752      0.0453      4.5341     23.4222    101.3891
  2260.6000      8.4597      2.5844      0.0664      3.9780     23.6908     97.2280
  2260.7000      8.4597      2.5721      0.0937      4.7233     23.9338     98.0178
  2260.8000      8.5293      2.5342     -0.0217      7.0174     24.2197     99.8563
  2260.9000      8.5293      2.4955     -0.0200      9.3618     24.6035     97.8034
  2261.0000      8.5457      2.4731      0.0098     10.7215     25.0838     95.5651
  2261.1000      8.5457      2.4604     -0.0100     11.4895     25.4069     99.1449
  2261.2000      8.5457      2.4479      0.0242     12.2456     25.2897    105.6437
  2261.3000      8.4824      2.4392     -0.0166     12.7773     25.0526    107.8943
  2261.4000      8.4824      2.4429      0.0679     12.5490     24.8679    105.9713
  2261.5000      8.4407      2.4531      0.1095     11.9355     24.2136    102.6570
  2261.6000      8.4407      2.4625      0.0951     11.3654     22.8859     99.7597
  2261.7000      8.4407      2.4746      0.0894     10.6323     21.5520    102.8657
  2261.8000      8.8578      2.4895      0.1407      9.7297     21.1202    111.9144
  2261.9000      8.8578      2.5020      0.1782      8.9716     21.7204    117.5841
  2262.0000      8.9274      2.5121      0.1320      8.3554     22.5542    116.4974
  2262.1000      8.9274      2.5200      0.0957      7.8805     23.0676    115.2087
  2262.2000      8.9274      2.5212      0.0679      7.8055     23.1862    118.9483
  2262.3000      8.9596      2.5232      0.0258      7.6878     22.8895    123.1406
  2262.4000      8.9596      2.5444      0.0096      6.3981     22.3042    123.6868
  2262.5000      9.0557      2.5841      0.0961      3.9927     21.7439    121.8697
  2262.6000      9.0557      2.6130      0.1191      2.2410     21.4159    118.2482
  2262.7000      9.0557      2.6183      0.0897      1.9197     21.2122    111.8421
  2262.8000      8.5742      2.6156      0.0744      2.0829     21.0650    105.9631
  2262.9000      8.5742      2.6168      0.0790      2.0121     21.0030    107.2214
  2263.0000      8.2632      2.6199      0.0964      1.8252     21.3591    115.3686
  2263.1000      8.2632      2.6129      0.1141      2.2458     22.3372    124.5750
  2263.2000      8.2632      2.5828      0.0932      4.0742     23.4100    131.3076
  2263.3000      8.2347      2.5327      0.0480      7.1083     24.0061    134.7479
  2263.4000      8.2347      2.4760      0.0094     10.5457     24.1239    132.2105
  2263.5000      8.2289      2.4178      0.0177     14.0747     24.2509    123.4244
