~Version Information
VERS.                      2.0: CWLS Log ASCII Standard - VERSION 2.0
WRAP.                       NO: One line per depth step
~Well Information Block
STRT.FT                -3.0000: 
STOP.FT              2043.2500: 
STEP.FT                 0.2500: 
NULL.                -999.2500: 
COMP.          Pioneer Natural Resources: COMPANY
WELL.           Galloway 32-13: WELL
FLD.           Purgatorie River: FIELD
LOC.           1809' FNL & 2004' FEL--: LOCATION
PROV.                       CO: PROVINCE
CNTY.               Las Animas: COUNTRY
SRVC.          Patterson Wireline: SERVICE COMPANY
DATE.          Thu Jul 14 13:02:15 2005: LOG DATE
UWI.           05 071 08423 00: UNIQUE WELL ID
~Curve Information Block
DEPT.FT            0 000 00 00: Depth
CCL.                          : Casing Collar Locator
TT3.usec                      : CBL 3' Travel Time
AMP3.mV                       : CBL 3' Amplitude
GR.GAPI                       : Gamma Ray
~Parameter Information Block
~A  Depth       CCL         TT3         AMP3         GR     
# ...
   533.0000      0.0000    735.1058      2.9185     89.2705
   533.2500      0.0000    738.9977      2.9034     89.7484
   533.5000      0.0000    745.5947      2.9551     92.2306
   533.7500      0.0000    754.3623      3.0122     95.8020
   534.0000      0.0000    763.4434      3.0172     99.0172
   534.2500      0.0000    771.1111      2.9570    101.2048
   534.5000      0.0000    777.1777      2.8736    102.5633
   534.7500      0.0000    782.4476      2.8369    103.1858
   535.0000      0.0000    787.2239      2.8949    102.4394
   535.2500      0.0000    791.1414      3.0404     99.5864
   535.5000      0.0000    794.1840      3.2193     94.8972
   535.7500      0.0000    797.0554      3.3645     89.6411
   536.0000      0.0000    800.4165      3.4294     84.6979
   536.2500      0.0000    804.1589      3.4060     79.6985
   536.5000      0.0000    807.7749      3.3287     73.9252
   536.7500      0.0000    811.3364      3.2574     67.5675
   537.0000      0.0000    815.6656      3.2452     61.6581
   537.2500      0.0000    821.4609      3.3152     57.1504
   537.5000      0.0000    828.6512      3.4609     54.3672
   537.7500      0.0000    836.4301      3.6605     53.0915
   538.0000      0.0000    843.3840      3.8868     52.9329
   538.2500      0.0000    848.0894      4.1092     53.6974
   538.5000      0.0000    850.3625      4.2942     55.4626
   538.7500      0.0000    851.3635      4.4095     58.1007
   539.0000      0.0000    851.4929      4.4371     60.8372
   539.2500      0.0000    848.5953      4.3911     62.7443
   539.5000      0.0000    839.4022      4.3187     63.6040
   539.7500      0.0000    823.1289      4.2697     63.8050
   540.0000      0.0000    803.2377      4.2568     63.4761
   540.2500      0.0000    785.2712      4.2466     62.2613
   540.5000      0.0000    772.9702      4.1993     59.9822
   540.7500      0.0000    766.4559      4.1171     57.1412
   541.0000      0.0000    763.2598      4.0497     54.7303
   541.2500      0.0000    760.0017      4.0474     53.7204
   541.5000      0.0000    753.5201      4.1118     54.5621
   541.7500      0.0000    742.2233      4.1918     56.8420
   542.0000      0.0000    727.4650      4.2238     59.4106
   542.2500      0.0000    712.9843      4.1770     61.1145
   542.5000      0.0000    702.1967      4.0685     61.5971
   542.7500      0.0000    696.0776      3.9500     61.3632
   543.0000      0.0000    693.5032      3.8795     61.0076
   543.2500      0.0000    692.8560      3.8921     60.5132
   543.5000      0.0000    692.9782      3.9838     59.5112
   543.7500      0.0000    693.1141      4.1184     58.1706
   544.0000      0.0000    692.5397      4.2514     57.4138
   544.2500      0.0000    690.4967      4.3493     58.0238
   544.5000      0.0000    686.6764      4.3927     59.8133
   544.7500      0.0000    681.9683      4.3725     61.9211
   545.0000      0.0000    678.4529      4.2914     63.7116
   545.2500      0.0000    677.9941      4.1717     65.0633
   545.5000      0.0000    680.5790      4.0576     65.9274
   545.7500      0.0000    684.3449      4.0004     66.0431
   546.0000      0.0000    687.2770      4.0296     65.2404
   546.2500      0.0000    688.6071      4.1323     63.7877
   546.5000      0.0000    688.7590      4.2600     62.2893
   546.7500      0.0000    688.5219      4.3557     61.3586
   547.0000      0.0000    688.4555      4.3788     61.3483
   547.2500      0.0000    688.7571      4.3176     62.1748
   547.5000      0.0000    689.3627      4.1954     63.2769
   547.7500      0.0000    690.1018      4.0642     63.7934
   548.0000      0.0000    690.8185      3.9776     62.9264
   548.2500      0.0000    691.4416      3.9553     60.4300
   548.5000      0.0000    692.0057      3.9716     56.9658
   548.7500      0.0000    692.7368      3.9779     53.8050
   549.0000      0.0000    694.2366      3.9347     51.8627
   549.2500      0.0000    697.6780      3.8342     51.0517
   549.5000      0.0000    704.3596      3.7063     50.7920
   549.7500      0.0000    714.0244      3.6041     50.9529
   550.0000      0.0000    723.1809      3.5655     51.9069
   550.2500      0.0000    726.4268      3.5788     53.7464
   550.5000      0.0000    720.9119      3.5890     55.9208
   550.7500      0.0000    709.0258      3.5455     57.8188
   551.0000      0.0000    695.9197      3.4461     59.3997
   551.2500      0.0000    685.4303      3.3379     61.1142
   551.5000      0.0000    679.2687      3.2750     63.4539
   551.7500      0.0000    679.1622      3.2731     66.7375
   552.0000      0.0000    688.3905      3.3039     70.9644
   552.2500      0.0000    710.2269      3.3280     75.4239
   552.5000      0.0000    743.9910      3.3288     78.6463
   552.7500      0.0000    782.7697      3.3101     79.4295
   553.0000      0.0000    816.3092      3.2742     78.2124
   553.2500      0.0000    837.2148      3.2200     77.1160
   553.5000      0.0000    844.7859      3.1621     78.3878
   553.7500      0.0000    843.6926      3.1327     82.7747
   554.0000      0.0000    839.6368      3.1506     89.1694
   554.2500      0.0000    835.5571      3.1952     95.4429
   554.5000      0.0000    830.5226      3.2223     99.7204
   554.7500      0.0000    821.5629      3.2060    101.4517
   555.0000      0.0000    806.7590      3.1624    101.4971
   555.2500      0.0000    787.0377      3.1316    100.9734
   555.5000      0.0000    765.7629      3.1393    100.0853
   555.7500      0.0000    747.3184      3.1734     98.4359
   556.0000      0.0000    735.3442      3.2016     96.2544
   556.2500      0.0000    730.8325      3.2108     94.7698
   556.5000      0.0000    731.7921      3.2208     95.2889
   556.7500      0.0000    735.4622      3.2517     97.9918
   557.0000      0.0000    740.9760      3.2904    101.5130
   557.2500      0.0000    749.7484      3.3036    103.6789
   557.5000      0.0000    762.9877      3.2829    102.9258
   557.7500      0.0000    778.2784      3.2581     99.2596
   558.0000      0.0000    789.0817      3.2604     93.9783
   558.2500      0.0000    789.2529      3.2863     88.6096
   558.5000      0.0000    778.5359      3.3049     84.1546
   558.7500      0.0000    762.4414      3.2952     81.1692
   559.0000      0.0000    746.7433      3.2636     80.1869
   559.2500      0.0000    733.4004      3.2280     81.8062
   559.5000      0.0000    721.6010      3.1984     86.3212
   559.7500      0.0000    710.8389      3.1806     93.1959
   560.0000      0.0000    701.9406      3.1882    100.7837
   560.2500      0.0000    695.8715      3.2358    106.7208
   560.5000      0.0000    692.6175      3.3174    109.0091
   560.7500      0.0000    691.3338      3.3985    107.2369
   561.0000      0.0000    691.0920      3.4349    103.0921
   561.2500      0.0000    691.2913      3.4015     99.3955
   561.5000      0.0000    691.6164      3.3102     98.1027
   561.7500      0.0000    691.9052      3.2062     99.0323
   562.0000      0.0000    692.0994      3.1439    100.4250
   562.2500      0.0000    692.2307      3.1541    100.5793
   562.5000      0.0000    692.3878      3.2216     98.8382
   562.7500      0.0000    692.6595      3.2940     95.2752
   563.0000      0.0000    693.0867      3.3173     90.1875
   563.2500      0.0000    693.6600      3.2743     84.3751
   563.5000      0.0000    694.3892      3.1966     79.3613
   563.7500      0.0000    695.4196      3.1401     76.6733
   564.0000      0.0000    697.1418      3.1402     76.8795
   564.2500      0.0000    700.0986      3.1854     79.3806
   564.5000      0.0000    704.5128      3.2352     82.9370
   564.7500      0.0000    709.6333      3.2615     86.4684
   565.0000      0.0000    714.0892      3.2704     89.6820
   565.2500      0.0000    717.7446      3.2786     92.9830
   565.5000      0.0000    723.1556      3.2813     96.5578
   565.7500      0.0000    734.2324      3.2609     99.5935
   566.0000      0.0000    753.0237      3.2249    100.6887
   566.2500      0.0000    777.7012      3.2065     99.1275
