~Version Information
 VERS.                                  2.0 : CWLS LAS VERSION
 WRAP.                                   NO : WRAPING MODE
 SWARE .                 MController 2.5.0J : SOFTWARE VERSION
~Well Information
 WELL.                           Elmo 14-21 : WELL
 COMP.    PIONEER NATURAL RESOURCES USA INC : COMPANY
 FLD.                      PURGATOIRE RIVER : FIELD
 LOC.               SW/SW Sec 21 T33S  R66W : LOCATION
 DATE.                         5/16-17/2005 : DATE(S) LOGGED
 SRVC.       Blanco Geological Services LLC : SERVICE COMPANY
 STAT.                                   CO : STATE
 CNTY.                           Las Animas : COUNTY
 CTRY.                                  USA : COUNTRY
 API.                       05-071-08360-00 : API NUMBER
 STRT.FT                             300.00 : START DEPTH
 STOP.FT                            1680.00 : STOP DEPTH
 STEP.FT                               1.00 : DEPTH INCREMENT
 NULL.                                -9999 : NULL VALUE
~Curve information
 DEPTH.FT                                   :
 ROP.MIN/FT                                 :
 GAS.UNITS                                  :
~ASCII Log data
# ...
      1500.0         0.23         55.5 
      1501.0         0.23         53.5 
      1502.0         0.17         54.9 
      1503.0         0.13         54.1 
      1504.0         0.13         48.9 
      1505.0         0.17         49.4 
      1506.0         0.20         59.6 
      1507.0         0.23         69.0 
      1508.0         0.13         72.6 
      1509.0         0.13         70.9 
      1510.0         0.23         60.6 
      1511.0         0.08         55.7 
      1512.0         0.17         74.9 
      1513.0         0.20         93.4 
      1514.0         0.07         94.9 
      1515.0         0.10         94.4 
      1516.0         0.23         90.6 
      1517.0         0.17         75.6 
      1518.0         0.23         70.5 
      1519.0         0.17         63.7 
      1520.0         0.13         55.4 
      1521.0         0.17         68.2 
      1522.0         0.17         79.5 
      1523.0         0.17         82.0 
      1524.0         0.23         79.6 
      1525.0         0.13         86.2 
      1526.0         0.23        110.7 
      1527.0         0.30        137.1 
      1528.0         0.23        138.0 
      1529.0         0.42        126.5 
      1530.0         0.27        136.8 
      1531.0         0.30        137.8 
      1532.0         0.20        124.0 
      1533.0         0.13        103.5 
      1534.0         0.27         94.0 
      1535.0         0.17         93.2 
      1536.0         0.30         86.3 
      1537.0         0.23         77.1 
      1538.0         0.23         87.0 
      1539.0         0.27         93.9 
      1540.0         0.13         94.8 
      1541.0         0.23         94.5 
      1542.0         0.17         89.0 
      1543.0         0.20         76.9 
      1544.0         0.25         81.7 
      1545.0         0.23         95.4 
      1546.0         0.23         97.2 
      1547.0         0.27         97.5 
      1548.0         0.13         92.8 
      1549.0         0.27         84.3 
      1550.0         0.13         91.5 
      1551.0         0.27        130.0 
      1552.0         0.10        109.7 
      1553.0         0.13         84.8 
      1554.0         0.23         60.5 
      1555.0         0.13         57.0 
      1556.0         0.13         61.7 
      1557.0         0.40         66.3 
      1558.0         0.17         65.1 
      1559.0         0.38         74.7 
      1560.0         0.27         77.4 
      1561.0         0.27         75.5 
      1562.0         0.40         66.8 
      1563.0         0.23         64.8 
      1564.0         0.13         62.6 
      1565.0         0.37         61.6 
      1566.0         0.30         61.0 
      1567.0         0.20         63.5 
      1568.0         0.30         63.7 
      1569.0         0.20         59.1 
      1570.0         0.27         60.6 
      1571.0         0.17         59.1 
      1572.0         0.18         58.2 
      1573.0         0.27         64.1 
      1574.0         0.23         64.1 
      1575.0         0.17         63.8 
      1576.0         0.23         66.9 
      1577.0         0.10         67.3 
      1578.0         0.17         66.8 
      1579.0         0.27         69.0 
      1580.0         0.13         69.4 
      1581.0         0.20         68.9 
      1582.0         0.27         65.6 
      1583.0         0.23         69.8 
      1584.0         0.37         69.6 
      1585.0         0.43         66.7 
      1586.0         0.17         58.3 
      1587.0         0.42         64.8 
      1588.0         0.40         64.6 
      1589.0         0.10         68.5 
      1590.0         0.27         67.7 
      1591.0         0.27         66.0 
      1592.0         0.23         65.8 
      1593.0         0.13         59.1 
      1594.0         0.23         56.9 
      1595.0         0.27         57.8 
      1596.0         0.17         63.0 
      1597.0         0.23         63.4 
      1598.0         0.10         58.0 
      1599.0         0.37         58.8 
      1600.0         0.03         60.3 
      1601.0         0.25         67.4 
      1602.0         0.20         70.8 
      1603.0         0.23         70.7 
      1604.0         0.20         63.3 
      1605.0         0.17         59.2 
      1606.0         0.17         63.1 
      1607.0         0.10         64.4 
      1608.0         0.30         65.8 
      1609.0         0.17         65.9 
      1610.0         0.17         63.2 
      1611.0         0.17         57.6 
      1612.0         0.17         54.9 
      1613.0         0.23         54.1 
      1614.0         0.13         59.0 
      1615.0         0.27         68.1 
      1616.0         0.10         67.6 
      1617.0         0.23         64.2 
      1618.0         0.15         59.1 
      1619.0         0.20         57.4 
      1620.0         0.13         52.8 
      1621.0         0.13         50.1 
      1622.0         0.13         47.4 
      1623.0         0.03         44.4 
      1624.0         0.20         45.6 
      1625.0         0.13         49.8 
      1626.0         0.13         54.1 
      1627.0         0.27         67.3 
      1628.0         0.23         73.3 
      1629.0         0.23         73.1 
      1630.0         0.17         70.4 
      1631.0         0.17         67.3 
      1632.0         0.20         62.2 
      1633.0         0.10         58.5 
      1634.0         0.17         61.2 
      1635.0         0.23         60.8 
      1636.0         0.18         52.8 
      1637.0         0.27         56.0 
      1638.0         0.13         59.1 
      1639.0         0.23         58.9 
      1640.0         0.20         52.8 
      1641.0         0.13         48.1 
      1642.0         0.30         62.2 
      1643.0         0.20         70.7 
      1644.0         0.30         70.8 
      1645.0         0.13         60.8 
      1646.0         0.13         65.6 
      1647.0         0.20         71.2 
      1648.0         0.23         71.3 
      1649.0         0.27         79.1 
      1650.0         0.13         79.8 
      1651.0         0.28         77.4 
      1652.0         0.10         62.7 
      1653.0         0.17         55.2 
      1654.0         0.13         46.6 
      1655.0         0.20         69.0 
      1656.0         0.17        126.6 
      1657.0         0.10        188.7 
      1658.0         0.23       1348.8 
      1659.0         0.30       1351.2 
      1660.0         0.30       1247.4 
      1661.0         0.27        716.1 
      1662.0         0.30        530.8 
      1663.0         0.20        495.1 
      1664.0         0.20        487.0 
      1665.0         0.27        495.4 
      1666.0         0.18        503.5 
      1667.0         0.17        507.2 
      1668.0         0.27        514.6 
      1669.0         0.23        515.6 
      1670.0         0.23        517.3 
      1671.0         0.20        519.0 
      1672.0         0.23        520.0 
      1673.0         0.13        520.7 
      1674.0         0.23        520.7 
      1675.0         0.17        521.0 
      1676.0         0.20        521.4 
      1677.0         0.20        523.1 
      1678.0         0.20        524.7 
      1679.0         0.30        548.0 
      1680.0         0.27        546.0 
