~Version Information
VERS.                      2.0: CWLS Log ASCII Standard - VERSION 2.0
WRAP.                       NO: One line per depth step
~Well Information Block
STRT.FT               392.5000: 
STOP.FT              2252.6000: 
STEP.FT                 0.1000: 
NULL.                -999.2500: 
COMP.          Petrogulf Corporation: COMPANY
WELL.          Alexander 9-43V: WELL
FLD.           Purgatorie River: FIELD
LOC.           1651' FSL & 1081' FEL: LOCATION
CNTY.               Las Animas: COUNTY
SRVC.                         : SERVICE COMPANY
DATE.          Mon Mar 17 08:48:25 2003: LOG DATE
UWI.           05 071 07727 00: UNIQUE WELL ID
STAT.                 Colorado: STATE
~Curve Information Block
DEPT.FT            0 000 00 00: Depth
DCAL.in                       : CDL Caliper
RHOB.g/cc                     : CDL Bulk Density
RHOC.g/cc                     : CDL Density Correction
DPOR.pu                       : CDL Density Porosity
GR.GAPI                       : Gamma Ray
NPOR.pu                       : Neutron Porosity
~Parameter Information Block
~A  Depth       DCAL        RHOB        RHOC        DPOR         GR         NPOR    
# ...
   661.3000      8.0451      2.5794      0.0246      4.2791     89.1079     25.8320
   661.4000      8.0451      2.5772      0.0248      4.4094     89.1079     25.5801
   661.5000      8.0463      2.5752      0.0256      4.5305     85.8527     25.3215
   661.6000      8.0463      2.5734      0.0268      4.6429     85.8527     25.0542
   661.7000      8.0463      2.5717      0.0284      4.7479     85.8527     24.7747
   661.8000      8.0483      2.5700      0.0303      4.8477     82.6864     24.4798
   661.9000      8.0483      2.5684      0.0323      4.9448     82.6864     24.1667
   662.0000      8.0490      2.5668      0.0345      5.0417     79.5845     23.8339
   662.1000      8.0490      2.5652      0.0367      5.1409     79.5845     23.4821
   662.2000      8.0490      2.5635      0.0387      5.2443     79.5845     23.1138
   662.3000      8.0487      2.5617      0.0407      5.3532     76.2194     22.7332
   662.4000      8.0487      2.5598      0.0424      5.4682     76.2194     22.3458
   662.5000      8.0471      2.5578      0.0438      5.5888     71.8072     21.9574
   662.6000      8.0471      2.5557      0.0449      5.7140     71.8072     21.5739
   662.7000      8.0471      2.5536      0.0457      5.8417     71.8072     21.2006
   662.8000      8.0461      2.5515      0.0461      5.9693     65.6946     20.8423
   662.9000      8.0461      2.5494      0.0463      6.0940     65.6946     20.5026
   663.0000      8.0478      2.5475      0.0462      6.2125     58.2108     20.1848
   663.1000      8.0478      2.5457      0.0460      6.3215     58.2108     19.8913
   663.2000      8.0478      2.5441      0.0456      6.4181     58.2108     19.6235
   663.3000      8.0490      2.5428      0.0452      6.4996     50.6614     19.3825
   663.4000      8.0490      2.5417      0.0449      6.5642     50.6614     19.1684
   663.5000      8.0487      2.5409      0.0447      6.6106     44.3696     18.9806
   663.6000      8.0487      2.5405      0.0446      6.6389     44.3696     18.8177
   663.7000      8.0487      2.5403      0.0447      6.6496     44.3696     18.6779
   663.8000      8.0498      2.5404      0.0449      6.6447     39.8233     18.5595
   663.9000      8.0498      2.5407      0.0454      6.6267     39.8233     18.4613
   664.0000      8.0510      2.5411      0.0459      6.5994     36.6760     18.3829
   664.1000      8.0510      2.5417      0.0463      6.5666     36.6760     18.3253
   664.2000      8.0510      2.5422      0.0466      6.5329     36.6760     18.2901
   664.3000      8.0500      2.5427      0.0464      6.5026     34.3272     18.2798
   664.4000      8.0500      2.5431      0.0457      6.4795     34.3272     18.2967
   664.5000      8.0484      2.5433      0.0444      6.4669     32.4373     18.3419
   664.6000      8.0484      2.5433      0.0423      6.4671     32.4373     18.4154
   664.7000      8.0484      2.5431      0.0396      6.4810     32.4373     18.5146
   664.8000      8.0468      2.5426      0.0363      6.5085     31.0043     18.6353
   664.9000      8.0468      2.5420      0.0328      6.5481     31.0043     18.7714
   665.0000      8.0441      2.5411      0.0294      6.5970     30.0883     18.9163
   665.1000      8.0441      2.5402      0.0263      6.6518     30.0883     19.0634
   665.2000      8.0441      2.5393      0.0238      6.7082     30.0883     19.2073
   665.3000      8.0421      2.5384      0.0223      6.7618     29.5558     19.3446
   665.4000      8.0421      2.5377      0.0218      6.8084     29.5558     19.4739
   665.5000      8.0418      2.5371      0.0224      6.8440     29.1085     19.5964
   665.6000      8.0418      2.5367      0.0241      6.8653     29.1085     19.7146
   665.7000      8.0418      2.5366      0.0268      6.8700     29.1085     19.8324
   665.8000      8.0445      2.5369      0.0303      6.8565     28.5125     19.9536
   665.9000      8.0445      2.5374      0.0343      6.8244     28.5125     20.0812
   666.0000      8.0486      2.5382      0.0388      6.7738     27.7784     20.2165
   666.1000      8.0486      2.5394      0.0433      6.7055     27.7784     20.3592
   666.2000      8.0486      2.5408      0.0478      6.6209     27.7784     20.5064
   666.3000      8.0503      2.5424      0.0519      6.5213     27.1519     20.6535
   666.4000      8.0503      2.5443      0.0556      6.4086     27.1519     20.7943
   666.5000      8.0508      2.5463      0.0588      6.2844     26.8931     20.9224
   666.6000      8.0508      2.5485      0.0612      6.1501     26.8931     21.0313
   666.7000      8.0508      2.5509      0.0630      6.0074     26.8931     21.1162
   666.8000      8.0509      2.5533      0.0641      5.8576     27.0167     21.1742
   666.9000      8.0509      2.5559      0.0647      5.7019     27.0167     21.2051
   667.0000      8.0508      2.5586      0.0649      5.5415     27.2682     21.2112
   667.1000      8.0508      2.5613      0.0649      5.3771     27.2682     21.1975
   667.2000      8.0508      2.5640      0.0647      5.2096     27.2682     21.1711
   667.3000      8.0516      2.5669      0.0646      5.0393     27.3303     21.1407
   667.4000      8.0516      2.5697      0.0645      4.8663     27.3303     21.1154
   667.5000      8.0511      2.5726      0.0644      4.6903     27.0137     21.1039
   667.6000      8.0511      2.5756      0.0643      4.5107     27.0137     21.1139
   667.7000      8.0511      2.5786      0.0642      4.3266     27.0137     21.1507
   667.8000      8.0485      2.5817      0.0641      4.1373     26.3355     21.2170
   667.9000      8.0485      2.5850      0.0639      3.9423     26.3355     21.3117
   668.0000      8.0430      2.5883      0.0637      3.7419     25.5086     21.4309
   668.1000      8.0430      2.5916      0.0636      3.5368     25.5086     21.5669
   668.2000      8.0430      2.5951      0.0637      3.3294     25.5086     21.7097
   668.3000      8.0360      2.5985      0.0640      3.1226     24.7838     21.8474
   668.4000      8.0360      2.6018      0.0644      2.9212     24.7838     21.9677
   668.5000      8.0291      2.6050      0.0648      2.7300     24.2730     22.0587
   668.6000      8.0291      2.6078      0.0650      2.5549     24.2730     22.1105
   668.7000      8.0291      2.6104      0.0648      2.4017     24.2730     22.1154
   668.8000      8.0218      2.6125      0.0641      2.2755     24.0232     22.0688
   668.9000      8.0218      2.6140      0.0628      2.1805     24.0232     21.9695
   669.0000      8.0212      2.6150      0.0610      2.1195     24.2256     21.8191
   669.1000      8.0212      2.6155      0.0588      2.0938     24.2256     21.6218
   669.2000      8.0212      2.6153      0.0566      2.1029     24.2256     21.3837
   669.3000      8.0290      2.6146      0.0546      2.1446     25.1469     21.1129
   669.4000      8.0290      2.6134      0.0533      2.2159     25.1469     20.8184
   669.5000      8.0380      2.6118      0.0528      2.3124     26.8173     20.5105
   669.6000      8.0380      2.6099      0.0533      2.4291     26.8173     20.1995
   669.7000      8.0380      2.6077      0.0549      2.5610     26.8173     19.8963
   669.8000      8.0455      2.6054      0.0574      2.7029     28.9109     19.6109
   669.9000      8.0455      2.6030      0.0605      2.8501     28.9109     19.3523
   670.0000      8.0499      2.6005      0.0640      2.9977     30.9134     19.1273
   670.1000      8.0499      2.5982      0.0675      3.1413     30.9134     18.9404
   670.2000      8.0499      2.5959      0.0709      3.2769     30.9134     18.7930
   670.3000      8.0517      2.5939      0.0737      3.4004     32.3238     18.6840
   670.4000      8.0517      2.5921      0.0760      3.5079     32.3238     18.6100
   670.5000      8.0518      2.5907      0.0776      3.5959     32.8302     18.5662
   670.6000      8.0518      2.5896      0.0786      3.6607     32.8302     18.5478
   670.7000      8.0518      2.5890      0.0790      3.6994     32.8302     18.5502
   670.8000      8.0508      2.5888      0.0789      3.7097     32.4772     18.5704
