~Version Information
VERS.                      2.0: CWLS Log ASCII Standard - VERSION 2.0
WRAP.                       NO: One line per depth step
~Well Information Block
STRT.FT               -12.2500: 
STOP.FT              1948.2500: 
STEP.FT                 0.2500: 
NULL.                -999.2500: 
COMP.          Petrogulf Corporation: COMPANY
WELL.            Torcom 17-33R: WELL
FLD.           Purgatorie River: FIELD
LOC.           1483' FSL & 1804' FEL--: LOCATION
PROV.                       CO: PROVINCE
CNTY.               Las Animas: COUNTRY
SRVC.          Patterson Wireline: SERVICE COMPANY
DATE.          Fri Sep 30 10:11:43 2005: LOG DATE
UWI.           05 071 08096 00: UNIQUE WELL ID
~Curve Information Block
DEPT.FT            0 000 00 00: Depth
CCL.                          : Casing Collar Locator
TT3.usec                      : CBL 3' Travel Time
AMP3.mV                       : CBL 3' Amplitude
GR.GAPI                       : Gamma Ray
~Parameter Information Block
~A  Depth       CCL         TT3         AMP3         GR     
# ...
  1026.2500      0.0000    631.5604      7.1667     79.2121
  1026.5000      0.0000    636.9006      7.3284     83.2327
  1026.7500      0.0000    638.3132      7.5199     86.2276
  1027.0000      0.0000    638.3812      7.7319     88.7325
  1027.2500      0.0000    640.2989      7.9398     91.7288
  1027.5000      0.0000    645.8867      8.1123     95.8743
  1027.7500      0.0000    654.7786      8.2184    100.6933
  1028.0000      0.0000    665.0303      8.2263    104.7163
  1028.2500      0.0000    674.2550      8.1092    106.7333
  1028.5000      0.0000    680.7676      7.8697    106.8800
  1028.7500      0.0000    684.2900      7.5624    106.4410
  1029.0000      0.0000    685.6780      7.2789    106.6654
  1029.2500      0.0000    686.0461      7.0946    107.6274
  1029.5000      0.0000    686.1367      7.0221    108.1485
  1029.7500      0.0000    686.2172      7.0139    107.1383
  1030.0000      0.0000    686.2423      7.0094    105.0393
  1030.2500      0.0000    686.0760      6.9811    103.5247
  1030.5000      0.0000    685.6964      6.9456    103.8099
  1030.7500      0.0000    685.2557      6.9426    105.8073
  1031.0000      0.0000    684.9947      7.0071    108.7575
  1031.2500      0.0000    685.0862      7.1523    111.8822
  1031.5000      0.0000    685.4937      7.3665    114.4446
  1031.7500      0.0000    685.9181      7.6226    115.9869
  1032.0000      0.0000    685.8977      7.8881    116.7023
  1032.2500      0.0000    685.0833      8.1294    117.0030
  1032.5000      0.0000    683.5944      8.3148    116.6970
  1032.7500      0.0000    682.1696      8.4244    115.2994
  1033.0000      0.0000    681.7491      8.4539    113.2742
  1033.2500      0.0000    682.6657      8.4130    112.1517
  1033.5000      0.0000    684.2563      8.3232    113.0285
  1033.7500      0.0000    685.3191      8.2164    115.4377
  1034.0000      0.0000    684.7570      8.1239    117.9514
  1034.2500      0.0000    681.9400      8.0635    119.5065
  1034.5000      0.0000    677.2043      8.0377    119.9707
  1034.7500      0.0000    672.3242      8.0408    119.8179
  1035.0000      0.0000    669.6656      8.0718    119.6692
  1035.2500      0.0000    669.8748      8.1400    120.1257
  1035.5000      0.0000    670.7421      8.2573    121.6380
  1035.7500      0.0000    669.2369      8.4202    124.0680
  1036.0000      0.0000    664.6959      8.6044    126.3428
  1036.2500      0.0000    659.6171      8.7819    127.0313
  1036.5000      0.0000    657.4470      8.9403    125.7030
  1036.7500      0.0000    659.7534      9.0843    123.6987
  1037.0000      0.0000    665.0151      9.2213    123.2337
  1037.2500      0.0000    669.6039      9.3475    125.5211
  1037.5000      0.0000    670.1811      9.4463    129.6972
  1037.7500      0.0000    665.7959      9.5032    133.5752
  1038.0000      0.0000    658.0466      9.5221    135.4669
  1038.2500      0.0000    649.4586      9.5236    135.4514
  1038.5000      0.0000    641.8613      9.5253    135.0673
  1038.7500      0.0000    636.0118      9.5314    135.7074
  1039.0000      0.0000    631.9208      9.5382    137.2999
  1039.2500      0.0000    628.9238      9.5359    138.6462
  1039.5000      0.0000    625.8446      9.4991    138.8283
  1039.7500      0.0000    621.7190      9.3911    137.9089
  1040.0000      0.0000    616.5748      9.1983    136.4096
  1040.2500      0.0000    611.5893      8.9636    134.5204
  1040.5000      0.0000    608.5298      8.7657    131.9483
  1040.7500      0.0000    608.8726      8.6480    128.4917
  1041.0000      0.0000    613.7123      8.5875    124.5710
  1041.2500      0.0000    625.2122      8.5460    121.0248
  1041.5000      0.0000    647.0966      8.5244    118.5788
  1041.7500      0.0000    680.9614      8.5427    117.7319
  1042.0000      0.0000    721.3344      8.5975    118.7168
  1042.2500      2.0000    756.9368      8.6625    121.0869
  1042.5000      0.0000    778.1160      8.7121    123.3539
  1042.7500      0.0000    782.0239      8.7326    123.1864
  1043.0000      0.0000    771.7993      8.7288    118.3656
  1043.2500      0.0000    753.4385      8.7363    108.4871
  1043.5000      0.0000    732.7434      8.8059     96.2791
  1043.7500      0.0000    713.3686      8.9590     86.5418
  1044.0000      0.0000    697.7872      9.1574     82.7791
  1044.2500      0.0000    689.2407      9.3153     84.8232
  1044.5000      0.0000    690.3517      9.3385     90.0838
  1044.7500      0.0000    700.0346      9.1741     96.6848
  1045.0000      0.0000    713.8786      8.8449    104.6805
  1045.2500      0.0000    727.0034      8.4355    114.5192
  1045.5000      0.0000    734.4496      8.0401    125.3174
  1045.7500      0.0000    730.2945      7.7164    135.0534
  1046.0000      0.0000    710.7566      7.4795    142.1062
  1046.2500      0.0000    679.9385      7.3248    146.2080
  1046.5000      0.0000    650.0902      7.2443    147.8075
  1046.7500      0.0000    633.7585      7.2226    146.9257
  1047.0000      0.0000    635.2635      7.2328    143.3601
  1047.2500      0.0000    649.5621      7.2508    138.0462
  1047.5000      0.0000    668.0989      7.2703    133.1715
  1047.7500      0.0000    684.8181      7.2994    130.2873
  1048.0000      0.0000    697.5317      7.3477    129.0778
  1048.2500      0.0000    705.8138      7.4251    128.5472
  1048.5000      0.0000    708.8444      7.5470    128.4344
  1048.7500      0.0000    705.1663      7.7281    128.7119
  1049.0000      0.0000    694.9056      7.9687    128.5522
  1049.2500      0.0000    682.4311      8.2523    127.0252
  1049.5000      0.0000    675.0104      8.5582    124.6684
  1049.7500      0.0000    677.5489      8.8759    123.2281
  1050.0000      0.0000    689.6304      9.2115    123.2974
  1050.2500      0.0000    707.5244      9.5893    122.9483
  1050.5000      0.0000    727.1202     10.0437    119.6560
  1050.7500      0.0000    744.7076     10.6012    113.4609
  1051.0000      0.0000    756.7037     11.2658    107.3540
  1051.2500      0.0000    760.2526     12.0148    104.4100
  1051.5000      0.0000    754.7661     12.8000    105.2454
  1051.7500      0.0000    742.0179     13.5491    108.2635
  1052.0000      0.0000    722.6306     14.1831    111.4436
  1052.2500      0.0000    692.2628     14.6559    113.4752
  1052.5000      0.0000    644.2365     14.9822    113.9008
  1052.7500      0.0000    578.2396     15.2251    113.1712
  1053.0000      0.0000    505.5005     15.4522    112.5685
  1053.2500      0.0000    443.5274     15.6923    113.2497
  1053.5000      0.0000    406.1611     15.9138    115.0013
  1053.7500      0.0000    399.1148     16.0264    116.2645
  1054.0000      0.0000    421.0981     15.9180    115.4349
  1054.2500      0.0000    464.2464     15.5199    112.1069
  1054.5000      0.0000    514.8378     14.8596    107.4649
  1054.7500      0.0000    559.4825     14.0499    103.6230
  1055.0000      0.0000    592.7467     13.2220    102.1073
  1055.2500      0.0000    617.1492     12.4654    102.8366
  1055.5000      0.0000    636.7234     11.8151    104.9474
  1055.7500      0.0000    652.9134     11.2713    108.2203
  1056.0000      0.0000    665.4021     10.8133    112.8336
  1056.2500      0.0000    674.2386     10.4000    117.9647
  1056.5000      0.0000    680.9231      9.9797    121.6273
  1056.7500      0.0000    688.3736      9.5234    122.0602
  1057.0000      0.0000    699.3601      9.0508    118.7122
  1057.2500      0.0000    713.6139      8.6118    111.7915
  1057.5000      0.0000    726.3533      8.2431    101.5155
  1057.7500      0.0000    731.2311      7.9486     88.4205
  1058.0000      0.0000    725.7665      7.7155     74.2433
  1058.2500      0.0000    713.3456      7.5346     61.6954
  1058.5000      0.0000    699.8568      7.3963     52.8255
  1058.7500      0.0000    689.5377      7.2753     47.6496
  1059.0000      0.0000    683.6945      7.1332     44.5794
  1059.2500      0.0000    681.4330      6.9400     42.0935
  1059.5000      0.0000    681.0942      6.6881     39.9568
