~Version Information
VERS.                      2.0: CWLS Log ASCII Standard - VERSION 2.0
WRAP.                       NO: One line per depth step
~Well Information Block
STRT.FT                -9.5000: 
STOP.FT              2451.0000: 
STEP.FT                 0.2500: 
NULL.                -999.2500: 
COMP.          Petrogulf Corporation: COMPANY
WELL.           Vallejo 19-31V: WELL
FLD.           Purgatorie River: FIELD
LOC.           345' FNL & 2457' FEL: LOCATION
CNTY.               Las Animas: COUNTY
SRVC.                         : SERVICE COMPANY
DATE.          Mon Mar 08 08:24:37 2004: LOG DATE
UWI.           05-071-07919-00: UNIQUE WELL ID
STAT.                 Colorado: STATE
~Curve Information Block
DEPT.FT            0 000 00 00: Depth
MINMK.                        : Surface Line Tension
GR.GAPI                       : Gamma Ray
CCL.                          : Casing Collar Locator
TT3.usec                      : CBL 3' Travel Time
AMP3.mV                       : CBL 3' Amplitude
~Parameter Information Block
~A  Depth      MINMK         GR         CCL         TT3         AMP3    
# ...
   970.5000      0.0000    143.5263      0.0000    269.0163     48.5195
   970.7500      0.0000    143.8406      0.0000    269.0372     50.2726
   971.0000      0.0000    142.4880      0.0000    269.1105     51.9336
   971.2500      0.0000    139.4935      0.0000    269.2206     52.9023
   971.5000      0.0000    136.4888      0.0000    269.3021     52.9794
   971.7500      0.0000    135.3369      0.0000    269.3234     52.6670
   972.0000      0.0000    136.2930      0.0000    269.3309     52.6817
   972.2500      0.0000    137.6340      0.0000    269.3456     53.3724
   972.5000      0.0000    137.3930      0.0000    269.3659     54.6738
   972.7500      0.0000    135.3512      0.0000    269.4327     56.2262
   973.0000      0.0000    132.9779      0.0000    269.5151     57.4917
   973.2500      0.0000    131.7505      0.0000    269.4876     57.9969
   973.5000      0.0000    132.2562      0.0000    269.3322     57.5108
   973.7500      0.0000    134.6791      0.0000    269.1913     55.9970
   974.0000      0.0000    138.8545      0.0000    269.2108     53.4847
   974.2500      0.0000    143.3501      0.0000    269.4704     49.9925
   974.5000      0.0000    145.8565      0.0000    270.1552     45.6426
   974.7500      0.0000    145.6292      0.0000    272.0204     40.8070
   975.0000      0.0000    144.6481      0.0000    276.6488     35.9738
   975.2500      0.0000    145.2410      0.0000    285.0239     31.5795
   975.5000      0.0000    147.3022      0.0000    295.1666     27.9233
   975.7500      0.0000    148.7843      0.0000    303.2479     25.0427
   976.0000      0.0000    148.2033      0.0000    307.6955     22.7174
   976.2500      0.0000    145.7611      0.0000    310.0438     20.6514
   976.5000      0.0000    142.6771      0.0000    313.3725     18.6984
   976.7500      0.0000    140.3546      0.0000    323.5630     16.9322
   977.0000      0.0000    139.8876      0.0000    348.5823     15.4261
   977.2500      0.0000    141.6150      0.0000    384.6247     14.0656
   977.5000      0.0000    144.9494      0.0000    406.6840     12.8623
   977.7500      0.0000    148.6412      0.0000    396.6698     12.2105
   978.0000      0.0000    151.2982      0.0000    368.9688     12.3235
   978.2500      0.0000    152.2000      0.0000    345.1722     12.9664
   978.5000      0.0000    151.9771     -5.0000    330.1424     14.0146
   978.7500      0.0000    152.1292     -5.0000    321.1411     15.4668
   979.0000      0.0000    153.5050      0.0000    316.3928     17.1124
   979.2500      0.0000    155.4473      0.0000    314.1834     18.6839
   979.5000      0.0000    156.6627      0.0000    312.6315     20.0935
   979.7500      0.0000    156.6356      0.0000    310.2885     21.4187
   980.0000      0.0000    155.8220      0.0000    306.0733     22.8637
   980.2500      0.0000    154.6940      0.0000    299.6574     24.8489
   980.5000      0.0000    153.2455      0.0000    292.1744     27.5608
   980.7500      0.0000    151.4991      0.0000    285.1963     30.1220
   981.0000      0.0000    149.9433      0.0000    280.1400     31.3447
   981.2500      0.0000    149.3051      0.0000    279.4741     31.1519
   981.5000      0.0000    150.2315      0.0000    284.6865     30.1621
   981.7500      0.0000    153.1842      0.0000    292.4265     28.9026
   982.0000      0.0000    158.2641      0.0000    296.0987     27.8801
   982.2500      0.0000    164.9515      0.0000    292.1762     27.6217
   982.5000      0.0000    171.9617      0.0000    283.4413     28.4897
   982.7500      0.0000    177.3745      0.0000    275.3875     30.4816
   983.0000      0.0000    179.1062      0.0000    270.7680     33.2251
   983.2500      0.0000    175.8426      0.0000    268.8806     36.1387
   983.5000      0.0000    168.2059      0.0000    268.2478     38.5828
   983.7500      0.0000    159.0777      0.0000    268.0577     40.1068
   984.0000      0.0000    152.0697      0.0000    268.0101     40.7058
   984.2500      0.0000    149.0607      0.0000    268.0067     40.7044
   984.5000      0.0000    149.2462      0.0000    268.0578     40.3349
   984.7500      0.0000    150.5726      0.0000    268.4043     39.6106
   985.0000      0.0000    151.6706      0.0000    269.9265     38.4888
   985.2500      0.0000    152.1734      0.0000    274.3267     36.7743
   985.5000      0.0000    151.7338      0.0000    282.6490     34.1239
   985.7500      0.0000    149.6882      0.0000    292.9270     30.5850
   986.0000      0.0000    145.9943      0.0000    301.2611     26.8276
   986.2500      0.0000    141.7480      0.0000    305.7989     23.6453
   986.5000      0.0000    138.0837      0.0000    307.5372     21.5420
   986.7500      0.0000    134.9283      0.0000    307.9990     20.6858
   987.0000      0.0000    131.4030      0.0000    307.9839     20.9087
   987.2500      0.0000    127.2727      0.0000    307.6019     21.8631
   987.5000      0.0000    123.7215      0.0000    306.1665     23.2127
   987.7500      0.0000    122.7520      0.0000    302.0985     24.6281
   988.0000      0.0000    125.6760      0.0000    294.2565     25.9912
   988.2500      0.0000    131.8721      0.0000    284.3159     27.7795
   988.5000      0.0000    138.9416      0.0000    276.0451     30.7518
   988.7500      0.0000    144.1069      0.0000    271.3889     35.0771
   989.0000      0.0000    145.6756      0.0000    269.4011     40.1214
   989.2500      0.0000    143.7703      0.0000    268.5710     44.9902
   989.5000      0.0000    140.0772      0.0000    268.1672     49.1839
   989.7500      0.0000    136.6561      0.0000    267.9368     52.9348
   990.0000      0.0000    134.5166      0.0000    267.7620     56.6775
   990.2500      0.0000    133.2108      0.0000    267.6346     60.1865
   990.5000      0.0000    131.7590      0.0000    267.6189     62.7524
   990.7500      0.0000    129.7140      0.0000    267.7787     64.0339
   991.0000      0.0000    127.3743      0.0000    268.1180     64.1467
   991.2500      0.0000    125.4477      0.0000    268.5161     63.1669
   991.5000      0.0000    124.7064      0.0000    268.8089     61.0457
   991.7500      0.0000    125.5479      0.0000    268.9475     57.8866
   992.0000      0.0000    127.5180      0.0000    268.9891     54.0481
   992.2500      0.0000    129.3597      0.0000    268.9901     50.0725
   992.5000      0.0000    129.9430      0.0000    268.9553     46.6494
   992.7500      0.0000    129.2750      0.0000    268.8471     44.5531
   993.0000      0.0000    128.4082      0.0000    268.6417     44.3251
   993.2500      0.0000    128.4079      0.0000    268.4117     45.7866
   993.5000      0.0000    129.4842      0.0000    268.3080     47.9840
   993.7500      0.0000    130.8195      0.0000    268.4107     49.8619
   994.0000      0.0000    131.1575      0.0000    268.6340     51.0179
   994.2500      0.0000    130.0961      0.0000    268.8100     51.7675
   994.5000      0.0000    128.9323      0.0000    268.8374     52.6264
   994.7500      0.0000    129.7607      0.0000    268.7347     53.9676
   995.0000      0.0000    133.5541      0.0000    268.5875     56.0393
   995.2500      0.0000    139.2883      0.0000    268.4635     58.7976
   995.5000      0.0000    144.8619      0.0000    268.4030     61.4971
   995.7500      0.0000    148.8158      0.0000    268.4404     62.8822
   996.0000      0.0000    151.3178      0.0000    268.5161     62.3353
   996.2500      0.0000    153.5759      0.0000    268.4866     60.7035
   996.5000      0.0000    156.2855      0.0000    268.3234     59.4589
   996.7500      0.0000    158.6763      0.0000    268.1465     59.2119
   997.0000      0.0000    159.2451      0.0000    268.0523     59.4770
   997.2500      0.0000    157.5784      0.0000    268.0533     59.4522
   997.5000      0.0000    155.2158      0.0000    268.1552     58.5365
   997.7500      0.0000    154.1935      0.0000    268.3682     56.4545
   998.0000      0.0000    154.6878      0.0000    268.6418     53.3849
   998.2500      0.0000    154.6704      0.0000    268.8918     49.9328
