~Version Information
VERS.                      2.0: CWLS Log ASCII Standard - VERSION 2.0
WRAP.                       NO: One line per depth step
~Well Information Block
STRT.FT                -7.0000: 
STOP.FT              1329.7500: 
STEP.FT                 0.2500: 
NULL.                -999.2500: 
COMP.          Pioneer Natural Resources: COMPANY
WELL.             Raptor 44-26: WELL
FLD.           Purgatorie River: FIELD
LOC.           180' FSL & 812' FEL--: LOCATION
PROV.                       CO: PROVINCE
CNTY.               Las Animas: COUNTRY
SRVC.          Patterson Wireline: SERVICE COMPANY
DATE.          Wed Mar 30 12:38:23 2005: LOG DATE
UWI.           05 071 08187 00: UNIQUE WELL ID
~Curve Information Block
DEPT.FT            0 000 00 00: Depth
CCL.                          : Casing Collar Locator
TT3.usec                      : CBL 3' Travel Time
AMP3.mV                       : CBL 3' Amplitude
GR.GAPI                       : Gamma Ray
~Parameter Information Block
MINATTN.db/ft           0.8000: Minimum Attenuation
~A  Depth       CCL         TT3         AMP3         GR     
# ...
   864.0000      0.0000    773.0784      5.4125    109.9525
   864.2500      0.0000    773.6319      5.4079    111.1676
   864.5000      0.0000    776.4969      5.4235    112.9581
   864.7500      0.0000    779.5087      5.4504    114.3631
   865.0000      0.0000    778.5363      5.4849    114.4646
   865.2500      0.0000    771.6786      5.5247    112.9869
   865.5000      0.0000    761.5594      5.5638    111.1595
   865.7500      0.0000    753.0471      5.5954    111.1825
   866.0000      0.0000    749.4218      5.6143    114.2051
   866.2500      0.0000    751.0986      5.6200    118.9935
   866.5000      0.0000    755.9653      5.6226    123.0328
   866.7500      0.0000    759.5166      5.6354    124.9346
   867.0000      0.0000    756.8493      5.6570    125.5721
   867.2500      0.0000    746.5864      5.6758    126.9302
   867.5000      0.0000    732.0316      5.6884    130.0034
   867.7500      0.0000    717.9047      5.6988    133.7902
   868.0000      0.0000    706.9102      5.7060    136.3085
   868.2500      0.0000    699.3358      5.7061    136.6494
   868.5000      0.0000    694.3820      5.7020    135.8795
   868.7500      0.0000    690.9610      5.7016    135.7267
   869.0000      0.0000    687.8963      5.7135    136.6375
   869.2500      0.0000    684.4178      5.7490    137.5091
   869.5000      0.0000    680.7318      5.8159    137.0683
   869.7500      0.0000    677.7484      5.9065    135.1268
   870.0000      0.0000    676.3928      5.9955    132.7742
   870.2500      0.0000    677.6777      6.0516    131.5358
   870.5000      0.0000    683.4518      6.0509    131.9205
   870.7500      0.0000    696.2376      5.9947    132.7073
   871.0000      0.0000    716.9149      5.9155    132.1136
   871.2500      0.0000    741.8290      5.8530    129.7609
   871.5000      0.0000    763.5335      5.8278    127.1362
   871.7500      0.0000    776.4875      5.8415    125.9019
   872.0000      0.0000    781.6928      5.8892    125.9292
   872.2500      0.0000    783.8286      5.9574    125.4250
   872.5000      0.0000    784.9277      6.0228    123.3218
   872.7500      0.0000    783.6931      6.0635    121.2873
   873.0000      0.0000    780.0806      6.0728    122.5653
   873.2500      0.0000    776.7151      6.0643    128.5499
   873.5000      0.0000    775.5519      6.0602    137.1258
   873.7500      0.0000    775.9310      6.0658    144.6965
   874.0000      0.0000    776.1437      6.0590    148.9587
   874.2500      0.0000    775.1595      6.0174    149.2001
   874.5000      0.0000    773.1217      5.9476    145.1747
   874.7500      0.0000    771.2305      5.8805    137.2695
   875.0000      0.0000    770.3753      5.8440    127.4858
   875.2500      0.0000    769.3304      5.8452    118.8045
   875.5000      0.0000    765.9211      5.8731    113.0686
   875.7500      0.0000    760.4862      5.9137    109.9910
   876.0000      0.0000    755.9741      5.9569    108.4339
   876.2500      0.0000    753.6603      5.9961    108.1641
   876.5000      0.0000    750.9642      6.0278    109.8536
   876.7500      0.0000    744.7189      6.0501    113.5030
   877.0000      0.0000    734.8286      6.0565    117.5919
   877.2500      0.0000    723.3148      6.0450    120.1762
   877.5000      0.0000    711.5193      6.0314    120.4520
   877.7500      0.0000    699.9537      6.0395    119.1561
   878.0000      0.0000    689.9820      6.0714    118.0116
   878.2500      0.0000    683.8144      6.0950    118.8108
   878.5000      0.0000    682.7828      6.0661    122.2106
   878.7500      0.0000    686.4465      5.9678    127.0597
   879.0000      0.0000    693.2111      5.8296    131.1816
   879.2500      0.0000    701.2262      5.7062    132.9438
   879.5000      0.0000    709.4810      5.6316    132.1651
   879.7500      0.0000    718.9755      5.5929    129.8250
   880.0000      0.0000    732.0213      5.5494    127.1788
   880.2500      0.0000    748.9154      5.4746    125.2510
   880.5000      2.0000    766.1244      5.3765    124.8313
   880.7500      0.0000    779.8589      5.2896    126.2483
   881.0000      0.0000    790.8279      5.2591    128.9648
   881.2500      0.0000    802.4729      5.3189    131.9285
   881.5000      0.0000    814.8481      5.4601    134.5112
   881.7500      0.0000    823.9571      5.6232    136.8193
   882.0000      0.0000    827.8112      5.7388    139.0744
   882.2500      0.0000    829.6425      5.7790    141.0514
   882.5000      0.0000    833.6815      5.7677    142.1821
   882.7500      0.0000    840.0967      5.7445    141.9486
   883.0000      0.0000    845.5735      5.7257    140.1433
   883.2500      0.0000    847.4096      5.6958    136.9457
   883.5000      0.0000    845.9478      5.6342    132.9444
   883.7500      0.0000    843.7767      5.5445    129.2310
   884.0000      0.0000    843.3418      5.4580    127.1389
   884.2500      0.0000    845.1323      5.4113    127.1587
   884.5000      0.0000    847.7285      5.4166    128.1415
   884.7500      0.0000    849.0337      5.4515    128.3714
   885.0000      0.0000    847.1659      5.4785    127.4979
   885.2500      0.0000    840.7271      5.4760    126.8102
   885.5000      0.0000    829.5832      5.4532    127.5251
   885.7500      0.0000    816.1157      5.4410    129.1801
   886.0000      0.0000    804.7282      5.4684    129.6751
   886.2500      0.0000    798.4630      5.5437    126.8621
   886.5000      0.0000    796.0413      5.6535    120.3215
   886.7500      0.0000    793.5222      5.7751    111.7152
   887.0000      0.0000    788.9538      5.8866    103.5157
   887.2500      0.0000    784.3086      5.9722     97.5398
   887.5000      0.0000    783.0745      6.0277     94.2631
   887.7500      0.0000    786.8256      6.0620     92.7555
   888.0000      0.0000    793.8649      6.0852     91.3502
   888.2500      0.0000    800.6736      6.0998     89.0380
   888.5000      0.0000    804.8030      6.1055     86.1589
   888.7500      0.0000    806.5486      6.1039     83.4478
   889.0000      0.0000    808.2006      6.0939     80.8526
   889.2500      0.0000    812.0038      6.0728     77.7558
   889.5000      0.0000    818.4893      6.0430     74.0008
   889.7500      0.0000    826.1650      6.0140     70.3395
   890.0000      0.0000    832.4098      5.9967     68.0653
   890.2500      0.0000    834.9095      5.9959     68.2674
   890.5000      0.0000    833.2363      6.0054     70.9727
   890.7500      0.0000    829.7648      6.0107     74.8947
   891.0000      0.0000    828.3336      5.9971     78.4065
   891.2500      0.0000    830.8469      5.9550     80.8550
   891.5000      0.0000    835.3715      5.8818     82.7272
   891.7500      0.0000    838.0060      5.7839     84.6922
   892.0000      0.0000    836.0788      5.6778     86.9358
   892.2500      0.0000    828.9619      5.5862     89.3706
   892.5000      0.0000    816.9149      5.5292     92.0182
   892.7500      0.0000    801.0903      5.5145     94.9507
   893.0000      0.0000    784.8029      5.5319     98.0119
   893.2500      0.0000    772.1683      5.5598    100.7323
   893.5000      0.0000    763.7601      5.5811    102.4848
   893.7500      0.0000    755.9141      5.5912    102.7392
   894.0000      0.0000    746.1996      5.5936    101.3944
   894.2500      0.0000    737.3937      5.5947     99.0339
   894.5000      0.0000    734.3794      5.5985     96.8583
   894.7500      0.0000    738.8104      5.6015     96.3875
   895.0000      0.0000    747.9895      5.5969     98.9608
   895.2500      0.0000    758.1878      5.5846    104.7527
   895.5000      0.0000    768.3734      5.5732    111.9439
   895.7500      0.0000    780.2373      5.5689    117.5263
   896.0000      0.0000    794.7438      5.5695    119.4485
   896.2500      0.0000    809.6600      5.5708    117.8308
   896.5000      0.0000    820.6860      5.5735    114.3118
   896.7500      0.0000    824.2947      5.5806    110.5646
   897.0000      0.0000    819.7910      5.5888    107.1846
   897.2500      0.0000    809.5501      5.5926    103.5388
