~Version Information
VERS.                      2.0: CWLS Log ASCII Standard - VERSION 2.0
WRAP.                       NO: One line per depth step
~Well Information Block
STRT.FT               519.6000: 
STOP.FT              2727.5000: 
STEP.FT                 0.1000: 
NULL.                -999.2500: 
COMP.          Petrogulf Corporation: COMPANY
WELL.              Silva 6-22V: WELL
FLD.           Purgatorie River: FIELD
LOC.           1936' FNL & 1798' FWL: LOCATION
CNTY.               Las Animas: COUNTY
SRVC.                         : SERVICE COMPANY
DATE.          Tue Nov 09 12:21:27 2004: LOG DATE
UWI.           05 071 08143 00: UNIQUE WELL ID
STAT.                 Colorado: STATE
~Curve Information Block
DEPT.FT            0 000 00 00: Depth
DCAL.in                       : CDL Caliper
RHOB.g/cc                     : CDL Bulk Density
RHOC.g/cc                     : CDL Density Correction
DPOR.pu                       : CDL Density Porosity
GR.GAPI                       : Gamma Ray
NPOR.pu                       : Neutron Porosity
~Parameter Information Block
~A  Depth       DCAL        RHOB        RHOC        DPOR         GR         NPOR    
# ...
  2286.0000      7.7244      2.6334      0.1539      1.0066     63.2707     21.6218
  2286.1000      7.7244      2.6433      0.1191      0.4084     66.1506     21.1926
  2286.2000      7.7244      2.6452      0.1165      0.2899     67.6847     20.4237
  2286.3000      7.7207      2.6501      0.1793     -0.0054     67.9118     19.5464
  2286.4000      7.7207      2.6493      0.1577      0.0451     68.8038     18.6897
  2286.5000      7.7142      2.6353      0.1383      0.8898     70.3111     18.3764
  2286.6000      7.7142      2.6099      0.1461      2.4310     71.3020     18.9363
  2286.7000      7.7142      2.5844      0.0776      3.9758     71.4073     20.0324
  2286.8000      7.7175      2.5723      0.1114      4.7084     70.9751     20.9893
  2286.9000      7.7175      2.5669      0.1080      5.0376     69.7529     21.4545
  2287.0000      7.7176      2.5609      0.0686      5.4026     69.7998     21.6659
  2287.1000      7.7176      2.5596      0.0622      5.4810     71.0536     21.8738
  2287.2000      7.7176      2.5622      0.0764      5.3214     71.9239     21.7801
  2287.3000      7.6986      2.5630      0.0818      5.2705     74.7162     21.5555
  2287.4000      7.6986      2.5649      0.0885      5.1594     77.7710     21.9189
  2287.5000      7.6847      2.5702      0.0972      4.8374     75.7568     22.2893
  2287.6000      7.6847      2.5652      0.1114      5.1380     71.1592     21.7227
  2287.7000      7.6847      2.5410      0.0663      6.6077     71.1595     20.7283
  2287.8000      7.6986      2.5169      0.0329      8.0667     75.5612     20.3250
  2287.9000      7.6986      2.5148      0.0186      8.1925     78.1815     20.2991
  2288.0000      7.7196      2.5268      0.0530      7.4659     77.9827     19.9963
  2288.1000      7.7196      2.5312      0.0657      7.1971     77.3604     19.6087
  2288.2000      7.7196      2.5265      0.0478      7.4848     75.3896     19.4191
  2288.3000      7.7263      2.5221      0.0806      7.7497     70.4759     19.3377
  2288.4000      7.7263      2.5178      0.0554      8.0134     64.4519     19.4227
  2288.5000      7.7272      2.5119      0.0438      8.3692     60.9223     19.8251
  2288.6000      7.7272      2.5039      0.0673      8.8546     61.4496     20.3365
  2288.7000      7.7272      2.4930      0.0452      9.5180     65.0687     20.6779
  2288.8000      7.7265      2.4852      0.0372      9.9862     68.0713     20.6900
  2288.9000      7.7265      2.4849      0.0669     10.0055     67.1620     20.4588
  2289.0000      7.7260      2.4853      0.0958      9.9834     64.3654     20.1757
  2289.1000      7.7260      2.4856      0.0207      9.9623     62.1050     19.8483
  2289.2000      7.7260      2.4944      0.0611      9.4290     59.9472     19.5711
  2289.3000      7.7300      2.5029      0.0663      8.9165     59.2157     19.4620
  2289.4000      7.7300      2.5013      0.0361      9.0143     60.2854     19.4991
  2289.5000      7.7349      2.4941      0.0734      9.4504     61.7324     19.7931
  2289.6000      7.7349      2.4805      0.0561     10.2754     60.5879     20.0539
  2289.7000      7.7349      2.4666      0.0206     11.1135     51.9884     19.8089
  2289.8000      7.7365      2.4674      0.0490     11.0638     41.2489     19.4287
  2289.9000      7.7365      2.4771      0.0578     10.4806     40.2944     19.4777
  2290.0000      7.7375      2.4824      0.0066     10.1591     48.2225     19.8394
  2290.1000      7.7375      2.4871      0.0398      9.8707     53.3497     19.6834
  2290.2000      7.7375      2.4945      0.0530      9.4267     52.0208     18.7221
  2290.3000      7.7350      2.5010      0.0358      9.0312     51.0805     18.0658
  2290.4000      7.7350      2.5096      0.0482      8.5100     53.2324     18.5293
  2290.5000      7.7356      2.5220      0.0601      7.7598     55.2252     19.5740
  2290.6000      7.7356      2.5284      0.0990      7.3686     56.7448     20.2124
  2290.7000      7.7356      2.5204      0.0965      7.8559     57.9001     19.8069
  2290.8000      7.7480      2.5065      0.0634      8.6962     57.6372     19.0309
  2290.9000      7.7480      2.5034      0.0815      8.8866     58.4647     18.8132
  2291.0000      7.7687      2.5213      0.0367      7.7985     62.1339     18.9073
  2291.1000      7.7687      2.5545      0.0740      5.7860     66.9764     18.8031
  2291.2000      7.7687      2.5747      0.1293      4.5667     71.1028     18.8658
  2291.3000      7.7762      2.5670      0.0668      5.0276     73.6541     19.2308
  2291.4000      7.7762      2.5561      0.0630      5.6920     74.3018     19.3766
  2291.5000      7.7783      2.5621      0.0447      5.3296     72.4709     19.0670
  2291.6000      7.7783      2.5718      0.0651      4.7370     70.6645     18.5721
  2291.7000      7.7783      2.5689      0.0195      4.9167     71.5704     18.4398
  2291.8000      7.7843      2.5597      0.0063      5.4737     73.0894     19.1156
  2291.9000      7.7843      2.5518      0.0372      5.9535     71.7731     20.1066
  2292.0000      7.7892      2.5425      0.0181      6.5147     69.1994     20.7418
  2292.1000      7.7892      2.5378      0.0211      6.8018     70.2242     21.1755
  2292.2000      7.7892      2.5473      0.0419      6.2221     75.7300     21.5712
  2292.3000      7.7938      2.5702      0.0441      4.8375     81.5188     21.5253
  2292.4000      7.7938      2.5930      0.0676      3.4533     83.8467     20.9026
  2292.5000      7.7893      2.5973      0.1038      3.1916     83.1145     19.9637
  2292.6000      7.7893      2.5789      0.0490      4.3117     81.9288     18.9070
  2292.7000      7.7893      2.5477      0.0548      6.2025     82.1712     18.1414
  2292.8000      7.7876      2.5130      0.0159      8.3006     83.4480     17.9736
  2292.9000      7.7876      2.4896      0.0072      9.7226     84.7159     18.3236
  2293.0000      7.7961      2.4877      0.0167      9.8364     86.7561     18.8669
  2293.1000      7.7961      2.5012     -0.0087      9.0195     88.8450     19.0691
  2293.2000      7.7961      2.5209      0.0173      7.8269     89.3384     18.6973
  2293.3000      7.7803      2.5415      0.0457      6.5734     89.8224     18.3591
  2293.4000      7.7803      2.5592      0.0890      5.5000     90.1408     18.4405
  2293.5000      7.7429      2.5703      0.0810      4.8314     88.8231     18.6602
  2293.6000      7.7429      2.5756      0.0971      4.5105     88.2898     19.2183
  2293.7000      7.7429      2.5823      0.1217      4.1029     89.2822     20.4193
  2293.8000      7.7200      2.5924      0.1029      3.4887     88.9269     21.3634
  2293.9000      7.7200      2.5951      0.1446      3.3286     88.3583     21.1068
  2294.0000      7.7136      2.5853      0.1127      3.9242     90.7012     20.3607
  2294.1000      7.7136      2.5811      0.1271      4.1734     93.5386     20.1390
  2294.2000      7.7136      2.5905      0.1200      3.6064     96.2599     20.5814
  2294.3000      7.7181      2.5949      0.1081      3.3372    101.1281     21.1065
  2294.4000      7.7181      2.5885      0.0853      3.7276    103.5547     21.0793
  2294.5000      7.7321      2.5837      0.0934      4.0199    101.7839     21.0234
  2294.6000      7.7321      2.5778      0.1286      4.3728    102.0626     21.8741
  2294.7000      7.7321      2.5580      0.1100      5.5782    105.2436     23.2542
  2294.8000      7.7452      2.5304      0.0881      7.2488    107.1436     24.0953
  2294.9000      7.7452      2.5116      0.0413      8.3856    107.5633     24.1754
  2295.0000      7.7474      2.5036      0.0551      8.8750    104.8151     24.0802
  2295.1000      7.7474      2.4945      0.0753      9.4262     97.2584     24.4631
  2295.2000      7.7474      2.4774      0.0246     10.4627     90.5647     25.3439
  2295.3000      7.7427      2.4615      0.0071     11.4251     89.4264     25.7155
  2295.4000      7.7427      2.4576      0.0425     11.6610     94.4943     25.0446
  2295.5000      7.7476      2.4624      0.0656     11.3726    101.2241     24.3543
