~Version Information
VERS.                      2.0: CWLS Log ASCII Standard - VERSION 2.0
WRAP.                       NO: One line per depth step
~Well Information Block
STRT.FT                 0.0000: 
STOP.FT              1916.0000: 
STEP.FT                 0.1000: 
NULL.                -999.2500: 
COMP.          Pioneer Natural Resources: COMPANY
WELL.          Blackjack 32-11 Tr: WELL
FLD.           Purgatorie River: FIELD
LOC.           2066' FNL & 1453' FEL: LOCATION
PROV.                 Colorado: PROVINCE
CNTY.               Las Animas: COUNTRY
SRVC.                Patterson: SERVICE COMPANY
DATE.          Tue Aug 16 12:08:23 2005: LOG DATE
UWI.                          : UNIQUE WELL ID
~Curve Information Block
DEPT.FT            0 000 00 00: Depth
DCAL.in                       : CDL Caliper
RHOB.g/cc                     : CDL Bulk Density
RHOC.g/cc                     : CDL Density Correction
DPOR.pu                       : CDL Density Porosity
GR.GAPI                       : Gamma Ray
NPOR.pu                       : Neutron Porosity
~Parameter Information Block
~A  Depth       DCAL        RHOB        RHOC        DPOR         GR         NPOR    
# ...
  1632.0000      7.9083      2.5487      0.0537      6.1401    117.7568     26.5081
  1632.1000      7.9083      2.5377      0.0676      6.8064    118.4972     26.4000
  1632.2000      7.9083      2.5321      0.0274      7.1454    118.3829     26.0165
  1632.3000      7.9969      2.5419      0.0457      6.5495    117.2335     25.6307
  1632.4000      7.9969      2.5632      0.1027      5.2599    114.7485     25.4683
  1632.5000      8.0236      2.5781      0.1370      4.3569    112.9566     25.4180
  1632.6000      8.0236      2.5798      0.1409      4.2545    113.8312     25.3121
  1632.7000      8.0236      2.5810      0.0829      4.1790    115.8280     25.0536
  1632.8000      7.9734      2.5934      0.1271      3.4322    115.7997     24.2858
  1632.9000      7.9734      2.6115      0.1500      2.3353    113.7783     23.1801
  1633.0000      7.9405      2.6285      0.1556      1.3042    112.2802     22.7981
  1633.1000      7.9405      2.6388      0.1547      0.6813    111.0991     23.5253
  1633.2000      7.9405      2.6336      0.1483      0.9951    109.5125     24.2328
  1633.3000      7.9358      2.6114      0.1185      2.3399    108.2109     23.9794
  1633.4000      7.9358      2.5819      0.0854      4.1248    107.9198     23.4692
  1633.5000      7.9322      2.5548      0.0920      5.7680    109.9133     23.3751
  1633.6000      7.9322      2.5301      0.0667      7.2672    114.4708     23.4476
  1633.7000      7.9322      2.5071      0.0752      8.6632    118.4891     23.5464
  1633.8000      7.9611      2.4889      0.0645      9.7660    121.7991     23.7123
  1633.9000      7.9611      2.4771      0.0741     10.4805    127.0696     24.0833
  1634.0000      7.9608      2.4735      0.0470     10.6992    131.7186     24.6305
  1634.1000      7.9608      2.4775      0.0870     10.4529    132.6847     24.9871
  1634.2000      7.9608      2.4849      0.0869     10.0032    132.8119     24.9854
  1634.3000      8.0144      2.4970      0.0802      9.2711    134.4142     24.9071
  1634.4000      8.0144      2.5143      0.1258      8.2224    136.6512     25.3797
  1634.5000      8.0213      2.5316      0.1443      7.1749    139.9494     26.6537
  1634.6000      8.0213      2.5475      0.1422      6.2113    143.4245     28.1026
  1634.7000      8.0213      2.5640      0.1326      5.2128    144.0450     28.9602
  1634.8000      7.9369      2.5760      0.1681      4.4859    141.1271     29.3194
  1634.9000      7.9369      2.5742      0.1702      4.5953    136.5084     29.5647
  1635.0000      7.8905      2.5615      0.1413      5.3649    133.5653     29.6041
  1635.1000      7.8905      2.5493      0.1329      6.1034    135.2458     29.3220
  1635.2000      7.8905      2.5458      0.0939      6.3158    139.8716     28.9811
  1635.3000      7.9551      2.5518      0.1216      5.9530    142.5359     28.5904
  1635.4000      7.9551      2.5610      0.1015      5.3911    141.7271     28.0769
  1635.5000      8.0585      2.5710      0.1248      4.7896    140.1184     28.0901
  1635.6000      8.0585      2.5838      0.1150      4.0117    138.5294     28.8371
  1635.7000      8.0585      2.6005      0.1157      2.9996    134.6500     29.5043
  1635.8000      8.0135      2.6130      0.1266      2.2428    129.2593     29.5312
  1635.9000      8.0135      2.6056      0.1561      2.6921    125.2300     29.0291
  1636.0000      8.0638      2.5749      0.0697      4.5540    123.8540     28.4718
  1636.1000      8.0638      2.5406      0.0063      6.6315    125.0358     28.4336
  1636.2000      8.0638      2.5213     -0.0007      7.8018    126.8151     28.6354
  1636.3000      8.0294      2.5156      0.0152      8.1433    128.3564     28.6204
  1636.4000      8.0294      2.5106      0.0638      8.4472    130.5740     28.5786
  1636.5000      8.0995      2.4958      0.0794      9.3461    134.1614     28.5390
  1636.6000      8.0995      2.4772      0.0189     10.4702    139.9818     28.5881
  1636.7000      8.0995      2.4700      0.0753     10.9099    145.7180     28.9776
  1636.8000      8.0464      2.4759      0.1254     10.5506    145.8603     29.2698
  1636.9000      8.0464      2.4908      0.0972      9.6475    139.6375     28.9012
  1637.0000      8.0548      2.5137      0.1528      8.2627    133.0735     28.0335
  1637.1000      8.0548      2.5354      0.1877      6.9463    130.5372     27.2584
  1637.2000      8.0548      2.5459      0.1755      6.3086    131.6173     27.1287
  1637.3000      8.0772      2.5434      0.2216      6.4581    136.3823     27.7681
  1637.4000      8.0772      2.5372      0.1610      6.8348    143.1964     28.7557
  1637.5000      8.1417      2.5401      0.2001      6.6629    146.6740     29.7189
  1637.6000      8.1417      2.5513      0.1616      5.9827    144.9838     30.3788
  1637.7000      8.1417      2.5674      0.1428      5.0090    140.9307     30.4051
  1637.8000      8.1508      2.5863      0.1665      3.8599    138.3622     29.8947
  1637.9000      8.1508      2.6037      0.1564      2.8085    140.4331     29.3211
  1638.0000      8.1519      2.6162      0.1877      2.0473    145.2452     28.6583
  1638.1000      8.1519      2.6172      0.1745      1.9874    148.3560     27.8669
  1638.2000      8.1519      2.6038      0.1526      2.7978    148.4910     27.5197
  1638.3000      8.1251      2.5856      0.1568      3.9052    147.5963     27.6867
  1638.4000      8.1251      2.5720      0.1397      4.7245    146.1912     27.9854
  1638.5000      8.0761      2.5656      0.1080      5.1131    144.1619     28.4774
  1638.6000      8.0761      2.5648      0.0590      5.1644    142.1603     28.8081
  1638.7000      8.0761      2.5647      0.0886      5.1708    139.1212     28.6896
  1638.8000      8.0717      2.5591      0.1230      5.5109    136.6754     28.6971
  1638.9000      8.0717      2.5499      0.0732      6.0661    138.6310     28.7948
  1639.0000      8.0383      2.5434      0.0877      6.4597    143.6128     28.3516
  1639.1000      8.0383      2.5307      0.1350      7.2286    147.6605     27.3803
  1639.2000      8.0383      2.5066      0.0589      8.6932    148.4396     26.6464
  1639.3000      8.0888      2.4920      0.0889      9.5778    146.6472     26.5343
  1639.4000      8.0888      2.5030      0.1188      8.9116    144.5341     26.3514
  1639.5000      8.0192      2.5334      0.1171      7.0691    143.7748     26.0060
  1639.6000      8.0192      2.5715      0.1463      4.7576    145.0235     26.1063
  1639.7000      8.0192      2.6065      0.1812      2.6344    146.2163     26.5037
  1639.8000      7.9357      2.6353      0.1754      0.8933    144.0423     26.7184
  1639.9000      7.9357      2.6678      0.1615     -1.0786    137.4290     26.5561
  1640.0000      7.9298      2.7023      0.2206     -3.1700    131.4397     25.9670
  1640.1000      7.9298      2.7163      0.2207     -4.0191    131.4222     25.1648
  1640.2000      7.9298      2.7013      0.1378     -3.1119    133.6792     24.6595
  1640.3000      7.8696      2.6705      0.1151     -1.2405    132.0899     24.7313
  1640.4000      7.8696      2.6376      0.0820      0.7516    127.8251     24.8344
  1640.5000      7.8897      2.6200     -0.0044      1.8195    124.2421     24.3027
  1640.6000      7.8897      2.6273      0.0431      1.3773    121.2651     23.5353
  1640.7000      7.8897      2.6405      0.0997      0.5752    118.2860     23.2890
  1640.8000      7.9767      2.6361      0.0951      0.8399    116.0546     23.2760
  1640.9000      7.9767      2.6163      0.0783      2.0434    113.7573     22.6033
  1641.0000      7.9716      2.5976      0.0390      3.1740    111.3069     21.1795
  1641.1000      7.9716      2.5868      0.0643      3.8283    112.9594     19.7803
  1641.2000      7.9716      2.5787      0.0772      4.3212    118.8941     18.9761
  1641.3000      7.9391      2.5736      0.0811      4.6312    122.0539     18.6866
  1641.4000      7.9391      2.5774      0.1073      4.3994    119.4662     18.4192
  1641.5000      7.9116      2.5886      0.1217      3.7223    114.8009     17.9130
