~Version Information
VERS.                      2.0: CWLS Log ASCII Standard - VERSION 2.0
WRAP.                       NO: One line per depth step
~Well Information Block
STRT.FT               340.0000: 
STOP.FT              1542.5000: 
STEP.FT                 0.2500: 
NULL.                -999.2500: 
COMP.          Petrogulf Corporation: COMPANY
WELL.            Montoya 7-21R: WELL
FLD.           Purgatorie River: FIELD
LOC.           445' FNL & 1942' FWL: LOCATION
PROV.                 Colorado: PROVINCE
CNTY.               Las Animas: COUNTRY
SRVC.                Patterson: SERVICE COMPANY
DATE.          Thu Sep 15 10:37:42 2005: LOG DATE
UWI.                          : UNIQUE WELL ID
~Curve Information Block
DEPT.FT            0 000 00 00: Depth
SP.mV                         : DIL Spontaneous Potential
RILD.Ohm-m                    : DIL Deep Resistivity
RILM.Ohm-m                    : DIL Medium Resistivity
RLL3.Ohm-m                    : DIL Shallow Resistivity
GR.GAPI                       : Gamma Ray
~Parameter Information Block
~A  Depth        SP         RILD        RILM        RLL3         GR     
# ...
   956.0000    201.1405     12.0576     11.0603     12.6414    145.9432
   956.2500    201.1294     12.1602     10.9104     11.5054    142.6716
   956.5000    201.0780     12.3443     11.0847     10.9166    144.7299
   956.7500    200.8560     12.4891     11.1553     11.5609    148.1740
   957.0000    200.3170     12.6988     11.5668     12.8048    140.3156
   957.2500    199.5602     12.6680     11.9592     13.8709    133.6571
   957.5000    198.4327     12.7700     12.2964     14.2170    151.4348
   957.7500    196.9709     12.8122     12.4150     14.5510    149.7137
   958.0000    195.2244     12.7149     12.5847     14.4478    164.7496
   958.2500    193.3085     12.7886     12.7972     14.0965    159.5375
   958.5000    190.9830     12.9636     12.8298     13.7022    135.2272
   958.7500    188.4467     13.0354     12.9450     13.6406    128.0907
   959.0000    186.0030     13.1882     12.9734     13.2707    131.6516
   959.2500    183.7677     13.2982     13.1156     13.1238    142.7492
   959.5000    181.7733     13.4459     13.2959     13.2446    127.5997
   959.7500    179.7986     13.4668     13.6027     13.7660    137.3579
   960.0000    178.0219     13.3280     13.5641     14.0559    146.9166
   960.2500    176.3956     13.1762     13.4976     13.3800    161.9307
   960.5000    174.8930     13.4103     13.6026     13.3706    153.8438
   960.7500    173.6744     13.2670     13.5212     14.0915    134.8878
   961.0000    172.5516     12.9459     13.5424     14.6851    148.7200
   961.2500    171.4607     12.8780     13.3082     14.4672    160.2514
   961.5000    170.4448     12.8645     12.9921     14.0669    173.5268
   961.7500    169.4077     12.7555     12.9051     13.3347    144.2197
   962.0000    168.0850     12.7242     12.7932     12.3389    133.4631
   962.2500    166.6811     12.7040     12.7659     11.8356    131.5529
   962.5000    165.2956     12.5566     12.6321     11.9124    138.1462
   962.7500    164.0990     12.4189     12.4810     12.4422    146.0784
   963.0000    163.0052     12.2711     12.4830     13.3194    134.9458
   963.2500    162.0328     12.0364     12.1813     14.6718    123.7593
   963.5000    161.1546     11.8425     11.9102     14.6737    125.4962
   963.7500    160.2664     11.5037     11.7004     13.0693    109.1993
   964.0000    159.5181     11.2293     11.2770     12.1445    130.0028
   964.2500    158.6976     11.1476     10.9767     12.0708    138.5463
   964.5000    157.8841     11.0477     10.8944     12.1969    170.3959
   964.7500    157.2166     10.9384     10.5281     11.7716    141.6647
   965.0000    156.6142     10.9416     10.4438     11.3220    148.0138
   965.2500    156.2618     10.9647     10.4521     11.2732    144.0150
   965.5000    156.0907     10.9859     10.4192     11.3334    141.6772
   965.7500    156.0992     11.0169     10.4329     11.5330    160.3641
   966.0000    156.2280     11.1199     10.4403     11.6701    170.0300
   966.2500    156.5295     11.2734     10.4928     11.6867    151.0268
   966.5000    156.9414     11.4651     10.6271     11.4106    166.2670
   966.7500    157.4267     11.5793     10.9020     11.2876    161.9426
   967.0000    157.7925     11.7079     11.3183     12.3605    145.1329
   967.2500    158.0558     11.8178     11.8026     13.8921    157.1095
   967.5000    158.1054     12.0916     12.3809     15.5561    160.2507
   967.7500    158.1425     12.4837     12.7601     17.0245    149.9615
   968.0000    158.1460     12.8894     13.2046     17.6734    149.2679
   968.2500    158.1843     13.4099     13.5234     17.8842    131.5464
   968.5000    158.1614     13.9089     13.8966     18.2261    124.5878
   968.7500    158.1594     14.4097     14.5121     18.5628    107.9854
   969.0000    158.1689     15.3146     15.0777     18.6543    122.6268
   969.2500    158.1270     16.1596     15.5812     18.4470    112.6122
   969.5000    158.0558     17.3582     15.8871     17.8877    114.1425
   969.7500    157.9999     18.2584     17.3268     17.9421    129.4162
   970.0000    158.1448     18.9511     19.1298     19.2056    140.2993
   970.2500    158.4387     20.5448     20.7003     22.1566    118.3008
   970.5000    158.8566     21.5831     23.1871     26.5319    112.7028
   970.7500    159.2675     22.0938     26.3355     36.7085    103.0993
   971.0000    159.8178     23.2965     28.7959     56.0733    111.1169
   971.2500    160.3220     23.9849     31.1334     72.0540    111.5484
   971.5000    160.6329     25.1019     33.6168     75.8883    107.0502
   971.7500    160.7968     26.8487     36.1596     73.6977    103.2308
   972.0000    160.8288     28.4736     38.0789     70.5656     84.1545
   972.2500    160.8356     29.8851     40.5327     67.5879     82.0512
   972.5000    160.8560     31.2427     42.3457     62.5796     99.5804
   972.7500    160.7330     32.3256     43.1356     55.8572    105.5036
   973.0000    160.6278     34.4063     42.2531     48.3014     89.1543
   973.2500    160.6576     35.4944     44.2290     40.8540    104.4572
   973.5000    160.7906     35.8477     45.1939     35.5083    110.2829
   973.7500    161.0571     34.7345     47.2866     36.7309     98.2633
   974.0000    161.4604     34.1670     50.9708     50.6102    117.3681
   974.2500    161.9824     32.8028     53.3640     71.4354    116.5466
   974.5000    162.9305     31.4476     52.4329     85.8630    104.7290
   974.7500    164.1935     29.8358     50.3060     86.6348     86.9717
   975.0000    165.8071     27.9684     47.3677     81.7464     67.5173
   975.2500    167.6896     26.6375     41.6102     82.3039     79.6824
   975.5000    169.5809     25.2937     35.1940     77.7499     69.9274
   975.7500    171.7204     24.3563     30.6174     55.6674     70.2143
   976.0000    173.9109     24.0480     27.6417     30.7999     85.9912
   976.2500    175.9410     23.3538     24.6094     20.1068     95.5029
   976.5000    177.3794     23.0165     23.0619     17.5284     85.9755
   976.7500    178.7032     22.7925     22.1418     17.4797     88.4961
   977.0000    179.9476     22.3164     22.3735     18.7137    114.0631
   977.2500    181.0391     22.0234     22.1666     21.4494    131.3055
   977.5000    181.9958     21.6826     22.1485     25.1816    141.1852
   977.7500    182.9147     21.0969     22.1689     26.6490    136.5003
   978.0000    183.7807     20.9482     21.6444     27.1393    113.8710
   978.2500    184.6669     20.7006     21.5889     24.9135    116.8746
   978.5000    185.3640     20.7576     21.6897     21.2270    109.1972
   978.7500    185.8037     20.4683     21.8825     21.4574    117.6900
   979.0000    186.1259     20.4174     22.5759     24.0609    145.7069
   979.2500    186.4417     21.2177     22.9339     26.4613    140.2158
   979.5000    186.8638     21.7271     23.5225     26.7663    137.7053
   979.7500    187.3906     22.2175     23.9960     26.7905    122.4651
   980.0000    187.8673     22.8422     24.1064     27.6525    115.1524
   980.2500    188.3257     23.8250     24.5577     26.9274    126.2292
   980.5000    188.6412     24.5435     25.0591     23.5294    131.9368
   980.7500    188.7553     24.9108     25.4637     21.4674    125.2699
   981.0000    188.6213     25.6394     26.9111     23.0214    115.5561
   981.2500    188.1998     25.4935     28.7914     29.2339    115.1330
   981.5000    187.5655     25.6409     30.8050     40.8165    128.3064
   981.7500    186.8412     25.3837     32.7139     51.8485    118.4923
   982.0000    186.0357     25.0581     34.4270     52.2745     95.3891
   982.2500    185.1819     24.5755     33.4045     48.6478     92.0190
   982.5000    184.5339     23.4311     33.1306     44.9589    107.4190
   982.7500    184.1383     22.7871     31.0775     39.8553    122.8162
   983.0000    183.9787     22.1926     30.5198     36.3520     91.7762
   983.2500    184.0146     21.7479     28.5323     35.4405    101.5071
   983.5000    184.1546     20.8355     26.5572     34.6204    106.7028
   983.7500    184.3118     20.7224     23.9741     29.0634     98.7984
