~Version Information
VERS.                      2.0: CWLS Log ASCII Standard - VERSION 2.0
WRAP.                       NO: One line per depth step
~Well Information Block
STRT.FT               375.0000: 
STOP.FT              2637.2500: 
STEP.FT                 0.2500: 
NULL.                -999.2500: 
COMP.          Pioneer Natural Resources: COMPANY
WELL.            Cortina 23-25: WELL
FLD.           Purgatoire River: FIELD
LOC.           2344' FWL & 2526' FSL----: LOCATION
PROV.                 Colorado: PROVINCE
CNTY.               Las Animas: COUNTRY
SRVC.                Patterson: SERVICE COMPANY
DATE.          Wed Mar 23 19:09:49 2005: LOG DATE
UWI.           05 071 08340 00: UNIQUE WELL ID
~Curve Information Block
DEPT.FT            0 000 00 00: Depth
DIR.Ohm-m                     : IEL Induction Resistivity
SN.Ohm-m                      : IEL Short Normal
SP.mV                         : IEL Spontaneous Potential
GR.GAPI                       : Gamma Ray
~Parameter Information Block
~A  Depth       DIR          SN          SP          GR     
# ...
  2485.5000      0.0056      1.0941   -200.7225     92.9017
  2485.7500      0.0055      1.2043   -172.1201    100.3341
  2486.0000      0.0064      1.6021   -142.4249    108.3240
  2486.2500      0.0090      2.3299   -112.9483    110.7512
  2486.5000      0.0158      3.3308    -84.9520    111.1673
  2486.7500      0.0344      4.4406    -59.4909    111.3045
  2487.0000      0.0877      5.4550    -37.3013    113.8588
  2487.2500      0.2250      6.2213    -18.7499    116.4288
  2487.5000      0.5236      6.6887     -3.8454    117.9031
  2487.7500      1.1833      6.9013      7.6986    116.2620
  2488.0000      2.7117      6.9561     16.3697    112.3658
  2488.2500      4.9010      6.9551     22.7507    111.2873
  2488.5000      4.7185      6.9696     27.4248    113.7499
  2488.7500      3.2478      7.0246     30.9037    117.1742
  2489.0000      2.3431      7.1014     33.5859    121.9673
  2489.2500      1.9390      7.1511     35.7473    123.4319
  2489.5000      1.8397      7.1154     37.5560    121.9780
  2489.7500      1.9792      6.9534     39.1033    119.2710
  2490.0000      2.4065      6.6643     40.4376    115.6000
  2490.2500      3.3612      6.2989     41.5931    114.8853
  2490.5000      5.7592      5.9513     42.6067    116.2657
  2490.7500     16.2433      5.7356     43.5192    117.4082
  2491.0000 100000.0000      5.7520     44.3679    117.4142
  2491.2500 100000.0000      6.0540     45.1736    116.6450
  2491.5000 100000.0000      6.6245     45.9319    117.4564
  2491.7500 100000.0000      7.3729     46.6128    120.9052
  2492.0000 100000.0000      8.1587     47.1714    129.4839
  2492.2500 100000.0000      8.8374     47.5641    134.7994
  2492.5000 100000.0000      9.3090     47.7649    137.6503
  2492.7500 100000.0000      9.5400     47.7741    135.5668
  2493.0000 100000.0000      9.5531     47.6178    129.2070
  2493.2500 100000.0000      9.3992     47.3382    125.0452
  2493.5000 100000.0000      9.1333     46.9802    121.5767
  2493.7500     21.2619      8.8033     46.5799    121.8390
  2494.0000     10.4077      8.4484     46.1591    126.1439
  2494.2500      7.4765      8.0995     45.7244    130.9897
  2494.5000      6.3288      7.7792     45.2723    139.7635
  2494.7500      5.8826      7.5029     44.7943    146.0068
  2495.0000      5.7889      7.2802     44.2818    154.7046
  2495.2500      5.8882      7.1167     43.7292    158.5987
  2495.5000      6.0845      7.0152     43.1351    158.8988
  2495.7500      6.3116      6.9762     42.5026    155.2767
  2496.0000      6.5273      6.9963     41.8388    147.1433
  2496.2500      6.7115      7.0657     41.1546    142.0662
  2496.5000      6.8601      7.1679     40.4648    136.5917
  2496.7500      6.9761      7.2828     39.7863    134.3220
  2497.0000      7.0630      7.3907     39.1360    132.6039
  2497.2500      7.1220      7.4758     38.5274    132.0481
  2497.5000      7.1543      7.5311     37.9649    130.3284
  2497.7500      7.1630      7.5594     37.4395    128.0764
  2498.0000      7.1545      7.5713     36.9242    124.9757
  2498.2500      7.1358      7.5789     36.3748    125.0460
  2498.5000      7.1132      7.5910     35.7333    129.2608
  2498.7500      7.0899      7.6098     34.9372    133.0971
  2499.0000      7.0672      7.6291     33.9311    136.3750
  2499.2500      7.0460      7.6385     32.6785    135.8877
  2499.5000      7.0303      7.6323     31.1716    132.5102
  2499.7500      7.0284      7.6186     29.4352    130.0915
  2500.0000      7.0524      7.6202     27.5255    128.3364
  2500.2500      7.1145      7.6628     25.5223    128.9359
  2500.5000      7.2223      7.7586     23.5182    132.3289
  2500.7500      7.3747      7.8944     21.6058    135.6429
  2501.0000      7.5599      8.0304     19.8668    140.3499
  2501.2500      7.7582      8.1136     18.3633    141.9660
  2501.5000      7.9475      8.1048     17.1326    140.1418
  2501.7500      8.1111      8.0071     16.1865    135.7686
  2502.0000      8.2422      7.8768     15.5119    126.1945
  2502.2500      8.3426      7.8015     15.0755    120.0200
  2502.5000      8.4173      7.8589     14.8287    115.2824
  2502.7500      8.4701      8.0799     14.7145    116.5900
  2503.0000      8.5025      8.4382     14.6745    124.6384
  2503.2500      8.5168      8.8672     14.6552    132.0340
  2503.5000      8.5199      9.2921     14.6138    141.3372
  2503.7500      8.5258      9.6575     14.5214    144.0233
  2504.0000      8.5529      9.9385     14.3646    141.8488
  2504.2500      8.6192     10.1322     14.1448    137.7343
  2504.5000      8.7361     10.2428     13.8752    131.5711
  2504.7500      8.9035     10.2732     13.5767    129.0275
  2505.0000      9.1079     10.2312     13.2736    127.4153
  2505.2500      9.3243     10.1441     12.9879    126.7300
  2505.5000      9.5222     10.0686     12.7353    124.8167
  2505.7500      9.6758     10.0811     12.5211    122.6837
  2506.0000      9.7741     10.2460     12.3392    118.5606
  2506.2500      9.8229     10.5751     12.1721    116.0633
  2506.5000      9.8388     11.0091     11.9942    115.3887
  2506.7500      9.8399     11.4404     11.7751    118.5391
  2507.0000      9.8388     11.7640     11.4848    129.1787
  2507.2500      9.8421     11.9264     11.0978    138.5880
  2507.5000      9.8543     11.9438     10.5958    151.2049
  2507.7500      9.8814     11.8888      9.9696    156.1507
  2508.0000      9.9324     11.8587      9.2187    157.0802
  2508.2500     10.0197     11.9453      8.3506    153.8112
  2508.5000     10.1570     12.2156      7.3790    143.6778
  2508.7500     10.3586     12.7093      6.3225    133.6425
  2509.0000     10.6386     13.4466      5.2031    115.6725
  2509.2500     11.0116     14.4295      4.0461    104.3355
  2509.5000     11.4906     15.6236      2.8795     93.1361
  2509.7500     12.0819     16.9389      1.7342     90.8214
  2510.0000     12.7777     18.2413      0.6434     93.2159
  2510.2500     13.5494     19.4081     -0.3582     96.1780
  2510.5000     14.3509     20.3933     -1.2365     99.1176
  2510.7500     15.1349     21.2581     -1.9598     99.6324
  2511.0000     15.8769     22.1498     -2.5011     99.2851
  2511.2500     16.5895     23.2351     -2.8399     98.5019
  2511.5000     17.3169     24.6068     -2.9631     95.6447
  2511.7500     18.1139     26.2047     -2.8659     92.8998
  2512.0000     19.0215     27.8115     -2.5520     91.0919
  2512.2500     20.0465     29.1570     -2.0342     93.7855
  2512.5000     21.1485     30.0744     -1.3349    103.7347
  2512.7500     22.2376     30.5837     -0.4864    111.5859
  2513.0000     23.1895     30.8349      0.4697    119.5397
  2513.2500     23.8803     30.9714      1.4840    120.7561
  2513.5000     24.2327     31.0325      2.5024    117.8371
  2513.7500     24.2491     30.9607      3.4704    114.7591
  2514.0000     24.0080     30.6779      4.3376    111.3980
  2514.2500     23.6214     30.1538      5.0622    110.7123
  2514.5000     23.1841     29.4230      5.6133    111.8004
  2514.7500     22.7478     28.5601      5.9734    113.6216
  2515.0000     22.3286     27.6507      6.1382    117.9830
  2515.2500     21.9319     26.7752      6.1160    122.0547
  2515.5000     21.5711     25.9993      5.9262    129.0698
  2515.7500     21.2676     25.3647      5.5971    133.2980
  2516.0000     21.0386     24.8859      5.1628    137.4917
  2516.2500     20.8891     24.5549      4.6607    138.6809
  2516.5000     20.8151     24.3488      4.1286    138.2645
  2516.7500     20.8120     24.2367      3.6016    136.4358
  2517.0000     20.8743     24.1866      3.1100    131.1238
  2517.2500     20.9872     24.1723      2.6775    126.0023
  2517.5000     21.1195     24.1729      2.3207    116.8461
  2517.7500     21.2288     24.1681      2.0480    110.7591
  2518.0000     21.2767     24.1348      1.8607    103.6860
  2518.2500     21.2424     24.0512      1.7540    100.8719
  2518.5000     21.1264     23.9042      1.7177     98.5653
  2518.7500     20.9451     23.6933      1.7383     97.4090
