~Version Information
VERS.                      2.0: CWLS Log ASCII Standard - VERSION 2.0
WRAP.                       NO: One line per depth step
~Well Information Block
STRT.FT                 0.0000: 
STOP.FT              2384.7500: 
STEP.FT                 0.2500: 
NULL.                -999.2500: 
COMP.          Petrogulf Corporation: COMPANY
WELL.           McDaniel 9-34V: WELL
FLD.           Purgatorie River: FIELD
LOC.           620' FSL & 1800' FEL: LOCATION
STAT.                 Colorado: State
CNTY.               Las Animas: COUNTY
CTRY. USA : Country
SECT. 9 : Section
TOWN. 33S : Township
RANG. 67W : Range
SRVC.                Patterson: SERVICE COMPANY
DATE.          Thu Nov 10 12:28:18 2005: LOG DATE
API. 05-071-08333                         : UNIQUE WELL ID
~Curve Information Block
DEPT.FT            0 000 00 00: Depth
AMP3.mV                       : CBL 3' Amplitude
CCL.                          : Casing Collar Locator
GR.GAPI                       : Gamma Ray
TT3.usec                      : CBL 3' Travel Time
~Parameter Information Block
~A  Depth       AMP3        CCL          GR         TT3     
# ...
   770.5000      7.0523      0.0000    110.0679    617.6954
   770.7500      7.1007      0.0000    105.6101    623.1886
   771.0000      7.2298      0.0000    100.1610    634.1962
   771.2500      7.3995      0.0000     96.3147    648.1456
   771.5000      7.6081      0.0000     96.0952    659.3992
   771.7500      7.8927      0.0000     99.5454    665.1506
   772.0000      8.2210      0.0000    104.7918    667.1030
   772.2500      8.4661      0.0000    109.2750    667.7981
   772.5000      8.5336      0.0000    111.3682    668.2707
   772.7500      8.4697      0.0000    111.2294    668.5917
   773.0000      8.3929      0.0000    110.1034    668.6821
   773.2500      8.3550      0.0000    109.1535    668.1965
   773.5000      8.3264      0.0000    109.2708    665.4953
   773.7500      8.2894      0.0000    111.2505    656.1655
   774.0000      8.2678      0.0000    115.2280    634.2089
   774.2500      8.2931      0.0000    120.1848    599.1084
   774.5000      8.3979      0.0000    124.5885    561.5469
   774.7500      8.5719      0.0000    127.4277    536.7217
   775.0000      8.7141      0.0000    128.4054    532.9150
   775.2500      8.7192      0.0000    127.4136    548.3028
   775.5000      8.6034      0.0000    124.3049    572.7830
   775.7500      8.5071      0.0000    119.4273    593.9382
   776.0000      8.5723      0.0000    114.3101    605.9160
   776.2500      8.7957      0.0000    111.2032    608.3531
   776.5000      8.9933      0.0000    111.2598    598.2917
   776.7500      8.9647      0.0000    113.2944    576.2646
   777.0000      8.7541      0.0000    114.9447    561.0649
   777.2500      8.6137      0.0000    115.1582    576.1674
   777.5000      8.5928      0.0000    115.0406    621.0134
   777.7500      8.4819      0.0000    116.0959    674.4492
   778.0000      8.1854      0.0000    118.0875    712.7233
   778.2500      7.7623      0.0000    119.1111    720.0232
   778.5000      7.3127      2.0000    117.7614    700.5847
   778.7500      6.9464     -2.0000    114.8029    675.6610
   779.0000      6.6724     -2.0000    112.4693    661.2455
   779.2500      6.4222      0.0000    112.3089    655.7541
   779.5000      6.2421      0.0000    113.7410    649.0872
   779.7500      6.3122      0.0000    114.5300    638.6165
   780.0000      6.6295      0.0000    112.7952    630.8648
   780.2500      6.8006      0.0000    108.8290    628.5218
   780.5000      6.5214      0.0000    104.8524    626.7770
   780.7500      6.0229      0.0000    102.9986    622.6050
   781.0000      5.6697      0.0000    103.8660    618.2006
   781.2500      5.5426      0.0000    106.8279    615.8530
   781.5000      5.5670      0.0000    110.9119    615.2655
   781.7500      5.6941      0.0000    115.2098    615.2731
   782.0000      5.9024      0.0000    119.0741    615.2458
   782.2500      6.1328      0.0000    122.2811    614.8008
   782.5000      6.3058      0.0000    124.7161    612.8624
   782.7500      6.4322      0.0000    125.8790    607.0132
   783.0000      6.6242      0.0000    125.2728    594.7065
   783.2500      6.9503      0.0000    123.4242    576.1901
   783.5000      7.3160      0.0000    121.9152    555.2197
   783.7500      7.5196      0.0000    122.0082    536.7561
   784.0000      7.4329      0.0000    123.4608    524.3384
   784.2500      7.1090      0.0000    124.8965    518.5756
   784.5000      6.7026      0.0000    125.2379    519.3351
   784.7500      6.3229      0.0000    124.7173    529.0226
   785.0000      5.9732      0.0000    124.6111    549.1357
   785.2500      5.6212      0.0000    126.0269    573.3134
   785.5000      5.2909      0.0000    128.8133    591.0399
   785.7500      5.0486      0.0000    131.5107    598.9442
   786.0000      4.9373      0.0000    132.2914    600.8085
   786.2500      4.9620      0.0000    129.9958    600.8205
   786.5000      5.1627      0.0000    124.6105    605.0165
   786.7500      5.6350      0.0000    117.2973    621.7045
   787.0000      6.3912      0.0000    110.0906    650.6387
   787.2500      7.3622      0.0000    105.0345    676.5375
   787.5000      8.6084      0.0000    103.0488    682.1349
   787.7500     10.3135      0.0000    103.3911    661.4042
   788.0000     12.5170      0.0000    104.1174    613.4383
   788.2500     15.0451      0.0000    103.1324    539.3705
   788.5000     17.7611      0.0000     99.2130    454.2948
   788.7500     20.6668      0.0000     92.4505    382.9037
   789.0000     23.7336      0.0000     83.9277    337.3181
   789.2500     26.8851      0.0000     75.0105    313.4711
   789.5000     29.9549      0.0000     66.9455    302.9100
   789.7500     32.4254      0.0000     61.0218    298.9629
   790.0000     33.6193      0.0000     58.5983    297.7202
   790.2500     33.3579      0.0000     60.2699    297.4715
   790.5000     32.1271      0.0000     64.8805    297.5846
   790.7500     30.5976      0.0000     69.7490    297.8587
   791.0000     29.2980      0.0000     72.2903    298.1838
   791.2500     28.6293      0.0000     71.7208    298.3526
   791.5000     28.8045      0.0000     69.3967    298.1749
   791.7500     29.7017      0.0000     67.5689    297.7087
   792.0000     30.9707      0.0000     67.7170    297.2286
   792.2500     32.3184      0.0000     69.6969    296.9558
   792.5000     33.6119      0.0000     72.0598    296.8893
   792.7500     34.8103      0.0000     73.0863    296.8933
   793.0000     35.9160      0.0000     71.7226    296.7406
   793.2500     37.0307      0.0000     67.9396    295.6448
   793.5000     38.4016      0.0000     62.6777    291.8235
   793.7500     40.2022      0.0000     57.4598    283.9698
   794.0000     42.2652      0.0000     53.4944    273.9331
   794.2500     44.1938      0.0000     50.8433    265.7816
   794.5000     45.7522      0.0000     48.6362    261.5319
   794.7500     47.1119      0.0000     46.1402    260.0944
   795.0000     48.6566      0.0000     43.4119    259.7501
   795.2500     50.5092      0.0000     40.9987    259.6393
   795.5000     52.3667      0.0000     39.4440    259.5525
   795.7500     53.7900      0.0000     39.1946    259.4884
   796.0000     54.5037      0.0000     40.6194    259.4710
   796.2500     54.5297      0.0000     43.7307    259.5048
   796.5000     54.2079      0.0000     47.8035    259.5624
   796.7500     53.9560      0.0000     51.4255    259.6031
   797.0000     53.9204      0.0000     53.1286    259.6151
   797.2500     53.9786      0.0000     52.1930    259.6235
   797.5000     54.0424      0.0000     49.0459    259.6483
   797.7500     54.1467      0.0000     44.9641    259.6802
   798.0000     54.2971      0.0000     41.3360    259.7020
   798.2500     54.3605      0.0000     39.0096    259.7151
   798.5000     54.1183      0.0000     37.9508    259.7393
   798.7500     53.4948      0.0000     37.2881    259.7859
   799.0000     52.6593      0.0000     35.9178    259.8457
   799.2500     51.8017      0.0000     33.4467    259.9134
   799.5000     50.9197      0.0000     30.6286    260.0131
   799.7500     49.8555      0.0000     28.7577    260.2166
   800.0000     48.4460      0.0000     28.6287    260.7673
   800.2500     46.6731      0.0000     30.0409    262.4709
   800.5000     44.7299      0.0000     32.0054    266.9307
   800.7500     42.8702      0.0000     33.2519    275.1884
   801.0000     41.1983      0.0000     32.9398    285.3336
   801.2500     39.6843      0.0000     31.3704    293.4845
   801.5000     38.3519      0.0000     29.8628    297.8850
   801.7500     37.3829      0.0000     29.6194    299.7267
   802.0000     36.8720      0.0000     30.8636    300.5751
   802.2500     36.4904      0.0000     33.2714    301.0825
   802.5000     35.6562      0.0000     36.9611    301.4408
   802.7500     34.0283      0.0000     42.7171    301.8120
   803.0000     31.7800      0.0000     51.3121    302.3191
   803.2500     29.4698      0.0000     62.8506    302.9426
   803.5000     27.6198      0.0000     76.5809    303.5620
   803.7500     26.3867      0.0000     90.8681    304.1946
