~Version Information
VERS.                      2.0: CWLS Log ASCII Standard - VERSION 2.0
WRAP.                       NO: One line per depth step
~Well Information Block
STRT.FT               520.0000: 
STOP.FT              1105.5000: 
STEP.FT                 0.1000: 
NULL.                -999.2500: 
COMP.          Pioneer Natural Resources: COMPANY
WELL.            Redland 23-24: WELL
FLD.           Purgatoire River: FIELD
LOC.           2356' FSL & 1880' FWL: LOCATION
PROV.                 Colorado: PROVINCE
CNTY.               Las Animas: COUNTRY
SRVC.                Patterson: SERVICE COMPANY
DATE.          Mon Mar 21 07:08:20 2005: LOG DATE
UWI.           05 071 08221 00: UNIQUE WELL ID
~Curve Information Block
DEPT.FT            0 000 00 00: Depth
DCAL.in                       : CDL Caliper
RHOB.g/cc                     : CDL Bulk Density
RHOC.g/cc                     : CDL Density Correction
DPOR.pu                       : CDL Density Porosity
GR.GAPI                       : Gamma Ray
NPOR.pu                       : Neutron Porosity
~Parameter Information Block
~A  Depth       DCAL        RHOB        RHOC        DPOR         GR         NPOR    
# ...
   788.8000      7.9121      2.6048      0.0429      2.7364     58.8359     19.8953
   788.9000      7.9121      2.5934      0.0571      3.4320     63.6586     19.7057
   789.0000      7.8744      2.5825      0.0590      4.0908     67.7324     19.0938
   789.1000      7.8744      2.5865      0.0287      3.8496     70.1039     18.5822
   789.2000      7.8744      2.5939      0.0722      3.4010     70.6091     18.6754
   789.3000      7.8722      2.5831      0.0347      4.0567     70.9148     19.1990
   789.4000      7.8722      2.5665     -0.0291      5.0604     71.3910     19.6742
   789.5000      7.9141      2.5625      0.0444      5.3033     71.1502     19.9796
   789.6000      7.9141      2.5600      0.0071      5.4542     71.3855     20.2500
   789.7000      7.9141      2.5486      0.0309      6.1437     71.7700     20.6199
   789.8000      7.9199      2.5355     -0.0005      6.9389     70.9042     20.8405
   789.9000      7.9199      2.5275      0.0300      7.4231     70.2300     20.4288
   790.0000      7.8952      2.5286     -0.0020      7.3567     72.2246     19.6152
   790.1000      7.8952      2.5402      0.0261      6.6550     77.0004     18.9279
   790.2000      7.8952      2.5545     -0.0102      5.7849     81.9701     18.6756
   790.3000      7.8994      2.5649      0.0752      5.1587     84.0243     19.0301
   790.4000      7.8994      2.5709      0.0444      4.7957     83.2319     19.8507
   790.5000      7.8993      2.5720      0.0525      4.7271     82.7799     20.7056
   790.6000      7.8993      2.5644      0.0301      5.1864     85.0087     21.1074
   790.7000      7.8993      2.5519     -0.0058      5.9466     87.1861     20.9300
   790.8000      7.8744      2.5379      0.0579      6.7916     87.1992     20.8204
   790.9000      7.8744      2.5205     -0.0068      7.8493     87.8559     21.0844
   791.0000      7.8784      2.5019      0.0017      8.9777     88.3104     21.3901
   791.1000      7.8784      2.4803     -0.0208     10.2855     85.1797     21.7121
   791.2000      7.8784      2.4580     -0.0174     11.6351     80.2722     21.9325
   791.3000      7.9055      2.4541     -0.0574     11.8730     78.7586     21.6770
   791.4000      7.9055      2.4763     -0.0130     10.5261     81.2811     21.0369
   791.5000      7.9245      2.5054      0.0389      8.7625     82.2467     20.5896
   791.6000      7.9245      2.5269      0.0001      7.4617     79.7856     20.7790
   791.7000      7.9245      2.5440      0.0116      6.4217     77.1077     21.1697
   791.8000      7.9266      2.5571      0.0313      5.6321     74.6720     21.1875
   791.9000      7.9266      2.5636      0.0434      5.2376     72.2910     21.0679
   792.0000      7.9127      2.5746      0.0038      4.5721     72.0275     21.2352
   792.1000      7.9127      2.5940      0.0751      3.3929     75.0216     21.4026
   792.2000      7.9127      2.6074      0.0814      2.5820     78.8964     21.1019
   792.3000      7.9073      2.6076      0.0488      2.5704     80.2794     21.0508
   792.4000      7.9073      2.5892      0.0705      3.6874     80.3653     22.1451
   792.5000      7.8825      2.5479     -0.0280      6.1873     81.1913     23.5753
   792.6000      7.8825      2.5045     -0.0018      8.8162     81.2129     23.9103
   792.7000      7.8825      2.4857     -0.0371      9.9572     80.2840     23.6465
   792.8000      7.8662      2.4941      0.0322      9.4468     81.9934     24.0846
   792.9000      7.8662      2.5084      0.0273      8.5822     85.3582     24.9317
   793.0000      7.8902      2.5154     -0.0022      8.1549     86.5421     25.3535
   793.1000      7.8902      2.5198     -0.0043      7.8898     87.4069     25.6318
   793.2000      7.8902      2.5237      0.0234      7.6553     90.1577     26.0781
   793.3000      7.9411      2.5232      0.0124      7.6838     91.2833     26.3571
   793.4000      7.9411      2.5145      0.0077      8.2102     85.3988     26.4521
   793.5000      7.9478      2.5005     -0.0140      9.0626     74.8824     26.4355
   793.6000      7.9478      2.4879     -0.0095      9.8258     69.6331     26.1665
   793.7000      7.9478      2.4828     -0.0392     10.1315     74.9673     25.7784
   793.8000      7.9307      2.4934     -0.0230      9.4939     84.3101     25.6926
   793.9000      7.9307      2.5092      0.0475      8.5342     87.1357     26.0425
   794.0000      7.9155      2.5091      0.0586      8.5398     82.4304     26.4270
   794.1000      7.9155      2.4936      0.0337      9.4780     77.7476     26.6545
   794.2000      7.9155      2.4756      0.0340     10.5709     77.4709     27.0088
   794.3000      7.9169      2.4533      0.0726     11.9222     80.3675     27.2224
   794.4000      7.9169      2.4109      0.0334     14.4912     84.6764     27.1160
   794.5000      7.8943      2.3532     -0.0345     17.9880     88.8372     27.4889
   794.6000      7.8943      2.3078     -0.0206     20.7392     92.3560     28.5664
   794.7000      7.8943      2.2833      0.0163     22.2234     93.2717     29.3334
   794.8000      7.8915      2.2682     -0.0270     23.1419     88.3496     29.1774
   794.9000      7.8915      2.2549     -0.0192     23.9463     80.0298     28.4860
   795.0000      7.8715      2.2420     -0.0016     24.7258     74.1355     27.6005
   795.1000      7.8715      2.2365      0.0236     25.0585     72.0851     26.8980
   795.2000      7.8715      2.2370      0.0625     25.0301     72.8962     26.9630
   795.3000      7.8749      2.2193      0.1095     26.1041     74.2605     27.8549
   795.4000      7.8749      2.1733      0.0640     28.8925     73.2627     28.7610
   795.5000      7.8851      2.1280      0.0005     31.6353     72.4890     29.6580
   795.6000      7.8851      2.1175      0.0113     32.2697     76.9527     30.9622
   795.7000      7.8851      2.1440     -0.0006     30.6644     84.0170     32.0733
   795.8000      7.8956      2.1839      0.0073     28.2466     87.2225     32.2330
   795.9000      7.8956      2.2195      0.0353     26.0911     86.6640     31.7759
   796.0000      7.9158      2.2511      0.0927     24.1764     85.9086     31.4327
   796.1000      7.9158      2.2865      0.0913     22.0321     86.7221     31.1101
   796.2000      7.9158      2.3369      0.0660     18.9737     88.6861     30.7483
   796.3000      7.9589      2.3980      0.1504     15.2714     91.0978     30.7065
   796.4000      7.9589      2.4409      0.1297     12.6741     94.4547     31.1131
   796.5000      7.9695      2.4506      0.0757     12.0871     97.0806     31.4655
   796.6000      7.9695      2.4427      0.0333     12.5646     97.1688     31.0748
   796.7000      7.9695      2.4389      0.0325     12.7967     97.1116     30.3908
   796.8000      8.0065      2.4451      0.0386     12.4155     97.0119     29.9777
   796.9000      8.0065      2.4537      0.0218     11.8996     95.9646     29.3403
   797.0000      7.9885      2.4561      0.0496     11.7535     96.7440     28.2279
   797.1000      7.9885      2.4500      0.0436     12.1230     97.0118     27.1529
   797.2000      7.9885      2.4447     -0.0325     12.4407     94.2632     26.6812
   797.3000      7.9903      2.4478      0.0282     12.2573     91.5943     26.7361
   797.4000      7.9903      2.4482      0.0276     12.2296     87.9595     26.5236
   797.5000      7.9736      2.4442     -0.0108     12.4744     81.8471     26.0813
   797.6000      7.9736      2.4524      0.0096     11.9771     78.5725     26.3668
   797.7000      7.9736      2.4802      0.0138     10.2898     80.2158     27.0867
   797.8000      7.9434      2.5068      0.0853      8.6780     81.5020     27.3235
   797.9000      7.9434      2.5094      0.0590      8.5184     79.0244     27.3154
   798.0000      7.9227      2.5004      0.0203      9.0660     75.0257     27.6893
   798.1000      7.9227      2.5013      0.0479      9.0136     73.4163     28.1664
   798.2000      7.9227      2.5117      0.0512      8.3800     72.2254     28.0511
   798.3000      7.9039      2.5248      0.0279      7.5900     68.2764     27.3214
