~Version Information
VERS.                      2.0: CWLS Log ASCII Standard - VERSION 2.0
WRAP.                       NO: One line per depth step
~Well Information Block
STRT.FT               962.7000: 
STOP.FT              2435.5000: 
STEP.FT                 0.1000: 
NULL.                -999.2500: 
COMP.          Petrogulf Corporation: COMPANY
WELL.              Hand 8-44 V: WELL
FLD.           Purgatorie River: FIELD
LOC.           1076' FEL & 820' FSL: LOCATION
CNTY.               Las Animas: COUNTY
SRVC.                         : SERVICE COMPANY
DATE.          Fri Nov 21 14:12:41 2003: LOG DATE
UWI.                          : UNIQUE WELL ID
STAT.                 Colorado: STATE
~Curve Information Block
DEPT.FT            0 000 00 00: Depth
DCAL.in                       : CDL Caliper
RHOB.g/cc                     : CDL Bulk Density
RHOC.g/cc                     : CDL Density Correction
DPOR.pu                       : CDL Density Porosity
GR.GAPI                       : Gamma Ray
NPOR.pu                       : Neutron Porosity
~Parameter Information Block
~A  Depth       DCAL        RHOB        RHOC        DPOR         GR         NPOR    
# ...
   981.9000   -999.2500   -999.2500   -999.2500   -999.2500     63.3862     50.7792
   982.0000   -999.2500   -999.2500   -999.2500   -999.2500     65.8108     50.9123
   982.1000   -999.2500   -999.2500   -999.2500   -999.2500     63.3482     50.7700
   982.2000   -999.2500   -999.2500   -999.2500   -999.2500     59.1735     50.5043
   982.3000   -999.2500   -999.2500   -999.2500   -999.2500     59.2988     50.4895
   982.4000   -999.2500   -999.2500   -999.2500   -999.2500     63.6330     50.7729
   982.5000   -999.2500   -999.2500   -999.2500   -999.2500     66.8467     51.2584
   982.6000   -999.2500   -999.2500   -999.2500   -999.2500     69.0446     51.6847
   982.7000   -999.2500   -999.2500   -999.2500   -999.2500     72.9100     51.8309
   982.8000   -999.2500   -999.2500   -999.2500   -999.2500     75.1957     51.7385
   982.9000   -999.2500   -999.2500     -0.7127   -999.2500     73.7859     51.4869
   983.0000      8.4669   -999.2500     -0.4960   -999.2500     73.3102     51.2894
   983.1000      8.4669   -999.2500     -0.6974   -999.2500     74.9279     51.0632
   983.2000      8.4669   -999.2500     -0.6852   -999.2500     72.2588     50.6677
   983.3000      8.4509   -999.2500     -0.5921   -999.2500     64.0350     50.3222
   983.4000      8.4509      1.5538     -0.5055     66.4335     57.7808     50.2039
   983.5000      8.4599      1.4440     -0.7980     73.0879     56.6556     50.6541
   983.6000      8.4599      1.3504     -0.8365     78.7615     57.8125     51.7059
   983.7000      8.4599      1.3216     -0.8148     80.5062     58.3690     52.3466
   983.8000      8.4930      1.3379     -0.8655     79.5226     57.1226     51.9589
   983.9000      8.4930      1.3629     -0.6784     78.0068     56.3391     51.3175
   984.0000      8.4823      1.3685     -0.7318     77.6675     56.6337     51.1722
   984.1000      8.4823      1.3568     -0.7929     78.3771     56.4351     51.5457
   984.2000      8.4823      1.3715     -0.8956     77.4854     54.9600     51.9698
   984.3000      8.4508      1.4465     -0.7765     72.9380     51.9944     51.9755
   984.4000      8.4508      1.5319     -0.5537     67.7633     47.8519     51.6456
   984.5000      8.4436      1.5619     -0.6696     65.9448     42.5056     51.2027
   984.6000      8.4436      1.5612     -0.6978     65.9854     37.3272     50.7047
   984.7000      8.4436      1.5881     -0.7497     64.3565     34.5239     50.2552
   984.8000      8.4563      1.6545     -0.7293     60.3310     34.5553     50.1448
   984.9000      8.4563      1.7390     -0.7646     55.2128     35.1611     50.3338
   985.0000      8.4469      1.8330     -0.6890     49.5124     34.5197     50.4336
   985.1000      8.4469      1.9576     -0.7307     41.9608     34.1927     50.4287
   985.2000      8.4469      2.1107     -0.5243     32.6824     35.7127     50.3914
   985.3000      8.4408      2.2258     -0.3818     25.7086     38.3056     50.0574
   985.4000      8.4408      2.2679     -0.4086     23.1568     41.4655     49.4552
   985.5000      8.4980      2.2946     -0.5987     21.5406     44.3241     49.1138
   985.6000      8.4980      2.3442     -0.3656     18.5328     45.1159     49.1833
   985.7000      8.4980      2.3818     -0.3891     16.2556     45.1736     49.2056
   985.8000      8.4552      2.3818     -0.3735     16.2546     47.4990     48.9142
   985.9000      8.4552      2.3557     -0.4205     17.8386     53.0093     48.6898
   986.0000      8.4646      2.3168     -0.4686     20.1920     62.7325     48.9369
   986.1000      8.4646      2.2882     -0.5746     21.9243     74.5911     49.4610
   986.2000      8.4646      2.3203     -0.6244     19.9796     81.1644     49.6921
   986.3000      8.4517      2.4196     -0.3461     13.9650     79.7820     49.3018
   986.4000      8.4517      2.5027     -0.2455      8.9251     75.5736     48.6056
   986.5000      8.4564      2.5024     -0.3500      8.9471     71.9176     48.1350
   986.6000      8.4564      2.4521     -0.4521     11.9938     68.0809     47.9402
   986.7000      8.4564      2.4142     -0.3576     14.2924     66.9464     47.7115
   986.8000      8.4570      2.3948     -0.4489     15.4656     72.3124     47.4808
   986.9000      8.4570      2.3707     -0.3742     16.9296     79.9983     47.5328
   987.0000      8.4546      2.3581     -0.5822     17.6932     82.3417     47.6964
   987.1000      8.4546      2.4003     -0.4203     15.1356     77.2780     47.4945
   987.2000      8.4546      2.4709     -0.3516     10.8555     69.4565     47.0734
   987.3000      8.4565      2.5101     -0.3284      8.4785     66.1919     46.8542
   987.4000      8.4565      2.5161     -0.4623      8.1127     67.8237     46.7128
   987.5000      8.4599      2.5049     -0.2807      8.7949     66.8136     46.4607
   987.6000      8.4599      2.4694     -0.4169     10.9437     63.8959     46.1592
   987.7000      8.4599      2.4160     -0.4124     14.1790     67.3873     45.8983
   987.8000      8.4589      2.3572     -0.4568     17.7463     76.1556     45.7929
   987.9000      8.4589      2.3052     -0.4961     20.8954     83.0478     45.8661
   988.0000      8.4606      2.2982     -0.5687     21.3222     82.9892     45.9939
   988.1000      8.4606      2.3463     -0.3584     18.4042     74.1819     46.0243
   988.2000      8.4606      2.3915     -0.3608     15.6675     62.9549     45.9699
   988.3000      8.4635      2.3950     -0.3911     15.4572     59.8061     45.9725
   988.4000      8.4635      2.3872     -0.4776     15.9295     67.1245     46.0973
   988.5000      8.4699      2.3985     -0.3430     15.2403     76.0179     46.3092
   988.6000      8.4699      2.4199     -0.4522     13.9436     77.4040     46.4914
   988.7000      8.4699      2.4414     -0.3946     12.6422     72.0286     46.5236
   988.8000      8.4653      2.4486     -0.4153     12.2048     69.6228     46.4372
   988.9000      8.4653      2.4372     -0.3552     12.8941     74.5777     46.5530
   989.0000      8.4682      2.4408     -0.4605     12.6795     78.1268     46.8644
   989.1000      8.4682      2.4672     -0.3109     11.0793     74.3979     46.8672
   989.2000      8.4682      2.4755     -0.3694     10.5773     69.3203     46.6477
   989.3000      8.4631      2.4633     -0.3966     11.3158     68.3931     46.7491
   989.4000      8.4631      2.4640     -0.3789     11.2743     70.7368     47.0549
   989.5000      8.4533      2.4838     -0.3638     10.0705     74.8296     47.1880
   989.6000      8.4533      2.4982     -0.3474      9.1991     78.4015     47.1752
   989.7000      8.4533      2.4843     -0.3260     10.0448     79.0229     47.1930
   989.8000      8.4609      2.4767     -0.4611     10.5023     76.3632     47.0692
   989.9000      8.4609      2.5385     -0.4537      6.7550     73.8083     46.5528
   990.0000      8.4639      2.6506     -0.3488     -0.0351     75.0191     45.8081
   990.1000      8.4639      2.7377     -0.2625     -5.3127     76.5919     45.3907
   990.2000      8.4639      2.7857     -0.2995     -8.2231     74.1693     45.4655
   990.3000      8.4583      2.8238     -0.2353    -10.5329     69.7976     45.5682
   990.4000      8.4583      2.8695     -0.3294    -13.3039     68.5241     45.5104
   990.5000      8.4586      2.9240     -0.2302    -16.6054     70.1716     45.5204
   990.6000      8.4586      2.9380     -0.2766    -17.4519     70.0392     45.6376
   990.7000      8.4586      2.8466     -0.4233    -11.9138     65.0552     45.6567
   990.8000      8.4564      2.6654     -0.3592     -0.9357     58.8706     45.3155
   990.9000      8.4564      2.4903     -0.5347      9.6772     56.2440     44.7447
   991.0000      8.4319      2.4098     -0.6123     14.5570     54.1112     44.3887
   991.1000      8.4319      2.4306     -0.5345     13.2992     50.7415     44.3627
   991.2000      8.4319      2.4830     -0.4056     10.1213     48.6993     44.5373
   991.3000      8.4604      2.5005     -0.3182      9.0622     48.3927     44.7909
   991.4000      8.4604      2.4863     -0.3390      9.9237     50.4372     45.0750
