~Version Information
VERS.                      2.0: CWLS Log ASCII Standard - VERSION 2.0
WRAP.                       NO: One line per depth step
~Well Information Block
STRT.FT                 5.0000: 
STOP.FT              1874.2500: 
STEP.FT                 0.2500: 
NULL.                -999.2500: 
COMP.          Pioneer Natural Resources: COMPANY
WELL.           Stampede 42-18: WELL
FLD.           Purgatoire River: FIELD
LOC.           2479' FNL & 160' FEL--: LOCATION
CNTY.               Las Animas: COUNTY
SRVC.          Superior Well Services: SERVICE COMPANY
DATE.          Mon Jun 25 12:19:16 2007: LOG DATE
UWI.                          : UNIQUE WELL ID
STAT.                 Colorado: STATE
~Curve Information Block
DEPT.FT            0 000 00 00: Depth
GR.GAPI                       : Gamma Ray
CCL.                          : Casing Collar Locator
TT3.usec                      : CBL 3' Travel Time
AMP3.mV                       : CBL 3' Amplitude
AMP5.mV                       : CBL 5' Amplitude
~Parameter Information Block
~A  Depth        GR         CCL         TT3         AMP3        AMP5    
# ...
   117.0000     93.8858      0.0000    705.0612      5.0442      4.2103
   117.2500     92.2624      0.0000    702.4417      4.9357      4.1750
   117.5000     90.1820      0.0000    697.6891      4.8115      4.1242
   117.7500     88.9902      0.0000    691.9644      4.6660      4.0684
   118.0000     89.0867      0.0000    688.0981      4.5058      4.0209
   118.2500     90.0306      0.0000    688.7853      4.3468      3.9910
   118.5000     91.5097      0.0000    694.4944      4.2061      3.9795
   118.7500     93.4149      0.0000    702.9069      4.0961      3.9826
   119.0000     95.2785      0.0000    710.6739      4.0207      3.9972
   119.2500     96.3065      0.0000    715.6417      3.9795      4.0208
   119.5000     95.9021      0.0000    717.2646      3.9752      4.0483
   119.7500     93.9698      0.0000    715.4191      4.0167      4.0713
   120.0000     91.0081      0.0000    709.6282      4.1074      4.0805
   120.2500     88.1286      0.0000    699.7165      4.2296      4.0669
   120.5000     86.6537      0.0000    686.9763      4.3439      4.0222
   120.7500     87.1681      0.0000    674.1636      4.4137      3.9417
   121.0000     88.8668      0.0000    664.0157      4.4356      3.8272
   121.2500     90.1048      0.0000    657.8143      4.4446      3.6893
   121.5000     89.7081      0.0000    655.3051      4.4917      3.5481
   121.7500     87.7573      0.0000    655.4360      4.6197      3.4287
   122.0000     85.2446      0.0000    656.9833      4.8511      3.3510
   122.2500     83.0345      0.0000    659.2368      5.1857      3.3202
   122.5000     81.0459      0.0000    662.8488      5.6031      3.3254
   122.7500     78.4432      0.0000    669.3296      6.0744      3.3435
   123.0000     74.7125      0.0000    678.1287      6.5804      3.3483
   123.2500     70.4592      0.0000    683.2753      7.1176      3.3227
   123.5000     67.2469      0.0000    673.7471      7.6749      3.2675
   123.7500     66.8614      0.0000    639.9924      8.1919      3.1936
   124.0000     70.3261      0.0000    583.3528      8.5502      3.1069
   124.2500     76.8964      0.0000    519.1726      8.6368      3.0066
   124.5000     83.9747      0.0000    467.4666      8.4384      2.8981
   124.7500     88.6339      0.0000    439.0800      8.0510      2.7988
   125.0000     89.8250      0.0000    432.2810      7.5835      2.7255
   125.2500     89.1467      0.0000    441.5181      7.0828      2.6782
   125.5000     89.1199      0.0000    464.5477      6.5652      2.6403
   125.7500     90.6847      0.0000    499.0801      6.0762      2.5933
   126.0000     92.6830      0.0000    536.9276      5.6864      2.5305
   126.2500     93.7288      0.0000    567.0709      5.4375      2.4559
   126.5000     93.9107     -2.2018    584.8193      5.3071      2.3776
   126.7500     94.3017      0.0000    593.7149      5.2349      2.3053
   127.0000     95.4349      0.0000    597.1625      5.1871      2.2486
   127.2500     96.8972      0.0000    592.1136      5.1926      2.2132
   127.5000     98.0108      0.0000    574.2350      5.3070      2.1971
   127.7500     98.2403      0.0000    546.7982      5.5342      2.1940
   128.0000     97.2361      0.0000    519.9716      5.7917      2.2006
   128.2500     95.1271      0.0000    501.3184      5.9565      2.2188
   128.5000     92.7177      0.0000    490.2562      5.9487      2.2520
   128.7500     91.0804      0.0000    482.1741      5.7742      2.3001
   129.0000     91.0033      0.0000    474.5219      5.4978      2.3571
   129.2500     92.6292      0.0000    466.7556      5.1865      2.4146
   129.5000     95.1960      0.0000    456.9057      4.8773      2.4675
   129.7500     97.3045      0.0000    442.3184      4.5842      2.5141
   130.0000     98.1396      0.0000    423.6869      4.3182      2.5521
   130.2500     98.5714      0.0000    405.2594      4.0927      2.5778
   130.5000    100.4402      0.0000    390.6836      3.9165      2.5896
   130.7500    104.5002      0.0000    380.4795      3.7877      2.5907
   131.0000    109.5763      0.0000    373.3855      3.6955      2.5880
   131.2500    113.9138      0.0000    368.1681      3.6286      2.5887
   131.5000    116.8382      0.0000    363.9815      3.5831      2.5963
   131.7500    118.9105      0.0000    360.4001      3.5616      2.6079
   132.0000    120.9062      0.0000    357.7719      3.5641      2.6167
   132.2500    123.0020      0.0000    357.0558      3.5818      2.6170
   132.5000    124.8598      0.0000    358.9782      3.5993      2.6089
   132.7500    126.1385      0.0000    363.7183      3.6067      2.5988
   133.0000    126.6730      0.0000    371.7138      3.6074      2.5935
   133.2500    126.3469      0.0000    384.0389      3.6105      2.5957
   133.5000    125.2050      0.0000    400.8299      3.6186      2.6054
   133.7500    123.5291      0.0000    419.4193      3.6223      2.6230
   134.0000    121.4798      0.0000    435.3433      3.6065      2.6479
   134.2500    118.9173      0.0000    445.7200      3.5619      2.6751
   134.5000    115.8777      0.0000    451.0029      3.4904      2.6954
   134.7500    113.0254      0.0000    454.0819      3.4015      2.7028
   135.0000    111.4360      0.0000    459.4003      3.3047      2.7017
   135.2500    111.8196      0.0000    471.7333      3.2051      2.7057
   135.5000    113.9348      0.0000    492.3512      3.1055      2.7271
   135.7500    116.8937      0.0000    515.6265      3.0092      2.7698
   136.0000    119.8682      0.0000    531.4370      2.9219      2.8310
   136.2500    122.0750      0.0000    531.9484      2.8500      2.9072
   136.5000    122.2376      0.0000    516.0454      2.7978      2.9951
   136.7500    119.0157      0.0000    488.6137      2.7702      3.0879
   137.0000    112.6415      0.0000    457.4270      2.7757      3.1736
   137.2500    105.7174      0.0000    429.8529      2.8228      3.2429
   137.5000    101.5234      0.0000    409.8058      2.9147      3.2987
   137.7500    101.3189      0.0000    396.5248      3.0497      3.3568
   138.0000    103.6371      0.0000    386.5587      3.2229      3.4337
   138.2500    106.2405      0.0000    377.0692      3.4205      3.5354
   138.5000    108.2955      0.0000    367.1619      3.6201      3.6552
   138.7500    110.4341      0.0000    356.9450      3.8011      3.7795
   139.0000    113.3221      0.0000    346.7110      3.9578      3.8941
   139.2500    116.8332      0.0000    337.1758      4.1013      3.9892
   139.5000    120.4407      0.0000    329.4946      4.2501      4.0649
   139.7500    123.9406      0.0000    324.4449      4.4213      4.1308
   140.0000    127.5519      0.0000    321.8108      4.6276      4.1988
   140.2500    131.1338      0.0000    320.7192      4.8720      4.2754
   140.5000    133.4882      0.0000    320.3752      5.1393      4.3596
   140.7500    133.1738      0.0000    320.4932      5.3965      4.4450
   141.0000    130.2271      0.0000    321.3338      5.6139      4.5216
   141.2500    126.5201      0.0000    323.4862      5.7861      4.5794
   141.5000    124.0656      0.0000    327.3631      5.9314      4.6146
   141.7500    123.3496      0.0000    332.5859      6.0705      4.6313
   142.0000    123.5381      0.0000    337.9539      6.2121      4.6374
   142.2500    123.7666      0.0000    342.3287      6.3540      4.6406
   142.5000    123.6630      0.0000    345.4154      6.4926      4.6482
   142.7500    123.0170      0.0000    347.4432      6.6262      4.6665
   143.0000    121.7507      0.0000    348.5754      6.7546      4.6985
   143.2500    120.3049      0.0000    349.2177      6.8811      4.7428
   143.5000    119.4999      0.0000    350.4698      7.0118      4.7948
   143.7500    119.6846      0.0000    353.6143      7.1482      4.8477
   144.0000    120.1777      0.0000    359.4079      7.2831      4.8956
   144.2500    119.8453      0.0000    368.2105      7.4098      4.9359
   144.5000    118.3885      0.0000    380.4159      7.5301      4.9685
   144.7500    116.9984      0.0000    396.2209      7.6466      4.9906
