~Version Information
VERS.                      2.0: CWLS Log ASCII Standard - VERSION 2.0
WRAP.                       NO: One line per depth step
~Well Information Block
STRT.FT                -3.2500: 
STOP.FT              1637.5000: 
STEP.FT                 0.2500: 
NULL.                -999.2500: 
COMP.          Pioneer Natural Resources: COMPANY
WELL.            Mad Dog 42-31: WELL
FLD.           Purgatorie River: FIELD
LOC.           2064' FNL & 479' FEL--: LOCATION
PROV.                       CO: PROVINCE
CNTY.               Las Animas: COUNTRY
SRVC.                         : SERVICE COMPANY
DATE.          Fri Oct 15 16:13:39 2004: LOG DATE
UWI.          005 071 08195   : UNIQUE WELL ID
~Curve Information Block
DEPT.FT            0 000 00 00: Depth
HVOLTA.V                      : Head Voltage Apparent
GR.GAPI                       : Gamma Ray
CCL.                          : Casing Collar Locator
TT3.usec                      : CBL 3' Travel Time
AMP3.mV                       : CBL 3' Amplitude
~Parameter Information Block
~A  Depth      HVOLTA        GR         CCL         TT3         AMP3    
# ...
  1508.7500     97.1016     99.9572      0.0000    503.0085      5.5013
  1509.0000     97.1087     99.1357      0.0000    504.9335      5.4729
  1509.2500     97.2688    100.4721      0.0000    507.3276      5.4334
  1509.5000     96.9403    103.4881      0.0000    510.2957      5.3808
  1509.7500     97.2485    106.2007      0.0000    516.0081      5.3116
  1510.0000     97.2378    107.0065      0.0000    528.3917      5.2261
  1510.2500     97.1183    105.6288      0.0000    550.5184      5.1364
  1510.5000     97.0670    102.7987      0.0000    580.1988      5.0652
  1510.7500     97.0801     99.7495      0.0000    608.0499      5.0278
  1511.0000     97.1051     97.8051      0.0000    622.8655      5.0175
  1511.2500     97.0766     97.7500      0.0000    621.5122      5.0219
  1511.5000     97.0812     99.2961      0.0000    612.7726      5.0442
  1511.7500     97.1565    101.2420      0.0000    609.5535      5.0917
  1512.0000     97.1829    102.3529      0.0000    617.7427      5.1540
  1512.2500     97.3273    102.3006      0.0000    633.9490      5.2153
  1512.5000     97.2724    101.6947      0.0000    652.4196      5.2811
  1512.7500     97.1971    101.0460      0.0000    670.9581      5.3693
  1513.0000     97.0120     99.9723      0.0000    689.9937      5.4744
  1513.2500     97.0502     97.7499      0.0000    708.8300      5.5551
  1513.5000     97.1829     94.4984      0.0000    724.7905      5.5643
  1513.7500     97.1565     91.6033      0.0000    735.2899      5.4883
  1514.0000     97.1483     90.9123      0.0000    739.0778      5.3616
  1514.2500     97.0848     93.2285      0.0000    734.9517      5.2417
  1514.5000     97.2449     97.3472      0.0000    720.1280      5.1647
  1514.7500     97.0227    100.7919      0.0000    691.7241      5.1230
  1515.0000     97.0980    101.8808      0.0000    651.6991      5.0769
  1515.2500     97.1219    101.1136      0.0000    610.5784      4.9862
  1515.5000     96.9714    100.2510      0.0000    584.4067      4.8385
  1515.7500     97.0192    100.2221      0.0000    585.6498      4.6559
  1516.0000     97.1219    100.5013      0.0000    615.1940      4.4769
  1516.2500     96.9785    100.3618      0.0000    661.6005      4.3274
  1516.5000     97.1219     99.8450      0.0000    707.6285      4.2077
  1516.7500     97.1829     99.1145      0.0000    738.9681      4.0978
  1517.0000     97.0909     97.5188      0.0000    749.9643      3.9698
  1517.2500     97.1051     94.2816      0.0000    744.6112      3.7980
  1517.5000     97.1458     90.1315      0.0000    733.2906      3.5720
  1517.7500     97.1230     87.3907      0.0000    726.5389      3.3079
  1518.0000     96.9510     88.0225      0.0000    729.3920      3.0408
  1518.2500     97.1147     91.7552      0.0000    740.4326      2.7949
  1518.5000     97.2342     96.1767      0.0000    754.8555      2.5633
  1518.7500     97.0156     98.7140      0.0000    766.9565      2.3201
  1519.0000     97.1123     98.6174      0.0000    770.9370      2.0488
  1519.2500     97.0395     96.9569      0.0000    763.2427      1.7596
  1519.5000     97.0944     95.0888      0.0000    746.2740      1.4848
  1519.7500     97.1230     93.8679      0.0000    728.4041      1.2584
  1520.0000     96.9988     93.9231      0.0000    718.9656      1.0964
  1520.2500     97.0527     95.5126      0.0000    723.3522      0.9931
  1520.5000     97.1326     97.9375      0.0000    741.3118      0.9326
  1520.7500     96.9714     99.7451      0.0000    766.7343      0.9008
  1521.0000     97.2342     99.7829      0.0000    789.3956      0.8884
  1521.2500     97.0670     98.0647      0.0000    801.1295      0.8859
  1521.5000     97.0299     95.6895      0.0000    802.5497      0.8808
  1521.7500     97.3238     94.0394      0.0000    801.6765      0.8618
  1522.0000     97.0634     94.1001      0.0000    804.2812      0.8269
  1522.2500     97.2927     96.2600      0.0000    807.4867      0.7819
  1522.5000     97.0227    100.1973      0.0000    804.2247      0.7331
  1522.7500     97.1183    104.8082      0.0000    791.5013      0.6848
  1523.0000     96.9607    108.6499      0.0000    771.8197      0.6455
  1523.2500     97.2414    110.7213      0.0000    748.9913      0.6288
  1523.5000     97.2449    110.8441      0.0000    726.3608      0.6408
  1523.7500     97.1494    109.4672      0.0000    708.1138      0.6724
  1524.0000     97.0598    107.2767      0.0000    698.5484      0.7099
  1524.2500     97.0741    104.8167      0.0000    698.9005      0.7521
  1524.5000     97.0944    102.1547      0.0000    705.7540      0.8106
  1524.7500     96.9464     98.9629      0.0000    713.3280      0.8961
  1525.0000     96.9917     95.0356      0.0000    717.7492      1.0096
  1525.2500     97.0741     90.5150      0.0000    719.1326      1.1518
  1525.5000     97.1757     85.6432      0.0000    719.5757      1.3374
  1525.7500     96.9093     80.8394      0.0000    720.2748      1.5807
  1526.0000     97.0812     77.1062      0.0000    721.4292      1.8548
  1526.2500     96.9714     75.7187     -2.0000    723.7710      2.0816
  1526.5000     97.1996     77.2636      2.0000    728.5128      2.1875
  1526.7500     96.9510     81.3870      0.0000    735.8128      2.1762
  1527.0000     97.1422     87.3898      0.0000    743.9118      2.1389
  1527.2500     97.1757     94.2609      0.0000    749.3908      2.1743
  1527.5000     96.9475    100.0726      0.0000    747.5111      2.2821
  1527.7500     97.2210    102.4479      0.0000    732.6154      2.3464
  1528.0000     97.1565    100.3259      0.0000    699.8051      2.2561
  1528.2500     96.9988     94.9533      0.0000    648.6407      2.0416
  1528.5000     97.1397     88.8338      0.0000    586.6774      1.8510
  1528.7500     97.0801     84.0348      0.0000    528.5230      1.7863
  1529.0000     97.0024     81.5259      0.0000    489.7979      1.8060
  1529.2500     97.1768     81.3256      0.0000    481.2505      1.7878
  1529.5000     97.1925     82.5917      0.0000    506.4283      1.6444
  1529.7500     97.2018     83.8657      0.0000    560.6107      1.3781
  1530.0000     97.1697     83.8067      0.0000    630.0956      1.0675
  1530.2500     97.1016     81.8391      0.0000    695.6806      0.8195
  1530.5000     97.1669     78.2251      0.0000    740.8934      0.7128
  1530.7500     96.1831     73.8253      0.0000    759.2422      0.7663
  1531.0000     97.0049     69.7322      0.0000    755.7357      0.9471
  1531.2500     97.0288     66.6110      0.0000    742.4713      1.1963
  1531.5000     97.2150     64.0644      0.0000    731.1546      1.4466
  1531.7500     97.0837     60.8894      2.0000    727.4670      1.6467
  1532.0000     97.2114     56.1772     -2.0000    731.0046      1.8108
  1532.2500     97.1469     50.0558     -2.0000    738.8026      2.0557
  1532.5000     97.1518     43.5671      0.0000    747.5785      2.5622
  1532.7500     97.1112     38.2532      2.0000    752.2114      3.4904
  1533.0000     97.0299     35.5379      0.0000    742.6713      4.9968
  1533.2500     96.9881     35.8575      0.0000    705.5275      7.4273
  1533.5000     96.9785     38.4362      0.0000    633.5854     11.3985
  1533.7500     97.2103     42.1855      0.0000    536.0345     17.3975
  1534.0000     96.9510     46.5628      0.0000    436.1053     25.1345
  1534.2500     97.2318     51.3430      0.0000    356.1516     33.4226
  1534.5000     97.1971     56.0541      0.0000    304.9663     40.8683
  1534.7500     97.1051     60.1552      0.0000    277.9926     46.7874
  1535.0000     97.0120     63.5532      0.0000    265.7592     51.5992
  1535.2500     97.1483     66.5046      0.0000    260.6340     56.3432
  1535.5000     97.0862     69.0150      0.0000    258.4751     61.6527
  1535.7500     97.2782     70.6164      0.0000    257.5060     67.1586
  1536.0000     96.7451     70.9569      0.0000    257.0583     71.8750
  1536.2500     97.7827     70.5056      0.0000    256.8675     74.9779
  1536.5000     97.1123     70.2251      0.0000    256.8145     76.1385
