~Version Information
 VERS.                                  2.0 : CWLS LAS VERSION
 WRAP.                                   NO : WRAPING MODE
 SWARE .                 MController 2.5.0I : SOFTWARE VERSION
~Well Information
 WELL.                                  N/A : WELL
 COMP.                                  N/A : COMPANY
 FLD.                                   N/A : FIELD
 LOC.                                   N/A : LOCATION
 DATE.                                  N/A : DATE(S) LOGGED
 SRVC.                                  N/A : SERVICE COMPANY
 STAT.                                  N/A : STATE
 CNTY.                                  N/A : COUNTY
 CTRY.                                  N/A : COUNTRY
 API.                                   N/A : API NUMBER
 STRT.FT                             801.00 : START DEPTH
 STOP.FT                            2405.00 : STOP DEPTH
 STEP.FT                               1.00 : DEPTH INCREMENT
 NULL.                                -9999 : NULL VALUE
~Curve information
 DEPTH.FT                                   :
 ROP.MIN/FT                                 :
 GAS.UNITS                                  :
~ASCII Log data
# ...
      2001.0          0.3         16.9 
      2002.0          0.3         18.1 
      2003.0          0.2         23.1 
      2004.0          0.3         28.6 
      2005.0          0.3         29.6 
      2006.0          0.3         28.2 
      2007.0          0.3         25.4 
      2008.0          0.4         22.9 
      2009.0          0.6         21.5 
      2010.0          0.5         21.5 
      2011.0          0.3         21.7 
      2012.0          4.5        108.8 
      2013.0          0.8         26.1 
      2014.0          0.5         34.0 
      2015.0          0.6         40.5 
      2016.0          0.9         40.6 
      2017.0          1.0         33.2 
      2018.0          0.5         21.7 
      2019.0          0.5         14.0 
      2020.0          0.4         14.8 
      2021.0          0.4         18.2 
      2022.0          0.5         19.8 
      2023.0          0.4         20.6 
      2024.0          0.3         20.6 
      2025.0          0.4         19.9 
      2026.0          0.4         20.0 
      2027.0          0.4         20.4 
      2028.0          0.4         19.5 
      2029.0          0.5         19.7 
      2030.0          0.3         19.4 
      2031.0          0.3         19.8 
      2032.0          0.3         19.9 
      2033.0          0.4         19.5 
      2034.0          0.3         19.1 
      2035.0          0.3         19.1 
      2036.0          0.4         19.7 
      2037.0          0.6         20.0 
      2038.0          0.5         19.9 
      2039.0          0.4         21.3 
      2040.0          0.4         21.3 
      2041.0          0.3         21.3 
      2042.0          4.9        126.2 
      2043.0          0.7         35.1 
      2044.0          0.3         22.5 
      2045.0          0.4         30.5 
      2046.0          0.6         38.4 
      2047.0          0.8         46.1 
      2048.0          1.0         45.0 
      2049.0          0.6         24.2 
      2050.0          0.5         16.9 
      2051.0          0.5         15.2 
      2052.0          0.4         17.6 
      2053.0          0.4         18.3 
      2054.0          0.4         18.5 
      2055.0          0.4         18.0 
      2056.0          0.4         18.1 
      2057.0          0.4         17.7 
      2058.0          0.2         17.9 
      2059.0          0.3         17.9 
      2060.0          0.5         17.9 
      2061.0          0.4         18.4 
      2062.0          0.2         20.0 
      2063.0          0.3         19.5 
      2064.0          0.3         18.8 
      2065.0          0.4         19.3 
      2066.0          0.4         19.3 
      2067.0          0.4         19.6 
      2068.0          0.5         19.2 
      2069.0          0.4         18.9 
      2070.0          0.4         18.0 
      2071.0          0.3         18.6 
      2072.0          4.6        193.6 
      2073.0          4.8         92.5 
      2074.0          0.7         13.7 
      2075.0          0.6         17.6 
      2076.0          0.7         18.7 
      2077.0          0.6         18.4 
      2078.0          0.7         17.0 
      2079.0          0.4         15.8 
      2080.0          0.2         16.4 
      2081.0          0.3         17.1 
      2082.0          0.3         17.3 
      2083.0          0.3         18.5 
      2084.0          0.3         19.1 
      2085.0          0.3         18.8 
      2086.0          0.4         17.7 
      2087.0          0.4         17.6 
      2088.0          0.3         17.3 
      2089.0          0.3         17.5 
      2090.0          0.2         17.0 
      2091.0          0.3         17.2 
      2092.0          0.4         19.2 
      2093.0          0.8         26.5 
      2094.0          0.6         26.5 
      2095.0          0.5         25.0 
      2096.0          0.5         24.5 
      2097.0          0.6         23.2 
      2098.0          0.2         20.8 
      2099.0          0.6         20.6 
      2100.0          0.9         24.7 
      2101.0          0.8         24.1 
      2102.0          4.4         64.5 
      2103.0          3.2         74.8 
      2104.0          1.3         41.3 
      2105.0          0.8         22.9 
      2106.0          0.8         22.9 
      2107.0          0.7         20.1 
      2108.0          0.7         18.0 
      2109.0          0.6         19.2 
      2110.0          0.5         18.8 
      2111.0          0.3         17.4 
      2112.0          0.5         17.0 
      2113.0          0.4         15.0 
      2114.0          0.3         14.4 
      2115.0          0.5         15.2 
      2116.0          0.4         17.1 
      2117.0          0.4         18.0 
      2118.0          0.4         18.1 
      2119.0          0.3         17.3 
      2120.0          0.3         16.7 
      2121.0          0.3         17.4 
      2122.0          0.3         18.2 
      2123.0          0.3         19.0 
      2124.0          0.2         19.7 
      2125.0          0.2         20.2 
      2126.0          0.2         21.1 
      2127.0          0.3         22.8 
      2128.0          0.4         25.3 
      2129.0          0.4         32.1 
      2130.0          0.5         32.7 
      2131.0          0.5         32.6 
      2132.0          8.9        131.4 
      2133.0          1.1         29.9 
      2134.0          0.4          9.8 
      2135.0          0.7         23.4 
      2136.0          0.6         28.9 
      2137.0          0.6         36.2 
      2138.0          0.6         36.0 
      2139.0          0.6         27.0 
      2140.0          0.5         19.0 
      2141.0          0.5         17.5 
      2142.0          0.2         18.2 
      2143.0          0.2         17.9 
      2144.0          0.1         17.6 
      2145.0          0.2         17.5 
      2146.0          0.3         16.6 
      2147.0          0.3         19.5 
      2148.0          0.4         23.4 
      2149.0          0.6         23.2 
      2150.0          0.5         17.9 
      2151.0          0.6         21.1 
      2152.0          0.9         33.1 
      2153.0          1.0         33.8 
      2154.0          0.9         25.7 
      2155.0          0.7         18.3 
      2156.0          0.6         15.3 
      2157.0          0.6         14.7 
      2158.0          0.3         15.6 
      2159.0          0.3         16.3 
      2160.0          0.3         16.6 
      2161.0          0.3         17.4 
      2162.0          6.2        139.6 
      2163.0          0.5         24.1 
      2164.0          0.7         42.8 
      2165.0          0.7         48.7 
      2166.0          0.3         49.2 
      2167.0          0.6         43.9 
      2168.0          0.6         27.6 
      2169.0          0.4         22.3 
      2170.0          0.5         21.9 
      2171.0          0.3         18.8 
      2172.0          0.5         22.6 
      2173.0          0.6         25.4 
      2174.0          0.9         29.2 
      2175.0          2.2         27.1 
      2176.0          0.7         18.4 
      2177.0          0.1          8.6 
      2178.0          0.5          9.8 
      2179.0          0.4         15.1 
      2180.0          0.4         19.9 
      2181.0          0.2         20.2 
      2182.0          0.4         21.1 
      2183.0          0.5         20.9 
      2184.0          0.5         19.3 
      2185.0          0.6         18.2 
      2186.0          0.5         17.4 
      2187.0          0.4         18.5 
      2188.0          0.4         19.3 
      2189.0          0.6         23.9 
      2190.0          0.4         28.9 
      2191.0          0.7         32.2 
      2192.0          0.4         31.5 
      2193.0          0.4         29.4 
      2194.0         10.8        117.3 
      2195.0          0.8         16.4 
      2196.0          0.3         13.4 
      2197.0          0.2         16.5 
      2198.0          0.3         19.2 
      2199.0          0.2         20.2 
      2200.0          0.1         21.1 
