~Version Information
VERS.                      2.0: CWLS Log ASCII Standard - VERSION 2.0
WRAP.                       NO: One line per depth step
~Well Information Block
STRT.FT                 8.7500: 
STOP.FT              2723.0000: 
STEP.FT                 0.2500: 
NULL.                -999.2500: 
COMP.          Pioneer Natural Resources: COMPANY
WELL.           Desoto 13-7 Tr: WELL
FLD.           Purgatoire River: FIELD
LOC.           1404' FSL & 1115' FWL: LOCATION
PROV.                 Colorado: PROVINCE
CNTY.               Las Animas: COUNTRY
SRVC.                Patterson: SERVICE COMPANY
DATE.          Wed Mar 16 18:00:51 2005: LOG DATE
UWI.           05 071 08216 00: UNIQUE WELL ID
~Curve Information Block
DEPT.FT            0 000 00 00: Depth
GR.GAPI                       : Gamma Ray
CCL.                          : Casing Collar Locator
TT3.usec                      : CBL 3' Travel Time
AMP3.mV                       : CBL 3' Amplitude
AMP5.mV                       : CBL 5' Amplitude
~Parameter Information Block
~A  Depth        GR         CCL         TT3         AMP3        AMP5    
# ...
  2528.7500    117.4119      0.0000    758.0594      1.0176      0.1571
  2529.0000    113.2886      0.0000    754.2333      0.9495      0.1458
  2529.2500    111.9578      0.0000    745.1714      0.8638      0.1323
  2529.5000    114.6753      0.0000    736.2367      0.7818      0.1232
  2529.7500    120.5186      0.0000    730.2326      0.7244      0.1231
  2530.0000    127.2660      0.0000    728.0303      0.7086      0.1320
  2530.2500    132.5688      0.0000    728.9211      0.7361      0.1449
  2530.5000    134.9895      0.0000    729.8531      0.7847      0.1543
  2530.7500    134.8761     -2.2998    726.4329      0.8200      0.1545
  2531.0000    134.0912      0.0000    716.1025      0.8213      0.1455
  2531.2500    134.2842      0.0000    699.8275      0.8043      0.1324
  2531.5000    135.4634      0.0000    680.5334      0.8134      0.1210
  2531.7500    136.5445      0.0000    661.0984      0.8793      0.1133
  2532.0000    137.0339      0.0000    643.9929      0.9807      0.1085
  2532.2500    137.6510      0.0000    631.1729      1.0607      0.1064
  2532.5000    139.3978      0.0000    623.2734      1.0901      0.1093
  2532.7500    142.5165      0.0000    619.3329      1.0964      0.1195
  2533.0000    146.3518      0.0000    617.6946      1.1240      0.1357
  2533.2500    149.7310      0.0000    617.0544      1.1813      0.1530
  2533.5000    151.4846      0.0000    616.7684      1.2387      0.1665
  2533.7500    151.1330      0.0000    616.6468      1.2658      0.1745
  2534.0000    149.4307      0.0000    616.7531      1.2582      0.1797
  2534.2500    148.0696      0.0000    617.4581      1.2322      0.1865
  2534.5000    148.4567      0.0000    619.6733      1.2050      0.1969
  2534.7500    150.5431      0.0000    624.8965      1.1833      0.2089
  2535.0000    152.8306      0.0000    634.5096      1.1664      0.2180
  2535.2500    153.6207      0.0000    648.3566      1.1520      0.2209
  2535.5000    152.3800      0.0000    663.9375      1.1364      0.2181
  2535.7500    150.0786      0.0000    677.5995      1.1154      0.2128
  2536.0000    148.3800      0.0000    686.8928      1.0881      0.2081
  2536.2500    148.4141      0.0000    691.7042      1.0588      0.2056
  2536.5000    149.9880      0.0000    693.3591      1.0339      0.2052
  2536.7500    151.6897      0.0000    693.1364      1.0198      0.2065
  2537.0000    151.8470      0.0000    691.5667      1.0217      0.2084
  2537.2500    149.7829      0.0000    688.6615      1.0416      0.2084
  2537.5000    146.3953      0.0000    684.5059      1.0760      0.2030
  2537.7500    143.6131      0.0000    679.6399      1.1167      0.1893
  2538.0000    143.1980      0.0000    675.0029      1.1558      0.1687
  2538.2500    145.5140      0.0000    671.6759      1.1907      0.1465
  2538.5000    149.1115      0.0000    670.5975      1.2244      0.1296
  2538.7500    151.8575      0.0000    672.1465      1.2606      0.1220
  2539.0000    152.6628      0.0000    675.8701      1.2988      0.1231
  2539.2500    151.9649      0.0000    680.6152      1.3371      0.1283
  2539.5000    150.9473      0.0000    684.7889      1.3754      0.1331
  2539.7500    150.8037      0.0000    686.7565      1.4143      0.1357
  2540.0000    152.4228      0.0000    685.6702      1.4507      0.1383
  2540.2500    155.9845      0.0000    682.0618      1.4778      0.1443
  2540.5000    160.5172      0.0000    677.3165      1.4889      0.1556
  2540.7500    164.1310      0.0000    672.4319      1.4799      0.1705
  2541.0000    165.1517      0.0000    667.2874      1.4507      0.1854
  2541.2500    163.2170      0.0000    660.9916      1.4063      0.1972
  2541.5000    159.1912      0.0000    653.0079      1.3565      0.2050
  2541.7500    154.2165      0.0000    644.1794      1.3115      0.2078
  2542.0000    149.2677      0.0000    636.4228      1.2742      0.2041
  2542.2500    145.5699      0.0000    631.1866      1.2368      0.1928
  2542.5000    144.8564      0.0000    628.7866      1.1885      0.1758
  2542.7500    148.4738      0.0000    629.7719      1.1306      0.1587
  2543.0000    155.7791      0.0000    636.4094      1.0900      0.1497
  2543.2500    163.6514      0.0000    651.7308      1.1206      0.1569
  2543.5000    168.2915      0.0000    676.4194      1.2920      0.1875
  2543.7500    167.9007      0.0000    706.7672      1.6749      0.2460
  2544.0000    163.7542      0.0000    736.5571      2.3341      0.3320
  2544.2500    158.9620      0.0000    761.3178      3.3453      0.4396
  2544.5000    156.3386      0.0000    779.6783      4.8364      0.5592
  2544.7500    156.8576      0.0000    789.7913      7.0166      0.6833
  2545.0000    159.4681      0.0000    785.3846     10.1332      0.8112
  2545.2500    162.2331      0.0000    756.9192     14.3252      0.9509
  2545.5000    163.5745      0.0000    698.3167     19.4415      1.1158
  2545.7500    162.5341      0.0000    614.3632     24.9557      1.3223
  2546.0000    158.7022      0.0000    521.6068     30.0648      1.5880
  2546.2500    152.7720      0.0000    440.4000     33.9318      1.9256
  2546.5000    146.9102      0.0000    385.4583     35.9403      2.3335
  2546.7500    143.6191      0.0000    363.9855     35.8614      2.7888
  2547.0000    143.7768      0.0000    379.7021     33.9011      3.2468
  2547.2500    145.8164      0.0000    433.3155     30.6199      3.6460
  2547.5000    146.8773      0.0000    516.7603     26.7335      3.9201
  2547.7500    145.0301      0.0000    610.3038     22.8787      4.0191
  2548.0000    140.7798      0.0000    690.7103     19.4617      3.9318
  2548.2500    136.5090      0.0000    744.4384     16.6463      3.6907
  2548.5000    134.4388      0.0000    772.5870     14.4444      3.3542
  2548.7500    135.0817      0.0000    784.7132     12.8299      2.9798
  2549.0000    137.3362      0.0000    790.2064     11.7992      2.6090
  2549.2500    139.4963      0.0000    793.9894     11.3471      2.2650
  2549.5000    140.2175      0.0000    795.8106     11.4066      1.9588
  2549.7500    139.2475      0.0000    790.5912     11.8261      1.6982
  2550.0000    137.7242      0.0000    770.3092     12.4016      1.4923
  2550.2500    137.4657      0.0000    729.3074     12.9299      1.3485
  2550.5000    139.4291      0.0000    672.2687     13.2580      1.2659
  2550.7500    142.5329      0.0000    618.4105     13.3187      1.2324
  2551.0000    143.8143      0.0000    593.2972     13.1341      1.2285
  2551.2500    139.9641      0.0000    610.3785     12.7827      1.2341
  2551.5000    129.4314      0.0000    659.5996     12.3507      1.2331
  2551.7500    113.7525      0.0000    716.5295     11.9010      1.2171
  2552.0000     97.0623      0.0000    761.7967     11.4607      1.1851
  2552.2500     83.8931      0.0000    789.9379     11.0255      1.1399
  2552.5000     76.7221      0.0000    803.6810     10.5763      1.0833
  2552.7500     75.2198      0.0000    806.1810     10.0995      1.0135
  2553.0000     77.5017      0.0000    799.5784      9.5978      0.9305
  2553.2500     81.5008      0.0000    787.4586      9.0895      0.8414
  2553.5000     85.2229      0.0000    776.0559      8.5985      0.7592
  2553.7500     86.9300      0.0000    771.7277      8.1413      0.6926
  2554.0000     86.0615      0.0000    776.4296      7.7189      0.6396
  2554.2500     83.8143      0.0000    785.8610      7.3195      0.5920
  2554.5000     82.5435      0.0000    792.6863      6.9291      0.5452
  2554.7500     84.5879      0.0000    791.7382      6.5420      0.5029
  2555.0000     91.1752      0.0000    782.9823      6.1660      0.4713
  2555.2500    101.6841      0.0000    770.8416      5.8182      0.4530
  2555.5000    113.8536      0.0000    760.7467      5.5178      0.4448
  2555.7500    125.0608      0.0000    755.8329      5.2777      0.4427
  2556.0000    133.6227      0.0000    756.7086      5.1043      0.4448
  2556.2500    139.2503      0.0000    763.0022      5.0029      0.4487
  2556.5000    142.7357      0.0000    773.3118      4.9835      0.4506
