~Version Information
 VERS.                                  2.0 : CWLS LAS VERSION
 WRAP.                                   NO : WRAPING MODE
 SWARE .                 MController 2.5.0J : SOFTWARE VERSION
~Well Information
 WELL.                      Barrelman 41-27 : WELL
 COMP.    Pioneer Natural Resources USA Inc : COMPANY
 FLD.                      Purgatoire River : FIELD
 LOC.                NE/NE Sec 27 T33S R65W : LOCATION
 DATE.                              5/20/05 : DATE(S) LOGGED
 SRVC.      Blanco Geological Services LLCD : SERVICE COMPANY
 STAT.                                   CO : STATE
 CNTY.                           Las Animas : COUNTY
 CTRY.                                  USA : COUNTRY
 API.                       05-071-08334-00 : API NUMBER
 STRT.FT                             253.00 : START DEPTH
 STOP.FT                             800.00 : STOP DEPTH
 STEP.FT                               1.00 : DEPTH INCREMENT
 NULL.                                -9999 : NULL VALUE
~Curve information
 DEPTH.FT                                   :
 ROP.MIN/FT                                 :
 GAS.UNITS                                  :
~ASCII Log data
       253.0     -9999.00          0.8 
       254.0         0.55          0.5 
       255.0         0.07          1.3 
       256.0         0.10          1.3 
       257.0         0.10          1.4 
       258.0         0.17          1.7 
       259.0         0.13          1.3 
       260.0         0.13          1.5 
       261.0         0.17          1.7 
       262.0         0.13          1.8 
       263.0         0.13          1.9 
       264.0         0.17          1.9 
       265.0         0.40          2.4 
       266.0         0.77          3.0 
       267.0         0.10          2.7 
       268.0         0.13          3.2 
       269.0         0.18          3.0 
       270.0         0.17          3.1 
       271.0         0.20          3.3 
       272.0         0.20          3.3 
       273.0         0.17          3.3 
       274.0         0.13          3.4 
       275.0         0.17          3.4 
       276.0         0.13          3.5 
       277.0         0.17          3.3 
       278.0         0.13          3.5 
       279.0         0.13          3.5 
       280.0         0.13          3.7 
       281.0         0.10          3.7 
       282.0         0.13          3.6 
       283.0         0.13          3.6 
       284.0         0.10          3.9 
       285.0         0.13          3.8 
       286.0         0.17          3.9 
       287.0         0.20          3.8 
       288.0         0.10          3.9 
       289.0         0.13          4.0 
       290.0         0.20          4.0 
       291.0         0.15          3.6 
       292.0         0.10          3.8 
       293.0         0.53          4.3 
       294.0         0.77          4.0 
       295.0         0.67          4.0 
       296.0         0.37          3.9 
       297.0         0.17          3.8 
       298.0         0.27          4.0 
       299.0         0.23          4.1 
       300.0         0.17          4.0 
       301.0         0.22          4.0 
       302.0         0.17          4.0 
       303.0         0.13          4.0 
       304.0         0.17          4.2 
       305.0         0.23          4.1 
       306.0         0.17          4.1 
       307.0         0.20          4.0 
       308.0         0.20          4.3 
       309.0         0.17          4.2 
       310.0         0.17          4.0 
       311.0         0.17          4.0 
       312.0         0.13          3.7 
       313.0         0.13          4.3 
       314.0         0.20          4.1 
       315.0         0.23          3.9 
       316.0         0.17          4.1 
       317.0         0.40          4.1 
       318.0         0.22          4.1 
       319.0         0.23          4.1 
       320.0         0.27          3.9 
       321.0         0.23          3.8 
       322.0         0.23          4.2 
       323.0         0.23          4.0 
       324.0         0.23          4.0 
       325.0         0.27          4.1 
       326.0         1.23          4.2 
       327.0         0.30          4.3 
       328.0         0.25          4.2 
       329.0         0.17          4.2 
       330.0         0.20          4.1 
       331.0         0.20          4.0 
       332.0         0.23          4.4 
       333.0         0.20          4.1 
       334.0         0.23          4.2 
       335.0         0.20          3.9 
       336.0         0.17          3.9 
       337.0         0.17          4.1 
       338.0         0.17          4.0 
       339.0         0.20          4.1 
       340.0         0.17          4.2 
       341.0         0.17          3.9 
       342.0         0.20          4.3 
       343.0         0.17          4.3 
       344.0         0.13          4.1 
       345.0         0.28          4.3 
       346.0         0.20          4.1 
       347.0         0.13          4.3 
       348.0         0.13          4.1 
       349.0         0.13          4.2 
       350.0         0.17          4.3 
       351.0         0.13          3.9 
       352.0         0.13          4.0 
       353.0         0.17          4.1 
       354.0         0.13          7.4 
       355.0         0.27         39.3 
       356.0         1.23         41.2 
       357.0         0.17          2.7 
       358.0         0.07          2.1 
       359.0         0.28          1.9 
       360.0         0.27          2.0 
       361.0         0.23          2.0 
       362.0         0.17          2.0 
       363.0         0.10          2.2 
       364.0         0.13          2.0 
       365.0         0.23          2.2 
       366.0         0.23          2.3 
       367.0         0.10          2.5 
       368.0         0.20          2.3 
       369.0         0.17          2.4 
       370.0         0.17          2.6 
       371.0         0.17          2.7 
       372.0         0.17          2.6 
       373.0         0.20          3.0 
       374.0         0.17          2.8 
       375.0         0.17          2.9 
       376.0         0.17          3.0 
       377.0         0.17          3.2 
       378.0         0.18          3.4 
       379.0         0.17          3.5 
       380.0         0.17          3.4 
       381.0         0.20          3.4 
       382.0         0.13          3.6 
       383.0         0.17          3.4 
       384.0         0.13          3.4 
       385.0         0.17          3.5 
       386.0         2.00          4.0 
       387.0         0.42          4.0 
       388.0         0.17          3.9 
       389.0         0.17          3.8 
       390.0         0.17          3.7 
       391.0         0.23          4.0 
       392.0         0.17          4.1 
       393.0         0.13          4.0 
       394.0         0.17          4.0 
       395.0         0.13          4.1 
       396.0         0.20          3.9 
       397.0         0.23          4.2 
       398.0         0.20          4.0 
       399.0         0.23          4.2 
       400.0         0.23          4.1 
       401.0         0.23          4.0 
       402.0         0.20          4.2 
       403.0         0.22          4.3 
       404.0         0.20          4.2 
       405.0         0.23          4.2 
       406.0         0.20          4.2 
       407.0         0.30          4.6 
       408.0         0.40         15.8 
       409.0         0.33         24.8 
       410.0         0.40         25.4 
       411.0         0.37         24.8 
       412.0         0.37         30.6 
       413.0         0.20         29.8 
       414.0         0.17         24.7 
       415.0         0.12         19.4 
       416.0         1.00         16.1 
       417.0         0.20         17.0 
       418.0         0.20         40.8 
       419.0         0.20         42.1 
       420.0         0.20         36.2 
       421.0         0.17         26.3 
       422.0         0.20         20.7 
       423.0         0.20         15.0 
       424.0         0.20         10.6 
       425.0         0.20          7.7 
       426.0         0.20          5.4 
       427.0         0.17          4.4 
       428.0         0.22          3.0 
       429.0         0.13          1.9 
       430.0         0.03          1.6 
       431.0         0.17          1.6 
       432.0         0.17          1.2 
       433.0         0.20          1.4 
       434.0         0.17          1.5 
       435.0         0.17          1.6 
       436.0         0.20          1.8 
       437.0         0.17          1.4 
       438.0         0.20          1.9 
       439.0         0.17          4.2 
       440.0         0.17          9.0 
       441.0         0.10         12.7 
       442.0         0.20         19.0 
       443.0         0.20         20.1 
       444.0         0.20         17.7 
       445.0         0.20         12.9 
       446.0         0.75          9.0 
       447.0         0.20          3.2 
       448.0         0.20          2.7 
       449.0         0.17          2.6 
       450.0         0.20          2.2 
       451.0         0.17          2.6 
       452.0         0.20          2.6 
