~Version Information
VERS.                      2.0: CWLS Log ASCII Standard - VERSION 2.0
WRAP.                       NO: One line per depth step
~Well Information Block
STRT.FT               858.7000: 
STOP.FT              2478.2000: 
STEP.FT                 0.1000: 
NULL.                -999.2500: 
COMP.          Petrogulf Corporation: COMPANY
WELL.           Torcom 17-33 V: WELL
FLD.           Purgatoire River: FIELD
LOC.           1544' FSL & 1746' FEL: LOCATION
PROV.                 Colorado: PROVINCE
CNTY.               Las Animas: COUNTRY
SRVC.                Patterson: SERVICE COMPANY
DATE.          Wed Dec 03 09:22:08 2003: LOG DATE
UWI.                          : UNIQUE WELL ID
~Curve Information Block
DEPT.FT            0 000 00 00: Depth
DCAL.in                       : CDL Caliper
RHOB.g/cc                     : CDL Bulk Density
RHOC.g/cc                     : CDL Density Correction
DPOR.pu                       : CDL Density Porosity
GR.GAPI                       : Gamma Ray
NPOR.pu                       : Neutron Porosity
~Parameter Information Block
~A  Depth       DCAL        RHOB        RHOC        DPOR         GR         NPOR    
# ...
  2145.1000      8.1506      2.5182      0.0704      7.9871     81.7152     17.1597
  2145.2000      8.1506      2.5202      0.0703      7.8662     78.4718     17.6669
  2145.3000      8.1495      2.5340      0.0191      7.0322     78.7513     18.1363
  2145.4000      8.1495      2.5563      0.1704      5.6800     82.0053     18.2366
  2145.5000      8.1468      2.5667      0.0818      5.0501     85.1461     18.0580
  2145.6000      8.1468      2.5825      0.1019      4.0920     84.6120     18.0478
  2145.7000      8.1468      2.6194      0.1726      1.8558     80.5810     18.6367
  2145.8000      8.1226      2.6528      0.1767     -0.1708     78.0916     19.6164
  2145.9000      8.1226      2.6638      0.1670     -0.8364     78.0700     20.1421
  2146.0000      8.1130      2.6525      0.1778     -0.1493     76.7696     20.0586
  2146.1000      8.1130      2.6241      0.1308      1.5706     74.7111     19.7370
  2146.2000      8.1130      2.5998      0.0839      3.0416     73.4098     19.2826
  2146.3000      8.1061      2.6006      0.0984      2.9918     72.5418     18.6339
  2146.4000      8.1061      2.6162      0.1107      2.0510     71.9798     18.0571
  2146.5000      8.1262      2.6299      0.0830      1.2180     72.1647     17.6655
  2146.6000      8.1262      2.6415      0.1579      0.5144     74.1121     17.1870
  2146.7000      8.1262      2.6429      0.1271      0.4304     75.3755     16.5719
  2146.8000      8.1503      2.6205      0.1082      1.7877     71.8891     16.0708
  2146.9000      8.1503      2.5852      0.0301      3.9245     65.2502     15.9752
  2147.0000      8.1486      2.5661      0.0554      5.0868     61.1793     16.2132
  2147.1000      8.1486      2.5716      0.0538      4.7517     61.8613     16.4686
  2147.2000      8.1486      2.5880      0.0774      3.7547     67.3513     16.5290
  2147.3000      8.1270      2.6034      0.1346      2.8213     74.7746     16.5658
  2147.4000      8.1270      2.6084      0.1326      2.5192     76.6172     16.7782
  2147.5000      8.1191      2.5954      0.1737      3.3064     74.5743     16.9768
  2147.6000      8.1191      2.5740      0.0546      4.6070     77.0149     16.7503
  2147.7000      8.1191      2.5708      0.0116      4.7980     83.4979     15.9603
  2147.8000      8.1092      2.5875      0.1105      3.7855     86.5569     15.1464
  2147.9000      8.1092      2.5935      0.1011      3.4253     81.9973     15.0482
  2148.0000      8.1304      2.5816      0.0889      4.1431     76.1040     15.6730
  2148.1000      8.1304      2.5683      0.0622      4.9523     75.6799     16.5694
  2148.2000      8.1304      2.5572      0.0751      5.6266     77.4243     17.4681
  2148.3000      8.1916      2.5453      0.0675      6.3453     77.0919     18.0456
  2148.4000      8.1916      2.5421      0.0473      6.5381     76.3864     18.1277
  2148.5000      8.1620      2.5552      0.0866      5.7454     78.8399     18.2402
  2148.6000      8.1620      2.5698      0.1374      4.8581     83.1286     18.8747
  2148.7000      8.1620      2.5731      0.0837      4.6591     83.0424     19.8780
  2148.8000      8.1614      2.5736      0.0727      4.6327     76.4546     21.0562
  2148.9000      8.1614      2.5824      0.0669      4.0947     69.8226     22.3114
  2149.0000      8.1443      2.6013      0.0752      2.9490     69.2714     23.3862
  2149.1000      8.1443      2.6160      0.0941      2.0610     73.1436     24.3893
  2149.2000      8.1443      2.6134      0.0935      2.2158     77.0077     25.6432
  2149.3000      8.1300      2.6067      0.0744      2.6248     78.1191     26.7022
  2149.4000      8.1300      2.6231      0.0868      1.6294     77.0138     27.1635
  2149.5000      8.1177      2.6752      0.1063     -1.5243     76.6975     27.4745
  2149.6000      8.1177      2.7445      0.1711     -5.7251     76.2058     27.8144
  2149.7000      8.1177      2.7941      0.2140     -8.7327     70.5333     27.7465
  2149.8000      8.1189      2.8105      0.1443     -9.7274     61.3547     26.9381
  2149.9000      8.1189      2.8088      0.1299     -9.6269     57.3037     25.6801
  2150.0000      8.1154      2.8013      0.1606     -9.1679     60.0662     24.7592
  2150.1000      8.1154      2.7891      0.1779     -8.4281     64.0858     24.2696
  2150.2000      8.1154      2.7777      0.0236     -7.7393     64.7522     23.2680
  2150.3000      8.1338      2.7742      0.0610     -7.5253     62.6718     21.3898
  2150.4000      8.1338      2.7624      0.0680     -6.8105     62.4028     19.5636
  2150.5000      8.1567      2.7321     -0.0190     -4.9770     66.1193     18.4414
  2150.6000      8.1567      2.7080     -0.0016     -3.5167     71.8227     17.7717
  2150.7000      8.1567      2.7083      0.1158     -3.5341     76.4669     17.4423
  2150.8000      8.1193      2.7167      0.1516     -4.0449     80.5403     17.5331
  2150.9000      8.1193      2.7083      0.1211     -3.5314     87.9648     17.6628
  2151.0000      8.1054      2.6773      0.1006     -1.6529     94.1431     17.6059
  2151.1000      8.1054      2.6433     -0.0159      0.4040     91.2346     17.4515
  2151.2000      8.1054      2.6306      0.0656      1.1739     83.0670     17.2682
  2151.3000      8.0883      2.6308      0.1516      1.1611     76.8609     17.3261
  2151.4000      8.0883      2.6237      0.0356      1.5961     73.4731     17.7332
  2151.5000      8.1491      2.6125      0.0450      2.2744     72.2820     18.0755
  2151.6000      8.1491      2.5979      0.0648      3.1555     77.4678     18.0583
  2151.7000      8.1491      2.5753      0.0566      4.5252     87.8342     17.9453
  2151.8000      8.1800      2.5577      0.0811      5.5949     95.9630     17.7435
  2151.9000      8.1800      2.5611      0.0624      5.3901     97.2681     17.3872
  2152.0000      8.1456      2.5717      0.1266      4.7457     93.2087     17.0465
  2152.1000      8.1456      2.5591      0.0849      5.5068     92.6609     17.0454
  2152.2000      8.1456      2.5199      0.0466      7.8838     97.3834     17.6989
  2152.3000      8.1458      2.4823      0.0377     10.1636    101.0919     18.5817
  2152.4000      8.1458      2.4700      0.0727     10.9064    105.9612     19.2227
  2152.5000      8.1773      2.4745      0.0859     10.6393    117.1222     19.5856
  2152.6000      8.1773      2.4790      0.0472     10.3657    131.1641     19.3594
  2152.7000      8.1773      2.4838      0.0556     10.0708    142.8985     18.6145
  2152.8000      8.2054      2.4922      0.0444      9.5640    149.5052     18.1185
  2152.9000      8.2054      2.4991      0.1297      9.1468    149.8488     18.2757
  2153.0000      8.1654      2.4943      0.1206      9.4361    143.6866     18.6663
  2153.1000      8.1654      2.4777      0.0880     10.4403    132.0970     18.7350
  2153.2000      8.1654      2.4572      0.1308     11.6858    123.9046     18.6733
  2153.3000      8.1799      2.4367      0.1012     12.9256    127.8413     19.1565
  2153.4000      8.1799      2.4235      0.0742     13.7292    139.4427     20.1205
  2153.5000      8.2616      2.4231      0.0854     13.7525    147.5809     20.9400
  2153.6000      8.2616      2.4315      0.1185     13.2446    149.2586     21.2260
  2153.7000      8.2616      2.4459      0.1465     12.3702    150.7082     21.0124
  2153.8000      8.2703      2.4658      0.1716     11.1652    156.2111     20.5573
  2153.9000      8.2703      2.4896      0.1549      9.7213    160.0995     19.9282
  2154.0000      8.3003      2.5232      0.2021      7.6836    157.5365     19.3608
  2154.1000      8.3003      2.5671      0.2455      5.0215    153.6268     19.1645
  2154.2000      8.3003      2.6068      0.2100      2.6194    150.6335     18.9510
  2154.3000      8.3296      2.6240      0.2647      1.5787    145.1092     17.8830
  2154.4000      8.3296      2.6175      0.2262      1.9691    137.2099     15.8046
  2154.5000      8.3596      2.6034      0.2389      2.8224    132.8125     13.4275
  2154.6000      8.3596      2.5871      0.2128      3.8148    132.7490     11.3832
