~Version Information
VERS.                      2.0: CWLS Log ASCII Standard - VERSION 2.0
WRAP.                       NO: One line per depth step
~Well Information Block
STRT.FT               580.0000: 
STOP.FT              1756.0000: 
STEP.FT                 0.1000: 
NULL.                -999.2500: 
COMP.          Pioneer Natural Resources: COMPANY
WELL.          Lookout Point 31-23 Tr: WELL
FLD.           Purgatoire River: FIELD
LOC.           541' FNL & 1768' FEL: LOCATION
PROV.                 Colorado: PROVINCE
CNTY.               Las Animas: COUNTRY
SRVC.                Patterson: SERVICE COMPANY
DATE.          Mon Jan 24 07:20:20 2005: LOG DATE
UWI.           05 071 08260 00: UNIQUE WELL ID
~Curve Information Block
DEPT.FT            0 000 00 00: Depth
DCAL.in                       : CDL Caliper
DPOR.pu                       : CDL Density Porosity
GR.GAPI                       : Gamma Ray
NPOR.pu                       : Neutron Porosity
RHOB.g/cc                     : CDL Bulk Density
RHOC.g/cc                     : CDL Density Correction
~Parameter Information Block
~A  Depth       DCAL        DPOR         GR         NPOR        RHOB        RHOC    
# ...
  1117.6000      7.9974     15.4132    108.7498     31.3591      2.3957      0.1331
  1117.7000      7.9974     17.7823    105.0458     31.9506      2.3566      0.0781
  1117.8000      7.9987     20.0735     96.5248     31.7992      2.3188      0.0230
  1117.9000      7.9987     20.3859     92.2633     31.8884      2.3136      0.0739
  1118.0000      8.0063     19.4458     96.4096     32.2483      2.3291      0.1440
  1118.1000      8.0063     19.3483    105.4749     32.4072      2.3308      0.0651
  1118.2000      8.0063     20.6106    114.7372     32.5447      2.3099      0.0649
  1118.3000      8.0136     22.4282    125.3023     32.7097      2.2799      0.0861
  1118.4000      8.0136     23.8874    135.0156     32.5643      2.2559      0.0680
  1118.5000      8.0038     24.5186    139.1963     31.9648      2.2454      0.0866
  1118.6000      8.0038     24.3777    139.5333     31.3697      2.2478      0.0592
  1118.7000      8.0038     23.7073    136.7213     31.4270      2.2588      0.0788
  1118.8000      7.9954     23.0506    127.7023     31.8573      2.2697      0.0984
  1118.9000      7.9954     22.8115    115.7397     31.8815      2.2736      0.0829
  1119.0000      8.0066     22.6498    108.7512     31.4640      2.2763      0.0686
  1119.1000      8.0066     21.9400    105.7510     30.9164      2.2880      0.0931
  1119.2000      8.0066     20.5838     97.5760     30.6608      2.3104      0.1382
  1119.3000      8.0295     19.7568     82.6492     31.1807      2.3240      0.1699
  1119.4000      8.0295     21.2800     72.0232     31.8801      2.2989      0.1143
  1119.5000      8.0438     25.9679     71.5100     31.9838      2.2215      0.0865
  1119.6000      8.0438     33.1603     75.2058     31.7474      2.1029      0.0297
  1119.7000      8.0438     41.2547     76.6358     31.9935      1.9693     -0.0322
  1119.8000      8.0484     48.6851     74.3527     32.7860      1.8467     -0.0593
  1119.9000      8.0484     54.2545     70.7694     33.3218      1.7548     -0.1333
  1120.0000      8.0609     57.2799     66.8511     33.5993      1.7049     -0.0879
  1120.1000      8.0609     58.0736     62.7127     34.0941      1.6918     -0.0750
  1120.2000      8.0609     56.9140     62.4355     34.2001      1.7109     -0.0477
  1120.3000      8.1242     53.5309     67.2839     33.2136      1.7667      0.0637
  1120.4000      8.1242     48.3176     72.0522     31.6653      1.8528      0.2009
  1120.5000      8.2517     42.3217     74.3704     30.1222      1.9517      0.2469
  1120.6000      8.2517     35.7391     75.4691     28.7539      2.0603      0.2510
  1120.7000      8.2517     28.3582     77.3876     28.0144      2.1821      0.2692
  1120.8000      8.2826     20.9315     81.4557     27.6489      2.3046      0.2654
  1120.9000      8.2826     14.9872     84.1771     26.7364      2.4027      0.2796
  1121.0000      8.1132     11.4228     83.1978     25.2492      2.4615      0.1876
  1121.1000      8.1132      9.6730     82.5914     23.7717      2.4904      0.1566
  1121.2000      8.1132      8.9681     83.9803     22.5510      2.5020      0.1318
  1121.3000      7.9550      8.6330     83.8957     21.5751      2.5076      0.0896
  1121.4000      7.9550      7.5296     83.6896     20.8535      2.5258      0.0651
  1121.5000      7.9090      5.6451     87.0095     20.2488      2.5569      0.1341
  1121.6000      7.9090      4.4911     91.9452     19.4437      2.5759      0.1231
  1121.7000      7.9090      4.5674     94.2200     18.5388      2.5746      0.0600
  1121.8000      7.9044      4.8231     92.9083     18.0247      2.5704      0.0493
  1121.9000      7.9044      4.6293     89.9158     18.2640      2.5736      0.0694
  1122.0000      7.9061      4.3290     87.4270     18.9245      2.5786      0.0508
  1122.1000      7.9061      4.1098     86.7591     19.1983      2.5822      0.0656
  1122.2000      7.9061      3.6409     87.5523     18.3676      2.5899      0.1037
  1122.3000      7.9167      2.6464     85.7945     16.8784      2.6063      0.0876
  1122.4000      7.9167      1.3296     80.2386     15.8486      2.6281      0.1111
  1122.5000      7.9297      0.4927     76.9220     15.2228      2.6419      0.1134
  1122.6000      7.9297      1.1889     78.3416     14.7386      2.6304      0.1160
  1122.7000      7.9297      3.4382     80.7365     14.6641      2.5933      0.0794
  1122.8000      7.9288      5.6810     80.9903     14.7381      2.5563      0.0296
  1122.9000      7.9288      6.9005     78.1702     14.6278      2.5361      0.0851
  1123.0000      7.9236      7.5632     74.4526     14.8277      2.5252      0.0445
  1123.1000      7.9236      7.9357     74.3218     15.7585      2.5191      0.0316
  1123.2000      7.9236      8.0625     77.1018     16.9305      2.5170      0.0528
  1123.3000      7.9176      8.3424     77.9110     17.5677      2.5124      0.0261
  1123.4000      7.9176      8.5841     75.6918     17.4781      2.5084      0.0329
  1123.5000      7.9133      8.0942     71.4562     16.7246      2.5164      0.0507
  1123.6000      7.9133      6.6659     66.7864     15.7968      2.5400      0.0426
  1123.7000      7.9133      4.8726     65.4581     15.6239      2.5696      0.0741
  1123.8000      7.9127      3.7829     68.2589     16.4637      2.5876      0.0939
  1123.9000      7.9127      3.8341     71.1370     17.4766      2.5867      0.0662
  1124.0000      7.9134      4.3856     71.3431     17.6173      2.5776      0.0501
  1124.1000      7.9134      4.7753     70.9511     16.9760      2.5712      0.0503
  1124.2000      7.9134      4.9008     73.1359     16.3338      2.5691      0.0851
  1124.3000      7.9120      5.1127     76.7658     16.0711      2.5656      0.0999
  1124.4000      7.9120      5.7322     76.9172     16.2013      2.5554      0.1074
  1124.5000      7.9093      6.3099     72.7485     16.5078      2.5459      0.0531
  1124.6000      7.9093      6.2152     68.1169     16.6794      2.5474      0.0462
  1124.7000      7.9093      5.5793     66.3882     16.8473      2.5579      0.0351
  1124.8000      7.9090      5.1802     68.6068     17.0854      2.5645      0.1112
  1124.9000      7.9090      5.7958     71.7294     16.8832      2.5544      0.0553
  1125.0000      7.9182      7.1625     72.6892     15.9568      2.5318      0.0492
  1125.1000      7.9182      8.3692     73.6452     14.9592      2.5119      0.0522
  1125.2000      7.9182      8.5598     76.8256     14.4871      2.5088      0.0261
  1125.3000      7.9263      7.3020     80.4892     14.3988      2.5295      0.0635
  1125.4000      7.9263      5.5488     80.0138     14.3462      2.5584      0.1271
  1125.5000      7.9196      4.9206     73.5338     14.0780      2.5688      0.1176
  1125.6000      7.9196      5.5224     64.6162     14.0281      2.5589      0.0841
  1125.7000      7.9196      6.4741     57.1779     14.7345      2.5432      0.1065
  1125.8000      7.9118      7.3946     53.2928     15.9628      2.5280      0.0828
  1125.9000      7.9118      7.9339     52.4758     16.9282      2.5191      0.0702
  1126.0000      7.9099      7.9631     51.7489     16.7752      2.5186      0.1085
  1126.1000      7.9099      7.8222     50.4683     15.8208      2.5209      0.0811
  1126.2000      7.9099      7.5812     50.5193     15.0632      2.5249      0.0772
  1126.3000      7.9080      7.3562     53.5613     14.5888      2.5286      0.0804
  1126.4000      7.9080      7.8606     57.2409     14.1726      2.5203      0.0907
  1126.5000      7.9065      9.5004     57.0651     13.7783      2.4932      0.0888
  1126.6000      7.9065     11.3932     53.3105     13.4523      2.4620      0.0153
  1126.7000      7.9065     12.0972     50.4752     13.5142      2.4504      0.0130
  1126.8000      7.9075     11.3396     50.8651     13.9223      2.4629      0.0491
  1126.9000      7.9075     10.4845     52.2463     14.0877      2.4770      0.0923
  1127.0000      7.9090     10.6413     50.8169     13.8956      2.4744      0.0413
  1127.1000      7.9090     10.9463     48.1927     13.7063      2.4694      0.0242
