~Version Information
VERS.                      2.0: CWLS Log ASCII Standard - VERSION 2.0
WRAP.                       NO: One line per depth step
~Well Information Block
STRT.FT               418.4000: 
STOP.FT              1170.0000: 
STEP.FT                 0.1000: 
NULL.                -999.2500: 
COMP.          Evergreen Operating Corporation: COMPANY
WELL.             Bernice 21-3: WELL
FLD.           Purgatoire River: FIELD
LOC.           201' FNL & 2575' FWL: LOCATION
PROV.                 Colorado: PROVINCE
CNTY.               Las Animas: COUNTRY
SRVC.                Patterson: SERVICE COMPANY
DATE.          Mon Jan 26 14:55:16 2004: LOG DATE
UWI.             05 071 07912 : UNIQUE WELL ID
~Curve Information Block
DEPT.FT            0 000 00 00: Depth
DCAL.in                       : CDL Caliper
RHOB.g/cc                     : CDL Bulk Density
RHOC.g/cc                     : CDL Density Correction
DPOR.pu                       : CDL Density Porosity
NPOR.pu                       : Neutron Porosity
GR.GAPI                       : Gamma Ray
~Parameter Information Block
~A  Depth       DCAL        RHOB        RHOC        DPOR        NPOR         GR     
# ...
   476.0000      8.3719      2.5094     -0.3012      8.5239     44.6438     97.5654
   476.1000      8.3719      2.5398     -0.2494      6.6786     44.8783     95.5973
   476.2000      8.3719      2.5711     -0.2974      4.7838     45.1786     98.1926
   476.3000      8.3704      2.6025     -0.2415      2.8814     45.5938     99.0921
   476.4000      8.3704      2.6204     -0.2281      1.7948     45.9396     98.3164
   476.5000      8.3499      2.6083     -0.2042      2.5282     45.8959     99.3426
   476.6000      8.3499      2.5767     -0.2709      4.4421     45.5878    101.5877
   476.7000      8.3499      2.5539     -0.2786      5.8221     45.3601    102.1018
   476.8000      8.3677      2.5481     -0.2708      6.1781     45.2085    102.8684
   476.9000      8.3677      2.5475     -0.2994      6.2108     45.1019    105.5424
   477.0000      8.3728      2.5492     -0.3218      6.1099     45.1466    106.7808
   477.1000      8.3728      2.5544     -0.2815      5.7937     45.3418    105.0730
   477.2000      8.3728      2.5599     -0.3064      5.4610     45.6441    102.0347
   477.3000      8.3674      2.5609     -0.2734      5.3996     46.0118     99.1364
   477.4000      8.3674      2.5532     -0.3192      5.8679     46.2845     95.8252
   477.5000      8.3640      2.5486     -0.3488      6.1443     46.3182     92.0185
   477.6000      8.3640      2.5597     -0.2899      5.4733     46.3009     91.3240
   477.7000      8.3640      2.5674     -0.2707      5.0078     46.5061     96.8922
   477.8000      8.4136      2.5497     -0.2947      6.0797     46.8960    105.5481
   477.9000      8.4136      2.5158     -0.3434      8.1353     47.2059    110.4116
   478.0000      8.3911      2.4968     -0.3624      9.2852     47.1394    109.4278
   478.1000      8.3911      2.5155     -0.3325      8.1515     46.7460    108.1626
   478.2000      8.3911      2.5560     -0.2862      5.6990     46.4643    110.4585
   478.3000      8.3832      2.5745     -0.2207      4.5755     46.4053    111.5983
   478.4000      8.3832      2.5604     -0.2971      5.4324     46.2659    106.5328
   478.5000      8.3856      2.5504     -0.3217      6.0384     46.0828    100.0380
   478.6000      8.3856      2.5572     -0.2643      5.6258     46.1051     99.6845
   478.7000      8.3856      2.5581     -0.2773      5.5725     46.1102    103.4692
   478.8000      8.3868      2.5504     -0.3223      6.0387     45.8527    105.4981
   478.9000      8.3868      2.5488     -0.3118      6.1352     45.6490    103.5329
   479.0000      8.3870      2.5598     -0.3399      5.4664     45.8849     97.8966
   479.1000      8.3870      2.5723     -0.2118      4.7112     46.4131     92.9531
   479.2000      8.3870      2.5651     -0.2839      5.1454     46.7040     94.8390
   479.3000      8.3810      2.5429     -0.3301      6.4893     46.6241    101.9221
   479.4000      8.3810      2.5298     -0.3174      7.2879     46.5490    107.6006
   479.5000      8.3658      2.5334     -0.3085      7.0690     46.7172    110.1943
   479.6000      8.3658      2.5441     -0.2782      6.4184     46.9386    111.1697
   479.7000      8.3658      2.5548     -0.3308      5.7724     46.9559    111.8912
   479.8000      8.3548      2.5629     -0.2927      5.2775     46.8264    112.6721
   479.9000      8.3548      2.5731     -0.3058      4.6634     46.7092    114.1238
   480.0000      8.3612      2.5952     -0.2664      3.3192     46.6887    117.0339
   480.1000      8.3612      2.6212     -0.2836      1.7478     46.7281    119.2632
   480.2000      8.3612      2.6438     -0.3014      0.3738     46.6919    119.7535
   480.3000      8.3603      2.6702     -0.2589     -1.2264     46.6497    118.5625
   480.4000      8.3603      2.6820     -0.2545     -1.9380     46.8637    114.4807
   480.5000      8.3604      2.6552     -0.2726     -0.3129     47.2998    108.6460
   480.6000      8.3604      2.6077     -0.3325      2.5632     47.4882    104.8371
   480.7000      8.3604      2.5771     -0.3185      4.4185     47.1601    101.9025
   480.8000      8.3518      2.5780     -0.3487      4.3621     46.5673     97.8558
   480.9000      8.3518      2.5984     -0.2984      3.1277     46.0209     97.3552
   481.0000      8.3468      2.6139     -0.2417      2.1865     45.7003    102.7077
   481.1000      8.3468      2.6158     -0.3263      2.0699     45.7706    108.5460
   481.2000      8.3468      2.6112     -0.2168      2.3508     46.1356    110.9703
   481.3000      8.3557      2.5952     -0.2598      3.3213     46.4260    111.5306
   481.4000      8.3557      2.5705     -0.2890      4.8168     46.3925    112.4027
   481.5000      8.3615      2.5542     -0.3224      5.8054     46.0725    113.1647
   481.6000      8.3615      2.5337     -0.2540      7.0456     45.4952    112.2942
   481.7000      8.3615      2.4556     -0.2389     11.7825     44.6250    111.9473
   481.8000      8.3531      2.3147     -0.4256     20.3201     43.3951    117.2298
   481.9000      8.3531      2.1940     -0.4952     27.6340     41.8674    126.7818
   482.0000      8.3493      2.1508     -0.4504     30.2539     40.3480    132.0673
   482.1000      8.3493      2.1597     -0.3932     29.7176     38.8405    130.9869
   482.2000      8.3493      2.1738     -0.3428     28.8630     36.9502    128.0519
   482.3000      8.3511      2.1641     -0.2562     29.4499     34.5447    126.3710
   482.4000      8.3511      2.1228     -0.2252     31.9508     32.0130    130.6623
   482.5000      8.3505      2.0657     -0.2036     35.4101     29.7769    142.7941
   482.6000      8.3505      2.0308     -0.1159     37.5244     28.1363    155.3830
   482.7000      8.3505      2.0560      0.0240     36.0015     27.3679    159.9055
   482.8000      8.3346      2.1398      0.2958     30.9190     27.2175    157.2542
   482.9000      8.3346      2.2431      0.4069     24.6581     27.2311    155.2194
   483.0000      8.2633      2.3281      0.4695     19.5113     27.6276    160.0700
   483.1000      8.2633      2.3756      0.4780     16.6293     28.5188    173.7650
   483.2000      8.2633      2.3748      0.4576     16.6779     29.2748    190.9421
   483.3000      8.2433      2.3116      0.4258     20.5079     29.2965    203.7498
   483.4000      8.2433      2.1755      0.3364     28.7564     28.6959    211.9194
   483.5000      8.2478      1.9767      0.2360     40.8089     27.9059    220.0687
   483.6000      8.2478      1.7534      0.0920     54.3369     27.1246    226.0841
   483.7000      8.2478      1.5653     -0.0073     65.7379     26.2786    225.4113
   483.8000      8.2811      1.4684     -0.0710     71.6139     25.1647    219.7310
   483.9000      8.2811      1.4966     -0.0477     69.9045     23.6821    210.2883
   484.0000      8.3274      1.6430      0.1444     61.0300     21.9488    197.7236
   484.1000      8.3274      1.8432      0.5149     48.8958     20.2003    189.8520
   484.2000      8.3274      2.0201      0.5986     38.1731     18.7379    196.1552
   484.3000      8.4057      2.1510      0.5576     30.2431     17.7378    210.4871
   484.4000      8.4057      2.2508      0.4957     24.1970     17.1436    217.7443
   484.5000      8.7795      2.3294      0.4459     19.4306     17.0715    217.8427
   484.6000      8.7795      2.3947      0.3033     15.4738     17.7360    217.2213
   484.7000      8.7795      2.4608      0.1944     11.4695     18.8505    211.9444
   484.8000      9.4439      2.5261      0.1804      7.5120     19.8800    203.1134
   484.9000      9.4439      2.5633      0.1561      5.2549     20.8295    202.2404
   485.0000     10.4727      2.5602      0.1206      5.4452     22.2123    208.6512
   485.1000     10.4727      2.5310      0.1300      7.2127     23.8812    210.8487
   485.2000     10.4727      2.4895      0.0564      9.7276     25.0070    205.6858
   485.3000     11.3298      2.4502      0.0011     12.1113     25.3797    199.4517
   485.4000     11.3298      2.4336     -0.0374     13.1170     25.5172    199.0651
   485.5000     11.4213      2.4492     -0.0229     12.1716     25.6396    202.2177
