~Version Information
VERS.                      2.0: CWLS Log ASCII Standard - VERSION 2.0
WRAP.                       NO: One line per depth step
~Well Information Block
STRT.FT                -9.5000: 
STOP.FT              2451.0000: 
STEP.FT                 0.2500: 
NULL.                -999.2500: 
COMP.          Petrogulf Corporation: COMPANY
WELL.           Vallejo 19-31V: WELL
FLD.           Purgatorie River: FIELD
LOC.           345' FNL & 2457' FEL: LOCATION
CNTY.               Las Animas: COUNTY
SRVC.                         : SERVICE COMPANY
DATE.          Mon Mar 08 08:24:37 2004: LOG DATE
UWI.           05-071-07919-00: UNIQUE WELL ID
STAT.                 Colorado: STATE
~Curve Information Block
DEPT.FT            0 000 00 00: Depth
MINMK.                        : Surface Line Tension
GR.GAPI                       : Gamma Ray
CCL.                          : Casing Collar Locator
TT3.usec                      : CBL 3' Travel Time
AMP3.mV                       : CBL 3' Amplitude
~Parameter Information Block
~A  Depth      MINMK         GR         CCL         TT3         AMP3    
# ...
  1782.5000      0.0000     65.3288      0.0000    660.6674      2.1347
  1782.7500      0.0000     63.0639      0.0000    653.2417      2.2037
  1783.0000      0.0000     63.5994      0.0000    645.6382      2.3099
  1783.2500      0.0000     68.4292      0.0000    638.8286      2.4429
  1783.5000      0.0000     77.3090      0.0000    634.9871      2.5894
  1783.7500      0.0000     88.3945      0.0000    634.7737      2.7398
  1784.0000      0.0000     98.9412      0.0000    638.3696      2.8781
  1784.2500      0.0000    106.2716      0.0000    644.9291      2.9848
  1784.5000      0.0000    108.9889      0.0000    649.0977      3.0594
  1784.7500      0.0000    107.5940      0.0000    645.1619      3.1203
  1785.0000      0.0000    103.6382      0.0000    635.5871      3.1836
  1785.2500      0.0000     98.3966      0.0000    630.4506      3.2643
  1785.5000      0.0000     92.6551      0.0000    635.2687      3.3786
  1785.7500      0.0000     87.2095      0.0000    642.2049      3.5292
  1786.0000      0.0000     82.8928      0.0000    636.4445      3.7137
  1786.2500      0.0000     80.3807      0.0000    607.2534      3.9740
  1786.5000      0.0000     80.4571      0.0000    556.7421      4.3937
  1786.7500      0.0000     84.1831      0.0000    505.5173      5.0226
  1787.0000      0.0000     92.3214      0.0000    473.1676      5.8512
  1787.2500      0.0000    104.4738      0.0000    449.3736      6.8560
  1787.5000      0.0000    119.0273      0.0000    414.7743      8.0619
  1787.7500      0.0000    134.0434      0.0000    376.1073      9.5714
  1788.0000      0.0000    148.0781      0.0000    349.1992     11.4615
  1788.2500      0.0000    160.1629      0.0000    334.8885     13.6151
  1788.5000      0.0000    169.3461      0.0000    326.7855     15.7497
  1788.7500      0.0000    174.8005      0.0000    320.7301     17.6768
  1789.0000      0.0000    176.7602      0.0000    314.8794     19.4312
  1789.2500      0.0000    177.1131      0.0000    309.8288     21.1281
  1789.5000      0.0000    178.5056      0.0000    307.0143     22.8489
  1789.7500      0.0000    182.9161      0.0000    306.4947     24.5461
  1790.0000      0.0000    191.3765      0.0000    307.2856     25.8766
  1790.2500      0.0000    204.3646      0.0000    308.0954     26.5003
  1790.5000      0.0000    221.5491      0.0000    308.0783     26.5891
  1790.7500      0.0000    241.4035      0.0000    307.6671     26.4986
  1791.0000      0.0000    261.5248      0.0000    307.8132     26.1910
  1791.2500      0.0000    278.9199      0.0000    308.6824     25.4319
  1791.5000      0.0000    290.0898      0.0000    309.7182     24.1964
  1791.7500      0.0000    291.8739      0.0000    310.6748     22.6548
  1792.0000      0.0000    282.8546      0.0000    312.3546     20.9777
  1792.2500      0.0000    264.0641      0.0000    316.3372     19.2906
  1792.5000      0.0000    238.9071      0.0000    323.4294     17.7204
  1792.7500      0.0000    212.5415      0.0000    331.8895     16.3644
  1793.0000      0.0000    190.1594      0.0000    338.4932     15.2714
  1793.2500      0.0000    174.6365      0.0000    341.8742     14.4320
  1793.5000      0.0000    165.5406      0.0000    343.0976     13.7030
  1793.7500      0.0000    160.4594      0.0000    343.4966     12.8901
  1794.0000      0.0000    157.2311      0.0000    343.6341     11.9469
  1794.2500      0.0000    154.9206      0.0000    343.7261     10.9904
  1794.5000      0.0000    153.0818      0.0000    344.0700     10.1652
  1794.7500      0.0000    150.9873      0.0000    345.3647      9.5302
  1795.0000      0.0000    148.0789      0.0000    348.8289      9.0308
  1795.2500      0.0000    144.5916      0.0000    355.5528      8.5814
  1795.5000      0.0000    141.0344      0.0000    367.9108      8.1823
  1795.7500      0.0000    137.3060      0.0000    393.5317      7.8856
  1796.0000      0.0000    132.6445      0.0000    438.0928      7.6435
  1796.2500      0.0000    126.0590      0.0000    492.9864      7.3182
  1796.5000      0.0000    116.7741      0.0000    547.7182      6.8624
  1796.7500      0.0000    105.1110      0.0000    600.3386      6.3759
  1797.0000      0.0000     93.2373      0.0000    642.5350      5.9576
  1797.2500      0.0000     84.3151      0.0000    664.2076      5.6051
  1797.5000      0.0000     80.3213      0.0000    669.8780      5.2741
  1797.7500      0.0000     80.7021      0.0000    671.0221      4.9563
  1798.0000      0.0000     83.0977      0.0000    671.9896      4.7199
  1798.2500      0.0000     85.1566      0.0000    669.4484      4.6595
  1798.5000      0.0000     85.8003      0.0000    661.3910      4.7689
  1798.7500      0.0000     85.2304      0.0000    652.6844      4.9471
  1799.0000      0.0000     84.0928      0.0000    650.5273      5.0917
  1799.2500      0.0000     82.6921      0.0000    657.2004      5.1365
  1799.5000      0.0000     80.9266      0.0000    668.8633      5.0895
  1799.7500      0.0000     79.0210      0.0000    680.4217      5.0137
  1800.0000      0.0000     78.1584      0.0000    688.4720      4.9399
  1800.2500      0.0000     79.7186      0.0000    691.3187      4.8406
  1800.5000      0.0000     83.4825      0.0000    689.0426      4.6880
  1800.7500      0.0000     87.2070      0.0000    683.3333      4.5138
  1801.0000      0.0000     88.6475      0.0000    677.2797      4.3898
  1801.2500      0.0000     87.6003      0.0000    673.2734      4.3503
  1801.5000      0.0000     85.4016      0.0000    671.4424      4.3490
  1801.7500      0.0000     83.1056      0.0000    670.9282      4.3092
  1802.0000      0.0000     80.9890      0.0000    671.0316      4.2134
  1802.2500      0.0000     79.2449      0.0000    671.4250      4.1050
  1802.5000      0.0000     78.0785      0.0000    671.9368      4.0190
  1802.7500      0.0000     77.1217      0.0000    672.0388      3.9612
  1803.0000      0.0000     75.4624      0.0000    671.2034      3.9089
  1803.2500      0.0000     72.4961      0.0000    669.8595      3.8278
  1803.5000      0.0000     68.5099      0.0000    669.3239      3.7189
  1803.7500      0.0000     64.3120      0.0000    670.2745      3.6092
  1804.0000      0.0000     60.4522      0.0000    670.3956      3.5224
  1804.2500      0.0000     57.0370      0.0000    664.3449      3.4746
  1804.5000      0.0000     54.3037      0.0000    649.8777      3.4473
  1804.7500      0.0000     52.9967      0.0000    633.5873      3.4408
  1805.0000      0.0000     53.9014      0.0000    625.6983      3.5718
  1805.2500      0.0000     57.1860      0.0000    629.6716      3.9497
  1805.5000      0.0000     62.5541      0.0000    639.7786      4.4590
  1805.7500      0.0000     69.9828      0.0000    647.4521      4.8752
  1806.0000      0.0000     79.9265      0.0000    646.2191      5.1538
  1806.2500      0.0000     92.5811      4.3420    628.9236      5.4098
  1806.5000      0.0000    107.0140      0.0000    590.0153      5.7362
  1806.7500      0.0000    121.2002      0.0000    537.7070      6.1495
  1807.0000      0.0000    133.1018      0.0000    488.2746      6.6490
  1807.2500      0.0000    142.0633      0.0000    446.7487      7.4034
  1807.5000      0.0000    149.3794      0.0000    409.1195      8.8846
  1807.7500      0.0000    157.1721      0.0000    374.6526     11.5252
  1808.0000      0.0000    166.4291      0.0000    347.3837     14.9191
  1808.2500      0.0000    176.3818      0.0000    329.6295     17.8719
  1808.5000      0.0000    185.5961      0.0000    318.7156     20.0152
  1808.7500      0.0000    192.8325      0.0000    310.9714     22.1958
  1809.0000      0.0000    196.8722      0.0000    303.6777     24.6422
  1809.2500      0.0000    196.7947      0.0000    294.6718     26.6153
  1809.5000      0.0000    193.2820      0.0000    284.5912     27.7862
  1809.7500      0.0000    188.8451      0.0000    276.6535     28.5312
  1810.0000      0.0000    185.7087      0.0000    272.4994     29.3281
  1810.2500      0.0000    183.7513      0.0000    270.9554     30.4596
