~Version Information
VERS.                      2.0: CWLS Log ASCII Standard - VERSION 2.0
WRAP.                       NO: One line per depth step
~Well Information Block
STRT.FT               819.0000: 
STOP.FT              2499.5000: 
STEP.FT                 0.2500: 
NULL.                -999.2500: 
COMP.          Petrogulf Corporation: COMPANY
WELL.             State 16-21V: WELL
FLD.           Purgatorie River: FIELD
LOC.           1738' FWL & 332' FWL: LOCATION
PROV.                 Colorado: PROVINCE
CNTY.               Las Animas: COUNTRY
SRVC.          Patterson Wireline: SERVICE COMPANY
DATE.          Sun Jul 13 13:34:36 2003: LOG DATE
UWI.           05 071 08829 00: UNIQUE WELL ID
~Curve Information Block
DEPT.FT            0 000 00 00: Depth
SP.mV                         : DIL Spontaneous Potential
RILD.Ohm-m                    : DIL Deep Resistivity
RILM.Ohm-m                    : DIL Medium Resistivity
RLL3.Ohm-m                    : DIL Shallow Resistivity
GR.GAPI                       : Gamma Ray
~Parameter Information Block
~A  Depth        SP         RILD        RILM        RLL3         GR     
# ...
  1603.0000   -107.2677     18.4456     19.5128     23.8950    112.8053
  1603.2500   -107.4090     18.6484     19.8486     27.0362    110.4304
  1603.5000   -107.4741     18.8496     20.2374     31.2278    104.9669
  1603.7500   -107.4515     19.0514     20.6601     35.4017    100.9139
  1604.0000   -107.3600     19.2584     21.0954     38.3688     95.5506
  1604.2500   -107.2383     19.4752     21.5209     39.4928     92.9436
  1604.5000   -107.1239     19.7051     21.9153     38.9197     90.6800
  1604.7500   -107.0325     19.9472     22.2603     37.3016     90.0023
  1605.0000   -106.9522     20.1920     22.5418     35.3560     89.5122
  1605.2500   -106.8590     20.4175     22.7520     33.5561     89.2734
  1605.5000   -106.7374     20.5922     22.8894     32.0936     89.2321
  1605.7500   -106.5904     20.6887     22.9603     31.1003     89.8103
  1606.0000   -106.4361     20.7025     22.9777     30.8534     91.8720
  1606.2500   -106.2943     20.6610     22.9612     31.6058     93.4828
  1606.5000   -106.1767     20.6128     22.9349     33.0946     94.5934
  1606.7500   -106.0814     20.6057     22.9260     34.3076     94.1566
  1607.0000   -105.9964     20.6695     22.9621     34.0228     93.3788
  1607.2500   -105.9087     20.8106     23.0688     31.8346     94.1603
  1607.5000   -105.8175     21.0177     23.2676     28.6913     97.8430
  1607.7500   -105.7402     21.2703     23.5734     26.3763    100.8711
  1608.0000   -105.7079     21.5423     23.9929     26.5417    103.6330
  1608.2500   -105.7500     21.8043     24.5221     30.3660    103.4093
  1608.5000   -105.8782     22.0243     25.1452     38.9674    100.0117
  1608.7500   -106.0752     22.1762     25.8328     53.4726     96.0828
  1609.0000   -106.2916     22.2517     26.5431     73.8031     88.2423
  1609.2500   -106.4595     22.2699     27.2247     97.0610     82.1764
  1609.5000   -106.5166     22.2734     27.8228    117.6940     73.4254
  1609.7500   -106.4307     22.3120     28.2881    130.0751     69.0671
  1610.0000   -106.2110     22.4228     28.5861    131.2928     66.2844
  1610.2500   -105.9046     22.6136     28.7031    121.8080     67.0283
  1610.5000   -105.5783     22.8575     28.6483    104.3551     71.0752
  1610.7500   -105.2907     23.0994     28.4489     82.8672     75.0776
  1611.0000   -105.0673     23.2727     28.1433     61.7694     82.4494
  1611.2500   -104.8907     23.3201     27.7722     44.8764     88.0279
  1611.5000   -104.7120     23.2081     27.3719     34.1137     96.4275
  1611.7500   -104.4765     22.9340     26.9703     29.1437    101.1978
  1612.0000   -104.1502     22.5233     26.5858     28.1427    105.8344
  1612.2500   -103.7310     22.0236     26.2274     28.9373    106.9290
  1612.5000   -103.2436     21.4927     25.8960     29.8429    106.0304
  1612.7500   -102.7267     20.9846     25.5856     30.0884    104.5257
  1613.0000   -102.2229     20.5359     25.2851     29.7906    102.3724
  1613.2500   -101.7718     20.1572     24.9787     29.4534    101.3699
  1613.5000   -101.4015     19.8344     24.6478     29.3726    100.2282
  1613.7500   -101.1191     19.5369     24.2719     29.5065     99.4647
  1614.0000   -100.9093     19.2301     23.8313     29.8396     98.2430
  1614.2500   -100.7445     18.8870     23.3098     30.6611     97.3538
  1614.5000   -100.6016     18.4948     22.6975     32.3058     95.5759
  1614.7500   -100.4685     18.0546     21.9939     34.5791     93.8557
  1615.0000   -100.3389     17.5758     21.2082     36.5248     90.5715
  1615.2500   -100.2057     17.0707     20.3592     36.9054     88.4922
  1615.5000   -100.0605     16.5503     19.4716     35.0443     87.1577
  1615.7500    -99.8990     16.0235     18.5731     31.2917     88.2413
  1616.0000    -99.7233     15.4993     17.6902     26.7484     92.8772
  1616.2500    -99.5421     14.9864     16.8455     22.5646     97.1187
  1616.5000    -99.3694     14.4924     16.0562     19.4037    103.1167
  1616.7500    -99.2236     14.0226     15.3335     17.3602    106.1659
  1617.0000    -99.1253     13.5805     14.6837     16.1888    110.0126
  1617.2500    -99.0940     13.1691     14.1082     15.5505    113.1998
  1617.5000    -99.1427     12.7911     13.6056     15.1443    119.8895
  1617.7500    -99.2726     12.4482     13.1717     14.7673    124.9649
  1618.0000    -99.4679     12.1402     12.8008     14.3496    131.2435
  1618.2500    -99.6922     11.8643     12.4861     13.9518    133.5930
  1618.5000    -99.8943     11.6153     12.2200     13.7099    134.1601
  1618.7500   -100.0263     11.3873     11.9949     13.7581    133.0113
  1619.0000   -100.0655     11.1769     11.8030     14.1526    130.0317
  1619.2500   -100.0222     10.9847     11.6371     14.8125    127.7357
  1619.5000    -99.9302     10.8148     11.4908     15.5073    124.4293
  1619.7500    -99.8270     10.6706     11.3585     15.9372    122.5778
  1620.0000    -99.7384     10.5515     11.2359     15.8990    120.9921
  1620.2500    -99.6756     10.4516     11.1197     15.4262    121.2655
  1620.5000    -99.6368     10.3618     11.0073     14.7673    124.2090
  1620.7500    -99.6115     10.2729     10.8971     14.2081    127.4741
  1621.0000    -99.5836     10.1785     10.7877     13.8972    132.4270
  1621.2500    -99.5388     10.0766     10.6778     13.8038    134.6158
  1621.5000    -99.4725      9.9680     10.5662     13.7927    135.6946
  1621.7500    -99.3962      9.8552     10.4517     13.7337    135.5669
  1622.0000    -99.3342      9.7403     10.3328     13.5783    135.4890
  1622.2500    -99.3130      9.6239     10.2084     13.3693    135.8135
  1622.5000    -99.3435      9.5039     10.0775     13.1872    136.5679
  1622.7500    -99.4095      9.3763      9.9395     13.0862    137.0034
  1623.0000    -99.4710      9.2364      9.7947     13.0728    137.1304
  1623.2500    -99.4841      9.0823      9.6439     13.1262    136.4797
  1623.5000    -99.4238      8.9172      9.4890     13.2148    133.9745
  1623.7500    -99.2965      8.7499      9.3329     13.2887    131.6048
  1624.0000    -99.1342      8.5923      9.1793     13.2752    128.4895
  1624.2500    -98.9745      8.4560      9.0325     13.1085    127.5785
  1624.5000    -98.8406      8.3487      8.8975     12.7820    128.4541
  1624.7500    -98.7350      8.2734      8.7790     12.3679    130.1303
  1625.0000    -98.6471      8.2286      8.6815     11.9727    133.1904
  1625.2500    -98.5671      8.2104      8.6085     11.6662    135.2873
  1625.5000    -98.4976      8.2127      8.5628     11.4536    138.7771
  1625.7500    -98.4569      8.2287      8.5457     11.3109    141.5249
  1626.0000    -98.4702      8.2515      8.5571     11.2481    145.8256
  1626.2500    -98.5560      8.2754      8.5951     11.3514    148.0550
  1626.5000    -98.7110      8.2973      8.6565     11.7663    148.8147
  1626.7500    -98.9039      8.3170      8.7364     12.5903    146.8878
  1627.0000    -99.0790      8.3362      8.8284     13.7151    140.5050
  1627.2500    -99.1770      8.3574      8.9254     14.7854    135.0711
  1627.5000    -99.1634      8.3822      9.0195     15.4121    128.0346
  1627.7500    -99.0452      8.4115      9.1031     15.4848    125.3772
  1628.0000    -98.8647      8.4448      9.1695     15.2384    125.0013
  1628.2500    -98.6732      8.4793      9.2130     14.9935    126.6834
  1628.5000    -98.5034      8.5096      9.2304     14.8798    130.5729
  1628.7500    -98.3550      8.5274      9.2199     14.8172    132.9879
  1629.0000    -98.1998      8.5246      9.1823     14.6768    134.8153
  1629.2500    -97.9980      8.4958      9.1198     14.3987    134.7678
  1629.5000    -97.7192      8.4404      9.0359     13.9923    134.4134
  1629.7500    -97.3562      8.3616      8.9349     13.4960    135.1446
  1630.0000    -96.9267      8.2639      8.8214     12.9620    138.0702
  1630.2500    -96.4654      8.1525      8.6997     12.4547    140.3122
  1630.5000    -96.0115      8.0326      8.5738     12.0337    141.9777
  1630.7500    -95.5998      7.9093      8.4469     11.7318    141.2962
