~Version Information
VERS.                      2.0: CWLS Log ASCII Standard - VERSION 2.0
WRAP.                       NO: One line per depth step
~Well Information Block
STRT.FT                -4.7500: 
STOP.FT              1784.7500: 
STEP.FT                 0.2500: 
NULL.                -999.2500: 
COMP.          Pioneer Natural Resources: COMPANY
WELL.          Buckeye 11-13 Tr: WELL
FLD.           Purgatorie River: FIELD
LOC.           211' FNL & 1054' FWL--: LOCATION
STAT.                       CO: State
CNTY.               Las Animas: COUNTY
CTRY. USA : Country
SECT. 13 : Section
TOWN. 33S : Township
RANG. 67W : range
SRVC.          Patterson Wireline: SERVICE COMPANY
DATE.          Wed Mar 16 09:19:21 2005: LOG DATE
API.           05 071 08317 00: UNIQUE WELL ID
~Curve Information Block
DEPT.FT            0 000 00 00: Depth
CCL.                          : Casing Collar Locator
TT3.usec                      : CBL 3' Travel Time
AMP3.mV                       : CBL 3' Amplitude
GR.GAPI                       : Gamma Ray
~Parameter Information Block
~A  Depth       CCL         TT3         AMP3         GR     
# ...
   330.2500      0.0000    265.5869     78.7795    126.3330
   330.5000      0.0000    265.5969     79.0486    130.0072
   330.7500      0.0000    265.6013     79.2913    132.1533
   331.0000      0.0000    265.5963     79.4394    132.5935
   331.2500      0.0000    265.5826     79.4559    131.6519
   331.5000      0.0000    265.5655     79.3467    130.0719
   331.7500      0.0000    265.5519     79.1397    128.6317
   332.0000      0.0000    265.5500     78.8637    127.6601
   332.2500      0.0000    265.5755     78.5342    126.9378
   332.5000      0.0000    265.6927     78.0908    125.8612
   332.7500      0.0000    266.0935     77.2751    123.6996
   333.0000      0.0000    267.1989     75.5703    120.1870
   333.2500      0.0000    269.5978     72.4650    116.0172
   333.5000      0.0000    273.6238     68.0111    112.2460
   333.7500      0.0000    278.7513     63.0666    109.1472
   334.0000      0.0000    283.4975     58.7046    106.1002
   334.2500      0.0000    286.2053     55.3964    102.6589
   334.5000      0.0000    286.1111     52.9936     99.3742
   334.7500      0.0000    283.7918     51.2959     97.3076
   335.0000      0.0000    280.6858     50.2553     96.7705
   335.2500      0.0000    278.1485     49.7487     96.9761
   335.5000      2.0000    276.8333     49.5175     97.2129
   335.7500      0.0000    276.8024     49.3655     97.8755
   336.0000      0.0000    277.8906     49.3778     99.8924
   336.2500      0.0000    279.6419     49.9986    103.5982
   336.5000      0.0000    280.9929     51.8348    108.4263
   336.7500      0.0000    280.5945     55.1806    113.1509
   337.0000      0.0000    277.9290     59.7077    116.1610
   337.2500      0.0000    273.9285     64.7244    116.2016
   337.5000      0.0000    270.1902     69.5906    113.3362
   337.7500      0.0000    267.7050     73.7865    108.9604
   338.0000      0.0000    266.4715     76.8860    104.8633
   338.2500      0.0000    265.9985     78.7468    102.5068
   338.5000      0.0000    265.8540     79.6264    102.7355
   338.7500      0.0000    265.8291     79.9723    105.3605
   339.0000      0.0000    265.8512     80.1250    108.9212
   339.2500      0.0000    265.8837     80.2152    111.3940
   339.5000      0.0000    265.8937     80.2477    111.6069
   339.7500      0.0000    265.8680     80.2081    110.0648
   340.0000      0.0000    265.8143     80.1129    108.2829
   340.2500      0.0000    265.7475     79.9978    107.2599
   340.5000      0.0000    265.6813     79.8932    106.6205
   340.7500      0.0000    265.6302     79.8123    105.1866
   341.0000      0.0000    265.6096     79.7583    102.0778
   341.2500      0.0000    265.6293     79.7387     97.3276
   341.5000      0.0000    265.6865     79.7653     91.9024
   341.7500      0.0000    265.7618     79.8398     87.1415
   342.0000      0.0000    265.8241     79.9538     83.7234
   342.2500      0.0000    265.8473     80.1231     81.1086
   342.5000      0.0000    265.8237     80.4278     78.2506
   342.7500      0.0000    265.7646     80.9987     74.7758
   343.0000      0.0000    265.6908     81.9262     71.2171
   343.2500      0.0000    265.6252     83.1496     68.1105
   343.5000      0.0000    265.5871     84.4424     65.2695
   343.7500      0.0000    265.5819     85.5427     62.3553
   344.0000      0.0000    265.5952     86.3168     60.0202
   344.2500      0.0000    265.6037     86.8001     59.7427
   344.5000      0.0000    265.5945     87.1032     62.2336
   344.7500      0.0000    265.5702     87.3100     66.5648
   345.0000      0.0000    265.5388     87.4563     71.1507
   345.2500      0.0000    265.5071     87.5590     75.0343
   345.5000      0.0000    265.4855     87.6355     77.9887
   345.7500      0.0000    265.4884     87.7038     80.1078
   346.0000      0.0000    265.5211     87.7776     81.9249
   346.2500      0.0000    265.5677     87.8599     84.4968
   346.5000      0.0000    265.6008     87.9367     88.6912
   346.7500      0.0000    265.6036     87.9809     94.4515
   347.0000      0.0000    265.5832     87.9684    101.0726
   347.2500      0.0000    265.5625     87.8901    107.9697
   347.5000      0.0000    265.5641     87.7564    114.7797
   347.7500      0.0000    265.5977     87.6006    120.7628
   348.0000      0.0000    265.6552     87.4742    124.6013
   348.2500      0.0000    265.7155     87.4212    125.1208
   348.5000      0.0000    265.7557     87.4556    122.1649
   348.7500      0.0000    265.7619     87.5628    116.6801
   349.0000      0.0000    265.7346     87.7118    110.0382
   349.2500      0.0000    265.6866     87.8570    103.3626
   349.5000      0.0000    265.6370     87.9407     97.3235
   349.7500      0.0000    265.6010     87.9149     92.1943
   350.0000      0.0000    265.5841     87.7695     87.8034
   350.2500      0.0000    265.5874     87.5420     83.4859
   350.5000      0.0000    265.6122     87.2986     78.5551
   350.7500      0.0000    265.6563     87.1034     73.1307
   351.0000      0.0000    265.7063     86.9939     68.2807
   351.2500      0.0000    265.7412     86.9687     65.0770
   351.5000      0.0000    265.7455     86.9912     63.6964
   351.7500      0.0000    265.7189     87.0102     63.6653
   352.0000      0.0000    265.6754     86.9838     64.8152
   352.2500      0.0000    265.6339     86.8916     67.6741
   352.5000      0.0000    265.6079     86.7338     72.9203
   352.7500      0.0000    265.5999     86.5341     80.5984
   353.0000      0.0000    265.6037     86.3349     89.7045
   353.2500      0.0000    265.6124     86.1684     98.3268
   353.5000      0.0000    265.6258     86.0224    104.5053
   353.7500      0.0000    265.6504     85.8522    107.5019
   354.0000      0.0000    265.6907     85.6336    108.1589
   354.2500      0.0000    265.7404     85.3948    107.7851
   354.5000      0.0000    265.7839     85.1889    107.0497
   354.7500      0.0000    265.8074     85.0508    106.1391
   355.0000      0.0000    265.8114     84.9869    105.2778
   355.2500      0.0000    265.8100     84.9873    104.7158
   355.5000      0.0000    265.8170     85.0365    104.6748
   355.7500      0.0000    265.8321     85.1250    105.4311
   356.0000      0.0000    265.8417     85.2595    107.0419
   356.2500      0.0000    265.8337     85.4496    109.0658
   356.5000      0.0000    265.8087     85.6740    110.9190
   356.7500      0.0000    265.7779     85.8733    112.3551
   357.0000      0.0000    265.7505     85.9887    113.2239
   357.2500      0.0000    265.7254     86.0060    113.0475
   357.5000      0.0000    265.6952     85.9607    111.4349
   357.7500      0.0000    265.6554     85.9122    108.8801
   358.0000      0.0000    265.6102     85.9157    106.5427
   358.2500      0.0000    265.5713     85.9943    105.0747
   358.5000      0.0000    265.5528     86.1215    104.1084
   358.7500      0.0000    265.5606     86.2418    103.0470
   359.0000      0.0000    265.5830     86.3216    101.8628
   359.2500      0.0000    265.5963     86.3732    100.8614
   359.5000      0.0000    265.5857     86.4284    100.0746
   359.7500      0.0000    265.5594     86.5004     99.4832
   360.0000      0.0000    265.5387     86.5743     99.7681
   360.2500      0.0000    265.5341     86.6257    102.1375
   360.5000      0.0000    265.5361     86.6365    106.9301
   360.7500      0.0000    265.5298     86.5959    112.7807
   361.0000      0.0000    265.5149     86.4934    117.7359
   361.2500      0.0000    265.5043     86.3253    121.1499
   361.5000      0.0000    265.5056     86.1139    124.0070
   361.7500      0.0000    265.5107     85.9112    127.2880
   362.0000      0.0000    265.5052     85.7709    130.5394
   362.2500      0.0000    265.4845     85.7150    132.5088
   362.5000      0.0000    265.4577     85.7263    132.8117
   362.7500      0.0000    265.4398     85.7699    132.2321
   363.0000      0.0000    265.4375     85.8167    131.4619
   363.2500      0.0000    265.4459     85.8501    130.2347
   363.5000      0.0000    265.4556     85.8580    127.9240
