~Version Information
VERS.                      2.0: CWLS Log ASCII Standard - VERSION 2.0
WRAP.                       NO: One line per depth step
~Well Information Block
STRT.FT               550.0000: 
STOP.FT              2042.5000: 
STEP.FT                 0.1000: 
NULL.                -999.2500: 
COMP.          Petrogulf Corporation: COMPANY
WELL.          Robinson 15-12V: WELL
FLD.           Purgatorie River: FIELD
LOC.           1788' FNL & 466' FWL: LOCATION
PROV.                 Colorado: PROVINCE
CNTY.               Las Animas: COUNTRY
SRVC.                Patterson: SERVICE COMPANY
DATE.          Mon Sep 12 10:04:59 2005: LOG DATE
UWI.                          : UNIQUE WELL ID
~Curve Information Block
DEPT.FT            0 000 00 00: Depth
DCAL.in                       : CDL Caliper
RHOB.g/cc                     : CDL Bulk Density
RHOC.g/cc                     : CDL Density Correction
DPOR.pu                       : CDL Density Porosity
GR.GAPI                       : Gamma Ray
NPOR.pu                       : Neutron Porosity
~Parameter Information Block
~A  Depth       DCAL        RHOB        RHOC        DPOR         GR         NPOR    
# ...
  1721.2000      7.9161      2.5615      0.0684      5.3664     84.0900     21.3044
  1721.3000      7.9049      2.5759      0.1059      4.4915     87.1144     20.8249
  1721.4000      7.9049      2.5764      0.0880      4.4633     85.3191     20.1180
  1721.5000      7.8740      2.5778      0.0988      4.3768     82.2999     19.2084
  1721.6000      7.8740      2.5924      0.1103      3.4913     80.7165     18.4822
  1721.7000      7.8740      2.6107      0.1120      2.3828     79.6155     17.9652
  1721.8000      7.8492      2.6229      0.1006      1.6429     78.2012     17.5258
  1721.9000      7.8492      2.6305      0.0780      1.1810     76.9437     17.5706
  1722.0000      7.8624      2.6298      0.1130      1.2254     77.4205     18.5023
  1722.1000      7.8624      2.6167      0.0815      2.0183     80.0804     19.8060
  1722.2000      7.8624      2.6021      0.0679      2.9057     82.7141     20.6139
  1722.3000      7.8921      2.5936      0.0310      3.4198     83.3693     20.8159
  1722.4000      7.8921      2.5868      0.0509      3.8311     80.9774     20.7933
  1722.5000      7.8965      2.5759      0.0512      4.4928     78.3569     20.7276
  1722.6000      7.8965      2.5588      0.0370      5.5272     79.6535     20.7962
  1722.7000      7.8965      2.5391      0.0127      6.7192     83.7049     21.2149
  1722.8000      7.8926      2.5232      0.0149      7.6836     87.1837     21.7113
  1722.9000      7.8926      2.5124      0.0338      8.3385     90.2794     21.7883
  1723.0000      7.8846      2.5022      0.0187      8.9555     94.4898     21.4626
  1723.1000      7.8846      2.4954      0.0111      9.3688     96.8936     21.2488
  1723.2000      7.8846      2.5016      0.0590      8.9912     96.1666     21.5547
  1723.3000      7.8830      2.5182      0.1005      7.9900     97.7493     22.2669
  1723.4000      7.8830      2.5313      0.0945      7.1938    102.4993     22.9804
  1723.5000      7.8957      2.5329      0.1036      7.0948    105.8100     23.5912
  1723.6000      7.8957      2.5260      0.0819      7.5129    107.2979     24.0485
  1723.7000      7.8957      2.5170      0.0931      8.0587    108.4672     24.2068
  1723.8000      7.9163      2.5079      0.0620      8.6116    106.7246     24.3194
  1723.9000      7.9163      2.4997      0.0524      9.1081    101.5761     24.4584
  1724.0000      7.9153      2.4958      0.0410      9.3467     98.7138     24.2575
  1724.1000      7.9153      2.4985      0.0321      9.1846     99.7447     23.8284
  1724.2000      7.9153      2.5036      0.0461      8.8701     99.0540     23.6160
  1724.3000      7.9141      2.5067      0.0188      8.6851     93.6972     23.7123
  1724.4000      7.9141      2.5124      0.0415      8.3384     88.0452     23.5579
  1724.5000      7.9378      2.5258      0.0367      7.5284     85.7531     22.8278
  1724.6000      7.9378      2.5451      0.0653      6.3560     85.3626     22.0272
  1724.7000      7.9378      2.5671      0.0523      5.0265     84.6573     21.5317
  1724.8000      7.9281      2.5881      0.1200      3.7532     82.2624     21.3518
  1724.9000      7.9281      2.6054      0.1394      2.7057     80.2733     21.4265
  1725.0000      7.8563      2.6240      0.1566      1.5742     80.3648     21.3459
  1725.1000      7.8563      2.6454      0.1632      0.2796     80.3363     20.8471
  1725.2000      7.8563      2.6491      0.2083      0.0525     79.7352     20.4528
  1725.3000      7.8137      2.6193      0.1059      1.8583     81.6844     20.6010
  1725.4000      7.8137      2.5795      0.0781      4.2701     85.7793     21.0414
  1725.5000      7.8353      2.5655      0.0534      5.1215     88.4728     21.3390
  1725.6000      7.8353      2.5824      0.0628      4.0958     88.7533     21.3453
  1725.7000      7.8353      2.6026      0.1138      2.8720     87.0144     21.3573
  1725.8000      7.8349      2.6019      0.0771      2.9140     84.7589     21.6297
  1725.9000      7.8349      2.5857      0.0814      3.8981     82.9940     21.9518
  1726.0000      7.8200      2.5679      0.0881      4.9763     81.8522     21.8092
  1726.1000      7.8200      2.5541      0.0723      5.8110     82.1454     21.1478
  1726.2000      7.8200      2.5539      0.0523      5.8233     84.0026     20.5832
  1726.3000      7.8173      2.5735      0.0864      4.6334     86.6809     20.2193
  1726.4000      7.8173      2.5952      0.1239      3.3209     89.2102     19.9114
  1726.5000      7.8188      2.5993      0.1024      3.0746     92.1251     19.7986
  1726.6000      7.8188      2.5875      0.1155      3.7895     93.9908     19.8692
  1726.7000      7.8188      2.5685      0.1012      4.9419     92.0000     19.9084
  1726.8000      7.8207      2.5532      0.0678      5.8655     88.5774     19.8556
  1726.9000      7.8207      2.5502      0.0588      6.0496     87.7514     19.9855
  1727.0000      7.8574      2.5511      0.0544      5.9929     88.7313     20.3012
  1727.1000      7.8574      2.5513      0.0332      5.9813     88.8532     20.3365
  1727.2000      7.8574      2.5612      0.0379      5.3812     88.8588     19.8553
  1727.3000      7.8795      2.5792      0.0451      4.2893     90.4119     19.3351
  1727.4000      7.8795      2.5860      0.0667      3.8807     92.6871     19.3856
  1727.5000      7.9007      2.5724      0.0724      4.7009     94.5388     19.7174
  1727.6000      7.9007      2.5524      0.0285      5.9158     94.5702     19.7084
  1727.7000      7.9007      2.5430      0.0576      6.4825     92.0722     19.2745
  1727.8000      7.8938      2.5429      0.0404      6.4894     89.5257     19.0093
  1727.9000      7.8938      2.5361      0.0416      6.9050     88.9784     19.5068
  1728.0000      7.8955      2.5217      0.0011      7.7765     89.7726     20.4637
  1728.1000      7.8955      2.5180      0.0531      7.9971     89.9142     21.0661
  1728.2000      7.8955      2.5305      0.0923      7.2413     87.4884     20.9186
  1728.3000      7.8898      2.5491      0.1041      6.1171     83.8367     20.1291
  1728.4000      7.8898      2.5646      0.0746      5.1759     82.4899     19.3735
  1728.5000      7.8969      2.5734      0.0584      4.6395     84.8043     19.5688
  1728.6000      7.8969      2.5773      0.0813      4.4076     89.3469     20.5631
  1728.7000      7.8969      2.5739      0.1106      4.6096     92.9251     21.5124
  1728.8000      7.9051      2.5620      0.0404      5.3335     93.1853     21.9488
  1728.9000      7.9051      2.5485      0.0599      6.1529     90.8449     21.6176
  1729.0000      7.9100      2.5406      0.0285      6.6298     88.9066     20.6983
  1729.1000      7.9100      2.5406      0.0435      6.6300     87.1432     20.0785
  1729.2000      7.9100      2.5409      0.0447      6.6113     82.6614     20.3264
  1729.3000      7.8906      2.5354      0.0449      6.9476     78.5749     20.9378
  1729.4000      7.8906      2.5253      0.0344      7.5602     79.9104     21.1500
  1729.5000      7.9112      2.5160      0.0219      8.1219     85.4046     20.9217
  1729.6000      7.9112      2.5113      0.0298      8.4073     90.6928     20.7593
  1729.7000      7.9112      2.5060      0.0291      8.7244     93.9818     20.8021
  1729.8000      7.8996      2.4970      0.0472      9.2732     96.8069     20.7452
  1729.9000      7.8996      2.4954     -0.0186      9.3674    100.2507     20.5419
  1730.0000      7.9014      2.5127      0.0329      8.3210    103.4570     20.5629
  1730.1000      7.9014      2.5387      0.0699      6.7438    104.3881     20.9104
  1730.2000      7.9014      2.5575      0.0486      5.6050    102.3380     21.2565
  1730.3000      7.9062      2.5640      0.0949      5.2118    101.1345     21.5930
  1730.4000      7.9062      2.5622      0.0855      5.3225    102.7492     21.8707
  1730.5000      7.8926      2.5592      0.1029      5.5009    103.1892     21.7498
  1730.6000      7.8926      2.5554      0.0969      5.7313    101.1717     21.4501
  1730.7000      7.8926      2.5501      0.0765      6.0529    100.1415     21.3156
