~Version Information
VERS.                      2.0: CWLS Log ASCII Standard - VERSION 2.0
WRAP.                       NO: One line per depth step
~Well Information Block
STRT.FT               300.0000: 
STOP.FT               871.2500: 
STEP.FT                 0.2500: 
NULL.                -999.2500: 
COMP.          Pioneer Natural Resources: COMPANY
WELL.            Hustler 12-17: WELL
FLD.           Purgatoire River: FIELD
LOC.           2150' FNL & 450' FWL: LOCATION
PROV.                 Colorado: PROVINCE
CNTY.               Las Animas: COUNTRY
SRVC.                Patterson: SERVICE COMPANY
DATE.          Mon Dec 20 09:25:34 2004: LOG DATE
UWI.           05 071 08236 00: UNIQUE WELL ID
~Curve Information Block
DEPT.FT            0 000 00 00: Depth
SN.Ohm-m                      : IEL Short Normal
SP.mV                         : IEL Spontaneous Potential
DIR.Ohm-m                     : IEL Induction Resistivity
GR.GAPI                       : Gamma Ray
~Parameter Information Block
~A  Depth        SN          SP         DIR          GR     
# ...
   635.0000    645.9807   -800.0005     22.4413    101.2218
   635.2500    645.9807   -800.0005     21.7281    104.9619
   635.5000    645.9807   -800.0005     21.0140    112.4367
   635.7500    645.9807   -800.0005     20.3420    117.5257
   636.0000    645.9807   -800.0005     19.7396    123.6238
   636.2500    645.9807   -800.0005     19.2239    126.4063
   636.5000    645.9807   -800.0005     18.8077    129.5504
   636.7500    645.9807   -800.0005     18.5019    131.6312
   637.0000    645.9807   -800.0005     18.3163    134.6010
   637.2500    645.9807   -800.0005     18.2582    135.5213
   637.5000    645.9807   -800.0005     18.3336    133.5677
   637.7500    645.9807   -800.0005     18.5458    129.8849
   638.0000    645.9807   -800.0005     18.8927    122.2839
   638.2500    645.9807   -800.0005     19.3598    117.1560
   638.5000    645.9807   -800.0005     19.9131    111.2062
   638.7500    645.9807   -800.0005     20.4967    108.9373
   639.0000    645.9807   -800.0005     21.0365    108.2558
   639.2500    645.9807   -800.0005     21.4514    109.4738
   639.5000    645.9807   -800.0005     21.6705    113.1771
   639.7500    645.9807   -800.0005     21.6512    116.2292
   640.0000    645.9807   -800.0005     21.3924    120.3844
   640.2500    645.9807   -800.0005     20.9399    122.5515
   640.5000    645.9807   -800.0005     20.3789    125.6626
   640.7500    645.9807   -800.0005     19.8120    128.4820
   641.0000    645.9807   -800.0005     19.3254    134.4776
   641.2500    645.9807   -800.0005     18.9586    139.0832
   641.5000    645.9807   -800.0005     18.6906    144.8117
   641.7500    645.9807   -800.0005     18.4559    146.8126
   642.0000    645.9807   -800.0005     18.1876    146.9985
   642.2500    645.9807   -800.0005     17.8591    146.0933
   642.5000    645.9807   -800.0005     17.4925    144.5633
   642.7500    645.9807   -800.0005     17.1281    143.4489
   643.0000    645.9807   -800.0005     16.7930    140.7493
   643.2500    645.9807   -800.0005     16.4962    138.0450
   643.5000    645.9807   -800.0005     16.2451    133.5145
   643.7500    645.9807   -800.0005     16.0609    131.0279
   644.0000    645.9807   -800.0005     15.9760    128.9102
   644.2500    645.9807   -800.0005     16.0131    128.3241
   644.5000    645.9807   -800.0005     16.1634    127.2169
   644.7500    645.9807   -800.0005     16.3754    125.3313
   645.0000    645.9807   -800.0005     16.5646    119.9857
   645.2500    645.9807   -800.0005     16.6477    115.2009
   645.5000    645.9807   -800.0005     16.5855    108.3937
   645.7500    645.9807   -800.0005     16.4053    105.6996
   646.0000    645.9807   -800.0005     16.1847    106.3381
   646.2500    645.9807   -800.0005     16.0108    109.8570
   646.5000    645.9807   -800.0005     15.9448    117.6412
   646.7500    645.9807   -800.0005     16.0026    122.6454
   647.0000    645.9807   -800.0005     16.1522    127.1546
   647.2500    645.9807   -800.0005     16.3274    127.4537
   647.5000    645.9807   -800.0005     16.4580    124.8005
   647.7500    645.9807   -800.0005     16.5085    122.6911
   648.0000    645.9807   -800.0005     16.4971    122.4285
   648.2500    645.9807   -800.0005     16.4783    125.2076
   648.5000    645.9807   -800.0005     16.5049    132.7921
   648.7500    645.9807   -800.0005     16.5982    138.4968
   649.0000    645.9807   -800.0005     16.7416    145.5877
   649.2500    645.9807   -800.0005     16.8930    148.8825
   649.5000    645.9807   -800.0005     17.0059    152.3462
   649.7500    645.9807   -800.0005     17.0445    154.1671
   650.0000    645.9807   -800.0005     16.9912    156.0278
   650.2500    645.9807   -800.0005     16.8481    156.1367
   650.5000    645.9807   -800.0005     16.6356    154.0564
   650.7500    645.9807   -800.0005     16.3910    151.4865
   651.0000    645.9807   -800.0005     16.1609    147.0973
   651.2500    645.9807   -800.0005     15.9936    144.5125
   651.5000    645.9807   -800.0005     15.9309    141.6516
   651.7500    645.9807   -800.0005     16.0028    140.2031
   652.0000    645.9807   -800.0005     16.2206    137.8987
   652.2500    645.9807   -800.0005     16.5703    135.9595
   652.5000    645.9807   -800.0005     17.0095    132.4989
   652.7500    645.9807   -800.0005     17.4740    129.9469
   653.0000    645.9807   -800.0005     17.8947    125.7346
   653.2500    645.9807   -800.0005     18.2205    122.7287
   653.5000    645.9807   -800.0005     18.4323    118.7815
   653.7500    645.9807   -800.0005     18.5447    117.4176
   654.0000    645.9807   -800.0005     18.5966    118.3567
   654.2500    645.9807   -800.0005     18.6363    120.7146
   654.5000    645.9807   -800.0005     18.7068    124.8870
   654.7500    645.9807   -800.0005     18.8332    126.6921
   655.0000    645.9807   -800.0005     19.0185    126.3908
   655.2500    645.9807   -800.0005     19.2514    124.1589
   655.5000    645.9807   -800.0005     19.5219    119.0975
   655.7500    645.9807   -800.0005     19.8349    115.6350
   656.0000    645.9807   -800.0005     20.2118    111.3098
   656.2500    645.9807   -800.0005     20.6793    108.8250
   656.5000    645.9807   -800.0005     21.2526    104.7479
   656.7500    645.9807   -800.0005     21.9212    101.5162
   657.0000    645.9807   -800.0005     22.6425     96.3854
   657.2500    645.9807   -800.0005     23.3453     93.3812
   657.5000    645.9807   -800.0005     23.9472     90.3700
   657.7500    645.9807   -800.0005     24.3810     89.5743
   658.0000    645.9807   -800.0005     24.6176     90.1182
   658.2500    645.9807   -800.0005     24.6712     91.4572
   658.5000    645.9807   -800.0005     24.5813     94.5742
   658.7500    645.9807   -800.0005     24.3848     97.1640
   659.0000    645.9807   -800.0005     24.0969    101.3094
   659.2500    645.9807   -800.0005     23.7174    103.8566
   659.5000    645.9807   -800.0005     23.2557    106.6459
   659.7500    645.9807   -800.0005     22.7527    107.5822
   660.0000    645.9807   -800.0005     22.2760    107.9393
   660.2500    645.9807   -800.0005     21.8890    108.1530
   660.5000    645.9807   -800.0005     21.6184    109.8658
   660.7500    645.9807   -800.0005     21.4404    112.3815
   661.0000    645.9807   -800.0005     21.2965    117.4717
   661.2500    645.9807   -800.0005     21.1344    120.4907
   661.5000    645.9807   -800.0005     20.9466    122.1428
   661.7500    645.9807   -800.0005     20.7765    120.7040
   662.0000    645.9807   -800.0005     20.6824    115.4751
   662.2500    645.9807   -800.0005     20.6940    111.0501
   662.5000    645.9807   -800.0005     20.7970    104.9104
   662.7500    645.9807   -800.0005     20.9592    101.8509
   663.0000    645.9807   -800.0005     21.1754     99.0968
   663.2500    645.9807   -800.0005     21.4879     98.2091
   663.5000    645.9807   -800.0005     21.9524     97.3818
   663.7500    645.9807   -800.0005     22.5675     96.5107
   664.0000    645.9807   -800.0005     23.2205     93.7798
   664.2500    645.9807   -800.0005     23.7061     90.9516
   664.5000    645.9807   -800.0005     23.8340     86.4816
   664.7500    645.9807   -800.0005     23.5501     84.6894
   665.0000    645.9807   -800.0005     22.9540     85.8100
   665.2500    645.9807   -800.0005     22.2115     89.4253
   665.5000    645.9807   -800.0005     21.4639     98.0255
   665.7500    645.9807   -800.0005     20.7945    104.7010
   666.0000    645.9807   -800.0005     20.2337    114.2338
   666.2500    645.9807   -800.0005     19.7767    119.5035
   666.5000    645.9807   -800.0005     19.4018    125.3687
   666.7500    645.9807   -800.0005     19.0896    128.3191
   667.0000    645.9807   -800.0005     18.8362    132.5837
   667.2500    645.9807   -800.0005     18.6551    135.6828
   667.5000    645.9807   -800.0005     18.5673    139.8314
   667.7500    645.9807   -800.0005     18.5889    141.3405
   668.0000    645.9807   -800.0005     18.7198    141.3109
   668.2500    645.9807   -800.0005     18.9379    140.5446
