~Version Information
VERS.                      2.0: CWLS Log ASCII Standard - VERSION 2.0
WRAP.                       NO: One line per depth step
~Well Information Block
STRT.FT               500.0000: 
STOP.FT              2732.5000: 
STEP.FT                 0.1000: 
NULL.                -999.2500: 
COMP.          Pioneer Natural Resources: COMPANY
WELL.          Dude Canyon 22-32: WELL
FLD.           Purgatoire River: FIELD
LOC.           1662' FNL & 2446' FWL----: LOCATION
PROV.                 Colorado: PROVINCE
CNTY.               Las Animas: COUNTRY
SRVC.                Patterson: SERVICE COMPANY
DATE.          Thu Mar 10 07:06:34 2005: LOG DATE
UWI.           05 071 08257 00: UNIQUE WELL ID
~Curve Information Block
DEPT.FT            0 000 00 00: Depth
GR.GAPI                       : Gamma Ray
DCAL.in                       : CDL Caliper
DPOR.pu                       : CDL Density Porosity
NPOR.pu                       : Neutron Porosity
RHOB.g/cc                     : CDL Bulk Density
RHOC.g/cc                     : CDL Density Correction
~Parameter Information Block
~A  Depth        GR         DCAL        DPOR        NPOR        RHOB        RHOC    
# ...
   797.6000    128.5207      8.0700      8.3352     25.3632      2.5125     -0.0133
   797.7000    125.0553      8.0700      9.3071     25.3621      2.4964      0.0258
   797.8000    127.3581      8.0698      8.7040     25.5490      2.5064      0.0143
   797.9000    130.2677      8.0698      7.4316     26.0504      2.5274      0.0457
   798.0000    131.8368      8.0702      6.2374     26.6510      2.5471      0.0085
   798.1000    136.1051      8.0702      5.4796     27.0064      2.5596      0.0423
   798.2000    140.4906      8.0702      5.2529     27.4237      2.5633      0.0495
   798.3000    138.7358      8.0720      5.0361     28.2566      2.5669      0.0413
   798.4000    131.6203      8.0720      4.6299     28.9803      2.5736      0.0691
   798.5000    125.6243      8.0795      4.5452     28.9466      2.5750      0.0762
   798.6000    124.5619      8.0795      4.5903     28.2857      2.5743      0.0256
   798.7000    127.5256      8.0795      4.2195     27.5901      2.5804      0.0474
   798.8000    131.7441      8.0904      3.3689     27.1621      2.5944      0.0465
   798.9000    133.0338      8.0904      1.8647     26.8499      2.6192      0.0690
   799.0000    130.0744      8.0957      0.1428     26.4643      2.6476      0.0930
   799.1000    128.8251      8.0957     -0.4560     25.9267      2.6575      0.0924
   799.2000    133.3338      8.0957      0.5427     25.2932      2.6410      0.0622
   799.3000    137.9335      8.0976      2.5113     24.8681      2.6086      0.0691
   799.4000    136.2910      8.0976      4.3797     24.8549      2.5777      0.0347
   799.5000    131.9308      8.1007      5.2390     25.0606      2.5636      0.0038
   799.6000    130.5354      8.1007      5.1818     25.2791      2.5645      0.0352
   799.7000    130.5794      8.1007      4.7542     25.4553      2.5716      0.0258
   799.8000    130.9758      8.1022      4.2305     25.6058      2.5802      0.0324
   799.9000    134.7821      8.1022      3.4334     25.6941      2.5933      0.0163
   800.0000    140.5539      8.1013      1.4744     25.7266      2.6257      0.0005
   800.1000    140.6719      8.1013     -1.3074     25.7994      2.6716      0.0915
   800.2000    131.1437      8.1013     -2.5975     25.9916      2.6929      0.1177
   800.3000    118.9466      8.1005     -1.8329     26.3717      2.6802      0.0333
   800.4000    113.1597      8.1005     -0.8818     26.8260      2.6645      0.0712
   800.5000    115.7154      8.1008     -0.6521     26.8807      2.6608      0.0647
   800.6000    123.2298      8.1008     -1.1550     26.5275      2.6691      0.0344
   800.7000    130.0973      8.1008     -1.9816     26.5436      2.6827      0.0433
   800.8000    134.9487      8.1002     -1.6330     27.1274      2.6769      0.0585
   800.9000    140.8946      8.1002      0.3518     27.7391      2.6442      0.0081
   801.0000    146.4404      8.0983      2.4393     28.0033      2.6098     -0.0109
   801.1000    146.4961      8.0983      3.2057     27.9720      2.5971      0.0393
   801.2000    141.3908      8.0983      2.1554     27.6788      2.6144     -0.0014
   801.3000    134.6807      8.0965      0.2029     27.0025      2.6467      0.1073
   801.4000    129.5919      8.0965     -0.4703     26.3938      2.6578      0.0608
   801.5000    128.6442      8.0924      0.7728     26.3635      2.6372      0.0451
   801.6000    129.2168      8.0924      2.2701     26.7057      2.6125      0.0103
   801.7000    129.1636      8.0924      2.3530     26.9127      2.6112      0.0215
   801.8000    130.0267      8.0878      1.1694     26.7984      2.6307      0.0390
   801.9000    130.7230      8.0878      0.2726     26.6672      2.6455      0.0546
   802.0000    130.3146      8.0861      1.0647     26.8382      2.6324      0.0260
   802.1000    129.6536      8.0861      3.4100     27.1306      2.5937      0.0156
   802.2000    128.6994      8.0861      5.8419     27.1637      2.5536      0.0027
   802.3000    129.5520      8.0865      7.0724     27.1173      2.5333     -0.0112
   802.4000    133.0180      8.0865      6.9518     27.3185      2.5353      0.0257
   802.5000    136.2848      8.0872      5.9581     27.4319      2.5517      0.0095
   802.6000    138.4728      8.0872      4.0766     27.2872      2.5827      0.0225
   802.7000    140.8502      8.0872      0.9238     27.2079      2.6348      0.0306
   802.8000    142.8649      8.0863     -2.7298     27.2640      2.6950      0.1140
   802.9000    140.0196      8.0863     -4.9366     27.4607      2.7315      0.1037
   803.0000    131.5227      8.0864     -5.1250     27.4992      2.7346      0.0712
   803.1000    123.5828      8.0864     -4.4664     27.0589      2.7237      0.0798
   803.2000    119.2252      8.0864     -3.7870     26.6778      2.7125      0.0739
   803.3000    117.7650      8.0892     -3.3426     26.9710      2.7052      0.0419
   803.4000    120.0279      8.0892     -3.3083     27.7837      2.7046      0.0246
   803.5000    125.1122      8.0958     -3.0270     28.3589      2.6999     -0.0065
   803.6000    130.4533      8.0958     -1.7468     28.2062      2.6788     -0.0643
   803.7000    133.4776      8.0958     -0.0063     27.4546      2.6501     -0.0818
   803.8000    132.6672      8.1085      1.6986     26.6515      2.6220     -0.0833
   803.9000    128.5027      8.1085      3.4302     26.3514      2.5934     -0.0892
   804.0000    125.2789      8.1211      4.4430     26.4568      2.5767     -0.0936
   804.1000    125.0496      8.1211      4.1737     26.4122      2.5811     -0.0298
   804.2000    125.1038      8.1211      3.2326     26.1144      2.5967     -0.0226
   804.3000    124.0672      8.1263      2.2632     26.1033      2.6127      0.0041
   804.4000    122.6495      8.1263      1.8234     26.3985      2.6199      0.0211
   804.5000    122.8718      8.1269      2.1873     26.6360      2.6139      0.0034
   804.6000    125.0932      8.1269      3.2682     27.0607      2.5961      0.0176
   804.7000    125.9864      8.1269      4.7819     27.7961      2.5711     -0.0211
   804.8000    125.4061      8.1270      5.8875     28.5029      2.5529     -0.0236
   804.9000    125.8730      8.1270      6.2930     29.0397      2.5462      0.0087
   805.0000    126.6112      8.1291      6.5078     29.4185      2.5426     -0.0089
   805.1000    128.1510      8.1291      6.3581     29.5272      2.5451     -0.0090
   805.2000    133.1989      8.1291      5.2834     29.6347      2.5628      0.0003
   805.3000    138.3269      8.1307      3.7495     30.1355      2.5881      0.0361
   805.4000    139.8943      8.1307      2.8719     30.5852      2.6026      0.0271
   805.5000    140.6080      8.1306      2.9183     30.6382      2.6018      0.0183
   805.6000    139.6150      8.1306      3.9579     30.7844      2.5847      0.0888
   805.7000    134.5264      8.1306      6.2976     31.2425      2.5461      0.0352
   805.8000    131.5123      8.1300      8.8331     31.5829      2.5043     -0.0618
   805.9000    137.6026      8.1300     10.0582     31.5299      2.4840     -0.0022
   806.0000    146.7391      8.1281     10.3660     31.3727      2.4790      0.0088
   806.1000    148.6610      8.1281     10.9256     31.0367      2.4697      0.0238
   806.2000    144.9537      8.1281     12.5131     30.0984      2.4435     -0.0208
   806.3000    141.3012      8.1270     15.9429     28.6472      2.3869      0.0099
   806.4000    138.6328      8.1270     21.5099     27.0591      2.2951     -0.0689
   806.5000    137.2890      8.1292     28.2895     25.5204      2.1832     -0.0968
   806.6000    135.9795      8.1292     35.4395     23.9874      2.0652     -0.0723
   806.7000    133.0356      8.1292     42.7699     22.4019      1.9443     -0.1515
   806.8000    129.0731      8.1367     50.0200     20.7635      1.8247     -0.1322
   806.9000    125.0803      8.1367     56.5013     18.8537      1.7177     -0.1882
   807.0000    122.3140      8.1572     60.7263     16.5909      1.6480     -0.2029
   807.1000    118.0821      8.1572     61.7944     14.6222      1.6304     -0.1264
