~Version Information
 VERS.                                  2.0 : CWLS LAS VERSION
 WRAP.                                   NO : WRAPING MODE
 SWARE .                 MController 2.5.0E : SOFTWARE VERSION
~Well Information
 WELL.                         STATE 16-32R : WELL
 COMP.                      Petrogulf Corp. : COMPANY
 FLD.                      Purgatorie River : FIELD
 LOC.                SW/NE Sec 16 T33S R67W : LOCATION
 DATE.                      5/12/04-5/13/04 : DATE(S) LOGGED
 SRVC.       Blanco Geological Services LLC : SERVICE COMPANY
 STAT.                                   CO : STATE
 CNTY.                           Las Animas : COUNTY
 CTRY.                                  USA : COUNTRY
 API.                       05-071-08033-00 : API NUMBER
 STRT.FT                             167.00 : START DEPTH
 STOP.FT                            1918.00 : STOP DEPTH
 STEP.FT                               1.00 : DEPTH INCREMENT
 NULL.                                -9999 : NULL VALUE
~Curve information
 DEPTH.FT                                   :
 ROP.MIN/FT                                 :
 GAS.UNITS                                  :
~ASCII Log data
# ...
      967.00        0.233         49.0 
      968.00        0.233         60.1 
      969.00        0.233         62.7 
      970.00        0.233         73.8 
      971.00        0.233         90.4 
      972.00        0.333        118.4 
      973.00        0.267        143.6 
      974.00        0.200        133.7 
      975.00        0.217        133.7 
      976.00        0.200        125.7 
      977.00        0.233        105.7 
      978.00        0.233         85.6 
      979.00        0.233         69.3 
      980.00        0.233         67.7 
      981.00        0.233         54.0 
      982.00        0.233         49.8 
      983.00        0.200         44.6 
      984.00        0.200         39.9 
      985.00        0.100         37.3 
      986.00        2.117         35.8 
      987.00        0.233         28.1 
      988.00        0.300         28.0 
      989.00        0.333         31.7 
      990.00        0.400         41.7 
      991.00        0.300         44.8 
      992.00        0.267         44.9 
      993.00        0.300         44.1 
      994.00        0.383         42.0 
      995.00        0.300         38.1 
      996.00        0.367         36.1 
      997.00        0.333         30.3 
      998.00        0.267         27.3 
      999.00        0.267         27.3 
     1000.00        0.267         36.8 
     1001.00        0.333         46.7 
     1002.00        0.300         61.4 
     1003.00        0.300         67.9 
     1004.00        0.233         67.0 
     1005.00        0.133         60.2 
     1006.00        0.100         53.3 
     1007.00        0.183         53.3 
     1008.00        0.200         50.4 
     1009.00        0.233         48.3 
     1010.00        0.267         47.2 
     1011.00        0.233         42.1 
     1012.00        0.200         37.5 
     1013.00        0.200         33.7 
     1014.00        0.200         33.5 
     1015.00        0.233         30.3 
     1016.00        2.550         30.2 
     1017.00        0.333         28.2 
     1018.00        0.300         26.1 
     1019.00        0.300         25.8 
     1020.00        0.267         25.7 
     1021.00        0.233         25.8 
     1022.00        0.267         25.9 
     1023.00        0.233         26.0 
     1024.00        0.200         24.5 
     1025.00        0.183         24.5 
     1026.00        0.167         24.2 
     1027.00        0.233         20.5 
     1028.00        0.233         20.5 
     1029.00        0.233         21.8 
     1030.00        0.233         28.2 
     1031.00        0.233         34.0 
     1032.00        0.233         43.4 
     1033.00        0.233         53.3 
     1034.00        0.233         53.3 
     1035.00        0.233         52.6 
     1036.00        0.233         47.1 
     1037.00        0.200         42.4 
     1038.00        0.200         39.3 
     1039.00        0.267         37.9 
     1040.00        0.183         34.3 
     1041.00        0.233         33.3 
     1042.00        0.200         29.9 
     1043.00        0.200         27.5 
     1044.00        0.233         26.1 
     1045.00        0.200         24.0 
     1046.00        2.883         28.4 
     1047.00        0.233         27.2 
     1048.00        0.233         26.4 
     1049.00        0.400         26.1 
     1050.00        0.333         25.1 
     1051.00        0.267         25.4 
     1052.00        0.267         25.5 
     1053.00        0.333         24.2 
     1054.00        0.233         22.7 
     1055.00        0.200         21.1 
     1056.00        0.250         21.5 
     1057.00        0.133         21.5 
     1058.00        0.167         24.3 
     1059.00        0.200         25.8 
     1060.00        0.133         28.4 
     1061.00        0.100         28.4 
     1062.00        0.200         32.9 
     1063.00        0.267         48.5 
     1064.00        0.300         57.1 
     1065.00        0.333         58.5 
     1066.00        0.233         50.6 
     1067.00        0.267         41.4 
     1068.00        0.167         35.2 
     1069.00        0.167         33.3 
     1070.00        0.233         34.0 
     1071.00        0.200         33.1 
     1072.00        0.217         33.6 
     1073.00        0.167         34.3 
     1074.00        0.133         37.1 
     1075.00        0.200         36.2 
     1076.00        3.317         33.8 
     1077.00        0.267         21.8 
     1078.00        0.200         21.8 
     1079.00        0.167         25.1 
     1080.00        0.267         60.4 
     1081.00        0.200        100.5 
     1082.00        0.100        100.5 
     1083.00        0.133        100.5 
     1084.00        0.267        115.6 
     1085.00        0.233        103.5 
     1086.00        0.267         83.3 
     1087.00        0.200         72.6 
     1088.00        0.167         75.8 
     1089.00        0.200         75.8 
     1090.00        0.250         99.5 
     1091.00        0.200        120.7 
     1092.00        0.200        140.5 
     1093.00        0.200        140.5 
     1094.00        0.233        173.5 
     1095.00        0.233        257.6 
     1096.00        0.200        294.0 
     1097.00        0.200        294.0 
     1098.00        0.200        253.2 
     1099.00        0.167        218.4 
     1100.00        0.233        185.0 
     1101.00        0.267        136.0 
     1102.00        0.267        107.5 
     1103.00        0.267         89.0 
     1104.00        0.200         73.1 
     1105.00        0.283         60.0 
     1106.00        4.517         81.5 
     1107.00        0.300         54.5 
     1108.00        0.267         46.2 
     1109.00        0.267         42.4 
     1110.00        0.233         46.3 
     1111.00        0.267         51.6 
     1112.00        0.233         63.5 
     1113.00        0.233         77.6 
     1114.00        0.200         96.9 
     1115.00        0.217        138.2 
     1116.00        0.167        138.2 
     1117.00        0.100        158.1 
     1118.00        0.133        158.1 
     1119.00        0.100        139.0 
     1120.00        0.100        139.0 
     1121.00        0.100        139.0 
     1122.00        0.167        105.5 
     1123.00        0.133        105.5 
     1124.00        0.200         77.9 
     1125.00        0.200         59.8 
     1126.00        0.100         59.8 
     1127.00        0.200         49.6 
     1128.00        0.233         44.1 
     1129.00        0.200         40.8 
     1130.00        0.167         40.8 
     1131.00        0.133         39.6 
     1132.00        0.167         38.9 
     1133.00        0.267         37.9 
     1134.00        0.267         37.4 
     1135.00        0.383         40.1 
     1136.00        6.567         72.4 
     1137.00        0.433         32.3 
     1138.00        0.267         31.7 
     1139.00        0.200         31.2 
     1140.00        0.133         31.2 
     1141.00        0.100         31.2 
     1142.00        0.100         33.1 
     1143.00        0.100         33.1 
     1144.00        0.133         35.6 
     1145.00        0.267         37.8 
     1146.00        0.233         37.9 
     1147.00        0.300         35.8 
     1148.00        0.300         33.1 
     1149.00        0.267         31.8 
     1150.00        0.200         28.0 
     1151.00        0.283         26.4 
     1152.00        0.267         29.0 
     1153.00        0.300         31.0 
     1154.00        0.400         55.2 
     1155.00        0.333         70.1 
     1156.00        0.300        101.5 
     1157.00        0.267        129.5 
     1158.00        0.300        129.7 
     1159.00        0.300        124.8 
     1160.00        0.200         83.5 
     1161.00        0.067         67.3 
     1162.00        0.200         61.7 
     1163.00        0.300         54.2 
     1164.00        0.317         52.8 
     1165.00        0.300         48.3 
     1166.00        3.817         68.6 
