~Version Information
VERS.                      2.0: CWLS Log ASCII Standard - VERSION 2.0
WRAP.                       NO: One line per depth step
~Well Information Block
STRT.FT               754.6000: 
STOP.FT              2329.0000: 
STEP.FT                 0.1000: 
NULL.                -999.2500: 
COMP.          Petrogulf Corporation: COMPANY
WELL.           Anderson 18-42: WELL
FLD.           Purgatoire River: FIELD
LOC.           1668' FNL & 1110' FEL: LOCATION
CNTY.               Las Animas: COUNTY
SRVC.                         : SERVICE COMPANY
DATE.          Tue Dec 16 12:18:55 2003: LOG DATE
UWI.                          : UNIQUE WELL ID
STAT.                 Colorado: STATE
~Curve Information Block
DEPT.FT            0 000 00 00: Depth
DCAL.in                       : CDL Caliper
RHOB.g/cc                     : CDL Bulk Density
RHOC.g/cc                     : CDL Density Correction
DPOR.pu                       : CDL Density Porosity
NPOR.pu                       : Neutron Porosity
GR.GAPI                       : Gamma Ray
~Parameter Information Block
~A  Depth       DCAL        RHOB        RHOC        DPOR        NPOR         GR     
# ...
   985.0000      8.1633      2.5655      0.0213      5.1195     27.9109    131.9460
   985.1000      8.1633      2.5673      0.0469      5.0143     27.6221    136.2255
   985.2000      8.1633      2.5539      0.0264      5.8263     27.5749    134.9498
   985.3000      8.1379      2.5507      0.0514      6.0193     27.6207    132.5940
   985.4000      8.1379      2.5526      0.0947      5.9036     27.5601    133.0683
   985.5000      8.1343      2.5332      0.0712      7.0799     27.3239    133.8560
   985.6000      8.1343      2.4913      0.0734      9.6162     27.0332    133.7233
   985.7000      8.1343      2.4513      0.0045     12.0397     26.6367    132.1602
   985.8000      8.1416      2.4349      0.0457     13.0348     26.1364    128.8889
   985.9000      8.1416      2.4511      0.0229     12.0546     26.0362    124.5808
   986.0000      8.1437      2.5059     -0.0016      8.7310     26.5757    119.3660
   986.1000      8.1437      2.5884      0.0762      3.7336     27.4956    113.8810
   986.2000      8.1437      2.6679      0.1314     -1.0855     28.5295    107.7197
   986.3000      8.1462      2.7241      0.1770     -4.4888     29.6311    101.0117
   986.4000      8.1462      2.7490      0.1657     -5.9988     30.7323     94.7493
   986.5000      8.1453      2.7382      0.1446     -5.3464     31.5082     91.3066
   986.6000      8.1453      2.6965      0.0964     -2.8194     31.9596     90.9929
   986.7000      8.1453      2.6428     -0.0174      0.4344     32.3911     93.3381
   986.8000      8.1715      2.5956     -0.0600      3.2950     32.7656     99.4564
   986.9000      8.1715      2.5660     -0.2857      5.0888     32.8769    104.1367
   987.0000      8.2417      2.5618     -0.1871      5.3457     32.6616    104.1423
   987.1000      8.2417      2.5750     -0.1695      4.5479     32.2349    108.9929
   987.2000      8.2417      2.5834     -0.0348      4.0343     31.6964    123.9308
   987.3000      8.2506      2.5691     -0.0211      4.9032     30.8891    137.6245
   987.4000      8.2506      2.5465     -0.0319      6.2757     29.6717    140.6407
   987.5000      8.2488      2.5383      0.0930      6.7709     28.4670    138.6508
   987.6000      8.2488      2.5327      0.1751      7.1096     27.7139    138.0350
   987.7000      8.2488      2.5151      0.1277      8.1742     27.1877    139.7549
   987.8000      8.2529      2.5024      0.0119      8.9465     26.7381    141.8180
   987.9000      8.2529      2.5087      0.0329      8.5639     26.5201    140.5697
   988.0000      8.2624      2.5140      0.0570      8.2433     26.5095    139.6779
   988.1000      8.2624      2.4954      0.0033      9.3717     26.5911    145.1792
   988.2000      8.2624      2.4633     -0.0205     11.3137     26.5802    152.1797
   988.3000      8.2495      2.4488     -0.0206     12.1964     26.3745    154.3040
   988.4000      8.2495      2.4653     -0.0177     11.1966     26.1026    154.9305
   988.5000      8.2444      2.4927      0.0583      9.5334     25.8694    155.8954
   988.6000      8.2444      2.5093      0.0198      8.5272     25.7114    157.5647
   988.7000      8.2444      2.5227      0.0401      7.7173     25.6014    160.1729
   988.8000      8.2472      2.5415      0.0749      6.5747     25.5403    157.3996
   988.9000      8.2472      2.5504      0.1157      6.0362     25.6876    149.3077
   989.0000      8.2503      2.5376      0.0516      6.8145     25.9718    145.4546
   989.1000      8.2503      2.5139      0.0287      8.2505     26.1718    146.3306
   989.2000      8.2503      2.4870      0.0553      9.8772     26.1509    141.9990
   989.3000      8.2494      2.4591      0.0287     11.5694     26.1520    133.5841
   989.4000      8.2494      2.4472     -0.0388     12.2930     26.6323    131.3670
   989.5000      8.2502      2.4611      0.0114     11.4456     27.3021    132.5121
   989.6000      8.2502      2.4855      0.0404      9.9676     27.7334    130.7525
   989.7000      8.2502      2.5073      0.0077      8.6471     28.0704    128.9060
   989.8000      8.2475      2.5161      0.0793      8.1151     28.3972    126.4862
   989.9000      8.2475      2.4989      0.0792      9.1546     28.6070    122.6503
   990.0000      8.2592      2.4664      0.0271     11.1244     28.6517    122.0826
   990.1000      8.2592      2.4392      0.0260     12.7763     28.4753    126.4995
   990.2000      8.2592      2.4216     -0.0052     13.8404     28.1045    134.3845
   990.3000      8.3117      2.4125      0.0207     14.3929     27.5814    142.6013
   990.4000      8.3117      2.4125      0.0562     14.3932     27.0225    144.6508
   990.5000      8.3133      2.4272      0.0196     13.5057     26.5863    138.9369
   990.6000      8.3133      2.4589      0.0587     11.5825     26.1300    132.9414
   990.7000      8.3133      2.4958      0.0950      9.3428     25.8346    132.7158
   990.8000      8.3097      2.5226      0.1391      7.7189     26.1856    134.0395
   990.9000      8.3097      2.5283      0.1273      7.3775     26.9297    133.4037
   991.0000      8.3114      2.5138      0.1273      8.2527     27.5541    133.2984
   991.1000      8.3114      2.4963      0.0661      9.3123     27.8924    135.8380
   991.2000      8.3114      2.4922      0.1148      9.5630     27.8781    141.2144
   991.3000      8.3272      2.4987      0.1353      9.1725     27.6591    141.8453
   991.4000      8.3272      2.5101      0.0327      8.4806     27.6701    136.6325
   991.5000      8.3325      2.5302      0.0257      7.2618     28.0854    132.2932
   991.6000      8.3325      2.5538      0.0634      5.8293     28.5349    127.7991
   991.7000      8.3325      2.5681      0.0762      4.9654     28.6563    124.4175
   991.8000      8.3273      2.5678      0.0967      4.9794     28.3641    127.5456
   991.9000      8.3273      2.5617      0.0327      5.3509     27.6948    135.2029
   992.0000      8.3098      2.5593      0.0622      5.4985     27.0069    144.1960
   992.1000      8.3098      2.5558      0.0825      5.7107     26.8888    156.5457
   992.2000      8.3098      2.5483      0.0292      6.1619     27.2268    167.9116
   992.3000      8.3330      2.5441      0.0468      6.4164     27.2702    171.5160
   992.4000      8.3330      2.5435      0.0526      6.4535     26.8311    168.4686
   992.5000      8.3517      2.5414      0.0432      6.5795     26.3862    161.1360
   992.6000      8.3517      2.5393      0.0187      6.7074     26.2363    152.1968
   992.7000      8.3517      2.5376      0.0247      6.8150     26.2475    144.3277
   992.8000      8.3647      2.5229      0.0163      7.7039     26.3420    138.3502
   992.9000      8.3647      2.4920     -0.0130      9.5745     26.4998    137.9168
   993.0000      8.3643      2.4728     -0.0363     10.7408     26.5946    142.2769
   993.1000      8.3643      2.4828      0.0038     10.1346     26.7353    145.4903
   993.2000      8.3643      2.5024     -0.0009      8.9463     27.0560    147.3615
   993.3000      8.3760      2.5096      0.0272      8.5079     27.4848    147.9990
   993.4000      8.3760      2.5021      0.0227      8.9612     27.8347    147.1463
   993.5000      8.3789      2.4946     -0.0083      9.4156     27.9505    149.3663
   993.6000      8.3789      2.4979     -0.0064      9.2211     27.7726    154.7153
   993.7000      8.3789      2.5027      0.0034      8.9270     27.4948    155.9135
   993.8000      8.3993      2.4976     -0.0114      9.2350     27.4273    150.6130
   993.9000      8.3993      2.4819      0.0052     10.1868     27.4651    142.4274
   994.0000      8.4084      2.4554     -0.0134     11.7933     27.2132    134.8778
   994.1000      8.4084      2.4082      0.0323     14.6555     26.6529    132.5159
   994.2000      8.4084      2.3340     -0.0464     19.1498     26.0655    137.3183
   994.3000      8.4088      2.2520     -0.0882     24.1197     25.3669    143.3189
   994.4000      8.4088      2.1916     -0.1240     27.7845     24.5141    145.6697
   994.5000      8.4139      2.1617     -0.0443     29.5945     23.6982    146.8178
