~Version Information
VERS.                      2.0: CWLS Log ASCII Standard - VERSION 2.0
WRAP.                       NO: One line per depth step
~Well Information Block
STRT.FT                -7.5000: 
STOP.FT              2226.0000: 
STEP.FT                 0.2500: 
NULL.                -999.2500: 
COMP.          Pioneer Natural Resources: COMPANY
WELL.              Tonto 42-23: WELL
FLD.           Purgatorie River: FIELD
LOC.           2217' FNL & 423' FEL----: LOCATION
PROV.                       CO: PROVINCE
CNTY.               Las Animas: COUNTRY
SRVC.          Patterson Wireline: SERVICE COMPANY
DATE.          Fri Apr 22 11:40:07 2005: LOG DATE
UWI.           05 071 08335 00: UNIQUE WELL ID
~Curve Information Block
DEPT.FT            0 000 00 00: Depth
CCL.                          : Casing Collar Locator
TT3.usec                      : CBL 3' Travel Time
AMP3.mV                       : CBL 3' Amplitude
GR.GAPI                       : Gamma Ray
~Parameter Information Block
~A  Depth       CCL         TT3         AMP3         GR     
# ...
   294.0000      0.0000    728.7554      9.3058     98.6325
   294.2500      0.0000    721.0870      9.3164     95.4550
   294.5000      0.0000    714.3055      9.3134     89.5518
   294.7500      0.0000    709.8525      9.2910     81.4456
   295.0000      0.0000    708.1284      9.2587     72.1416
   295.2500      0.0000    708.9170      9.2284     63.4746
   295.5000      0.0000    711.8915      9.1962     57.3772
   295.7500      0.0000    716.6293      9.1454     54.7823
   296.0000      0.0000    722.4866      9.0679     55.3433
   296.2500      0.0000    728.7181      8.9735     57.9378
   296.5000      0.0000    734.5995      8.8781     61.3043
   296.7500      0.0000    739.4390      8.7873     64.4488
   297.0000      0.0000    742.7773      8.6960     66.7823
   297.2500      0.0000    744.7118      8.6020     68.1576
   297.5000      0.0000    745.9317      8.5111     68.9134
   297.7500      0.0000    747.4633      8.4285     69.6341
   298.0000      0.0000    750.3741      8.3528     70.6252
   298.2500      0.0000    755.3883      8.2832     71.7299
   298.5000      0.0000    762.3569      8.2288     72.8176
   298.7500      0.0000    770.0500      8.2013     74.1827
   299.0000      0.0000    776.8004      8.1983     76.1533
   299.2500      0.0000    781.6086      8.2046     78.4873
   299.5000      0.0000    784.6711      8.2088     80.5630
   299.7500      0.0000    786.9293      8.2119     82.1081
   300.0000      0.0000    789.0755      8.2189     83.2847
   300.2500      0.0000    790.5881      8.2325     83.9303
   300.5000      0.0000    789.5955      8.2569     83.2410
   300.7500      0.0000    784.3669      8.2958     80.7090
   301.0000      0.0000    775.5750      8.3434     77.2869
   301.2500      0.0000    766.6425      8.3873     75.0725
   301.5000      0.0000    761.2577      8.4218     75.4355
   301.7500      0.0000    760.7583      8.4518     77.5130
   302.0000      0.0000    764.0068      8.4833     78.8456
   302.2500      0.0000    769.0135      8.5188     77.5416
   302.5000      0.0000    774.1248      8.5612     73.6824
   302.7500      0.0000    778.2119      8.6144     68.6464
   303.0000      0.0000    780.6387      8.6768     63.5696
   303.2500      0.0000    781.2749      8.7395     58.8913
   303.5000      0.0000    780.3494      8.7950     55.0322
   303.7500      0.0000    778.3666      8.8392     52.6576
   304.0000      0.0000    776.1801      8.8659     52.0072
   304.2500      0.0000    774.7061      8.8660     52.3623
   304.5000      0.0000    774.1627      8.8379     52.4004
   304.7500      0.0000    773.8409      8.7947     51.0882
   305.0000      0.0000    772.8967      8.7531     48.4725
   305.2500      0.0000    770.9806      8.7177     45.8858
   305.5000      0.0000    767.9537      8.6845     45.2015
   305.7500      0.0000    763.8160      8.6589     47.3757
   306.0000      0.0000    759.5660      8.6579     51.3925
   306.2500      0.0000    757.5733      8.6888     54.8695
   306.5000      0.0000    760.0803      8.7340     56.1178
   306.7500      0.0000    766.7677      8.7652     55.6099
   307.0000      0.0000    773.9073      8.7675     55.3100
   307.2500      0.0000    777.0110      8.7430     56.8531
   307.5000      0.0000    775.1769      8.6992     60.6542
   307.7500      0.0000    772.0984      8.6468     66.2391
   308.0000      0.0000    771.9311      8.6065     72.7672
   308.2500      0.0000    774.9666      8.6043     79.3279
   308.5000      0.0000    777.8998      8.6499     85.1745
   308.7500      0.0000    777.1947      8.7241     89.8236
   309.0000      0.0000    771.8146      8.7939     92.9919
   309.2500      0.0000    763.8577      8.8333     94.6080
   309.5000      0.0000    756.9495      8.8306     94.8691
   309.7500      0.0000    753.4354      8.7909     94.2111
   310.0000      0.0000    752.8621      8.7397     93.2497
   310.2500      0.0000    753.1271      8.7089     92.6026
   310.5000      0.0000    752.8823      8.7093     92.5302
   310.7500      0.0000    752.7004      8.7251     92.7149
   311.0000      0.0000    753.9861      8.7383     92.4218
   311.2500      0.0000    757.0553      8.7451     90.9451
   311.5000      0.0000    760.4462      8.7501     88.0716
   311.7500      0.0000    762.0757      8.7567     84.2117
   312.0000      0.0000    760.8146      8.7687     80.1889
   312.2500      0.0000    757.1208      8.7877     76.8959
   312.5000      0.0000    752.7706      8.8041     74.7566
   312.7500      0.0000    749.9732      8.8024     73.2836
   313.0000      0.0000    749.7217      8.7782     71.5495
   313.2500      0.0000    750.5776      8.7430     69.3239
   313.5000      0.0000    749.9634      8.7076     67.3799
   313.7500      0.0000    747.1990      8.6727     66.6148
   314.0000      0.0000    744.5934      8.6386     67.2042
   314.2500      0.0000    745.2096      8.6145     68.5312
   314.5000      0.0000    750.1390      8.6125     69.5384
   314.7500      0.0000    757.9261      8.6360     69.3976
   315.0000      0.0000    765.7048      8.6769     68.4766
   315.2500      0.0000    770.6859      8.7177     68.4174
   315.5000      0.0000    771.5072      8.7396     70.3526
   315.7500      0.0000    769.2220      8.7321     73.0342
   316.0000      0.0000    767.2993      8.6949     73.5961
   316.2500      0.0000    770.0913      8.6314     70.3457
   316.5000      0.0000    780.1608      8.5461     64.1407
   316.7500      0.0000    796.1898      8.4500     57.1168
   317.0000      0.0000    813.3113      8.3603     50.9766
   317.2500      0.0000    825.7643      8.2893     46.5592
   317.5000      0.0000    829.7868      8.2388     44.1244
   317.7500      0.0000    825.2574      8.2041     43.4792
   318.0000      0.0000    816.1232      8.1764     43.9766
   318.2500      0.0000    809.0604      8.1408     44.6874
   318.5000      0.0000    809.5647      8.0807     44.7947
   318.7500      0.0000    817.9614      7.9887     44.0391
   319.0000      0.0000    829.6869      7.8740     42.8260
   319.2500      0.0000    839.6333      7.7593     41.7905
   319.5000      0.0000    845.6354      7.6724     41.1138
   319.7500      0.0000    848.3125      7.6357     40.2687
   320.0000      0.0000    849.0787      7.6535     38.6329
   320.2500      0.0000    848.8147      7.7096     36.4093
   320.5000      0.0000    847.5431      7.7793     34.6569
   320.7500      0.0000    844.4470      7.8449     34.3683
   321.0000      0.0000    838.0139      7.8966     35.8458
   321.2500      0.0000    826.8038      7.9242     38.8962
   321.5000      0.0000    811.3941      7.9062     43.1206
   321.7500      0.0000    796.5175      7.8036     47.8407
   322.0000      0.0000    790.2986      7.5736     52.1567
   322.2500      0.0000    798.9678      7.2112     55.4968
   322.5000      0.0000    821.4102      6.7823     57.9818
   322.7500      0.0000    849.5333      6.3958     60.0485
   323.0000      0.0000    873.4339      6.1276     61.9874
   323.2500      2.0000    885.7037      5.9764     64.0795
   323.5000     -2.0000    883.2964      5.8912     66.7065
   323.7500     -2.0000    868.5209      5.8331     69.7837
   324.0000      0.0000    846.8597      5.8259     72.3648
   324.2500      0.0000    821.0121      5.9613     73.3763
   324.5000      0.0000    789.3798      6.3322     72.7296
   324.7500      0.0000    754.0391      6.9129     71.3576
   325.0000      0.0000    726.3289      7.5133     70.2174
   325.2500      0.0000    717.8327      7.9071     69.6302
   325.5000      0.0000    727.7979      8.0143     69.5689
   325.7500      0.0000    745.2571      7.9290     70.1434
   326.0000      0.0000    761.3011      7.7925     71.5222
   326.2500      0.0000    774.1998      7.6860     73.3943
   326.5000      0.0000    784.8930      7.6239     74.7074
   326.7500      0.0000    792.4785      7.5925     74.3983
   327.0000      0.0000    794.3713      7.5782     72.6240
   327.2500      0.0000    789.0245      7.5742     70.8386
