~Version Information
VERS.                      2.0: CWLS Log ASCII Standard - VERSION 2.0
WRAP.                       NO: One line per depth step
~Well Information Block
STRT.FT               575.0000: 
STOP.FT              2016.2000: 
STEP.FT                 0.1000: 
NULL.                -999.2500: 
COMP.          Pioneer Natural Resources: COMPANY
WELL.          Bucksnort 41-35: WELL
FLD.           Purgatoire River: FIELD
LOC.           117' FNL & 463' FEL--: LOCATION
PROV.                 Colorado: PROVINCE
CNTY.               Las Animas: COUNTRY
SRVC.                Patterson: SERVICE COMPANY
DATE.          Thu Jul 21 15:01:23 2005: LOG DATE
UWI.           05 071 08401 00: UNIQUE WELL ID
~Curve Information Block
DEPT.FT            0 000 00 00: Depth
DCAL.in                       : CDL Caliper
RHOB.g/cc                     : CDL Bulk Density
RHOC.g/cc                     : CDL Density Correction
DPOR.pu                       : CDL Density Porosity
NPOR.pu                       : Neutron Porosity
GR.GAPI                       : Gamma Ray
~Parameter Information Block
~A  Depth       DCAL        RHOB        RHOC        DPOR        NPOR         GR     
# ...
  1707.8000      7.8234      2.5112      0.0532      8.4132     28.8431     93.8643
  1707.9000      7.8234      2.5084      0.0403      8.5825     29.3320     92.4891
  1708.0000      7.8334      2.5116      0.0606      8.3850     29.8754     95.2943
  1708.1000      7.8334      2.5138      0.0247      8.2560     29.9769    101.6889
  1708.2000      7.8334      2.5065      0.0609      8.6951     29.7991    106.2251
  1708.3000      7.8531      2.4925      0.0473      9.5475     29.8753    104.2773
  1708.4000      7.8531      2.4862      0.0379      9.9297     30.1409     98.9461
  1708.5000      7.8700      2.4942      0.0485      9.4433     30.1513     99.0831
  1708.6000      7.8700      2.5029      0.0775      8.9135     29.7351    107.4681
  1708.7000      7.8700      2.4952      0.1056      9.3819     29.2330    118.3395
  1708.8000      7.8756      2.4747      0.0786     10.6226     29.0009    123.6114
  1708.9000      7.8756      2.4567      0.0550     11.7166     28.9434    124.4734
  1709.0000      7.8748      2.4436      0.0526     12.5102     29.0266    130.4194
  1709.1000      7.8748      2.4340      0.0672     13.0901     29.2222    139.0670
  1709.2000      7.8748      2.4332      0.0644     13.1385     29.2440    140.0008
  1709.3000      7.8714      2.4415      0.0711     12.6365     29.1433    136.1774
  1709.4000      7.8714      2.4481      0.1034     12.2385     29.2341    133.7439
  1709.5000      7.8636      2.4531      0.0609     11.9326     29.3836    131.3575
  1709.6000      7.8636      2.4696      0.0792     10.9308     29.4442    132.1963
  1709.7000      7.8636      2.4928      0.1128      9.5258     29.3336    136.6836
  1709.8000      7.8550      2.5090      0.1195      8.5474     28.6998    137.7665
  1709.9000      7.8550      2.5127      0.1172      8.3195     28.1190    134.4814
  1710.0000      7.8499      2.5027      0.0588      8.9259     28.2556    130.2556
  1710.1000      7.8499      2.4898      0.0442      9.7090     28.3158    125.3947
  1710.2000      7.8499      2.4893      0.0547      9.7400     27.7468    116.2819
  1710.3000      7.8478      2.5034      0.0656      8.8876     27.0277    101.3007
  1710.4000      7.8478      2.5281      0.0685      7.3870     26.1455     87.1417
  1710.5000      7.8477      2.5566      0.0928      5.6621     25.0825     79.4310
  1710.6000      7.8477      2.5762      0.1039      4.4756     24.4020     77.7817
  1710.7000      7.8477      2.5854      0.0721      3.9130     24.1072     80.3937
  1710.8000      7.8482      2.5961      0.0783      3.2664     23.8213     82.7521
  1710.9000      7.8482      2.6083      0.0829      2.5269     23.2071     78.7701
  1711.0000      7.8489      2.6105      0.0774      2.3945     22.0182     70.7271
  1711.1000      7.8489      2.6025      0.0279      2.8808     20.8081     66.7742
  1711.2000      7.8489      2.5922      0.0512      3.5020     20.4840     70.2570
  1711.3000      7.8507      2.5853      0.0328      3.9231     20.9756     75.4749
  1711.4000      7.8507      2.5936      0.0221      3.4185     21.4380     74.3659
  1711.5000      7.8533      2.6192      0.0764      1.8694     21.4010     69.2876
  1711.6000      7.8533      2.6421      0.0718      0.4774     20.9790     66.5002
  1711.7000      7.8533      2.6508      0.0674     -0.0487     20.3881     64.7186
  1711.8000      7.8546      2.6493      0.0621      0.0407     19.9142     61.3092
  1711.9000      7.8546      2.6410      0.0599      0.5466     19.8055     58.7459
  1712.0000      7.8539      2.6307      0.0347      1.1675     19.7810     59.2806
  1712.1000      7.8539      2.6239      0.0520      1.5796     19.4922     60.0833
  1712.2000      7.8539      2.6227      0.0468      1.6552     19.3993     58.6946
  1712.3000      7.8529      2.6303      0.0539      1.1928     20.0576     56.2270
  1712.4000      7.8529      2.6376      0.0871      0.7533     20.9524     54.6626
  1712.5000      7.8542      2.6327      0.0486      1.0481     21.2427     56.7106
  1712.6000      7.8542      2.6218      0.0322      1.7099     21.0875     61.0572
  1712.7000      7.8542      2.6103      0.0363      2.4079     21.0463     63.6067
  1712.8000      7.8571      2.5958      0.0360      3.2841     21.2425     65.1777
  1712.9000      7.8571      2.5836      0.0537      4.0263     21.4853     68.7319
  1713.0000      7.8626      2.5853      0.0193      3.9219     21.6137     73.7325
  1713.1000      7.8626      2.6020      0.0598      2.9101     21.8001     77.5060
  1713.2000      7.8626      2.6154      0.0557      2.0958     22.0764     77.1725
  1713.3000      7.8697      2.6145      0.0475      2.1533     22.2341     71.6612
  1713.4000      7.8697      2.6103      0.0279      2.4056     22.3207     65.0468
  1713.5000      7.8741      2.6165      0.0130      2.0276     22.4845     62.2700
  1713.6000      7.8741      2.6318      0.0600      1.1027     22.6333     64.7692
  1713.7000      7.8741      2.6385      0.1025      0.6994     22.6381     72.0608
  1713.8000      7.8750      2.6229      0.0714      1.6434     22.4539     79.1476
  1713.9000      7.8750      2.6036      0.0392      2.8107     21.9707     80.7386
  1714.0000      7.8746      2.6063      0.0497      2.6486     21.3540     79.3846
  1714.1000      7.8746      2.6238      0.0796      1.5900     21.1029     77.3027
  1714.2000      7.8746      2.6315      0.0731      1.1239     21.4359     72.0761
  1714.3000      7.8728      2.6201      0.0482      1.8104     21.9968     65.5571
  1714.4000      7.8728      2.6016      0.0437      2.9342     22.2973     63.3701
  1714.5000      7.8697      2.5925      0.0521      3.4822     22.0627     66.7470
  1714.6000      7.8697      2.5986      0.0325      3.1122     21.4567     72.5866
  1714.7000      7.8697      2.6115      0.0502      2.3325     20.9013     76.4712
  1714.8000      7.8634      2.6219      0.0075      1.7054     20.6780     74.3019
  1714.9000      7.8634      2.6297      0.0512      1.2279     20.8734     68.7240
  1715.0000      7.8553      2.6335      0.0740      0.9979     21.3476     68.0202
  1715.1000      7.8553      2.6299      0.0714      1.2199     21.8622     72.1815
  1715.2000      7.8553      2.6217      0.0635      1.7135     22.4406     74.8417
  1715.3000      7.8527      2.6140      0.0267      2.1840     23.0587     77.1391
  1715.4000      7.8527      2.6100      0.0252      2.4224     23.4027     82.4217
  1715.5000      7.8561      2.6116      0.0582      2.3288     23.1851     86.7086
  1715.6000      7.8561      2.6138      0.0422      2.1955     22.7959     83.2224
  1715.7000      7.8561      2.6056      0.0400      2.6924     22.8879     72.3050
  1715.8000      7.8594      2.5827      0.0526      4.0793     23.1859     64.0564
  1715.9000      7.8594      2.5589      0.0419      5.5207     23.0045     67.7722
  1716.0000      7.8602      2.5509      0.0219      6.0068     22.4492     77.1368
  1716.1000      7.8602      2.5572      0.0387      5.6239     22.3353     80.5112
  1716.2000      7.8602      2.5642      0.0672      5.1975     23.0169     78.6055
  1716.3000      7.8606      2.5663      0.0402      5.0697     23.7041     78.0493
  1716.4000      7.8606      2.5682      0.0646      4.9579     23.6057     81.6932
  1716.5000      7.8592      2.5740      0.0654      4.6065     23.1221     86.0650
  1716.6000      7.8592      2.5885      0.0566      3.7279     22.9589     85.6676
  1716.7000      7.8592      2.6088      0.1057      2.4990     23.0472     79.6940
  1716.8000      7.8557      2.6169      0.1406      2.0087     22.9144     74.4792
  1716.9000      7.8557      2.6092      0.0789      2.4740     22.3557     76.9594
  1717.0000      7.8519      2.6025      0.1006      2.8806     21.8520     84.3081
  1717.1000      7.8519      2.6032      0.0852      2.8364     21.8327     90.0051
  1717.2000      7.8519      2.6059      0.0701      2.6718     22.0429     91.6720
  1717.3000      7.8497      2.6039      0.0814      2.7933     22.0721     87.6169
