~Version Information
VERS.                      2.0: CWLS Log ASCII Standard - VERSION 2.0
WRAP.                       NO: One line per depth step
~Well Information Block
STRT.FT                15.0000: 
STOP.FT              2556.5000: 
STEP.FT                 0.2500: 
NULL.                -999.2500: 
COMP.          Pioneer Natural Resources: COMPANY
WELL.              Quack 22-24: WELL
FLD.           Purgatoire River: FIELD
LOC.           2492' FNL & 2459' FWL: LOCATION
PROV.                 Colorado: PROVINCE
CNTY.               Las Animas: COUNTRY
SRVC.                Patterson: SERVICE COMPANY
DATE.          Tue Jul 26 07:02:30 2005: LOG DATE
UWI.           05 071 08402 00: UNIQUE WELL ID
~Curve Information Block
DEPT.FT            0 000 00 00: Depth
GR.GAPI                       : Gamma Ray
CCL.                          : Casing Collar Locator
TT3.usec                      : CBL 3' Travel Time
AMP3.mV                       : CBL 3' Amplitude
~Parameter Information Block
~A  Depth        GR         CCL         TT3         AMP3    
# ...
  2527.5000     95.6925      0.0000    506.5979      7.5438
  2527.7500     94.1595      0.0000    522.0327      7.5325
  2528.0000     91.3357      0.0000    545.0493      7.5494
  2528.2500     88.4680      0.0000    567.0331      7.6093
  2528.5000     86.7207      0.0000    585.6011      7.7206
  2528.7500     86.6385      0.0000    602.5513      7.8742
  2529.0000     88.2556      0.0000    618.2504      8.0439
  2529.2500     91.2878      0.0000    630.5732      8.1973
  2529.5000     95.2527      0.0000    638.0107      8.3106
  2529.7500     99.7363      0.0000    641.3160      8.3763
  2530.0000    104.8831      0.0000    642.3208      8.4020
  2530.2500    111.5800      0.0000    642.4599      8.4005
  2530.5000    120.5982      0.0000    642.4101      8.3798
  2530.7500    131.1192      0.0000    642.3552      8.3372
  2531.0000    140.4808      0.0000    642.2866      8.2610
  2531.2500    145.9589      0.0000    642.1981      8.1411
  2531.5000    146.7332      0.0000    642.1375      7.9806
  2531.7500    143.8240      0.0000    642.1795      7.7960
  2532.0000    138.6004      0.0000    642.3652      7.6085
  2532.2500    131.9874      0.0000    642.6970      7.4343
  2532.5000    124.7945      0.0000    643.2363      7.2843
  2532.7500    118.0127      0.0000    644.3046      7.1685
  2533.0000    112.6555      0.0000    646.7213      7.0972
  2533.2500    109.5475      0.0000    651.7104      7.0742
  2533.5000    109.1347      0.0000    659.9448      7.0889
  2533.7500    111.1826      0.0000    670.2094      7.1189
  2534.0000    114.5746      0.0000    679.5659      7.1505
  2534.2500    117.5533      0.0000    685.7132      7.1968
  2534.5000    118.5320      0.0000    688.8422      7.2881
  2534.7500    117.1041      0.0000    690.3254      7.4379
  2535.0000    114.3075      0.0000    690.2085      7.6242
  2535.2500    111.7137      0.0000    687.2756      7.8118
  2535.5000    110.2317      0.0000    681.6147      7.9884
  2535.7500    109.7164      0.0000    676.1860      8.1727
  2536.0000    109.5053      0.0000    675.0153      8.3872
  2536.2500    109.2076      0.0000    679.1822      8.6271
  2536.5000    109.0958      0.0000    684.4008      8.8570
  2536.7500    109.7615      0.0000    683.5546      9.0371
  2537.0000    111.2961      0.0000    673.0945      9.1513
  2537.2500    112.8699      0.0000    657.3464      9.2139
  2537.5000    113.1997      0.0000    645.6763      9.2508
  2537.7500    111.3280      0.0000    645.0513      9.2740
  2538.0000    107.1581      0.0000    655.5361      9.2759
  2538.2500    101.7061      0.0000    672.1361      9.2489
  2538.5000     96.7830      0.0000    689.2480      9.2084
  2538.7500     93.9138      0.0000    703.0431      9.1926
  2539.0000     93.4455      0.0000    711.4903      9.2362
  2539.2500     94.7694      0.0000    714.3047      9.3294
  2539.5000     97.0740      0.0000    713.4336      9.3912
  2539.7500     99.6922      0.0000    713.0486      9.3075
  2540.0000    102.1919      0.0000    718.1784      9.0479
  2540.2500    104.4226      0.0000    731.6418      8.7447
  2540.5000    106.0754      0.0000    750.7977      8.5967
  2540.7500    106.1309      0.0000    768.0287      8.6773
  2541.0000    103.5378      0.0000    776.1594      8.8748
  2541.2500     98.7957      0.0000    772.9273      9.0084
  2541.5000     94.2451     -1.9038    758.0019      8.9489
  2541.7500     92.3104     -2.3987    725.2170      8.6225
  2542.0000     93.5618      0.0000    660.7277      7.9470
  2542.2500     96.4876      0.0000    553.7635      6.8371
  2542.5000     98.9562      0.0000    411.9554      5.3297
  2542.7500     99.8378      0.0000    263.7801      3.6836
  2543.0000     99.4270     -1.3060    141.9071      2.2659
  2543.2500     98.6295      1.0291     62.9763      1.3110
  2543.5000     98.0500      1.0529     22.7364      0.8090
  2543.7500     97.8966     -0.9613      6.6062      0.6032
  2544.0000     98.4445      2.2787      1.5296      0.5374
  2544.2500    100.2380      3.0000      0.2760      0.5209
  2544.5000    103.5720      3.0000      0.0347      0.5177
  2544.7500    107.7259      1.6891   -999.2500   -999.2500
  2545.0000    110.9289     -1.7175   -999.2500   -999.2500
  2545.2500    111.4379      3.0000   -999.2500   -999.2500
  2545.5000    108.9836     -3.0000   -999.2500   -999.2500
  2545.7500    105.2139     -0.5855   -999.2500   -999.2500
  2546.0000    102.5027      1.0094   -999.2500   -999.2500
  2546.2500    102.1255      0.8139   -999.2500   -999.2500
  2546.5000    103.4544      1.7120   -999.2500   -999.2500
  2546.7500    104.7786     -3.0000   -999.2500   -999.2500
  2547.0000    104.8648      0.6963   -999.2500   -999.2500
  2547.2500    103.7491     -1.9986   -999.2500   -999.2500
  2547.5000    102.3229      3.0000   -999.2500   -999.2500
  2547.7500    101.5143     -1.1595   -999.2500   -999.2500
  2548.0000    101.7375      2.9974   -999.2500   -999.2500
  2548.2500    102.6976      0.5809   -999.2500   -999.2500
  2548.5000    103.6951      3.0000   -999.2500   -999.2500
  2548.7500    104.3449      1.8073   -999.2500   -999.2500
  2549.0000    104.8816     -3.0000   -999.2500   -999.2500
  2549.2500    105.5971     -2.4289   -999.2500   -999.2500
  2549.5000    106.2062      2.4733   -999.2500   -999.2500
  2549.7500    105.9453      2.3483   -999.2500   -999.2500
  2550.0000    104.2538     -3.0000   -999.2500   -999.2500
  2550.2500    101.3645   -999.2500   -999.2500   -999.2500
  2550.5000     98.2174   -999.2500   -999.2500   -999.2500
  2550.7500     95.7678   -999.2500   -999.2500   -999.2500
  2551.0000     94.3700   -999.2500   -999.2500   -999.2500
  2551.2500     93.7189   -999.2500   -999.2500   -999.2500
  2551.5000     93.2400   -999.2500   -999.2500   -999.2500
  2551.7500     92.3960   -999.2500   -999.2500   -999.2500
  2552.0000     90.3307   -999.2500   -999.2500   -999.2500
  2552.2500     85.2181   -999.2500   -999.2500   -999.2500
  2552.5000     74.8022   -999.2500   -999.2500   -999.2500
  2552.7500     58.5844   -999.2500   -999.2500   -999.2500
  2553.0000     39.4434   -999.2500   -999.2500   -999.2500
  2553.2500     22.1913   -999.2500   -999.2500   -999.2500
  2553.5000     10.2256   -999.2500   -999.2500   -999.2500
  2553.7500      3.8062   -999.2500   -999.2500   -999.2500
  2554.0000      1.1330   -999.2500   -999.2500   -999.2500
  2554.2500      0.2676   -999.2500   -999.2500   -999.2500
  2554.5000      0.0494   -999.2500   -999.2500   -999.2500
  2554.7500      0.0065   -999.2500   -999.2500   -999.2500
  2555.0000      0.0000   -999.2500   -999.2500   -999.2500
  2555.2500   -999.2500   -999.2500   -999.2500   -999.2500
  2555.5000   -999.2500   -999.2500   -999.2500   -999.2500
  2555.7500   -999.2500   -999.2500   -999.2500   -999.2500
  2556.0000   -999.2500   -999.2500   -999.2500   -999.2500
  2556.2500   -999.2500   -999.2500   -999.2500   -999.2500
  2556.5000   -999.2500   -999.2500   -999.2500   -999.2500
