~Version Information
 VERS.                                  2.0 : CWLS LAS VERSION
 WRAP.                                   NO : WRAPING MODE
 SWARE .                 MController 2.5.0J : SOFTWARE VERSION
~Well Information
 WELL.                      McDaniel 09-34V : WELL
 COMP.                Petrogulf Corporation : COMPANY
 FLD.                      Purgatoire River : FIELD
 LOC.                SW/SE Sec 09 T33S R67W : LOCATION
 DATE.                             09/27/05 : DATE(S) LOGGED
 SRVC.       BLANCO Geological Services LLC : SERVICE COMPANY
 STAT.                                   CO : STATE
 CNTY.                           Las Animas : COUNTY
 CTRY.                                  USA : COUNTRY
 API.                       05-071-08333-00 : API NUMBER
 STRT.FT                               0.00 : START DEPTH
 STOP.FT                             2433.0 : STOP DEPTH 775.00
 STEP.FT                               1.00 : DEPTH INCREMENT
 NULL.                                -9999 : NULL VALUE
~Curve information
 DEPTH.FT                                   :
 ROP.MIN/FT                                 :
 GAS.UNITS                                  :
~ASCII Log data
# ...
      1600.0         0.20        719.3 
      1601.0         0.30        693.0 
      1602.0         0.27        619.0 
      1603.0         0.23        545.4 
      1604.0         0.27        519.7 
      1605.0         0.23        508.3 
      1606.0         0.17        523.8 
      1607.0         0.23        549.5 
      1608.0         0.23        556.2 
      1609.0         0.20        562.2 
      1610.0         0.23        609.8 
      1611.0         0.30        681.6 
      1612.0         0.22        697.4 
      1613.0         0.27        704.4 
      1614.0         0.30        702.8 
      1615.0         0.23        683.2 
      1616.0         0.23        591.8 
      1617.0         0.20        503.5 
      1618.0         0.23        483.8 
      1619.0         0.33        663.5 
      1620.0         3.35       3080.0 
      1621.0         0.47       1069.1 
      1622.0         0.30        919.9 
      1623.0         0.43        835.8 
      1624.0         0.72        835.2 
      1625.0         0.37        634.0 
      1626.0         0.50        727.0 
      1627.0         0.43        763.8 
      1628.0         0.27        773.0 
      1629.0         0.20        774.6 
      1630.0         0.23        773.6 
      1631.0         0.27        749.2 
      1632.0         0.30        740.3 
      1633.0         0.45        770.4 
      1634.0         0.47        780.3 
      1635.0         0.33        769.8 
      1636.0         0.20        740.6 
      1637.0         0.27        697.8 
      1638.0         0.33        635.2 
      1639.0         0.27        603.2 
      1640.0         0.23        616.2 
      1641.0         0.20        616.2 
      1642.0         0.17        606.0 
      1643.0         0.20        595.2 
      1644.0         0.20        579.1 
      1645.0         0.22        612.4 
      1646.0         0.23        602.9 
      1647.0         0.23        531.1 
      1648.0         0.27        549.9 
      1649.0         0.37        702.2 
      1650.0         3.62       3744.6 
      1651.0         0.43       1058.0 
      1652.0         0.43        727.0 
      1653.0         0.50        611.4 
      1654.0         0.55        514.3 
      1655.0         0.50        469.9 
      1656.0         0.47        461.6 
      1657.0         0.53        479.7 
      1658.0         0.57        491.8 
      1659.0         0.40        490.8 
      1660.0         0.47        465.4 
      1661.0         0.38        467.0 
      1662.0         0.47        470.8 
      1663.0         0.70        470.2 
      1664.0         0.87        471.8 
      1665.0         0.43        554.0 
      1666.0         0.30        633.3 
      1667.0         0.23        687.6 
      1668.0         0.35        725.1 
      1669.0         0.27        727.9 
      1670.0         0.30        729.5 
      1671.0         0.23        738.4 
      1672.0         0.27        741.6 
      1673.0         0.23        741.6 
      1674.0         0.37        741.2 
      1675.0         0.37        764.1 
      1676.0         0.20        754.9 
      1677.0         0.23        673.6 
      1678.0         0.20        606.4 
      1679.0         0.27        721.2 
      1680.0         3.30       1894.0 
      1681.0         0.30        891.0 
      1682.0         0.47        836.8 
      1683.0         0.37        650.2 
      1684.0         0.47        557.8 
      1685.0         0.47        502.6 
      1686.0         0.40        505.1 
      1687.0         0.40        499.1 
      1688.0         0.37        480.4 
      1689.0         0.35        483.5 
      1690.0         0.33        559.7 
      1691.0         0.20        617.5 
      1692.0         0.27        688.6 
      1693.0         0.23        712.0 
      1694.0         0.27        714.9 
      1695.0         0.23        715.2 
      1696.0         0.23        707.0 
      1697.0         0.20        691.1 
      1698.0         0.27        657.8 
      1699.0         0.23        585.7 
      1700.0         0.23        563.8 
      1701.0         0.28        693.3 
      1702.0         0.43        788.2 
      1703.0         0.50        796.5 
      1704.0         0.23        799.6 
      1705.0         0.20        796.8 
      1706.0         0.20        728.9 
      1707.0         0.20        648.9 
      1708.0         0.17        625.1 
      1709.0         0.27        670.5 
      1710.0         3.02       2019.0 
      1711.0         0.27       1160.2 
      1712.0         0.40       1069.4 
      1713.0         0.38        902.8 
      1714.0         0.37        800.3 
      1715.0         0.33        784.1 
      1716.0         0.23        694.3 
      1717.0         0.37        620.3 
      1718.0         0.60        532.4 
      1719.0         0.27        560.3 
      1720.0         0.33        589.8 
      1721.0         0.48        577.5 
      1722.0         0.30        522.6 
      1723.0         0.40        498.1 
      1724.0         0.33        499.1 
      1725.0         0.23        515.6 
      1726.0         0.33        536.8 
      1727.0         0.33        543.8 
      1728.0         0.30        540.7 
      1729.0         0.52        529.2 
      1730.0         0.63        522.6 
      1731.0         0.47        474.0 
      1732.0         0.23        503.5 
      1733.0         0.27        641.9 
      1734.0         0.37        774.6 
      1735.0         0.37        794.6 
      1736.0         0.30        778.7 
      1737.0         0.25        642.2 
      1738.0         0.27        536.5 
      1739.0         0.23        527.3 
      1740.0         0.27        680.9 
      1741.0         0.33        927.5 
      1742.0         2.48       2133.6 
      1743.0         0.43       1157.3 
      1744.0         0.33       1034.5 
      1745.0         0.30        911.4 
      1746.0         0.30        799.0 
      1747.0         0.45        697.4 
      1748.0         0.50        565.1 
      1749.0         0.50        632.1 
      1750.0         0.47        641.9 
      1751.0         0.37        643.2 
      1752.0         0.23        595.9 
      1753.0         0.30        550.8 
      1754.0         0.30        512.4 
      1755.0         0.23        490.5 
      1756.0         0.25        481.0 
      1757.0         0.23        482.6 
      1758.0         0.20        494.6 
      1759.0         0.23        496.5 
      1760.0         0.27        493.4 
      1761.0         0.33        498.8 
      1762.0         0.33        566.7 
      1763.0         0.30        639.0 
      1764.0         0.27        728.2 
      1765.0         0.27        785.7 
      1766.0         0.20        788.8 
      1767.0         0.20        768.2 
      1768.0         0.32        733.6 
      1769.0         0.27        607.3 
      1770.0         0.23        519.4 
      1771.0         0.23        487.3 
      1772.0         3.48       2233.9 
      1773.0         0.37       1139.9 
      1774.0         0.27       1030.7 
      1775.0         0.17        949.8 
      1776.0         0.23        908.5 
      1777.0         0.23        827.3 
      1778.0         0.23        771.7 
      1779.0         0.30        742.2 
      1780.0         0.27        677.4 
      1781.0         0.37        697.8 
      1782.0         4.93        892.3 
      1783.0         0.37        863.4 
      1784.0         0.37        830.7 
      1785.0         0.30        825.0 
      1786.0         0.35        827.3 
      1787.0         0.33        814.9 
      1788.0         0.27        790.4 
      1789.0         0.30        706.3 
      1790.0         0.30        747.0 
      1791.0         0.27        764.4 
      1792.0         0.23        763.1 
      1793.0         0.30        757.1 
      1794.0         0.30        737.1 
      1795.0         0.30        673.0 
      1796.0         0.43        720.0 
      1797.0         0.38        719.0 
      1798.0         0.37        682.8 
      1799.0         0.33        725.4 
