~Version Information
VERS.                      2.0: CWLS Log ASCII Standard - VERSION 2.0
WRAP.                       NO: One line per depth step
~Well Information Block
STRT.FT                 0.5000: 
STOP.FT              2744.2500: 
STEP.FT                 0.2500: 
NULL.                -999.2500: 
COMP.          Petrogulf Corporation: COMPANY
WELL.              Silva 1-43V: WELL
FLD.           Purgatoire River: FIELD
LOC.           2010' FSL & 614' FEL--: LOCATION
PROV.                 Colorado: PROVINCE
CNTY.               Las Animas: COUNTRY
SRVC.                Patterson: SERVICE COMPANY
DATE.          Mon Sep 12 10:37:12 2005: LOG DATE
UWI.           05 071 08371 00: UNIQUE WELL ID
~Curve Information Block
DEPT.FT            0 000 00 00: Depth
CCL.                          : Casing Collar Locator
TT3.usec                      : CBL 3' Travel Time
AMP3.mV                       : CBL 3' Amplitude
GR.GAPI                       : Gamma Ray
~Parameter Information Block
~A  Depth       CCL         TT3         AMP3         GR     
# ...
  2714.0000      0.0000    684.6847      4.7215    101.5302
  2714.2500      0.0000    681.7939      4.7291    105.3502
  2714.5000      0.0000    683.8552      4.7381    108.3182
  2714.7500      0.0000    688.6726      4.7503    109.5097
  2715.0000      0.0000    692.8640      4.7694    108.1014
  2715.2500      0.0000    695.0284      4.7968    104.3013
  2715.5000      0.0000    697.1376      4.8331     99.3149
  2715.7500      0.0000    702.5830      4.8813     94.3797
  2716.0000      0.0000    712.8975      4.9439     90.0951
  2716.2500      0.0000    726.4827      5.0116     86.5242
  2716.5000      0.0000    739.8616      5.0566     83.4163
  2716.7500      0.0000    749.3250      5.0377     80.2836
  2717.0000      0.0000    752.1190      4.9204     76.8523
  2717.2500      0.0000    748.0084      4.7038     73.7275
  2717.5000      0.0000    740.5782      4.4350     72.1770
  2717.7500      0.0000    735.9591      4.1855     72.9278
  2718.0000      0.0000    738.7043      3.9995     75.4509
  2718.2500      0.0000    748.1780      3.8689     78.5639
  2718.5000      0.0000    758.8442      3.7595     81.4649
  2718.7500      0.0000    764.0217      3.6523     84.1201
  2719.0000      0.0000    759.9698      3.5520     86.9449
  2719.2500      0.0000    747.7023      3.4672     90.1209
  2719.5000      0.0000    731.7518      3.3979     92.9728
  2719.7500      0.0000    717.0637      3.3417     94.1011
  2720.0000      0.0000    706.5032      3.3004     92.5391
  2720.2500      0.0000    700.3566      3.2738     88.9725
  2720.5000      0.0000    697.1139      3.2505     85.5919
  2720.7500      0.0000    694.8199      3.2142     84.4314
  2721.0000      0.0000    692.8892      3.1597     85.7474
  2721.2500      0.0000    693.2759      3.0994     88.0444
  2721.5000      0.0000    699.3021      3.0546     89.6130
  2721.7500      0.0000    712.4229      3.0413     90.0300
  2722.0000      0.0000    729.5254      3.0603     90.3562
  2722.2500      0.0000    743.4656      3.0984     91.9187
  2722.5000      0.0000    747.3300      3.1386     94.8092
  2722.7500      0.0000    739.3438      3.1695     97.6479
  2723.0000      0.0000    723.8513      3.1868     98.9086
  2723.2500      0.0000    707.5045      3.1949     98.3163
  2723.5000      0.0000    694.8352      3.2111     96.8088
  2723.7500      0.0000    686.9080      3.2616     95.2412
  2724.0000      0.0000    682.6686      3.3659     93.3080
  2724.2500      0.0000    680.7416      3.5264     89.8256
  2724.5000      0.0000    680.2469      3.7330     84.1393
  2724.7500      0.0000    680.5295      3.9686     77.2809
  2725.0000      0.0000    680.8110      4.2012     71.5414
  2725.2500      0.0000    680.6505      4.3776     68.6925
  2725.5000      0.0000    680.5596      4.4398     68.7839
  2725.7500      0.0000    681.7620      4.3551     70.9046
  2726.0000      0.0000    685.2720      4.1365     74.6782
  2726.2500      0.0000    691.2416      3.8365     80.2903
  2726.5000      0.0000    698.7770      3.5226     87.1423
  2726.7500      0.0000    705.7543      3.2530     93.2493
  2727.0000      0.0000    708.8887      3.0621     96.2573
  2727.2500      0.0000    705.4742      2.9533     94.8655
  2727.5000      0.0000    696.4902      2.9029     89.1304
  2727.7500      0.0000    687.1846      2.8742     79.5548
  2728.0000      0.0000    683.0278      2.8371     66.3761
  2728.2500      0.0000    685.2997      2.7822     50.2350
  2728.5000      0.0000    691.1867      2.7241     33.2762
  2728.7500      0.0000    697.0587      2.6908     18.6764
  2729.0000      0.0000    700.6315      2.7036      8.6601
  2729.2500      0.0000    700.9408      2.7617      3.2578
  2729.5000      0.0000    697.9418      2.8478      0.9816
  2729.7500      0.0000    692.5504      2.9435      0.2347
  2730.0000      0.0000    686.2390      3.0348      0.0437
  2730.2500      0.0000    680.2395      3.1093      0.0060
  2730.5000      0.0000    675.4749      3.1622      0.0000
  2730.7500      0.0000    673.0952      3.2059   -999.2500
  2731.0000      0.0000    674.0270      3.2641   -999.2500
  2731.2500      0.0000    677.5818      3.3543   -999.2500
  2731.5000      0.0000    681.1136      3.4742   -999.2500
  2731.7500      0.0000    681.5654      3.6028   -999.2500
  2732.0000      0.0000    677.5071      3.7136   -999.2500
  2732.2500      0.0000    670.1956      3.7919   -999.2500
  2732.5000      0.0000    662.6547      3.8407   -999.2500
  2732.7500      0.0000    656.0854      3.8653   -999.2500
  2733.0000      0.0000    644.3675      3.8469   -999.2500
  2733.2500      0.0000    611.5604      3.7310   -999.2500
  2733.5000      0.0000    539.4230      3.4550   -999.2500
  2733.7500      0.0000    424.1207      3.0085   -999.2500
  2734.0000      0.0000    286.6741      2.4730   -999.2500
  2734.2500      0.0000    162.0071      1.9837   -999.2500
  2734.5000      0.0000     75.0218      1.6394   -999.2500
  2734.7500      0.0000     28.0656      1.4520   -999.2500
  2735.0000      0.0000      8.3957      1.3730   -999.2500
  2735.2500      0.0000      1.9916      1.3471   -999.2500
  2735.5000      0.0000      0.3692      1.3405   -999.2500
  2735.7500      0.0000      0.0491      1.3392   -999.2500
  2736.0000      0.0000   -999.2500   -999.2500   -999.2500
  2736.2500      0.0000   -999.2500   -999.2500   -999.2500
  2736.5000      0.0000   -999.2500   -999.2500   -999.2500
  2736.7500      0.0000   -999.2500   -999.2500   -999.2500
  2737.0000      0.0000   -999.2500   -999.2500   -999.2500
  2737.2500      0.0000   -999.2500   -999.2500   -999.2500
  2737.5000      0.0000   -999.2500   -999.2500   -999.2500
  2737.7500      0.0000   -999.2500   -999.2500   -999.2500
  2738.0000      0.0000   -999.2500   -999.2500   -999.2500
  2738.2500      0.0000   -999.2500   -999.2500   -999.2500
  2738.5000      0.0000   -999.2500   -999.2500   -999.2500
  2738.7500      0.0000   -999.2500   -999.2500   -999.2500
  2739.0000      0.0000   -999.2500   -999.2500   -999.2500
  2739.2500      0.0000   -999.2500   -999.2500   -999.2500
  2739.5000      0.0000   -999.2500   -999.2500   -999.2500
  2739.7500      0.0000   -999.2500   -999.2500   -999.2500
  2740.0000      0.0000   -999.2500   -999.2500   -999.2500
  2740.2500      0.0000   -999.2500   -999.2500   -999.2500
  2740.5000      0.0000   -999.2500   -999.2500   -999.2500
  2740.7500      0.0000   -999.2500   -999.2500   -999.2500
  2741.0000      0.0000   -999.2500   -999.2500   -999.2500
  2741.2500      0.0000   -999.2500   -999.2500   -999.2500
  2741.5000   -999.2500   -999.2500   -999.2500   -999.2500
  2741.7500   -999.2500   -999.2500   -999.2500   -999.2500
  2742.0000   -999.2500   -999.2500   -999.2500   -999.2500
  2742.2500   -999.2500   -999.2500   -999.2500   -999.2500
  2742.5000   -999.2500   -999.2500   -999.2500   -999.2500
  2742.7500   -999.2500   -999.2500   -999.2500   -999.2500
  2743.0000   -999.2500   -999.2500   -999.2500   -999.2500
  2743.2500   -999.2500   -999.2500   -999.2500   -999.2500
  2743.5000   -999.2500   -999.2500   -999.2500   -999.2500
  2743.7500   -999.2500   -999.2500   -999.2500   -999.2500
  2744.0000   -999.2500   -999.2500   -999.2500   -999.2500
  2744.2500   -999.2500   -999.2500   -999.2500   -999.2500
