~Version Information
VERS.                      2.0: CWLS Log ASCII Standard - VERSION 2.0
WRAP.                       NO: One line per depth step
~Well Information Block
STRT.FT               -10.0000: 
STOP.FT              2544.2500: 
STEP.FT                 0.2500: 
NULL.                -999.2500: 
COMP.          Pioneer Natural Resources: COMPANY
WELL.            Cortina 23-25: WELL
FLD.           Purgatorie River: FIELD
LOC.           2344' FWL  & 2526' FSL------: LOCATION
PROV.                       CO: PROVINCE
CNTY.               Las Animas: COUNTRY
SRVC.          Patterson Wireline: SERVICE COMPANY
DATE.          Fri Apr 01 11:50:55 2005: LOG DATE
UWI.           05 071 08340 00: UNIQUE WELL ID
~Curve Information Block
DEPT.FT            0 000 00 00: Depth
CCL.                          : Casing Collar Locator
TT3.usec                      : CBL 3' Travel Time
AMP3.mV                       : CBL 3' Amplitude
GR.GAPI                       : Gamma Ray
~Parameter Information Block
~A  Depth       CCL         TT3         AMP3         GR     
# ...
  1330.0000      0.0000    807.7934      7.3465     85.7461
  1330.2500      0.0000    810.2276      7.4620     93.5441
  1330.5000      0.0000    812.2959      7.3974    101.5920
  1330.7500      0.0000    814.6816      7.1545    109.6582
  1331.0000      0.0000    817.0425      6.7757    117.5804
  1331.2500      0.0000    818.2548      6.3636    124.5739
  1331.5000      0.0000    817.5895      6.0557    129.8228
  1331.7500      0.0000    815.5051      5.9524    133.2704
  1332.0000      0.0000    813.4186      6.0507    135.3996
  1332.2500      0.0000    812.7738      6.2482    136.7948
  1332.5000      0.0000    814.1201      6.4184    138.1455
  1332.7500      0.0000    816.7654      6.4897    140.0400
  1333.0000      0.0000    819.1357      6.4637    142.4488
  1333.2500      0.0000    819.6852      6.3837    144.7791
  1333.5000      0.0000    817.8398      6.3006    146.4315
  1333.7500      0.0000    814.4000      6.2592    147.0541
  1334.0000      0.0000    811.1392      6.2946    146.4964
  1334.2500      0.0000    809.8077      6.4201    144.8061
  1334.5000      0.0000    811.1377      6.6112    142.1178
  1334.7500      0.0000    814.4633      6.8064    138.4605
  1335.0000      0.0000    818.1797      6.9324    133.8342
  1335.2500      0.0000    820.6879      6.9371    128.3406
  1335.5000      0.0000    821.1604      6.8100    122.1114
  1335.7500      0.0000    819.8596      6.5885    115.4657
  1336.0000      0.0000    818.0677      6.3543    109.4026
  1336.2500      0.0000    817.4321      6.2094    105.4883
  1336.5000      0.0000    818.7880      6.2261    104.7797
  1336.7500      0.0000    821.5411      6.4030    107.0051
  1337.0000      0.0000    824.3748      6.6692    110.8523
  1337.2500      0.0000    826.4124      6.9325    114.7825
  1337.5000      0.0000    827.5664      7.1188    117.7237
  1337.7500      0.0000    828.1231      7.1748    119.5886
  1338.0000      0.0000    828.3116      7.0646    121.2170
  1338.2500      0.0000    828.1918      6.7934    123.4470
  1338.5000      0.0000    827.6987      6.4421    126.1540
  1338.7500      0.0000    826.6844      6.1543    128.4516
  1339.0000      0.0000    824.9482      6.0566    129.8603
  1339.2500      0.0000    822.3550      6.1762    131.0451
  1339.5000      0.0000    819.1542      6.4348    133.2453
  1339.7500      0.0000    816.2129      6.7144    136.8733
  1340.0000      0.0000    814.5859      6.9232    140.6387
  1340.2500      0.0000    814.4519      7.0154    142.3428
  1340.5000      0.0000    814.5761      6.9843    140.9842
  1340.7500      0.0000    813.0980      6.8651    137.9134
  1341.0000      0.0000    808.6998      6.7354    135.4496
  1341.2500      0.0000    800.9274      6.6799    134.5239
  1341.5000      0.0000    790.0742      6.7332    134.0963
  1341.7500      0.0000    777.6715      6.8627    132.4994
  1342.0000      0.0000    766.8244      7.0078    128.7619
  1342.2500      0.0000    760.6753      7.1190    122.9713
  1342.5000      0.0000    760.0308      7.1600    116.2201
  1342.7500      0.0000    763.1557      7.0991    110.4109
  1343.0000      0.0000    767.8282      6.9163    107.5712
  1343.2500      0.0000    772.4166      6.6212    108.6590
  1343.5000      0.0000    775.0533      6.2651    112.7525
  1343.7500      0.0000    773.5908      5.9428    117.8098
  1344.0000      0.0000    767.2836      5.7718    122.3737
  1344.2500      0.0000    757.8532      5.8391    126.0643
  1344.5000      0.0000    748.4886      6.1443    128.4856
  1344.7500      0.0000    741.9776      6.5881    128.8353
  1345.0000      0.0000    739.8697      7.0238    127.2334
  1345.2500      0.0000    742.9739      7.3255    125.4230
  1345.5000      0.0000    751.6865      7.4248    125.2617
  1345.7500      0.0000    765.0765      7.3098    127.0297
  1346.0000      0.0000    779.8986      7.0131    129.7213
  1346.2500      0.0000    791.3301      6.6032    132.1364
  1346.5000      0.0000    795.1849      6.1770    133.0313
  1346.7500      0.0000    789.7054      5.8404    131.1564
  1347.0000      0.0000    776.2409      5.6749    126.2569
  1347.2500      0.0000    759.1043      5.7028    119.7764
  1347.5000      0.0000    744.2806      5.8782    113.8975
  1347.7500      0.0000    736.8094      6.1074    109.9313
  1348.0000      0.0000    738.1659      6.2890    107.7914
  1348.2500      0.0000    745.6209      6.3687    106.6007
  1348.5000      0.0000    754.1862      6.3872    105.2995
  1348.7500      0.0000    759.8788      6.4526    103.0145
  1349.0000      0.0000    761.8800      6.6253     99.5830
  1349.2500      0.0000    761.8974      6.8335     95.8867
  1349.5000     -2.0000    761.7565      6.9363     93.4085
  1349.7500     -2.0000    761.9860      6.8739     93.3831
  1350.0000      0.0000    762.3053      6.7424     96.2731
  1350.2500      0.0000    762.4313      6.7186    101.6888
  1350.5000      0.0000    762.2426      6.9204    108.5313
  1350.7500      0.0000    761.8866      7.3316    115.3080
  1351.0000      0.0000    761.7750      7.8355    120.6271
  1351.2500      0.0000    761.9382      8.2980    123.7651
  1351.5000      0.0000    761.6097      8.6196    124.9085
  1351.7500      0.0000    760.0684      8.7389    124.7300
  1352.0000      0.0000    757.6698      8.6375    123.7371
  1352.2500      0.0000    755.6785      8.3733    122.1515
  1352.5000      0.0000    755.3472      8.0980    120.2509
  1352.7500      0.0000    757.4092      7.9910    118.5058
  1353.0000      0.0000    761.8615      8.1279    117.3101
  1353.2500      0.0000    767.5656      8.4053    116.6842
  1353.5000      0.0000    772.2703      8.6207    116.2541
  1353.7500      0.0000    773.9962      8.6433    115.6821
  1354.0000      0.0000    772.7708      8.5156    115.2844
  1354.2500      0.0000    770.4466      8.3885    115.9796
  1354.5000      0.0000    768.5876      8.3606    118.3203
  1354.7500      0.0000    767.2869      8.3944    121.7130
  1355.0000      0.0000    766.1680      8.4002    124.6868
  1355.2500      0.0000    765.4042      8.3738    125.8035
  1355.5000      0.0000    765.2217      8.4027    124.3300
  1355.7500      0.0000    765.1994      8.5349    120.3511
  1356.0000      0.0000    764.1901      8.6909    114.5329
  1356.2500      0.0000    759.9057      8.7409    107.8356
  1356.5000      0.0000    747.9398      8.6527    101.3682
  1356.7500      0.0000    722.5098      8.5375     96.3168
  1357.0000      0.0000    681.8096      8.5385     93.6439
  1357.2500      0.0000    635.5587      8.6738     93.5492
  1357.5000      0.0000    604.6749      8.8066     95.2054
  1357.7500      0.0000    607.0097      8.7837     97.2926
  1358.0000      0.0000    641.2796      8.5947     98.9037
  1358.2500      0.0000    688.1404      8.3673     99.7683
  1358.5000      0.0000    727.2310      8.2094     99.7718
  1358.7500      0.0000    750.4637      8.1021     98.8924
  1359.0000      0.0000    760.9001      7.9754     97.8098
  1359.2500      0.0000    764.6856      7.8354     97.9958
  1359.5000      0.0000    765.9383      7.7534    100.6336
  1359.7500      0.0000    766.2294      7.7526    105.5131
  1360.0000      0.0000    765.8981      7.7880    111.3075
  1360.2500      0.0000    765.2290      7.8415    116.8675
  1360.5000      0.0000    764.9011      7.9637    121.8533
  1360.7500      0.0000    765.6770      8.1906    126.1406
  1361.0000      0.0000    767.8904      8.4650    129.1760
  1361.2500      0.0000    771.3098      8.6648    130.0681
  1361.5000      0.0000    775.3796      8.6821    128.1352
  1361.7500      0.0000    779.4689      8.4697    123.6907
  1362.0000      0.0000    783.0190      8.0551    118.5549
  1362.2500      0.0000    785.5587      7.5482    115.2282
  1362.5000      0.0000    786.7545      7.1176    114.9483
  1362.7500      0.0000    786.8969      6.9138    116.7807
  1363.0000      0.0000    787.3578      6.9778    119.0587
  1363.2500      0.0000    789.8123      7.2105    121.4934
