~Version Information
VERS.                      2.0: CWLS Log ASCII Standard - VERSION 2.0
WRAP.                       NO: One line per depth step
~Well Information Block
STRT.FT               970.5000: 
STOP.FT              2720.0000: 
STEP.FT                 0.1000: 
NULL.                -999.2500: 
COMP.          Petrogulf Corporation: COMPANY
WELL.             Burson 8-31V: WELL
FLD.           Purgatorie River: FIELD
LOC.           1113' FNL & 2152' FEL: LOCATION
CNTY.               Las Animas: COUNTY
SRVC.                         : SERVICE COMPANY
DATE.          Wed Nov 12 14:59:14 2003: LOG DATE
UWI.                          : UNIQUE WELL ID
STAT.                 Colorado: STATE
~Curve Information Block
DEPT.FT            0 000 00 00: Depth
DCAL.in                       : CDL Caliper
DPOR.pu                       : CDL Density Porosity
NEU.NAPI                      : Neutron
NPOR.pu                       : Neutron Porosity
RHOB.g/cc                     : CDL Bulk Density
RHOC.g/cc                     : CDL Density Correction
GR.GAPI                       : Gamma Ray
~Parameter Information Block
~A  Depth       DCAL        DPOR        NEU         NPOR        RHOB        RHOC         GR     
# ...
  1449.3000      8.1286     53.2323   1547.2876      4.3943      1.7717      0.4997    112.0057
  1449.4000      8.1286     60.7387   1432.1832      8.3991      1.6478      0.3231    112.0057
  1449.5000      8.1782     68.6336   1301.2137     13.6638      1.5175      0.1815     98.8758
  1449.6000      8.1782     73.2767   1206.4432     18.0843      1.4409      0.2105     98.8758
  1449.7000      8.1782     74.9234   1152.2109     20.8057      1.4138      0.2749     98.8758
  1449.8000      8.3625     75.3754   1106.7538     23.1743      1.4063      0.1475     81.9331
  1449.9000      8.3625     74.1538   1060.8524     25.6328      1.4265      0.1653     81.9331
  1450.0000      8.6039     70.2206   1027.5378     27.4517      1.4914      0.1903     80.2084
  1450.1000      8.6039     64.7689   1014.5436     28.1677      1.5813      0.2647     80.2084
  1450.2000      8.6039     60.3215   1019.4019     27.8996      1.6547      0.3743     80.2084
  1450.3000      9.1573     56.9549   1033.2296     27.1391      1.7102      0.2369     82.2514
  1450.4000      9.1573     51.8642   1048.2524     26.3176      1.7942      0.2352     82.2514
  1450.5000      9.5773     44.3119   1066.2902     25.3385      1.9189      0.2827     76.9288
  1450.6000      9.5773     36.4550   1088.7020     24.1338      2.0485      0.2642     76.9288
  1450.7000      9.5773     29.1722   1105.5197     23.2395      2.1687      0.2488     76.9288
  1450.8000      9.0945     21.5286   1117.7566     22.5944      2.2948      0.2685     85.1753
  1450.9000      9.0945     14.1451   1137.0492     21.5876      2.4166      0.3033     85.1753
  1451.0000      8.1713      9.7945   1159.3431     20.4409      2.4884      0.3062     89.0337
  1451.1000      8.1713      9.6177   1174.2919     19.6829      2.4913      0.1518     89.0337
  1451.2000      8.1713     11.4302   1178.7631     19.4579      2.4614      0.0991     89.0337
  1451.3000      8.0132     12.3449   1175.2585     19.6342      2.4463      0.0699    109.0623
  1451.4000      8.0132     11.3073   1172.0105     19.7980      2.4634      0.0963    109.0623
  1451.5000      7.9667      9.3850   1169.6259     19.9185      2.4951      0.1051    103.6096
  1451.6000      7.9667      7.8133   1162.6442     20.2728      2.5211      0.1037    103.6096
  1451.7000      7.9667      6.9526   1156.2776     20.5975      2.5353      0.1504    103.6096
  1451.8000      7.9772      7.2928   1159.7529     20.4200      2.5297      0.1549    102.9360
  1451.9000      7.9772      8.7472   1174.3184     19.6815      2.5057      0.0519    102.9360
  1452.0000      8.0101      9.8604   1194.0419     18.6955      2.4873     -0.0331    111.1804
  1452.1000      8.0101     10.1143   1211.2024     17.8515      2.4831      0.0608    111.1804
  1452.2000      8.0101     10.5556   1219.7230     17.4375      2.4758      0.0867    111.1804
  1452.3000      8.0146     10.7226   1212.7577     17.7757      2.4731      0.0092    110.1295
  1452.4000      8.0146      8.6635   1192.7816     18.7580      2.5071     -0.0153    110.1295
  1452.5000      7.9954      5.2761   1180.8185     19.3548      2.5629      0.1391    115.0136
  1452.6000      7.9954      3.9946   1183.8901     19.2010      2.5841      0.0936    115.0136
  1452.7000      7.9954      5.1660   1186.9235     19.0495      2.5648      0.0379    115.0136
  1452.8000      7.9903      6.2116   1186.7670     19.0573      2.5475      0.0518    126.2838
  1452.9000      7.9903      6.1098   1188.7328     18.9593      2.5492      0.0515    126.2838
  1453.0000      8.0142      5.6899   1191.6019     18.8166      2.5561      0.0648    122.5763
  1453.1000      8.0142      6.1905   1190.9576     18.8486      2.5479      0.0992    122.5763
  1453.2000      8.0142      7.7501   1184.6089     19.1650      2.5221     -0.0546    122.5763
  1453.3000      7.9794      8.6374   1182.5573     19.2677      2.5075     -0.0624    107.9545
  1453.4000      7.9794      8.3407   1191.2155     18.8358      2.5124      0.0626    107.9545
  1453.5000      7.9699      8.1663   1199.8245     18.4096      2.5153      0.0174    110.8148
  1453.6000      7.9699      8.2824   1199.3236     18.4343      2.5133      0.0175    110.8148
  1453.7000      7.9699      7.7873   1192.4176     18.7761      2.5215      0.0424    110.8148
  1453.8000      7.9663      6.5633   1180.3835     19.3766      2.5417      0.0302    120.1693
  1453.9000      7.9663      5.7852   1166.4608     20.0789      2.5545      0.0558    120.1693
  1454.0000      7.9715      6.2956   1159.5211     20.4319      2.5461      0.0441    123.4603
  1454.1000      7.9715      7.0534   1158.4504     20.4865      2.5336      0.0224    123.4603
  1454.2000      7.9715      6.4992   1153.8445     20.7220      2.5428     -0.0230    123.4603
  1454.3000      7.9777      4.8241   1146.8284     21.0823      2.5704      0.0848    107.9042
  1454.4000      7.9777      3.4387   1147.4342     21.0511      2.5933      0.0655    107.9042
  1454.5000      7.9681      2.9696   1152.0653     20.8132      2.6010      0.0783    125.6152
  1454.6000      7.9681      3.4166   1150.2615     20.9058      2.5936      0.0837    125.6152
  1454.7000      7.9681      4.8832   1145.7350     21.1386      2.5694      0.0716    125.6152
  1454.8000      7.9898      6.4707   1147.8428     21.0301      2.5432      0.0160    126.9281
  1454.9000      7.9898      6.6032   1152.4694     20.7925      2.5410      0.0745    126.9281
  1455.0000      7.9823      5.3857   1151.8333     20.8251      2.5611      0.0712    110.6924
  1455.1000      7.9823      4.1230   1143.7303     21.2420      2.5820      0.0756    110.6924
  1455.2000      7.9823      3.4725   1131.2479     21.8890      2.5927      0.0547    110.6924
  1455.3000      7.9871      3.7294   1123.8240     22.2764      2.5885      0.0725    106.3919
  1455.4000      7.9871      5.0441   1126.4712     22.1380      2.5668      0.0827    106.3919
  1455.5000      7.9674      6.9512   1127.1831     22.1009      2.5353      0.0539    113.3890
  1455.6000      7.9674      8.9096   1118.8488     22.5371      2.5030     -0.0022    113.3890
  1455.7000      7.9674     10.3372   1113.3099     22.8283      2.4794     -0.0119    113.3890
  1455.8000      7.9671     10.6753   1120.7495     22.4374      2.4739     -0.0159    122.9822
  1455.9000      7.9671      9.8142   1131.5756     21.8719      2.4881     -0.0619    122.9822
  1456.0000      7.9579      8.2296   1128.7621     22.0185      2.5142      0.0405    124.3753
  1456.1000      7.9579      7.3541   1112.7064     22.8601      2.5287      0.0340    124.3753
  1456.2000      7.9579      7.9015   1097.4130     23.6696      2.5196      0.0122    124.3753
  1456.3000      7.9477      8.2335   1088.8999     24.1233      2.5141     -0.0408    122.4746
  1456.4000      7.9477      6.5961   1080.6589     24.5645      2.5412      0.0292    122.4746
  1456.5000      7.9485      3.8605   1071.0028     25.0840      2.5863      0.0457    108.8494
  1456.6000      7.9485      2.4563   1067.4700     25.2747      2.6095      0.0784    108.8494
  1456.7000      7.9485      3.7586   1072.2096     25.0190      2.5880      0.1179    108.8494
  1456.8000      7.9433      6.6593   1083.5543     24.4093      2.5401     -0.0020    102.1672
  1456.9000      7.9433      8.4891   1091.6904     23.9743      2.5099     -0.0025    102.1672
  1457.0000      7.9414      7.7957   1084.7495     24.3453      2.5214     -0.0318    126.7016
  1457.1000      7.9414      5.6341   1072.9801     24.9774      2.5570      0.0940    126.7016
  1457.2000      7.9414      3.8911   1072.7529     24.9897      2.5858      0.0174    126.7016
  1457.3000      7.9331      3.2389   1081.3313     24.5285      2.5966      0.0777    128.6655
  1457.4000      7.9331      3.3245   1084.6421     24.3510      2.5951      0.0569    128.6655
  1457.5000      7.9325      2.7909   1078.9009     24.6589      2.6040      0.0393    115.1510
  1457.6000      7.9325      1.1740   1072.9188     24.9807      2.6306      0.0452    115.1510
