~Version Information
VERS.                      2.0: CWLS Log ASCII Standard - VERSION 2.0
WRAP.                       NO: One line per depth step
~Well Information Block
STRT.FT                -3.0000: 
STOP.FT              2043.2500: 
STEP.FT                 0.2500: 
NULL.                -999.2500: 
COMP.          Pioneer Natural Resources: COMPANY
WELL.           Galloway 32-13: WELL
FLD.           Purgatorie River: FIELD
LOC.           1809' FNL & 2004' FEL--: LOCATION
PROV.                       CO: PROVINCE
CNTY.               Las Animas: COUNTRY
SRVC.          Patterson Wireline: SERVICE COMPANY
DATE.          Thu Jul 14 13:02:15 2005: LOG DATE
UWI.           05 071 08423 00: UNIQUE WELL ID
~Curve Information Block
DEPT.FT            0 000 00 00: Depth
CCL.                          : Casing Collar Locator
TT3.usec                      : CBL 3' Travel Time
AMP3.mV                       : CBL 3' Amplitude
GR.GAPI                       : Gamma Ray
~Parameter Information Block
~A  Depth       CCL         TT3         AMP3         GR     
# ...
  1203.0000      0.0000    702.8710      4.3173    138.4892
  1203.2500      0.0000    688.5930      4.2698    140.8874
  1203.5000      0.0000    675.6530      4.1187    141.9991
  1203.7500      0.0000    666.1451      3.8729    139.7449
  1204.0000      0.0000    661.4172      3.6038    133.9837
  1204.2500      0.0000    661.7610      3.4002    127.3332
  1204.5000      0.0000    665.9841      3.3220    122.6446
  1204.7500      0.0000    671.4435      3.3781    120.6422
  1205.0000      0.0000    675.2437      3.5279    120.2811
  1205.2500      0.0000    676.7117      3.6919    120.2819
  1205.5000      0.0000    678.5751      3.7798    119.8632
  1205.7500      0.0000    684.4632      3.7420    118.8623
  1206.0000      0.0000    695.4768      3.6087    117.9031
  1206.2500      0.0000    710.0817      3.4752    118.0739
  1206.5000      0.0000    726.2261      3.4395    120.0516
  1206.7500      0.0000    742.1797      3.5381    123.7942
  1207.0000      0.0000    756.2224      3.7268    128.9197
  1207.2500      0.0000    766.8912      3.9140    134.9053
  1207.5000      0.0000    773.4155      4.0142    141.2670
  1207.7500      0.0000    775.6599      3.9837    147.9028
  1208.0000      0.0000    774.1498      3.8304    154.7506
  1208.2500      0.0000    770.3622      3.6113    160.8447
  1208.5000      0.0000    766.3878      3.4173    164.2386
  1208.7500      0.0000    763.7645      3.3386    163.1791
  1209.0000      0.0000    762.4242      3.4184    157.4636
  1209.2500      0.0000    760.9219      3.6321    148.8992
  1209.5000      0.0000    757.8000      3.9052    140.2642
  1209.7500      0.0000    752.4871      4.1556    133.5818
  1210.0000      0.0000    744.7910      4.3315    129.5710
  1210.2500      0.0000    734.3220      4.4316    128.3039
  1210.5000      0.0000    721.1893      4.4894    129.2854
  1210.7500      0.0000    706.9374      4.5249    130.7161
  1211.0000      0.0000    693.8798      4.5201    129.6451
  1211.2500      0.0000    683.5487      4.4524    123.5865
  1211.5000      0.0000    676.6147      4.3328    112.1862
  1211.7500      0.0000    674.0784      4.1993     97.7501
  1212.0000      0.0000    676.9945      4.0988     84.3400
  1212.2500      0.0000    684.5198      4.0855     75.6270
  1212.5000      0.0000    693.8435      4.1966     72.8714
  1212.7500      0.0000    702.9806      4.4050     74.8177
  1213.0000      0.0000    712.1032      4.6143     79.3946
  1213.2500      0.0000    721.0931      4.7180     85.4217
  1213.5000      0.0000    727.7582      4.6598     92.9292
  1213.7500      0.0000    729.7850      4.4533    102.1167
  1214.0000      0.0000    727.2674      4.1775    112.1591
  1214.2500      0.0000    722.7358      3.9482    121.2088
  1214.5000      0.0000    719.8265      3.8506    127.5731
  1214.7500      0.0000    721.7549      3.8785    130.6826
  1215.0000      0.0000    729.1922      3.9426    130.8466
  1215.2500      0.0000    739.1269      3.9343    128.3890
  1215.5000      0.0000    746.9619      3.7835    123.3628
  1215.7500      0.0000    750.3624      3.4872    116.1334
  1216.0000      0.0000    750.6902      3.1100    107.9313
  1216.2500      0.0000    750.5604      2.7501    100.4220
  1216.5000      0.0000    750.4145      2.4760     94.5783
  1216.7500      0.0000    747.8909      2.2804     90.2462
  1217.0000      0.0000    740.2447      2.1022     86.9061
  1217.2500      0.0000    726.9200      1.8974     84.3763
  1217.5000      0.0000    710.2186      1.6872     82.5324
  1217.7500      0.0000    693.9676      1.5367     80.8954
  1218.0000      0.0000    681.3606      1.4911     78.9813
  1218.2500      0.0000    673.7015      1.5310     76.7675
  1218.5000      0.0000    670.9260      1.5853     74.5764
  1218.7500      0.0000    672.7540      1.5872     72.8748
  1219.0000      0.0000    679.2018      1.5236     72.3857
  1219.2500      0.0000    690.5172      1.4447     73.9327
  1219.5000      0.0000    706.6130      1.4337     77.6645
  1219.7500      0.0000    725.9449      1.5542     82.5240
  1220.0000      0.0000    745.3655      1.8101     86.8607
  1220.2500      0.0000    762.3105      2.1463     89.8334
  1220.5000      0.0000    776.2401      2.4932     92.2394
  1220.7500      0.0000    786.1619      2.8111     95.6979
  1221.0000      0.0000    788.2673      3.1049    100.8223
  1221.2500      0.0000    779.1126      3.4129    106.3417
  1221.5000      0.0000    760.4301      3.7813    110.0784
  1221.7500      0.0000    738.0078      4.2295    110.4993
  1222.0000      0.0000    716.1772      4.7263    107.3480
  1222.2500      0.0000    695.7468      5.1984    101.4435
  1222.5000      0.0000    676.7585      5.5657     94.5796
  1222.7500      0.0000    660.5675      5.7735     89.3939
  1223.0000      0.0000    648.2213      5.8050     88.1233
  1223.2500      0.0000    637.7195      5.6770     90.6940
  1223.5000      0.0000    624.0917      5.4276     94.3941
  1223.7500      0.0000    603.7590      5.1083     95.9437
  1224.0000      0.0000    580.3514      4.7827     94.0019
  1224.2500      0.0000    564.9940      4.5192     89.8592
  1224.5000      0.0000    568.2369      4.3699     86.0861
  1224.7500      0.0000    591.3167      4.3507     84.4839
  1225.0000      0.0000    626.1709      4.4386     84.8762
  1225.2500      0.0000    662.7308      4.5874     85.5868
  1225.5000      0.0000    694.0087      4.7476     85.2160
  1225.7500      0.0000    715.8563      4.8842     84.0294
  1226.0000      0.0000    726.2914      4.9844     83.5128
  1226.2500      0.0000    726.3648      5.0516     84.5802
  1226.5000      0.0000    719.7088      5.0909     86.3475
  1226.7500      0.0000    710.5334      5.0998     86.7162
  1227.0000      0.0000    702.2731      5.0729     84.1064
  1227.2500      0.0000    697.1138      5.0160     78.7127
  1227.5000      0.0000    695.5796      4.9581     72.3548
  1227.7500      0.0000    697.1887      4.9511     67.2508
  1228.0000      0.0000    702.7150      5.0516     64.7359
  1228.2500      0.0000    715.3530      5.2929     64.7710
  1228.5000      0.0000    737.7969      5.6612     66.4527
  1228.7500      0.0000    766.3211      6.0963     69.0044
  1229.0000      0.0000    788.4860      6.5172     72.3853
  1229.2500      0.0000    790.5608      6.8583     76.7601
  1229.5000      0.0000    769.8717      7.0921     81.2166
  1229.7500      0.0000    738.3223      7.2266     83.5349
  1230.0000      0.0000    712.1848      7.2878     82.0708
  1230.2500      0.0000    699.7953      7.3069     77.8278
  1230.5000      0.0000    699.0760      7.3133     73.8825
  1230.7500      0.0000    703.4532      7.3230     72.5988
  1231.0000      0.0000    707.8677      7.3282     73.7900
  1231.2500      0.0000    710.5939      7.3078     75.4280
  1231.5000      0.0000    712.0059      7.2572     75.5920
  1231.7500      0.0000    712.8714      7.2069     73.8237
  1232.0000      0.0000    713.5219      7.2062     71.1861
  1232.2500      0.0000    713.9454      7.2842     69.3154
  1232.5000      0.0000    714.2311      7.4293     69.3835
  1232.7500      0.0000    714.9689      7.6086     71.7570
  1233.0000      0.0000    717.3696      7.8005     76.0704
  1233.2500      0.0000    722.7211      8.0032     81.0573
  1233.5000      0.0000    730.9240      8.2189     84.7118
  1233.7500      0.0000    739.1071      8.4422     85.5252
  1234.0000      0.0000    742.6592      8.6615     83.7931
  1234.2500      0.0000    738.9799      8.8591     81.3339
  1234.5000      0.0000    730.0189      9.0151     79.9049
  1234.7500      0.0000    720.2780      9.1229     80.1360
  1235.0000      0.0000    712.9144      9.1955     81.7957
  1235.2500      0.0000    708.6178      9.2466     84.6083
  1235.5000      0.0000    707.2402      9.2685     88.7040
  1235.7500      0.0000    709.0491      9.2352     94.4777
  1236.0000      0.0000    714.4736      9.1170    102.0496
  1236.2500      0.0000    723.2029      8.8878    110.6467
