~Version Information
VERS.                      2.0: CWLS Log ASCII Standard - VERSION 2.0
WRAP.                       NO: One line per depth step
~Well Information Block
STRT.FT               250.0000: 
STOP.FT              2600.7500: 
STEP.FT                 0.2500: 
NULL.                -999.2500: 
COMP.          Pioneer Natural Resources: COMPANY
WELL.              Quack 22-24: WELL
FLD.           Purgatoire River: FIELD
LOC.           2492' FNL & 2459' FWL--: LOCATION
PROV.                 Colorado: PROVINCE
CNTY.               Las Animas: COUNTRY
SRVC.                Patterson: SERVICE COMPANY
DATE.          Sun Jun 12 09:02:01 2005: LOG DATE
UWI.            05 071 0840200: UNIQUE WELL ID
~Curve Information Block
DEPT.FT            0 000 00 00: Depth
SN.Ohm-m                      : IEL Short Normal
SP.mV                         : IEL Spontaneous Potential
DIR.Ohm-m                     : IEL Induction Resistivity
GR.GAPI                       : Gamma Ray
~Parameter Information Block
~A  Depth        SN          SP         DIR          GR     
# ...
  2394.0000     21.1018    -57.6838     20.8442     71.3973
  2394.2500     21.1479    -58.8293     20.5345     70.6512
  2394.5000     21.1820    -60.1825     20.1999     71.5841
  2394.7500     21.2498    -61.6840     19.8945     73.1884
  2395.0000     21.3579    -63.2891     19.6589     75.7904
  2395.2500     21.4624    -64.9667     19.5080     77.0219
  2395.5000     21.4833    -66.6884     19.4207     77.5795
  2395.7500     21.3412    -68.4136     19.3375     76.9860
  2396.0000     20.9965    -70.0802     19.1756     74.7444
  2396.2500     20.4765    -71.6036     18.8618     72.7983
  2396.5000     19.8713    -72.8865     18.3691     70.9147
  2396.7500     19.2947    -73.8363     17.7296     71.6005
  2397.0000     18.8232    -74.3863     17.0151     76.9073
  2397.2500     18.4599    -74.5138     16.3007     83.1491
  2397.5000     18.1503    -74.2503     15.6390     94.9180
  2397.7500     17.8300    -73.6792     15.0538    103.1724
  2398.0000     17.4547    -72.9207     14.5493    114.4739
  2398.2500     16.9955    -72.1070     14.1212    120.5885
  2398.5000     16.4247    -71.3523     13.7623    127.1961
  2398.7500     15.7206    -70.7282     13.4621    130.2596
  2399.0000     14.8934    -70.2502     13.2067    133.7298
  2399.2500     14.0092    -69.8788     12.9812    135.0749
  2399.5000     13.1899    -69.5362     12.7757    133.9237
  2399.7500     12.5780    -69.1311     12.5885    130.3705
  2400.0000     12.2798    -68.5855     12.4246    122.0491
  2400.2500     12.3133    -67.8550     12.2866    116.2980
  2400.5000     12.5981    -66.9385     12.1674    110.2688
  2400.7500     12.9980    -65.8766     12.0488    108.6667
  2401.0000     13.3885    -64.7394     11.9102    109.1956
  2401.2500     13.7027    -63.6100     11.7407    110.6222
  2401.5000     13.9299    -62.5668     11.5464    113.2002
  2401.7500     14.0827    -61.6702     11.3489    114.8955
  2402.0000     14.1684    -60.9537     11.1768    117.1646
  2402.2500     14.1860    -60.4214     11.0563    118.2397
  2402.5000     14.1383    -60.0488     11.0058    118.2807
  2402.7500     14.0365    -59.7887     11.0336    116.6331
  2403.0000     13.8924    -59.5783     11.1390    111.2470
  2403.2500     13.7104    -59.3483     11.3140    106.1799
  2403.5000     13.4941    -59.0329     11.5446     98.1872
  2403.7500     13.2687    -58.5802     11.8140     93.8678
  2404.0000     13.1005    -57.9611     12.1066     90.5922
  2404.2500     13.0879    -57.1750     12.4122     90.9185
  2404.5000     13.3164    -56.2502     12.7264     94.4522
  2404.7500     13.8069    -55.2395     13.0462     97.6335
  2405.0000     14.4992    -54.2102     13.3641    101.0051
  2405.2500     15.2834    -53.2326     13.6672    101.2435
  2405.5000     16.0583    -52.3695     13.9435     98.7018
  2405.7500     16.7795    -51.6688     14.1933     96.1610
  2406.0000     17.4746    -51.1611     14.4352     93.1941
  2406.2500     18.2192    -50.8619     14.7043     92.2953
  2406.5000     19.0912    -50.7754     15.0427     91.7112
  2406.7500     20.1256    -50.8996     15.4880     90.7549
  2407.0000     21.2985    -51.2287     16.0646     87.1339
  2407.2500     22.5530    -51.7541     16.7785     83.3912
  2407.5000     23.8477    -52.4633     17.6180     77.4391
  2407.7500     25.1842    -53.3380     18.5603     74.3101
  2408.0000     26.5944    -54.3540     19.5800     71.6165
  2408.2500     28.1047    -55.4815     20.6508     70.8766
  2408.5000     29.7128    -56.6882     21.7441     70.2489
  2408.7500     31.3858    -57.9425     22.8308     69.4888
  2409.0000     33.0656    -59.2162     23.8933     67.2923
  2409.2500     34.6755    -60.4856     24.9366     65.3632
  2409.5000     36.1323    -61.7312     25.9796     62.7280
  2409.7500     37.3609    -62.9354     27.0271     61.5168
  2410.0000     38.3059    -64.0814     28.0405     60.3848
  2410.2500     38.9400    -65.1528     28.9341     59.7911
  2410.5000     39.2763    -66.1348     29.6172     59.0325
  2410.7500     39.3827    -67.0170     30.0555     58.9496
  2411.0000     39.3817    -67.7954     30.2976     60.0125
  2411.2500     39.4201    -68.4720     30.4345     61.2709
  2411.5000     39.6119    -69.0524     30.5338     62.5518
  2411.7500     39.9847    -69.5411     30.6080     62.1831
  2412.0000     40.4634    -69.9388     30.6332     59.5077
  2412.2500     40.9054    -70.2424     30.5858     56.8653
  2412.5000     41.1665    -70.4496     30.4609     53.2259
  2412.7500     41.1575    -70.5668     30.2638     51.9053
  2413.0000     40.8629    -70.6151     29.9922     52.3065
  2413.2500     40.3144    -70.6316     29.6313     53.9759
  2413.5000     39.5491    -70.6624     29.1624     57.5662
  2413.7500     38.5839    -70.7484     28.5797     60.0516
  2414.0000     37.4175    -70.9119     27.8977     63.2737
  2414.2500     36.0537    -71.1468     27.1490     65.0189
  2414.5000     34.5272    -71.4215     26.3746     67.4079
  2414.7500     32.9162    -71.6919     25.6173     69.2767
  2415.0000     31.3274    -71.9206     24.9168     73.2139
  2415.2500     29.8580    -72.0931     24.3014     76.7844
  2415.5000     28.5570    -72.2238     23.7785     83.4948
  2415.7500     27.4139    -72.3487     23.3287     88.7247
  2416.0000     26.3802    -72.5076     22.9106     97.0842
  2416.2500     25.4057    -72.7235     22.4725    102.2920
  2416.5000     24.4646    -72.9886     21.9664    108.2370
  2416.7500     23.5615    -73.2625     21.3589    110.6179
  2417.0000     22.7208    -73.4853     20.6377    112.1651
  2417.2500     21.9692    -73.5993     19.8119    112.2744
  2417.5000     21.3170    -73.5719     18.9055    111.9153
  2417.7500     20.7507    -73.4105     17.9471    111.9209
  2418.0000     20.2448    -73.1655     16.9637    112.9038
  2418.2500     19.7850    -72.9194     15.9837    113.9416
  2418.5000     19.3823    -72.7681     15.0436    115.0404
  2418.7500     19.0692    -72.8010     14.1909    115.2460
  2419.0000     18.8839    -73.0854     13.4746    115.4168
  2419.2500     18.8522    -73.6591     12.9299    115.8504
  2419.5000     18.9707    -74.5315     12.5630    116.8958
  2419.7500     19.2001    -75.6896     12.3417    117.6921
  2420.0000     19.4743    -77.1066     12.1886    119.4373
  2420.2500     19.7266    -78.7513     11.9823    121.2010
  2420.5000     19.9173    -80.5958     11.5791    123.8275
  2420.7500     20.0427    -82.6235     10.8714    124.4801
  2421.0000     20.1182    -84.8349      9.8577    122.7204
  2421.2500     20.1511    -87.2513      8.6590    119.8592
  2421.5000     20.1361    -89.9096      7.4525    113.6252
  2421.7500     20.0844    -92.8487      6.3812    108.2917
  2422.0000     20.0550    -96.0846      5.5140     98.5319
  2422.2500     20.1505    -99.5781      4.8574     90.9753
  2422.5000     20.4810   -103.2069      4.3845     78.6359
  2422.7500     21.1169   -106.7486      4.0574     70.3738
  2423.0000     22.0419   -109.8877      3.8407     59.5360
  2423.2500     23.1123   -112.2477      3.7078     54.1905
  2423.5000     24.0791   -113.4451      3.6448     49.2381
  2423.7500     24.7202   -113.1532      3.6514     47.4246
  2424.0000     24.9974   -111.1621      3.7401     45.8773
  2424.2500     25.0700   -107.4198      3.9336     45.4313
  2424.5000     25.1274   -102.0481      4.2615     46.0257
  2424.7500     25.2161    -95.3286      4.7568     47.7560
  2425.0000     25.2234    -87.6645      5.4485     53.3700
  2425.2500     24.9901    -79.5266      6.3462     59.4310
  2425.5000     24.4257    -71.3919      7.4136     71.1359
  2425.7500     23.5589    -63.6884      8.5424     79.3285
  2426.0000     22.5227    -56.7514      9.5585     89.6353
  2426.2500     21.4950    -50.7982     10.2953     94.3542
  2426.5000     20.6323    -45.9241     10.6951     98.3241
  2426.7500     20.0332    -42.1145     10.8403     99.4300
  2427.0000     19.7364    -39.2709     10.8867     99.6944
  2427.2500     19.7307    -37.2426     10.9797     99.4898
