~Version Information
 VERS.                                  2.0 : CWLS LAS VERSION
 WRAP.                                   NO : WRAPING MODE
 SWARE .                 MController 2.5.0E : SOFTWARE VERSION
~Well Information
 WELL.                      Robinson 15-11v : WELL
 COMP.                       Petrogulf Corp : COMPANY
 FLD.                      Purgatoire River : FIELD
 LOC.                NW/NW Sec 15 T33S R67W : LOCATION
 DATE.                               8/3/04 : DATE(S) LOGGED
 SRVC.       Blanco Geological Services LLC : SERVICE COMPANY
 STAT.                                   CO : STATE
 CNTY.                           Las Animas : COUNTY
 CTRY.                                  USA : COUNTRY
 API.                       05-071-08027-00 : API NUMBER
 STRT.FT                             588.00 : START DEPTH
 STOP.FT                            2101.00 : STOP DEPTH
 STEP.FT                               1.00 : DEPTH INCREMENT
 NULL.                                -9999 : NULL VALUE
~Curve information
 DEPTH.FT                                   :
 ROP.MIN/FT                                 :
 GAS.UNITS                                  :
~ASCII Log data
# ...
     1388.00        0.300         14.8 
     1389.00        0.233         13.5 
     1390.00        0.267         12.8 
     1391.00        0.183         13.7 
     1392.00        0.167         13.7 
     1393.00        0.133         14.0 
     1394.00        0.133         12.7 
     1395.00        0.167         13.2 
     1396.00        0.200         12.8 
     1397.00        0.167         10.8 
     1398.00        0.133         11.6 
     1399.00        0.133         10.9 
     1400.00        0.167         10.6 
     1401.00        0.133          9.4 
     1402.00        0.167         10.5 
     1403.00        0.200         10.7 
     1404.00        0.200         10.1 
     1405.00        0.133         10.1 
     1406.00        0.133          9.9 
     1407.00        0.333          8.4 
     1408.00        0.167          5.6 
     1409.00        0.167          4.6 
     1410.00        4.100         35.5 
     1411.00        0.400         17.5 
     1412.00        0.167         14.5 
     1413.00        0.167         14.9 
     1414.00        0.200         14.4 
     1415.00        0.167         15.5 
     1416.00        0.267         15.2 
     1417.00        0.300         15.6 
     1418.00        0.267         14.6 
     1419.00        0.233         13.3 
     1420.00        0.200         12.7 
     1421.00        0.200         11.0 
     1422.00        0.283         10.4 
     1423.00        0.200          9.0 
     1424.00        0.200          8.8 
     1425.00        0.167          7.3 
     1426.00        0.167          6.9 
     1427.00        0.200          7.3 
     1428.00        0.233          5.8 
     1429.00        0.167          6.3 
     1430.00        0.133          5.6 
     1431.00        0.167          6.2 
     1432.00        0.200          6.8 
     1433.00        0.267          6.5 
     1434.00        0.267          6.5 
     1435.00        0.100          5.0 
     1436.00        0.133          3.8 
     1437.00        0.133          3.3 
     1438.00        0.167          1.9 
     1439.00        0.200          1.2 
     1440.00        2.683         34.2 
     1441.00        0.333         28.3 
     1442.00        0.283         27.2 
     1443.00        0.267         22.7 
     1444.00        0.233         19.8 
     1445.00        0.167         19.5 
     1446.00        0.133         18.1 
     1447.00        0.233         18.7 
     1448.00        0.300         17.2 
     1449.00        0.267         17.0 
     1450.00        0.300         14.7 
     1451.00        0.333         13.8 
     1452.00        0.267         12.2 
     1453.00        0.300         11.9 
     1454.00        0.233         10.5 
     1455.00        0.283          9.8 
     1456.00        0.233          8.7 
     1457.00        0.233          8.3 
     1458.00        0.200          7.0 
     1459.00        0.200          6.2 
     1460.00        0.233          6.5 
     1461.00        0.200          5.1 
     1462.00        0.200          5.6 
     1463.00        0.167          6.9 
     1464.00        0.167          7.6 
     1465.00        0.200          6.9 
     1466.00        0.200          7.7 
     1467.00        0.200          6.7 
     1468.00        0.167          5.5 
     1469.00        0.167          3.9 
     1470.00        3.483         28.9 
     1471.00        0.167         21.7 
     1472.00        0.250         20.6 
     1473.00        0.200         18.9 
     1474.00        0.300         18.0 
     1475.00        0.300         16.2 
     1476.00        0.267         15.7 
     1477.00        0.267         14.3 
     1478.00        0.233         13.5 
     1479.00        0.200         11.6 
     1480.00        0.233         11.0 
     1481.00        0.267         10.4 
     1482.00        0.167         10.2 
     1483.00        0.133          9.2 
     1484.00        0.133          9.7 
     1485.00        0.167          9.2 
     1486.00        0.167          9.7 
     1487.00        0.167          9.4 
     1488.00        0.217          9.2 
     1489.00        0.233          8.5 
     1490.00        0.200          7.5 
     1491.00        0.200          8.4 
     1492.00        0.200          8.9 
     1493.00        0.200          9.4 
     1494.00        0.200         10.9 
     1495.00        0.167         10.7 
     1496.00        0.233          9.6 
     1497.00        0.200          7.6 
     1498.00        0.167          4.8 
     1499.00        0.200          3.3 
     1500.00        2.883         29.7 
     1501.00        0.267         24.6 
     1502.00        0.267         23.2 
     1503.00        0.233         21.2 
     1504.00        0.200         20.5 
     1505.00        0.233         19.1 
     1506.00        0.200         18.2 
     1507.00        0.283         17.9 
     1508.00        0.233         17.1 
     1509.00        0.267         15.9 
     1510.00        0.233         13.9 
     1511.00        0.233         13.6 
     1512.00        0.200         12.3 
     1513.00        0.200         11.6 
     1514.00        0.200         11.4 
     1515.00        0.267         11.2 
     1516.00        0.200         10.8 
     1517.00        0.200         10.0 
     1518.00        0.200          9.6 
     1519.00        0.233          8.7 
     1520.00        0.233          8.2 
     1521.00        0.167          7.2 
     1522.00        0.183          7.1 
     1523.00        0.167          7.0 
     1524.00        0.200          7.3 
     1525.00        0.200          8.0 
     1526.00        0.200          7.3 
     1527.00        0.200          7.3 
     1528.00        0.233          5.9 
     1529.00        0.200          2.9 
     1530.00        3.450         28.0 
     1531.00        0.300         23.1 
     1532.00        0.267         20.8 
     1533.00        0.233         18.7 
     1534.00        0.233         16.8 
     1535.00        0.200         16.0 
     1536.00        0.267         15.8 
     1537.00        0.250         14.8 
     1538.00        0.233         13.7 
     1539.00        0.267         13.0 
     1540.00        0.267         12.2 
     1541.00        0.233         11.5 
     1542.00        0.233         11.3 
     1543.00        0.200         11.2 
     1544.00        0.233         10.3 
     1545.00        0.200          9.8 
     1546.00        0.200         10.5 
     1547.00        0.167         15.7 
     1548.00        0.200         27.3 
     1549.00        0.233         47.4 
     1550.00        0.133         57.6 
     1551.00        0.167         68.1 
     1552.00        0.267         74.8 
     1553.00        0.317         85.9 
     1554.00        0.300        106.7 
     1555.00        0.200        113.4 
     1556.00        0.233        113.9 
     1557.00        0.267        108.7 
     1558.00        0.167         91.7 
     1559.00        0.300         78.9 
     1560.00        3.583        157.4 
     1561.00        0.300        110.8 
     1562.00        0.267        100.0 
     1563.00        0.233         96.0 
     1564.00        0.233         92.1 
     1565.00        0.217         88.5 
     1566.00        0.233         83.5 
     1567.00        0.200         78.5 
     1568.00        0.233         74.5 
     1569.00        0.200         69.9 
     1570.00        0.200         66.8 
     1571.00        0.200         64.9 
     1572.00        0.200         62.7 
     1573.00        0.167         60.6 
     1574.00        0.200         59.9 
     1575.00        0.200         58.7 
     1576.00        0.200         57.3 
     1577.00        0.267         55.6 
     1578.00        0.200         53.8 
     1579.00        0.200         54.1 
     1580.00        0.200         54.4 
     1581.00        0.217         60.8 
     1582.00        0.200         68.8 
     1583.00        0.167         73.9 
     1584.00        0.133         75.6 
     1585.00        0.200         75.5 
     1586.00        0.233         69.4 
     1587.00        0.267         56.3 
