~Version Information
VERS.                      2.0: CWLS Log ASCII Standard - VERSION 2.0
WRAP.                       NO: One line per depth step
~Well Information Block
STRT.FT               870.0000: 
STOP.FT              2519.5000: 
STEP.FT                 0.2500: 
NULL.                -999.2500: 
COMP.          Pioneer Natural Resources: COMPANY
WELL.              Tiaga 23-14: WELL
FLD.           Purgatoire River: FIELD
LOC.           2168' FSL & 2030' FWL: LOCATION
PROV.                 Colorado: PROVINCE
CNTY.               Las Animas: COUNTRY
SRVC.                         : SERVICE COMPANY
DATE.          Sat May 07 08:44:43 2005: LOG DATE
UWI.           05 071 08329 00: UNIQUE WELL ID
~Curve Information Block
DEPT.FT            0 000 00 00: Depth
LTEN.lb                       : Surface Line Tension
SN.Ohm-m                      : IEL Short Normal
SP.mV                         : IEL Spontaneous Potential
DIR.Ohm-m                     : IEL Induction Resistivity
GR.GAPI                       : Gamma Ray
~Parameter Information Block
~A  Depth       LTEN         SN          SP         DIR          GR     
# ...
  2270.0000    886.1613     17.8890     28.0638     11.0531     86.8577
  2270.2500    889.2908     17.6409     28.0928     11.2624     88.4940
  2270.5000    892.3840     17.4580     28.1744     11.5602     90.2217
  2270.7500    895.0417     17.3682     28.3014     11.9403     89.9934
  2271.0000    896.8884     17.3343     28.4595     12.3951     87.2052
  2271.2500    897.5623     17.2831     28.6306     12.9166     84.1211
  2271.5000    896.9405     17.2755     28.7971     13.4951     78.7367
  2271.7500    895.4809     17.6002     28.9485     14.1169     75.2119
  2272.0000    894.0167     18.6472     29.0866     14.7628     70.7025
  2272.2500    892.9918     20.7197     29.2243     15.4092     68.3426
  2272.5000    892.0746     23.8992     29.3790     16.0330     65.4046
  2272.7500    890.6728     27.9756     29.5640     16.6152     63.4318
  2273.0000    888.6920     32.5353     29.7826     17.1402     60.0069
  2273.2500    886.6748     37.1059     30.0300     17.5915     57.4864
  2273.5000    885.2859     41.0457     30.2991     17.9474     53.8675
  2273.7500    884.7601     43.3657     30.5879     18.1790     52.0280
  2274.0000    884.8265     43.1090     30.9012     18.2551     51.2323
  2274.2500    885.1199     40.1716     31.2478     18.1519     52.6283
  2274.5000    885.6414     35.5524     31.6329     17.8654     57.8341
  2274.7500    886.8135     30.6336     32.0479     17.4190     62.8424
  2275.0000    889.1382     26.3419     32.4660     16.8555     71.0309
  2275.2500    892.7583     22.9811     32.8497     16.2186     75.9341
  2275.5000    897.1453     20.5324     33.1693     15.5389     81.1747
  2275.7500    901.1594     18.8806     33.4160     14.8355     83.0020
  2276.0000    903.6383     17.8597     33.6047     14.1297     83.7415
  2276.2500    904.1287     17.2712     33.7651     13.4541     83.4587
  2276.5000    903.1184     16.9169     33.9266     12.8491     82.5111
  2276.7500    901.5981     16.6413     34.1015     12.3487     81.5990
  2277.0000    900.3268     16.3801     34.2796     11.9704     79.8363
  2277.2500    899.3627     16.1663     34.4390     11.7131     78.5294
  2277.5000    898.2256     16.0701     34.5637     11.5619     76.5110
  2277.7500    896.4889     16.1106     34.6523     11.4954     75.0298
  2278.0000    894.1735     16.2293     34.7130     11.4929     72.5986
  2278.2500    891.6566     16.3569     34.7567     11.5395     71.2009
  2278.5000    889.3643     16.4622     34.7960     11.6252     70.3347
  2278.7500    887.5489     16.5288     34.8441     11.7425     70.7491
  2279.0000    886.2526     16.5252     34.9077     11.8819     72.1866
  2279.2500    885.4687     16.4287     34.9833     12.0330     73.0908
  2279.5000    885.3582     16.2879     35.0592     12.1866     73.8221
  2279.7500    886.2266     16.1996     35.1162     12.3378     73.9105
  2280.0000    888.2300     16.2079     35.1276     12.4849     73.5508
  2280.2500    891.2035     16.2951     35.0691     12.6264     72.9826
  2280.5000    894.8058     16.4241     34.9367     12.7572     71.8689
  2280.7500    898.6518     16.5431     34.7529     12.8680     71.3205
  2281.0000    902.2999     16.5919     34.5504     12.9474     71.4275
  2281.2500    905.3217     16.5396     34.3481     12.9862     72.2418
  2281.5000    907.3489     16.4221     34.1420     12.9814     74.3941
  2281.7500    907.9143     16.3288     33.9174     12.9363     76.2787
  2282.0000    906.5018     16.3406     33.6695     12.8576     79.4360
  2282.2500    903.0436     16.4646     33.4133     12.7517     81.4418
  2282.5000    898.1744     16.6208     33.1766     12.6257     83.5984
  2282.7500    892.8278     16.7140     32.9851     12.4935     84.2210
  2283.0000    887.8174     16.7159     32.8484     12.3782     84.2263
  2283.2500    883.8398     16.6469     32.7563     12.3042     84.0964
  2283.5000    881.4943     16.5189     32.6847     12.2832     84.2819
  2283.7500    881.1284     16.3379     32.6095     12.3078     84.5167
  2284.0000    882.7458     16.1299     32.5196     12.3579     84.1692
  2284.2500    885.9647     15.9421     32.4191     12.4160     83.0932
  2284.5000    889.9023     15.8253     32.3186     12.4762     80.5461
  2284.7500    893.3030     15.8074     32.2245     12.5416     78.8720
  2285.0000    895.1310     15.8847     32.1358     12.6129     77.1973
  2285.2500    895.1616     16.0328     32.0468     12.6834     76.4927
  2285.5000    894.0283     16.2178     31.9516     12.7409     75.1300
  2285.7500    892.7742     16.4049     31.8498     12.7750     73.6821
  2286.0000    892.2075     16.5712     31.7492     12.7822     71.0533
  2286.2500    892.4252     16.7022     31.6644     12.7646     69.4645
  2286.5000    892.9630     16.7710     31.6095     12.7286     67.7636
  2286.7500    893.4852     16.7454     31.5929     12.6843     67.0559
  2287.0000    894.1211     16.6348     31.6161     12.6489     66.5890
  2287.2500    895.0004     16.5043     31.6722     12.6473     66.7900
  2287.5000    895.7150     16.4252     31.7398     12.7064     67.9841
  2287.7500    895.4857     16.4369     31.7795     12.8458     69.1660
  2288.0000    893.7827     16.5349     31.7351     13.0679     70.7528
  2288.2500    890.7145     16.6617     31.5385     13.3542     71.3353
  2288.5000    886.9963     16.7482     31.1186     13.6698     71.4986
  2288.7500    883.6752     16.7953     30.4197     13.9753     71.3273
  2289.0000    881.7083     16.8854     29.4255     14.2408     70.7628
  2289.2500    881.5703     17.1265     28.1716     14.4555     70.0523
  2289.5000    883.1707     17.5912     26.7336     14.6265     68.0775
  2289.7500    886.0995     18.2618     25.1991     14.7702     65.9145
  2290.0000    889.8769     19.0249     23.6393     14.9050     61.4581
  2290.2500    894.0025     19.7451     22.0983     15.0480     58.2545
  2290.5000    897.9030     20.3360     20.6004     15.2148     54.7326
  2290.7500    900.9691     20.7812     19.1629     15.4211     54.0434
  2291.0000    902.7247     21.1245     17.8024     15.6816     55.9172
  2291.2500    902.9932     21.4136     16.5348     16.0074     58.8047
  2291.5000    901.9285     21.6329     15.3748     16.3994     64.5061
  2291.7500    899.9599     21.7244     14.3391     16.8416     68.4431
  2292.0000    897.6916     21.6746     13.4497     17.3026     73.4061
  2292.2500    895.6177     21.5536     12.7309     17.7467     75.7901
  2292.5000    893.8092     21.4837     12.2014     18.1476     78.2348
  2292.7500    892.0660     21.5691     11.8680     18.4939     79.4194
  2293.0000    890.4359     21.8287     11.7294     18.7823     80.6199
  2293.2500    889.3330     22.1979     11.7851     19.0097     80.7546
  2293.5000    889.0946     22.5845     12.0414     19.1712     79.4025
  2293.7500    889.6342     22.9366     12.5102     19.2670     77.3249
  2294.0000    890.5723     23.2895     13.2015     19.3078     72.4277
  2294.2500    891.5820     23.7009     14.1145     19.3128     68.0687
  2294.5000    892.5710     24.1064     15.2269     19.2995     60.7955
  2294.7500    893.6108     24.3486     16.4905     19.2745     56.6726
  2295.0000    894.8480     24.4207     17.8332     19.2317     54.0159
  2295.2500    896.5119     24.5517     19.1711     19.1586     55.3125
  2295.5000    898.7701     24.9245     20.4261     19.0430     61.1043
  2295.7500    901.4262     25.4427     21.5411     18.8760     66.3904
  2296.0000    903.9513     25.8888     22.4881     18.6524     74.5616
  2296.2500    905.8736     26.1452     23.2664     18.3725     79.3961
  2296.5000    906.8724     26.1852     23.8948     18.0484     84.9758
  2296.7500    906.5325     26.0165     24.3999     17.7109     87.4914
  2297.0000    904.4898     25.6987     24.8069     17.4093     89.7622
  2297.2500    900.9375     25.3266     25.1374     17.2012     90.4321
  2297.5000    896.6193     24.9837     25.4123     17.1376     90.0367
  2297.7500    892.3120     24.7417     25.6542     17.2511     88.7151
