~Version Information
VERS.                      2.0: CWLS Log ASCII Standard - VERSION 2.0
WRAP.                       NO: One line per depth step
~Well Information Block
STRT.FT               456.0000: 
STOP.FT              1703.0000: 
STEP.FT                 0.2500: 
NULL.                -999.2500: 
COMP.          Pioneer Natural Resources: COMPANY
WELL.                Mead 11-9: WELL
FLD.           Purgatoire River: FIELD
LOC.           1127' FNL & 668' FWL: LOCATION
PROV.                 Colorado: PROVINCE
CNTY.               Las Animas: COUNTRY
SRVC.                Patterson: SERVICE COMPANY
DATE.          Fri Feb 18 16:14:34 2005: LOG DATE
UWI.           05 071 08160 00: UNIQUE WELL ID
~Curve Information Block
DEPT.FT            0 000 00 00: Depth
SN.Ohm-m                      : IEL Short Normal
SP.mV                         : IEL Spontaneous Potential
DIR.Ohm-m                     : IEL Induction Resistivity
GR.GAPI                       : Gamma Ray
~Parameter Information Block
~A  Depth        SN          SP         DIR          GR     
# ...
  1260.0000     26.7253   -146.1415     27.1523     37.8786
  1260.2500     26.6376   -146.2753     26.8706     38.9487
  1260.5000     26.9341   -146.3451     26.7647     41.2768
  1260.7500     27.3130   -146.3639     26.8630     42.7474
  1261.0000     27.5394   -146.3440     27.1443     44.1570
  1261.2500     27.5915   -146.3004     27.5333     44.3576
  1261.5000     27.6088   -146.2570     27.9312     43.5050
  1261.7500     27.7373   -146.2433     28.2655     42.3258
  1262.0000     28.0431   -146.2826     28.5210     40.0826
  1262.2500     28.5410   -146.3790     28.7313     38.5103
  1262.5000     29.2242   -146.5094     28.9473     36.2753
  1262.7500     30.0453   -146.6276     29.2115     34.8931
  1263.0000     30.9381   -146.6829     29.5497     32.8541
  1263.2500     31.8635   -146.6461     29.9723     31.3942
  1263.5000     32.7817   -146.5228     30.4746     28.9917
  1263.7500     33.6221   -146.3435     31.0265     27.4157
  1264.0000     34.3417   -146.1422     31.5633     25.6257
  1264.2500     34.9667   -145.9411     31.9886     25.0726
  1264.5000     35.5313   -145.7518     32.2036     25.2697
  1264.7500     35.9954   -145.5823     32.1627     25.9686
  1265.0000     36.2354   -145.4378     31.9174     27.7862
  1265.2500     36.1129   -145.3128     31.6096     29.6488
  1265.5000     35.5700   -145.1830     31.4118     33.6811
  1265.7500     34.6943   -145.0084     31.4480     37.0936
  1266.0000     33.6771   -144.7506     31.7314     42.6548
  1266.2500     32.6681   -144.3986     32.1347     46.2412
  1266.5000     31.6917   -143.9857     32.4159     50.9207
  1266.7500     30.7251   -143.5760     32.3303     53.3286
  1267.0000     29.8096   -143.2316     31.7870     55.5548
  1267.2500     29.0451   -142.9944     30.9097     56.1172
  1267.5000     28.5107   -142.8921     29.9356     55.8801
  1267.7500     28.2194   -142.9481     29.0650     55.1479
  1268.0000     28.1191   -143.1749     28.3886     53.1822
  1268.2500     28.1189   -143.5600     27.8969     51.2886
  1268.5000     28.1617   -144.0626     27.5220     48.0617
  1268.7500     28.2704   -144.6255     27.1806     46.2922
  1269.0000     28.4733   -145.1904     26.8079     45.2692
  1269.2500     28.7144   -145.7100     26.3677     45.7819
  1269.5000     28.8888   -146.1529     25.8404     47.5301
  1269.7500     28.9263   -146.5025     25.1999     48.7329
  1270.0000     28.7981   -146.7520     24.4069     50.1201
  1270.2500     28.4872   -146.8988     23.4311     50.9279
  1270.5000     27.9758   -146.9388     22.2859     52.7643
  1270.7500     27.2079   -146.8605     21.0408     55.0424
  1271.0000     26.0615   -146.6414     19.7964     61.2150
  1271.2500     24.4410   -146.2554     18.6418     67.7714
  1271.5000     22.4376   -145.6942     17.6275     81.7296
  1271.7500     20.3474   -144.9893     16.7651     93.2887
  1272.0000     18.4874   -144.2186     16.0422    111.3825
  1272.2500     17.0118   -143.4906     15.4403    121.8445
  1272.5000     15.8993   -142.9079     14.9450    132.5415
  1272.7500     15.0525   -142.5277     14.5480    136.1926
  1273.0000     14.3823   -142.3400     14.2421    138.1279
  1273.2500     13.8468   -142.2794     14.0179    138.1804
  1273.5000     13.4625   -142.2662     13.8654    136.9653
  1273.7500     13.2810   -142.2483     13.7787    134.7941
  1274.0000     13.3399   -142.2161     13.7616    128.5472
  1274.2500     13.6361   -142.1879     13.8272    122.4389
  1274.5000     14.1306   -142.1851     13.9914    111.3778
  1274.7500     14.7688   -142.2162     14.2677    103.3469
  1275.0000     15.5232   -142.2744     14.6624     90.7930
  1275.2500     16.4250   -142.3440     15.1749     82.1810
  1275.5000     17.5365   -142.4121     15.7983     69.4128
  1275.7500     18.8828   -142.4781     16.5208     61.6557
  1276.0000     20.3901   -142.5534     17.3293     52.3774
  1276.2500     21.8770   -142.6485     18.2114     48.0664
  1276.5000     23.1452   -142.7581     19.1591     43.8377
  1276.7500     24.1247   -142.8565     20.1695     41.8462
  1277.0000     24.9055   -142.9077     21.2435     39.3106
  1277.2500     25.6204   -142.8818     22.3822     37.8268
  1277.5000     26.3354   -142.7685     23.5818     35.9143
  1277.7500     27.0363   -142.5816     24.8288     34.7297
  1278.0000     27.6929   -142.3512     26.0907     32.9091
  1278.2500     28.3040   -142.1076     27.3032     31.7890
  1278.5000     28.8682   -141.8712     28.3726     30.7614
  1278.7500     29.3707   -141.6522     29.2077     30.7419
  1279.0000     29.8110   -141.4551     29.7679     31.7380
  1279.2500     30.1990   -141.2783     30.0823     32.9628
  1279.5000     30.5230   -141.1131     30.2197     35.4288
  1279.7500     30.7398   -140.9471     30.2431     37.4388
  1280.0000     30.7957   -140.7690     30.1907     41.0593
  1280.2500     30.6623   -140.5731     30.0847     43.8913
  1280.5000     30.3566   -140.3635     29.9420     48.2984
  1280.7500     29.9393   -140.1604     29.7688     50.6013
  1281.0000     29.4967   -139.9961     29.5495     51.4853
  1281.2500     29.1063   -139.8992     29.2505     49.8717
  1281.5000     28.7981   -139.8783     28.8435     45.0674
  1281.7500     28.5504   -139.9185     28.3330     41.6705
  1282.0000     28.3190   -139.9887     27.7652     38.7030
  1282.2500     28.0484   -140.0493     27.2115     38.8432
  1282.5000     27.6684   -140.0616     26.7364     41.7899
  1282.7500     27.1481   -140.0027     26.3710     44.5366
  1283.0000     26.5730   -139.8755     26.1096     47.4975
  1283.2500     26.1229   -139.7075     25.9281     47.6183
  1283.5000     25.9473   -139.5403     25.8096     44.5371
  1283.7500     26.0761   -139.4173     25.7547     40.8854
  1284.0000     26.4304   -139.3774     25.7705     34.7475
  1284.2500     26.8638   -139.4478     25.8481     31.1019
  1284.5000     27.2271   -139.6340     25.9472     27.0730
  1284.7500     27.4763   -139.9141     25.9973     25.5184
  1285.0000     27.7151   -140.2436     25.9162     25.1521
  1285.2500     28.1110   -140.5707     25.6412     26.3323
  1285.5000     28.7555   -140.8524     25.1530     30.1672
  1285.7500     29.5410   -141.0671     24.4732     33.9710
  1286.0000     30.1751   -141.2191     23.6420     41.3047
  1286.2500     30.3594   -141.3283     22.6989     47.0406
  1286.5000     29.9016   -141.4090     21.6865     56.2757
  1286.7500     28.6931   -141.4544     20.6614     62.4870
  1287.0000     26.7445   -141.4390     19.6942     71.5619
  1287.2500     24.2776   -141.3328     18.8494     77.4754
  1287.5000     21.7013   -141.1171     18.1639     86.3264
  1287.7500     19.4528   -140.7995     17.6403     92.1698
  1288.0000     17.8119   -140.4176     17.2542    100.1114
  1288.2500     16.8016   -140.0247     16.9690    104.0170
  1288.5000     16.2580   -139.6673     16.7478    106.2441
  1288.7500     15.9819   -139.3750     16.5620    104.8711
  1289.0000     15.8424   -139.1604     16.3982     99.0573
  1289.2500     15.8067   -139.0181     16.2636     93.5037
  1289.5000     15.9211   -138.9225     16.1852     84.2202
  1289.7500     16.2633   -138.8348     16.2048     78.1948
  1290.0000     16.8926   -138.7182     16.3694     70.4206
  1290.2500     17.8156   -138.5541     16.7205     66.3754
  1290.5000     18.9742   -138.3484     17.2833     62.0012
  1290.7500     20.2409   -138.1254     18.0598     60.0383
  1291.0000     21.4445   -137.9142     19.0250     58.1858
  1291.2500     22.4730   -137.7342     20.1271     57.4575
  1291.5000     23.3542   -137.5889     21.2922     56.5867
  1291.7500     24.1887   -137.4734     22.4327     55.8410
  1292.0000     25.0428   -137.3866     23.4604     54.3406
  1292.2500     25.9226   -137.3381     24.3005     53.2750
  1292.5000     26.7732   -137.3398     24.9017     51.9259
  1292.7500     27.4795   -137.3887     25.2452     51.2232
  1293.0000     27.9326   -137.4572     25.3483     50.3627
  1293.2500     28.1275   -137.5014     25.2562     49.9025
