~Version Information
VERS.                      2.0: CWLS Log ASCII Standard - VERSION 2.0
WRAP.                       NO: One line per depth step
~Well Information Block
STRT.FT               660.8000: 
STOP.FT              2375.1000: 
STEP.FT                 0.1000: 
NULL.                -999.2500: 
COMP.          Petrogulf Corporation: COMPANY
WELL.             State 16-34V: WELL
FLD.           Purgatorie River: FIELD
LOC.           1146' FSL & 1393' FEL: LOCATION
CNTY.               Las Animas: COUNTY
SRVC.                         : SERVICE COMPANY
DATE.          Sat Jun 07 20:51:20 2003: LOG DATE
UWI.           05 071 07724 00: UNIQUE WELL ID
STAT.                 Colorado: STATE
~Curve Information Block
DEPT.FT            0 000 00 00: Depth
DCAL.in                       : Caliper from Density Tool
RHOB.g/cc                     : Bulk Density
RHOC.g/cc                     : Density Correction
DPOR.pu                       : Density Porosity
GR.GAPI                       : Gamma Ray
NPOR.pu                       : Neutron Porosity
~Parameter Information Block
~A  Depth       DCAL        RHOB        RHOC        DPOR         GR         NPOR    
# ...
  1457.6000      7.7746      2.4056      0.0373     14.8126    137.7135     23.3270
  1457.7000      7.7746      2.4056      0.0373     14.8126    135.9986     23.1089
  1457.8000      7.7519      2.4411      0.0356     12.6578    134.6193     22.9230
  1457.9000      7.7519      2.4411      0.0356     12.6578    133.6227     22.7814
  1458.0000      7.7928      2.4570      0.0344     11.6949    133.0313     22.6931
  1458.1000      7.7928      2.4570      0.0344     11.6949    132.8451     22.6630
  1458.2000      7.7928      2.4570      0.0344     11.6949    133.0431     22.6912
  1458.3000      7.8294      2.4718      0.0329     10.7981    133.5881     22.7735
  1458.4000      7.8294      2.4718      0.0329     10.7981    134.4283     22.9010
  1458.5000      7.8116      2.4785      0.0325     10.3914    135.4979     23.0616
  1458.6000      7.8116      2.4785      0.0325     10.3914    136.7205     23.2410
  1458.7000      7.8116      2.4785      0.0325     10.3914    138.0110     23.4242
  1458.8000      7.8289      2.4872      0.0336      9.8690    139.2769     23.5979
  1458.9000      7.8289      2.4872      0.0336      9.8690    140.4226     23.7511
  1459.0000      7.8860      2.4927      0.0356      9.5342    141.3538     23.8768
  1459.1000      7.8860      2.4927      0.0356      9.5342    141.9850     23.9723
  1459.2000      7.8860      2.4927      0.0356      9.5342    142.2429     24.0385
  1459.3000      7.8505      2.5013      0.0412      9.0114    142.0724     24.0789
  1459.4000      7.8505      2.5013      0.0412      9.0114    141.4414     24.0983
  1459.5000      7.7936      2.5077      0.0474      8.6219    140.3444     24.1014
  1459.6000      7.7936      2.5077      0.0474      8.6219    138.8046     24.0920
  1459.7000      7.7936      2.5077      0.0474      8.6219    136.8734     24.0724
  1459.8000      7.8185      2.5185      0.0606      7.9717    134.6263     24.0439
  1459.9000      7.8185      2.5185      0.0606      7.9717    132.1574     24.0076
  1460.0000      7.8744      2.5255      0.0708      7.5467    129.5710     23.9645
  1460.1000      7.8744      2.5255      0.0708      7.5467    126.9721     23.9166
  1460.2000      7.8744      2.5255      0.0708      7.5467    124.4544     23.8664
  1460.3000      7.8935      2.5332      0.0845      7.0779    122.0933     23.8167
  1460.4000      7.8935      2.5332      0.0845      7.0779    119.9407     23.7702
  1460.5000      7.8883      2.5353      0.0904      6.9527    118.0258     23.7285
  1460.6000      7.8883      2.5353      0.0904      6.9527    116.3569     23.6917
  1460.7000      7.8883      2.5353      0.0904      6.9527    114.9303     23.6585
  1460.8000      7.8819      2.5334      0.0920      7.0678    113.7360     23.6264
  1460.9000      7.8819      2.5334      0.0920      7.0678    112.7665     23.5929
  1461.0000      7.8652      2.5297      0.0882      7.2936    112.0202     23.5555
  1461.1000      7.8652      2.5297      0.0882      7.2936    111.5032     23.5131
  1461.2000      7.8652      2.5297      0.0882      7.2936    111.2246     23.4667
  1461.3000      7.8713      2.5229      0.0771      7.7042    111.1955     23.4194
  1461.4000      7.8713      2.5229      0.0771      7.7042    111.4214     23.3761
  1461.5000      7.8986      2.5191      0.0679      7.9358    111.8984     23.3432
  1461.6000      7.8986      2.5191      0.0679      7.9358    112.6110     23.3270
  1461.7000      7.8986      2.5191      0.0679      7.9358    113.5321     23.3334
  1461.8000      7.9038      2.5161      0.0546      8.1139    114.6229     23.3663
  1461.9000      7.9038      2.5161      0.0546      8.1139    115.8360     23.4270
  1462.0000      7.9074      2.5163      0.0474      8.1004    117.1209     23.5136
  1462.1000      7.9074      2.5163      0.0474      8.1004    118.4259     23.6218
  1462.2000      7.9074      2.5163      0.0474      8.1004    119.7039     23.7449
  1462.3000      7.9460      2.5192      0.0403      7.9260    120.9175     23.8754
  1462.4000      7.9460      2.5192      0.0403      7.9260    122.0414     24.0057
  1462.5000      7.9576      2.5218      0.0381      7.7707    123.0645     24.1292
  1462.6000      7.9576      2.5218      0.0381      7.7707    123.9887     24.2412
  1462.7000      7.9576      2.5218      0.0381      7.7707    124.8255     24.3383
  1462.8000      7.9254      2.5244      0.0375      7.6132    125.5934     24.4185
  1462.9000      7.9254      2.5244      0.0375      7.6132    126.3096     24.4810
  1463.0000      7.9379      2.5244      0.0380      7.6107    126.9853     24.5252
  1463.1000      7.9379      2.5244      0.0380      7.6107    127.6222     24.5511
  1463.2000      7.9379      2.5244      0.0380      7.6107    128.2088     24.5590
  1463.3000      7.9231      2.5223      0.0388      7.7380    128.7229     24.5501
  1463.4000      7.9231      2.5223      0.0388      7.7380    129.1340     24.5271
  1463.5000      7.8924      2.5208      0.0391      7.8301    129.4084     24.4945
  1463.6000      7.8924      2.5208      0.0391      7.8301    129.5153     24.4585
  1463.7000      7.8924      2.5208      0.0391      7.8301    129.4335     24.4266
  1463.8000      7.8961      2.5212      0.0399      7.8033    129.1549     24.4070
  1463.9000      7.8961      2.5212      0.0399      7.8033    128.6895     24.4069
  1464.0000      7.8683      2.5244      0.0411      7.6100    128.0623     24.4316
  1464.1000      7.8683      2.5244      0.0411      7.6100    127.3117     24.4832
  1464.2000      7.8683      2.5244      0.0411      7.6100    126.4844     24.5599
  1464.3000      7.8456      2.5331      0.0445      7.0825    125.6289     24.6557
  1464.4000      7.8456      2.5331      0.0445      7.0825    124.7903     24.7614
  1464.5000      7.8801      2.5400      0.0476      6.6694    124.0026     24.8654
  1464.6000      7.8801      2.5400      0.0476      6.6694    123.2898     24.9553
  1464.7000      7.8801      2.5400      0.0476      6.6694    122.6658     25.0204
  1464.8000      7.8619      2.5478      0.0520      6.1920    122.1383     25.0526
  1464.9000      7.8619      2.5478      0.0520      6.1920    121.7105     25.0484
  1465.0000      7.7987      2.5497      0.0541      6.0806    121.3853     25.0093
  1465.1000      7.7987      2.5497      0.0541      6.0806    121.1679     24.9421
  1465.2000      7.7987      2.5497      0.0541      6.0806    121.0668     24.8582
  1465.3000      7.7722      2.5467      0.0557      6.2618    121.0947     24.7724
  1465.4000      7.7722      2.5467      0.0557      6.2618    121.2670     24.7015
  1465.5000      7.7623      2.5424      0.0568      6.5200    121.6019     24.6625
  1465.6000      7.7623      2.5424      0.0568      6.5200    122.1188     24.6707
  1465.7000      7.7623      2.5424      0.0568      6.5200    122.8346     24.7381
  1465.8000      7.7711      2.5377      0.0623      6.8082    123.7624     24.8718
  1465.9000      7.7711      2.5377      0.0623      6.8082    124.9083     25.0732
  1466.0000      7.8181      2.5384      0.0705      6.7651    126.2665     25.3372
  1466.1000      7.8181      2.5384      0.0705      6.7651    127.8157     25.6527
  1466.2000      7.8181      2.5384      0.0705      6.7651    129.5213     26.0036
  1466.3000      7.8407      2.5463      0.0895      6.2853    131.3314     26.3703
  1466.4000      7.8407      2.5463      0.0895      6.2853    133.1795     26.7318
  1466.5000      7.8297      2.5536      0.1037      5.8404    134.9928     27.0677
  1466.6000      7.8297      2.5536      0.1037      5.8404    136.6947     27.3606
  1466.7000      7.8297      2.5536      0.1037      5.8404    138.2137     27.5969
  1466.8000      7.8431      2.5602      0.1196      5.4426    139.4897     27.7687
  1466.9000      7.8431      2.5602      0.1196      5.4426    140.4784     27.8731
  1467.0000      7.8208      2.5579      0.1227      5.5834    141.1581     27.9129
  1467.1000      7.8208      2.5579      0.1227      5.5834    141.5318     27.8951
