~Version Information
VERS.                      2.0: CWLS Log ASCII Standard - VERSION 2.0
WRAP.                       NO: One line per depth step
~Well Information Block
STRT.FT                -7.0500: 
STOP.FT              3072.6000: 
STEP.FT                 0.0500: 
NULL.                -999.2500: 
COMP.          Pioneer Natural Resources: COMPANY
WELL.              Stones 24-8: WELL
FLD.           Purgatoire River: FIELD
LOC.           648' FSL & 2264' FWL--: LOCATION
PROV.                 Colorado: PROVINCE
CNTY.               Las Animas: COUNTRY
SRVC.                Patterson: SERVICE COMPANY
DATE.          Fri Feb 04 12:43:19 2005: LOG DATE
UWI.           05 071 07945 00: UNIQUE WELL ID
~Curve Information Block
DEPT.FT            0 000 00 00: Depth
CCL.                          : Casing Collar Locator
TT3.usec                      : CBL 3' Travel Time
AMP3.mV                       : CBL 3' Amplitude
GR.GAPI                       : Gamma Ray
~Parameter Information Block
~A  Depth       CCL         TT3         AMP3         GR     
# ...
  2445.1500      0.0000    406.1780      1.9247    167.6109
  2445.2000      0.0000    406.1780      1.9247    167.6109
  2445.2500      0.0000    406.9990      1.9505    172.8172
  2445.3000      0.0000    406.9990      1.9505    172.8172
  2445.3500      0.0000    406.9990      1.9505    172.8172
  2445.4000      0.0000    406.9990      1.9505    172.8172
  2445.4500      0.0000    406.9990      1.9505    172.8172
  2445.5000      0.0000    409.3160      1.9746    174.6265
  2445.5500      0.0000    409.3160      1.9746    174.6265
  2445.6000      0.0000    409.3160      1.9746    174.6265
  2445.6500      0.0000    409.3160      1.9746    174.6265
  2445.7000      0.0000    409.3160      1.9746    174.6265
  2445.7500      0.0000    415.9324      1.9932    173.4483
  2445.8000      0.0000    415.9324      1.9932    173.4483
  2445.8500      0.0000    415.9324      1.9932    173.4483
  2445.9000      0.0000    415.9324      1.9932    173.4483
  2445.9500      0.0000    415.9324      1.9932    173.4483
  2446.0000      0.0000    431.6616      2.0037    170.1813
  2446.0500      0.0000    431.6616      2.0037    170.1813
  2446.1000      0.0000    431.6616      2.0037    170.1813
  2446.1500      0.0000    431.6616      2.0037    170.1813
  2446.2000      0.0000    431.6616      2.0037    170.1813
  2446.2500      0.0000    461.0371      2.0055    165.4219
  2446.3000      0.0000    461.0371      2.0055    165.4219
  2446.3500      0.0000    461.0371      2.0055    165.4219
  2446.4000      0.0000    461.0371      2.0055    165.4219
  2446.4500      0.0000    461.0371      2.0055    165.4219
  2446.5000      0.0000    503.4595      1.9998    159.4209
  2446.5500      0.0000    503.4595      1.9998    159.4209
  2446.6000      0.0000    503.4595      1.9998    159.4209
  2446.6500      0.0000    503.4595      1.9998    159.4209
  2446.7000      0.0000    503.4595      1.9998    159.4209
  2446.7500      0.0000    549.8869      1.9892    152.5964
  2446.8000      0.0000    549.8869      1.9892    152.5964
  2446.8500      0.0000    549.8869      1.9892    152.5964
  2446.9000      0.0000    549.8869      1.9892    152.5964
  2446.9500      0.0000    549.8869      1.9892    152.5964
  2447.0000      0.0000    585.5753      1.9749    145.7230
  2447.0500      0.0000    585.5753      1.9749    145.7230
  2447.1000      0.0000    585.5753      1.9749    145.7230
  2447.1500      0.0000    585.5753      1.9749    145.7230
  2447.2000      0.0000    585.5753      1.9749    145.7230
  2447.2500      0.0000    597.3424      1.9554    139.4892
  2447.3000      0.0000    597.3424      1.9554    139.4892
  2447.3500      0.0000    597.3424      1.9554    139.4892
  2447.4000      0.0000    597.3424      1.9554    139.4892
  2447.4500      0.0000    597.3424      1.9554    139.4892
  2447.5000      0.0000    579.7743      1.9272    134.2979
  2447.5500      0.0000    579.7743      1.9272    134.2979
  2447.6000      0.0000    579.7743      1.9272    134.2979
  2447.6500      0.0000    579.7743      1.9272    134.2979
  2447.7000      0.0000    579.7743      1.9272    134.2979
  2447.7500      0.0000    537.7151      1.8903    130.6671
  2447.8000      0.0000    537.7151      1.8903    130.6671
  2447.8500      0.0000    537.7151      1.8903    130.6671
  2447.9000      0.0000    537.7151      1.8903    130.6671
  2447.9500      0.0000    537.7151      1.8903    130.6671
  2448.0000      0.0000    484.6813      1.8517    129.0472
  2448.0500      0.0000    484.6813      1.8517    129.0472
  2448.1000      0.0000    484.6813      1.8517    129.0472
  2448.1500      0.0000    484.6813      1.8517    129.0472
  2448.2000      0.0000    484.6813      1.8517    129.0472
  2448.2500      0.0000    436.4658      1.8237    128.8024
  2448.3000      0.0000    436.4658      1.8237    128.8024
  2448.3500      0.0000    436.4658      1.8237    128.8024
  2448.4000      0.0000    436.4658      1.8237    128.8024
  2448.4500      0.0000    436.4658      1.8237    128.8024
  2448.5000      0.0000    402.9089      1.8166    128.0705
  2448.5500      0.0000    402.9089      1.8166    128.0705
  2448.6000      0.0000    402.9089      1.8166    128.0705
  2448.6500      0.0000    402.9089      1.8166    128.0705
  2448.7000      0.0000    402.9089      1.8166    128.0705
  2448.7500      0.0000    384.5791      1.8334    125.2355
  2448.8000      0.0000    384.5791      1.8334    125.2355
  2448.8500      0.0000    384.5791      1.8334    125.2355
  2448.9000      0.0000    384.5791      1.8334    125.2355
  2448.9500      0.0000    384.5791      1.8334    125.2355
  2449.0000      0.0000    376.3473      1.8670    120.3328
  2449.0500      0.0000    376.3473      1.8670    120.3328
  2449.1000      0.0000    376.3473      1.8670    120.3328
  2449.1500      0.0000    376.3473      1.8670    120.3328
  2449.2000      0.0000    376.3473      1.8670    120.3328
  2449.2500      0.0000    372.8323      1.9020    114.8295
  2449.3000      0.0000    372.8323      1.9020    114.8295
  2449.3500      0.0000    372.8323      1.9020    114.8295
  2449.4000      0.0000    372.8323      1.9020    114.8295
  2449.4500      0.0000    372.8323      1.9020    114.8295
  2449.5000      0.0000    371.0047      1.9184    110.2033
  2449.5500      0.0000    371.0047      1.9184    110.2033
  2449.6000      0.0000    371.0047      1.9184    110.2033
  2449.6500      0.0000    371.0047      1.9184    110.2033
  2449.7000      0.0000    371.0047      1.9184    110.2033
  2449.7500      0.0000    370.1680      1.9031    106.6410
  2449.8000      0.0000    370.1680      1.9031    106.6410
  2449.8500      0.0000    370.1680      1.9031    106.6410
  2449.9000      0.0000    370.1680      1.9031    106.6410
  2449.9500      0.0000    370.1680      1.9031    106.6410
  2450.0000      0.0000    371.5796      1.8591    103.0237
  2450.0500      0.0000    371.5796      1.8591    103.0237
  2450.1000      0.0000    371.5796      1.8591    103.0237
  2450.1500      0.0000    371.5796      1.8591    103.0237
  2450.2000      0.0000    371.5796      1.8591    103.0237
  2450.2500      0.0000    378.8828      1.8085     98.5696
  2450.3000      0.0000    378.8828      1.8085     98.5696
  2450.3500      0.0000    378.8828      1.8085     98.5696
  2450.4000      0.0000    378.8828      1.8085     98.5696
  2450.4500      0.0000    378.8828      1.8085     98.5696
  2450.5000      0.0000    398.1548      1.7812     94.3899
  2450.5500      0.0000    398.1548      1.7812     94.3899
  2450.6000      0.0000    398.1548      1.7812     94.3899
  2450.6500      0.0000    398.1548      1.7812     94.3899
  2450.7000      0.0000    398.1548      1.7812     94.3899
  2450.7500      0.0000    435.0931      1.7987     92.4357
  2450.8000      0.0000    435.0931      1.7987     92.4357
  2450.8500      0.0000    435.0931      1.7987     92.4357
  2450.9000      0.0000    435.0931      1.7987     92.4357
  2450.9500      0.0000    435.0931      1.7987     92.4357
  2451.0000      0.0000    489.2294      1.8621     92.8361
  2451.0500      0.0000    489.2294      1.8621     92.8361
  2451.1000      0.0000    489.2294      1.8621     92.8361
  2451.1500      0.0000    489.2294      1.8621     92.8361
  2451.2000      0.0000    489.2294      1.8621     92.8361
  2451.2500      0.0000    550.5636      1.9530     93.4793
  2451.3000      0.0000    550.5636      1.9530     93.4793
  2451.3500      0.0000    550.5636      1.9530     93.4793
  2451.4000      0.0000    550.5636      1.9530     93.4793
  2451.4500      0.0000    550.5636      1.9530     93.4793
  2451.5000      0.0000    604.1832      2.0468     92.4496
  2451.5500      0.0000    604.1832      2.0468     92.4496
  2451.6000      0.0000    604.1832      2.0468     92.4496
  2451.6500      0.0000    604.1832      2.0468     92.4496
  2451.7000      0.0000    604.1832      2.0468     92.4496
  2451.7500      0.0000    639.6531      2.1267     89.9184
  2451.8000      0.0000    639.6531      2.1267     89.9184
