~Version Information
VERS.                      2.0: CWLS Log ASCII Standard - VERSION 2.0
WRAP.                       NO: One line per depth step
~Well Information Block
STRT.FT               -11.2500: 
STOP.FT              1934.7500: 
STEP.FT                 0.2500: 
NULL.                -999.2500: 
COMP.          Pioneer Natural Resources: COMPANY
WELL.          Commander 43-26 Tr: WELL
FLD.           Purgatorie River: FIELD
LOC.           2439' FSL  & 446' FEL--------: LOCATION
PROV.                       CO: PROVINCE
CNTY.               Las Animas: COUNTRY
SRVC.          Patterson Wireline: SERVICE COMPANY
DATE.          Tue Apr 26 09:07:23 2005: LOG DATE
UWI.           05 071 08341 00: UNIQUE WELL ID
~Curve Information Block
DEPT.FT            0 000 00 00: Depth
CCL.                          : Casing Collar Locator
TT3.usec                      : CBL 3' Travel Time
AMP3.mV                       : CBL 3' Amplitude
GR.GAPI                       : Gamma Ray
~Parameter Information Block
~A  Depth       CCL         TT3         AMP3         GR     
# ...
  1898.2500      0.0000    706.6422      3.2222    148.7459
  1898.5000      0.0000    719.4355      3.2879    150.4044
  1898.7500      0.0000    739.1290      3.3041    148.7259
  1899.0000      2.0000    764.0084      3.2377    144.1221
  1899.2500      2.0000    789.0441      3.1066    137.9500
  1899.5000      0.0000    808.8553      2.9593    131.5969
  1899.7500      0.0000    820.9270      2.8359    125.9363
  1900.0000      0.0000    825.5798      2.7616    121.2493
  1900.2500      0.0000    824.5038      2.7631    117.1011
  1900.5000      0.0000    820.3981      2.8631    112.5598
  1900.7500      0.0000    816.2684      3.0506    107.1708
  1901.0000      0.0000    813.2996      3.2738    101.7687
  1901.2500      0.0000    810.2132      3.4763     98.1406
  1901.5000      0.0000    805.9471      3.6408     97.8182
  1901.7500      0.0000    801.8862      3.7904    101.0517
  1902.0000      0.0000    799.7542      3.9433    106.7340
  1902.2500      0.0000    798.0882      4.0816    113.2422
  1902.5000      0.0000    792.8723      4.1693    119.3112
  1902.7500      0.0000    781.6058      4.1814    124.1803
  1903.0000      0.0000    765.3399      4.1105    127.4392
  1903.2500      0.0000    747.3805      3.9624    129.1360
  1903.5000      0.0000    731.3148      3.7640    129.7979
  1903.7500      0.0000    719.5539      3.5722    130.1438
  1904.0000      0.0000    712.5255      3.4493    130.9057
  1904.2500      0.0000    709.0640      3.4159    132.7023
  1904.5000      0.0000    707.5764      3.4418    135.4663
  1904.7500      0.0000    706.7639      3.4863    137.9095
  1905.0000      0.0000    705.5408      3.5304    138.1355
  1905.2500      0.0000    702.7471      3.5646    135.1751
  1905.5000      0.0000    697.2740      3.5719    129.7333
  1905.7500      0.0000    688.6006      3.5407    123.3272
  1906.0000      0.0000    677.2890      3.4869    116.9630
  1906.2500      0.0000    664.7607      3.4470    110.7522
  1906.5000      0.0000    652.3181      3.4472    104.6699
  1906.7500      0.0000    640.1662      3.4873     99.6163
  1907.0000      0.0000    627.5789      3.5656     97.4289
  1907.2500      0.0000    614.4043      3.7060     99.2902
  1907.5000      0.0000    602.1199      3.9276    104.1069
  1907.7500      0.0000    592.8511      4.1901    109.0418
  1908.0000      0.0000    587.7114      4.4023    111.9083
  1908.2500      0.0000    586.6661      4.4995    112.7112
  1908.5000      0.0000    589.7701      4.4899    112.7738
  1908.7500      0.0000    597.9296      4.4185    112.9928
  1909.0000      0.0000    612.1582      4.3123    113.4233
  1909.2500      0.0000    632.0001      4.1668    114.1024
  1909.5000      0.0000    654.9744      3.9689    115.4085
  1909.7500      0.0000    677.8116      3.7232    117.4591
  1910.0000      0.0000    697.9813      3.4779    119.7694
  1910.2500      0.0000    714.0211      3.3281    121.8290
  1910.5000      0.0000    725.7878      3.3638    123.6686
  1910.7500      0.0000    735.4187      3.5900    125.7484
  1911.0000      0.0000    746.6550      3.9096    128.6638
  1911.2500      0.0000    761.1838      4.2002    132.9258
  1911.5000      0.0000    775.7940      4.3965    138.4666
  1911.7500      0.0000    784.7530      4.5020    144.1301
  1912.0000      0.0000    785.4159      4.5542    147.8883
  1912.2500      0.0000    780.7092      4.5929    147.7783
  1912.5000      0.0000    776.0439      4.6416    143.1118
  1912.7500      0.0000    774.5350      4.6961    135.3419
  1913.0000      0.0000    775.6654      4.7403    127.5211
  1913.2500      0.0000    778.0190      4.7764    122.2793
  1913.5000      0.0000    782.0272      4.8252    120.3272
  1913.7500      0.0000    789.0309      4.8834    120.8857
  1914.0000      0.0000    797.8859      4.9021    122.8138
  1914.2500      0.0000    803.8928      4.8323    125.0944
  1914.5000      0.0000    802.1306      4.6897    127.1104
  1914.7500      0.0000    791.7249      4.5506    128.9658
  1915.0000      0.0000    776.3795      4.4794    131.0112
  1915.2500      0.0000    760.8199      4.4791    132.8700
  1915.5000      0.0000    747.1948      4.5155    133.6077
  1915.7500      0.0000    735.1124      4.5568    133.0247
  1916.0000      0.0000    724.4304      4.5826    132.0511
  1916.2500      0.0000    716.8761      4.5818    131.5860
  1916.5000      0.0000    714.8307      4.5521    131.3835
  1916.7500      0.0000    719.5371      4.4878    130.4372
  1917.0000      0.0000    730.7684      4.3742    128.3446
  1917.2500      0.0000    746.9442      4.2074    125.9697
  1917.5000      0.0000    764.9568      4.0158    124.6956
  1917.7500      0.0000    781.1523      3.8581    125.1440
  1918.0000      0.0000    793.4955      3.7986    126.4933
  1918.2500      0.0000    802.2476      3.8647    127.0119
  1918.5000      0.0000    808.1942      4.0115    125.5854
  1918.7500      0.0000    811.1615      4.1486    122.7990
  1919.0000      0.0000    810.6541      4.2196    120.3040
  1919.2500      0.0000    807.0674      4.2421    119.3158
  1919.5000      0.0000    801.8190      4.2611    120.0704
  1919.7500      0.0000    796.9561      4.2846    122.2666
  1920.0000      0.0000    794.8843      4.2847    125.1589
  1920.2500      0.0000    797.6717      4.2476    127.0630
  1920.5000      0.0000    805.5933      4.1990    125.1890
  1920.7500      0.0000    815.8796      4.1773    116.4768
  1921.0000      0.0000    823.1312      4.2004     99.3035
  1921.2500      0.0000    821.8099      4.2600     75.2367
  1921.5000      0.0000    808.5753      4.3305     49.2131
  1921.7500      0.0000    781.4998      4.3818     27.1019
  1922.0000      0.0000    738.2604      4.4006     12.3137
  1922.2500      0.0000    679.1561      4.4000      4.5443
  1922.5000      0.0000    614.3097      4.3973      1.3465
  1922.7500      0.0000    564.6119      4.3905      0.3170
  1923.0000      0.0000    549.9210      4.3675      0.0583
  1923.2500      0.0000    573.6366      4.3319      0.0077
  1923.5000      0.0000    619.6837      4.3072      0.0000
  1923.7500      0.0000    665.8843      4.3130   -999.2500
  1924.0000      0.0000    700.0754      4.3353   -999.2500
  1924.2500      0.0000    723.7684      4.3245   -999.2500
  1924.5000      0.0000    743.5720      4.2320   -999.2500
  1924.7500      0.0000    762.2137      4.0571   -999.2500
  1925.0000      0.0000    777.1191      3.8575   -999.2500
  1925.2500      0.0000    784.0834      3.7066   -999.2500
  1925.5000      0.0000    779.2134      3.6303   -999.2500
  1925.7500      0.0000    756.0070      3.5754   -999.2500
  1926.0000      0.0000    702.3977      3.4334   -999.2500
  1926.2500      0.0000    606.0447      3.1130   -999.2500
  1926.5000      0.0000    468.3297      2.6178   -999.2500
  1926.7500      0.0000    313.1199      2.0586   -999.2500
  1927.0000      0.0000    176.0149      1.5787   -999.2500
  1927.2500      0.0000     81.3997      1.2599   -999.2500
  1927.5000      0.0000     30.4839      1.0947   -999.2500
  1927.7500      0.0000      9.1400      1.0277   -999.2500
  1928.0000      0.0000      2.1737      1.0065   -999.2500
  1928.2500      0.0000      0.4036      1.0012   -999.2500
  1928.5000      0.0000      0.0546      1.0002   -999.2500
  1928.7500      0.0000   -999.2500   -999.2500   -999.2500
  1929.0000      0.0000   -999.2500   -999.2500   -999.2500
  1929.2500      0.0000   -999.2500   -999.2500   -999.2500
  1929.5000      0.0000   -999.2500   -999.2500   -999.2500
  1929.7500      0.0000   -999.2500   -999.2500   -999.2500
  1930.0000      0.0000   -999.2500   -999.2500   -999.2500
  1930.2500      0.0000   -999.2500   -999.2500   -999.2500
  1930.5000      0.0000   -999.2500   -999.2500   -999.2500
  1930.7500      0.0000   -999.2500   -999.2500   -999.2500
  1931.0000      0.0000   -999.2500   -999.2500   -999.2500
  1931.2500      0.0000   -999.2500   -999.2500   -999.2500
  1931.5000      0.0000   -999.2500   -999.2500   -999.2500
