~Version Information
VERS.                      2.0: CWLS Log ASCII Standard - VERSION 2.0
WRAP.                       NO: One line per depth step
~Well Information Block
STRT.FT               768.0000: 
STOP.FT              2635.5000: 
STEP.FT                 0.1000: 
NULL.                -999.2500: 
COMP.          Pioneer Natural Resources: COMPANY
WELL.               Zink 44-10: WELL
FLD.           Purgatoire River: FIELD
LOC.           548' FSL & 473' FEL: LOCATION
PROV.                 Colorado: PROVINCE
CNTY.               Las Animas: COUNTRY
SRVC.                Patterson: SERVICE COMPANY
DATE.          Tue May 31 07:05:25 2005: LOG DATE
UWI.           05 071 08380 00: UNIQUE WELL ID
~Curve Information Block
DEPT.FT            0 000 00 00: Depth
DCAL.in                       : CDL Caliper
RHOB.g/cc                     : CDL Bulk Density
RHOC.g/cc                     : CDL Density Correction
DPOR.pu                       : CDL Density Porosity
GR.GAPI                       : Gamma Ray
NPOR.pu                       : Neutron Porosity
~Parameter Information Block
~A  Depth       DCAL        RHOB        RHOC        DPOR         GR         NPOR    
# ...
  1881.6000      7.9770      2.5851      0.0099      3.9357     69.8205     13.5972
  1881.7000      7.9770      2.5987     -0.0188      3.1111     67.2411     13.6366
  1881.8000      7.9789      2.6224      0.0496      1.6727     62.3523     13.7153
  1881.9000      7.9789      2.6337      0.0651      0.9886     58.9586     13.5797
  1882.0000      7.9584      2.6276      0.0334      1.3572     57.7678     13.3833
  1882.1000      7.9584      2.6284      0.0267      1.3075     55.3531     13.2222
  1882.2000      7.9584      2.6558      0.0432     -0.3523     52.9177     12.8146
  1882.3000      7.9629      2.6892      0.0966     -2.3732     52.8846     11.9967
  1882.4000      7.9629      2.6905      0.0752     -2.4557     53.4710     11.0848
  1882.5000      7.9666      2.6609      0.0389     -0.6609     52.6866     10.7465
  1882.6000      7.9666      2.6292      0.0880      1.2627     51.2501     11.2995
  1882.7000      7.9666      2.6102      0.0298      2.4105     51.0627     12.4457
  1882.8000      7.9647      2.6079      0.0386      2.5494     52.9613     13.4062
  1882.9000      7.9647      2.6156      0.0938      2.0861     56.3409     13.6162
  1883.0000      7.9667      2.6262      0.0467      1.4440     57.6404     13.2754
  1883.1000      7.9667      2.6378      0.1121      0.7394     54.5690     12.8817
  1883.2000      7.9667      2.6427      0.1153      0.4404     50.9255     12.7021
  1883.3000      7.9327      2.6406      0.1146      0.5672     51.0706     12.4596
  1883.4000      7.9327      2.6351      0.1298      0.9002     53.6279     11.8979
  1883.5000      7.8983      2.6295      0.1020      1.2451     55.6137     11.5719
  1883.6000      7.8983      2.6303      0.0812      1.1946     56.9225     11.8568
  1883.7000      7.8983      2.6362      0.0825      0.8361     58.1716     12.0917
  1883.8000      7.9083      2.6416      0.1104      0.5102     58.9913     11.8466
  1883.9000      7.9083      2.6449      0.0885      0.3085     60.0432     11.6928
  1884.0000      7.9304      2.6360      0.0963      0.8488     62.6826     12.2991
  1884.1000      7.9304      2.6039      0.0579      2.7936     65.6826     13.5921
  1884.2000      7.9304      2.5675     -0.0532      4.9998     68.5404     14.6505
  1884.3000      7.9442      2.5491      0.0528      6.1179     72.6577     14.6700
  1884.4000      7.9442      2.5354      0.0068      6.9449     76.8549     14.3228
  1884.5000      7.9568      2.5166      0.0039      8.0830     78.8721     14.5070
  1884.6000      7.9568      2.5075     -0.0123      8.6361     77.6607     15.2072
  1884.7000      7.9568      2.5171      0.0254      8.0526     73.5294     15.7677
  1884.8000      7.9442      2.5328      0.0650      7.1039     68.8561     15.7010
  1884.9000      7.9442      2.5401      0.0491      6.6591     65.1945     15.3155
  1885.0000      7.9327      2.5368      0.0543      6.8611     63.2127     15.2538
  1885.1000      7.9327      2.5204      0.1011      7.8558     64.4899     16.0859
  1885.2000      7.9327      2.5005      0.0403      9.0590     70.4239     17.6604
  1885.3000      7.9283      2.4948      0.0091      9.4078     76.5160     18.7177
  1885.4000      7.9283      2.4904      0.1113      9.6702     75.9591     18.3027
  1885.5000      7.9252      2.4755     -0.0177     10.5783     71.1295     17.3608
  1885.6000      7.9252      2.4734      0.0117     10.7015     67.1536     17.2918
  1885.7000      7.9252      2.4828      0.0377     10.1337     64.3724     17.8515
  1885.8000      7.9521      2.4790      0.0070     10.3614     63.8095     18.2797
  1885.9000      7.9521      2.4693      0.0361     10.9494     65.0933     18.7119
  1886.0000      7.9798      2.4697      0.0500     10.9297     65.3091     19.0480
  1886.1000      7.9798      2.4748     -0.0127     10.6158     64.4739     18.8938
  1886.2000      7.9798      2.4722      0.0482     10.7777     65.2554     18.3432
  1886.3000      7.9812      2.4609      0.0151     11.4602     66.9177     17.9774
  1886.4000      7.9812      2.4529      0.0297     11.9437     66.2302     17.9826
  1886.5000      7.9907      2.4544     -0.0029     11.8552     63.2541     17.7974
  1886.6000      7.9907      2.4608      0.0099     11.4682     61.7154     17.5258
  1886.7000      7.9907      2.4629      0.0231     11.3367     64.4693     17.7198
  1886.8000      7.9922      2.4558      0.0480     11.7677     70.3504     18.1992
  1886.9000      7.9922      2.4468      0.0091     12.3138     76.3589     18.2520
  1887.0000      7.9930      2.4462     -0.0012     12.3491     80.2734     17.9255
  1887.1000      7.9930      2.4479      0.0558     12.2509     80.5332     17.8529
  1887.2000      7.9930      2.4441      0.0085     12.4817     77.0819     17.7999
  1887.3000      7.9890      2.4469      0.0307     12.3081     73.0265     17.3239
  1887.4000      7.9890      2.4612      0.0627     11.4412     68.7707     16.8174
  1887.5000      7.9894      2.4721      0.0602     10.7838     63.3632     16.7328
  1887.6000      7.9894      2.4727      0.0413     10.7483     59.8805     16.8205
  1887.7000      7.9894      2.4665      0.0577     11.1203     60.1504     16.9036
  1887.8000      7.9957      2.4569      0.0866     11.7030     60.7463     16.8788
  1887.9000      7.9957      2.4514      0.0241     12.0377     59.5127     16.6091
  1888.0000      7.9824      2.4542      0.0553     11.8670     59.6554     16.2948
  1888.1000      7.9824      2.4645      0.0264     11.2432     61.8934     16.1809
  1888.2000      7.9824      2.4846      0.0678     10.0217     63.5509     16.1237
  1888.3000      7.9448      2.5067      0.0745      8.6835     64.4305     16.5474
  1888.4000      7.9448      2.5107      0.1125      8.4414     67.1642     17.9145
  1888.5000      7.9389      2.4892      0.0592      9.7432     72.0069     19.2939
  1888.6000      7.9389      2.4596      0.0363     11.5405     74.7765     19.8853
  1888.7000      7.9389      2.4425      0.0080     12.5765     71.4565     19.6024
  1888.8000      7.9404      2.4395      0.0539     12.7551     63.5762     18.1724
  1888.9000      7.9404      2.4363      0.0464     12.9536     58.9384     16.5001
  1889.0000      7.9324      2.4285      0.0104     13.4254     61.5535     16.0553
  1889.1000      7.9324      2.4290     -0.0410     13.3924     66.9243     16.8230
  1889.2000      7.9324      2.4397      0.0524     12.7425     70.8003     17.6439
  1889.3000      7.9582      2.4384      0.0350     12.8217     73.3104     17.9367
  1889.4000      7.9582      2.4094      0.0404     14.5826     75.9378     18.3926
  1889.5000      7.9585      2.3512     -0.0015     18.1090     76.8046     19.6417
  1889.6000      7.9585      2.2538     -0.0011     24.0145     73.6621     21.4654
  1889.7000      7.9585      2.1075      0.0126     32.8769     68.8247     23.2522
  1889.8000      7.9473      1.9411     -0.0677     42.9651     65.3153     24.7897
  1889.9000      7.9473      1.8067     -0.0808     51.1094     63.9070     26.2671
  1890.0000      7.9463      1.7169     -0.0336     56.5503     63.1490     27.1980
  1890.1000      7.9463      1.6372     -0.0607     61.3843     63.0256     27.2416
  1890.2000      7.9463      1.5419     -0.0911     67.1583     65.9331     27.4094
  1890.3000      7.9327      1.4521     -0.1433     72.6012     70.6435     28.5467
  1890.4000      7.9327      1.4107     -0.0371     75.1092     71.5885     30.3290
  1890.5000      7.9226      1.4218      0.0857     74.4338     68.5413     32.0970
  1890.6000      7.9226      1.4480      0.1186     72.8471     66.6994     33.2140
  1890.7000      7.9226      1.4612      0.1204     72.0486     67.1760     33.5268
  1890.8000      7.9348      1.4673      0.0941     71.6793     68.1889     33.8843
  1890.9000      7.9348      1.4969      0.0158     69.8824     70.4591     34.7344
  1891.0000      8.1764      1.5701      0.0730     65.4480     75.2617     35.1894
  1891.1000      8.1764      1.6683      0.1064     59.4996     81.2998     34.7389
