~Version Information
VERS.                      2.0: CWLS Log ASCII Standard - VERSION 2.0
WRAP.                       NO: One line per depth step
~Well Information Block
STRT.FT                -8.2500: 
STOP.FT              2356.2500: 
STEP.FT                 0.2500: 
NULL.                -999.2500: 
COMP.          Petrogulf Corporation: COMPANY
WELL.             State 16-12V: WELL
FLD.           Purgatorie River: FIELD
LOC.           1992' FNL & 1237' FWL: LOCATION
PROV.                 Colorado: PROVINCE
CNTY.               Las Animas: COUNTRY
SRVC.                Patterson: SERVICE COMPANY
DATE.          Thu Aug 11 14:44:06 2005: LOG DATE
UWI.                          : UNIQUE WELL ID
~Curve Information Block
DEPT.FT            0 000 00 00: Depth
GR.GAPI                       : Gamma Ray
CCL.                          : Casing Collar Locator
TT3.usec                      : CBL 3' Travel Time
AMP3.mV                       : CBL 3' Amplitude
~Parameter Information Block
~A  Depth        GR         CCL         TT3         AMP3    
# ...
  1231.2500     74.0623      0.0000    361.6627     35.7498
  1231.5000     74.5216      0.0000    329.7162     42.0696
  1231.7500     75.4885      0.0000    309.3884     48.3032
  1232.0000     75.6673      0.0000    300.2505     53.8189
  1232.2500     74.6601      0.0000    297.2319     57.8590
  1232.5000     73.3723      0.0000    296.4109     60.0681
  1232.7500     72.7802      0.0000    296.0773     60.8874
  1233.0000     72.6039      0.0000    295.1060     61.1616
  1233.2500     71.6313      0.0000    292.3761     61.4893
  1233.5000     69.3815      0.0000    288.3338     61.9622
  1233.7500     67.0944      0.0000    285.9056     62.3483
  1234.0000     66.7707      0.0000    286.4725     62.5108
  1234.2500     69.3170      0.0000    286.2269     62.6236
  1234.5000     73.7831      0.0000    280.8582     62.9360
  1234.7500     78.1778      0.0000    271.6974     63.4594
  1235.0000     80.7660      0.0000    263.7095     63.9961
  1235.2500     80.9308      0.0000    259.4911     64.4105
  1235.5000     79.3710      0.0000    258.0822     64.7357
  1235.7500     77.4915      0.0000    257.8282     65.0266
  1236.0000     76.2817      0.0000    257.9633     65.2844
  1236.2500     75.7213      0.0000    258.2271     65.5176
  1236.5000     75.2721      0.0000    258.3467     65.7327
  1236.7500     74.6081      0.0000    258.1652     65.8958
  1237.0000     73.7428      0.0000    257.8827     65.9870
  1237.2500     72.9436      0.0000    257.9463     66.0101
  1237.5000     72.8349      0.0000    259.2286     65.8887
  1237.7500     74.1156      0.0000    263.3846     65.4434
  1238.0000     76.7941      0.0000    271.5374     64.5448
  1238.2500     80.0247      0.0000    281.7566     63.2982
  1238.5000     82.8639      0.0000    289.9888     62.0354
  1238.7500     84.8276      0.0000    294.2617     61.0834
  1239.0000     85.6709      0.0000    295.6916     60.5680
  1239.2500     85.1398      0.0000    295.9895     60.4340
  1239.5000     83.1964      0.0000    295.9827     60.5904
  1239.7500     80.2638      0.0000    295.6923     60.9724
  1240.0000     77.1539      0.0000    294.3253     61.5272
  1240.2500     74.8332      0.0000    290.1719     62.2728
  1240.5000     74.0334      0.0000    282.0615     63.3367
  1240.7500     74.8145      0.0000    271.8810     64.8316
  1241.0000     76.6194      0.0000    263.6444     66.7289
  1241.2500     78.8108      0.0000    259.3185     68.8039
  1241.5000     80.8445      0.0000    257.8177     70.6085
  1241.7500     81.9678      0.0000    257.4727     71.6490
  1242.0000     81.4491      0.0000    257.4607     71.7219
  1242.2500     79.5265      0.0000    257.5982     70.9780
  1242.5000     77.7906      0.0000    258.0915     69.6707
  1242.7500     78.2037      0.0000    259.7853     67.9942
  1243.0000     81.6307      0.0000    264.2942     66.1027
  1243.2500     87.1909      0.0000    272.5898     64.0779
  1243.5000     92.9143      0.0000    282.7616     61.8752
  1243.7500     97.1080      0.0000    291.2354     59.4203
  1244.0000     99.3301      0.0000    297.2591     56.7241
  1244.2500    100.3707      0.0000    304.4265     53.8515
  1244.5000    101.5017      0.0000    317.3157     50.8687
  1244.7500    103.6343      0.0000    336.3343     47.8996
  1245.0000    107.0223      0.0000    356.1278     45.1942
  1245.2500    111.5584      0.0000    371.4542     43.0060
  1245.5000    116.9194      0.0000    383.8123     41.2742
  1245.7500    122.2341      0.0000    400.1427     39.5319
  1246.0000    126.0901      0.0000    428.9569     37.3071
  1246.2500    127.3702      0.0000    480.9050     34.5988
  1246.5000    126.1101      0.0000    561.9116     31.8738
  1246.7500    123.4854      0.0000    656.1501     29.6227
  1247.0000    121.1005      0.0000    731.9658     27.9241
  1247.2500    120.1924      0.0000    773.2946     26.3166
  1247.5000    121.0884      0.0000    789.4870     24.1677
  1247.7500    123.1318      0.0000    796.7553     21.3451
  1248.0000    125.2423      0.0000    803.7480     18.3636
  1248.2500    126.7714      0.0000    811.4225     15.8083
  1248.5000    127.8379      0.0000    818.7872     13.8777
  1248.7500    128.8172      0.0000    824.9194     12.4761
  1249.0000    129.6231      0.0000    826.5917     11.4591
  1249.2500    129.6877      0.0000    820.3310     10.7076
  1249.5000    128.7282      0.0000    806.5740     10.1095
  1249.7500    127.2427      0.0000    788.3498      9.5865
  1250.0000    125.8961      0.0000    770.5781      9.1048
  1250.2500    124.6826      0.0000    762.1167      8.6176
  1250.5000    123.1881      0.0000    767.8729      8.0819
  1250.7500    121.3486      0.0000    780.3949      7.5829
  1251.0000    119.4626      0.0000    789.5337      7.3237
  1251.2500    117.7834      0.0000    793.0279      7.4485
  1251.5000    116.4427      0.0000    793.6432      7.9569
  1251.7500    115.4107      0.0000    794.3342      8.7230
  1252.0000    114.3112      0.0000    797.1771      9.4879
  1252.2500    112.5727      0.0000    802.0068      9.9263
  1252.5000    109.9033      0.0000    805.7279      9.8843
  1252.7500    106.5924      0.0000    806.5975      9.5214
  1253.0000    103.5096      0.0000    806.3837      9.1227
  1253.2500    101.9142      0.0000    805.0760      8.8339
  1253.5000    102.8991      0.0000    800.7972      8.6494
  1253.7500    106.6952      0.0000    795.2013      8.5444
  1254.0000    112.6587      0.0000    791.4921      8.5031
  1254.2500    119.9496      0.0000    790.0518      8.4782
  1254.5000    127.7976      0.0000    789.6142      8.3907
  1254.7500    135.0735      0.0000    789.4821      8.1889
  1255.0000    140.2791      0.0000    788.6235      7.9306
  1255.2500    142.4366      0.0000    783.5711      7.7381
  1255.5000    141.7673      0.0000    771.9428      7.6178
  1255.7500    139.2119      0.0000    760.1190      7.4402
  1256.0000    135.4338      0.0000    758.3797      7.2091
  1256.2500    130.3741      0.0000    769.0612      7.1290
  1256.5000    123.6700      0.0000    789.1629      7.2003
  1256.7500    115.4774      0.0000    814.8007      7.1622
  1257.0000    106.8574      0.0000    834.4463      6.9193
  1257.2500     99.1893      0.0000    831.7883      6.5339
  1257.5000     93.2341      0.0000    808.9691      6.0245
  1257.7500     88.9347      0.0000    792.4066      5.4396
  1258.0000     85.9198     -2.0000    800.3857      4.8945
  1258.2500     83.8517     -2.0000    824.0110      4.4928
  1258.5000     82.4153      0.0000    844.6577      4.2836
  1258.7500     81.3737      0.0000    846.2416      4.2913
  1259.0000     80.7392      0.0000    825.3997      4.5096
  1259.2500     80.6633      0.0000    809.6623      4.8144
  1259.5000     81.0413      0.0000    836.8580      5.0830
  1259.7500     81.4848      0.0000    908.1178      5.3683
  1260.0000     81.8915      0.0000    984.0027      5.7238
  1260.2500     82.6786      0.0000   1019.1576      6.1012
  1260.5000     84.2821      0.0000    990.7930      6.5461
  1260.7500     86.8300      0.0000    920.1245      7.2267
  1261.0000     90.3790      0.0000    866.9411      8.2192
  1261.2500     94.8661      0.0000    867.3832      9.3970
  1261.5000     99.6135      0.0000    888.5807     10.5628
  1261.7500    103.3920      0.0000    881.0115     11.6243
  1262.0000    105.2606      0.0000    846.4859     12.5797
  1262.2500    105.1897      0.0000    817.1852     13.4474
  1262.5000    104.1163      0.0000    807.5109     14.3862
  1262.7500    103.7035      0.0000    810.2457     15.7198
  1263.0000    105.5848      0.0000    813.0979     17.6905
  1263.2500    110.0834      0.0000    809.7980     20.3030
  1263.5000    115.4554      0.0000    802.3514     23.3270
  1263.7500    118.7617      0.0000    795.5958     26.3872
  1264.0000    118.1268      0.0000    790.7936     29.1380
  1264.2500    114.5020      0.0000    784.4696     31.4060
  1264.5000    111.1189      0.0000    770.3611     33.2251
