~Version Information
VERS.                      2.0: CWLS Log ASCII Standard - VERSION 2.0
WRAP.                       NO: One line per depth step
~Well Information Block
STRT.FT               819.0000: 
STOP.FT              2499.5000: 
STEP.FT                 0.2500: 
NULL.                -999.2500: 
COMP.          Petrogulf Corporation: COMPANY
WELL.             State 16-21V: WELL
FLD.           Purgatorie River: FIELD
LOC.           1738' FWL & 332' FWL: LOCATION
PROV.                 Colorado: PROVINCE
CNTY.               Las Animas: COUNTRY
SRVC.          Patterson Wireline: SERVICE COMPANY
DATE.          Sun Jul 13 13:34:36 2003: LOG DATE
UWI.           05 071 08829 00: UNIQUE WELL ID
~Curve Information Block
DEPT.FT            0 000 00 00: Depth
SP.mV                         : DIL Spontaneous Potential
RILD.Ohm-m                    : DIL Deep Resistivity
RILM.Ohm-m                    : DIL Medium Resistivity
RLL3.Ohm-m                    : DIL Shallow Resistivity
GR.GAPI                       : Gamma Ray
~Parameter Information Block
~A  Depth        SP         RILD        RILM        RLL3         GR     
# ...
  2051.0000    -29.6272     12.9580     14.9165     19.5969    124.3898
  2051.2500    -29.6025     12.7669     14.5647     18.6760    130.1516
  2051.5000    -29.6015     12.5879     14.2124     17.4414    139.8136
  2051.7500    -29.6409     12.4113     13.8705     16.2540    145.4079
  2052.0000    -29.7301     12.2305     13.5470     15.3786    150.1593
  2052.2500    -29.8626     12.0428     13.2467     14.8980    150.5411
  2052.5000    -30.0184     11.8488     12.9720     14.7890    148.4404
  2052.7500    -30.1757     11.6517     12.7232     14.9971    146.6539
  2053.0000    -30.3235     11.4577     12.4992     15.4396    144.8144
  2053.2500    -30.4667     11.2751     12.2983     15.9745    143.9983
  2053.5000    -30.6230     11.1127     12.1186     16.3974    142.4309
  2053.7500    -30.8134     10.9769     11.9583     16.5058    140.9716
  2054.0000    -31.0515     10.8700     11.8161     16.2195    138.6929
  2054.2500    -31.3355     10.7914     11.6912     15.6553    137.3935
  2054.5000    -31.6445     10.7394     11.5833     15.0503    135.7693
  2054.7500    -31.9440     10.7129     11.4921     14.5835    135.0369
  2055.0000    -32.1967     10.7105     11.4177     14.2755    135.3069
  2055.2500    -32.3760     10.7287     11.3597     14.0547    136.6413
  2055.5000    -32.4745     10.7610     11.3180     13.8911    139.1553
  2055.7500    -32.5031     10.7987     11.2921     13.8430    139.9759
  2056.0000    -32.4867     10.8346     11.2811     13.9825    139.4884
  2056.2500    -32.4571     10.8658     11.2845     14.3011    139.2315
  2056.5000    -32.4434     10.8942     11.3016     14.6960    141.3338
  2056.7500    -32.4616     10.9251     11.3320     15.0416    144.4065
  2057.0000    -32.5075     10.9645     11.3759     15.2605    149.1523
  2057.2500    -32.5605     11.0176     11.4335     15.3368    151.0352
  2057.5000    -32.5953     11.0888     11.5056     15.2892    151.6768
  2057.7500    -32.5923     11.1810     11.5929     15.1499    151.6331
  2058.0000    -32.5430     11.2955     11.6961     14.9647    152.7791
  2058.2500    -32.4507     11.4294     11.8154     14.7920    154.5606
  2058.5000    -32.3331     11.5765     11.9501     14.6911    157.0497
  2058.7500    -32.2234     11.7276     12.0981     14.7099    157.2562
  2059.0000    -32.1612     11.8720     12.2561     14.8811    154.6410
  2059.2500    -32.1735     11.9985     12.4188     15.2230    151.6177
  2059.5000    -32.2573     12.0972     12.5794     15.7374    147.0505
  2059.7500    -32.3790     12.1613     12.7303     16.4160    144.8386
  2060.0000    -32.4935     12.1898     12.8630     17.2498    142.8320
  2060.2500    -32.5659     12.1878     12.9701     18.1994    141.3038
  2060.5000    -32.5834     12.1665     13.0461     19.1142    136.2928
  2060.7500    -32.5527     12.1397     13.0883     19.6980    130.8797
  2061.0000    -32.4901     12.1193     13.0975     19.6356    122.5602
  2061.2500    -32.4114     12.1103     13.0777     18.8257    119.4648
  2061.5000    -32.3275     12.1102     13.0355     17.5035    121.0386
  2061.7500    -32.2405     12.1129     12.9787     16.1285    125.7656
  2062.0000    -32.1442     12.1125     12.9151     15.1501    135.3727
  2062.2500    -32.0297     12.1045     12.8512     14.8461    141.5348
  2062.5000    -31.8992     12.0829     12.7916     15.2958    148.1060
  2062.7500    -31.7760     12.0399     12.7391     16.3947    150.1811
  2063.0000    -31.6949     11.9701     12.6942     17.8433    150.2766
  2063.2500    -31.6819     11.8758     12.6563     19.1938    148.9967
  2063.5000    -31.7384     11.7695     12.6244     20.0406    146.2070
  2063.7500    -31.8436     11.6695     12.5976     20.2407    144.3766
  2064.0000    -31.9696     11.5930     12.5757     19.9446    142.6101
  2064.2500    -32.0950     11.5513     12.5600     19.4182    142.3067
  2064.5000    -32.2102     11.5490     12.5532     18.8618    142.7456
  2064.7500    -32.3167     11.5854     12.5594     18.3661    143.2616
  2065.0000    -32.4223     11.6560     12.5840     17.9656    144.1735
  2065.2500    -32.5323     11.7552     12.6336     17.6995    144.8792
  2065.5000    -32.6405     11.8783     12.7154     17.6313    145.7805
  2065.7500    -32.7257     12.0239     12.8380     17.8042    145.9958
  2066.0000    -32.7567     12.1958     13.0106     18.1717    145.6189
  2066.2500    -32.7050     12.4027     13.2436     18.6107    145.1789
  2066.5000    -32.5599     12.6589     13.5489     19.0435    145.1686
  2066.7500    -32.3395     12.9821     13.9396     19.5225    146.2154
  2067.0000    -32.0895     13.3909     14.4309     20.1672    149.8439
  2067.2500    -31.8669     13.9004     15.0400     21.1336    153.1944
  2067.5000    -31.7188     14.5182     15.7861     22.9196    157.5672
  2067.7500    -31.6660     15.2444     16.6906     26.9919    158.5493
  2068.0000    -31.6991     16.0740     17.7768     36.2574    155.4523
  2068.2500    -31.7846     17.0025     19.0698     54.6708    150.6023
  2068.5000    -31.8810     18.0289     20.5956     85.5299    141.8082
  2068.7500    -31.9578     19.1572     22.3806    128.8888    136.9281
  2069.0000    -32.0082     20.3956     24.4498    179.4798    133.1258
  2069.2500    -32.0486     21.7589     26.8257    226.7043    132.8698
  2069.5000    -32.1056     23.2725     29.5254    257.6649    134.3477
  2069.7500    -32.2000     24.9694     32.5568    263.1875    135.3350
  2070.0000    -32.3392     26.8735     35.9112    244.6318    134.4413
  2070.2500    -32.5200     28.9646     39.5510    217.0904    130.9780
  2070.5000    -32.7350     31.1368     43.3893    205.9121    120.6653
  2070.7500    -32.9753     33.1767     47.2607    237.6120    111.0394
  2071.0000    -33.2286     34.7950     50.8925    328.2891     94.5287
  2071.2500    -33.4720     35.7173     53.8941    473.1014     83.0682
  2071.5000    -33.6693     35.7884     55.7988    642.9471     66.1771
  2071.7500    -33.7751     35.0224     56.1853    794.5258     55.7820
  2072.0000    -33.7420     33.5784     54.8480    890.3918     42.9461
  2072.2500    -33.5277     31.6922     51.9184    914.4593     36.8514
  2072.5000    -33.1047     29.6032     47.8354    871.6675     31.6326
  2072.7500    -32.4726     27.5008     43.1769    776.5151     30.6951
  2073.0000    -31.6667     25.5052     38.4690    644.4551     33.3215
  2073.2500    -30.7547     23.6761     34.0767    492.3767     38.0736
  2073.5000    -29.8226     22.0344     30.1921    341.2525     49.9580
  2073.7500    -28.9544     20.5800     26.8758    212.4445     60.7631
  2074.0000    -28.2132     19.3009     24.1092    119.3024     79.7464
  2074.2500    -27.6273     18.1777     21.8352     62.5836     92.7635
  2074.5000    -27.1869     17.1862     19.9843     33.6695    110.1725
  2074.7500    -26.8562     16.3024     18.4882     21.4971    119.4055
  2075.0000    -26.5928     15.5087     17.2860     17.4901    129.3976
  2075.2500    -26.3617     14.7981     16.3260     16.7327    133.8362
  2075.5000    -26.1408     14.1740     15.5658     16.9769    138.2529
  2075.7500    -25.9221     13.6454     14.9708     17.3615    140.4405
  2076.0000    -25.7149     13.2205     14.5135     17.6120    143.3995
  2076.2500    -25.5425     12.9017     14.1712     17.6840    145.1409
  2076.5000    -25.4304     12.6841     13.9250     17.6253    146.7783
  2076.7500    -25.3883     12.5566     13.7587     17.5145    146.8459
  2077.0000    -25.4003     12.5038     13.6570     17.4312    145.3382
  2077.2500    -25.4323     12.5073     13.6051     17.4624    143.6658
  2077.5000    -25.4530     12.5455     13.5878     17.7651    141.0767
  2077.7500    -25.4519     12.5948     13.5900     18.6616    139.3452
  2078.0000    -25.4427     12.6325     13.5968     20.6743    135.3775
  2078.2500    -25.4516     12.6425     13.5947     24.3040    130.7218
  2078.5000    -25.5044     12.6194     13.5738     29.4329    120.2294
  2078.7500    -25.6207     12.5694     13.5287     34.7220    111.9711
