~Version Information
VERS.                      2.0: CWLS Log ASCII Standard - VERSION 2.0
WRAP.                       NO: One line per depth step
~Well Information Block
STRT.FT               700.0000: 
STOP.FT              1869.5000: 
STEP.FT                 0.2500: 
NULL.                -999.2500: 
COMP.          Petrogulf Corporation: COMPANY
WELL.             State 16-24R: WELL
FLD.           Purgatorie River: FIELD
LOC.           541' FSL & 2371' FWL: LOCATION
PROV.                 Colorado: PROVINCE
CNTY.               Las Animas: COUNTRY
SRVC.                Patterson: SERVICE COMPANY
DATE.          Fri Aug 12 09:07:22 2005: LOG DATE
UWI.                071-08312 : UNIQUE WELL ID
~Curve Information Block
DEPT.FT            0 000 00 00: Depth
SP.mV                         : DIL Spontaneous Potential
RILD.Ohm-m                    : DIL Deep Resistivity
RILM.Ohm-m                    : DIL Medium Resistivity
RLL3.Ohm-m                    : DIL Shallow Resistivity
GR.GAPI                       : Gamma Ray
~Parameter Information Block
~A  Depth        SP         RILD        RILM        RLL3         GR     
# ...
  1624.0000    130.8565     14.7295     19.3130     16.5188    108.1680
  1624.2500    129.4847     15.1497     19.8437     16.2411    117.3502
  1624.5000    126.9355     14.8446     19.2060     16.0668    124.3194
  1624.7500    124.8464     15.3116     19.9189     16.2850    126.1655
  1625.0000    122.6738     15.5246     19.7060     17.2590    105.0504
  1625.2500    120.2468     15.0274     20.1654     18.0099     93.9355
  1625.5000    117.9695     15.2632     19.9530     19.3850     74.9695
  1625.7500    117.2009     15.0686     19.2662     18.8082     75.1476
  1626.0000    115.9887     15.2180     18.5961     17.2131     71.5890
  1626.2500    115.4160     15.7134     18.5888     15.8743     72.8065
  1626.5000    112.8906     15.1726     18.5314     15.6166     67.1114
  1626.7500    111.8295     14.9000     18.8974     15.5816     62.8079
  1627.0000    110.2161     14.9645     18.9903     15.5542     66.3285
  1627.2500    108.6311     15.0769     18.7335     15.5078     72.9963
  1627.5000    107.9400     15.3201     18.4982     15.5682     70.1116
  1627.7500    106.1290     15.1746     18.8119     15.8953     66.7968
  1628.0000    105.0899     14.6888     18.4395     16.1646     70.2947
  1628.2500    104.0580     14.1765     18.9081     16.5545     65.4900
  1628.5000    103.6929     14.9388     18.7030     16.9211     67.4063
  1628.7500    101.0868     14.6670     18.4675     17.1789     70.7834
  1629.0000    103.1304     14.2815     19.1224     17.3336     70.5403
  1629.2500    103.9938     14.4135     18.8666     17.1029     72.0933
  1629.5000    103.7262     15.1104     18.4926     16.1434     83.1161
  1629.7500    103.7106     14.9963     18.2584     15.7560     85.6627
  1630.0000    102.5835     15.0694     17.9917     15.3365     76.2609
  1630.2500    102.4077     15.0204     18.4182     15.2977     71.9849
  1630.5000    101.7509     15.3596     18.9413     15.5843     68.2477
  1630.7500    101.1891     15.4479     18.8919     16.0399     67.0043
  1631.0000     99.3115     15.1683     19.0104     16.4217     70.8885
  1631.2500     98.7418     15.7250     18.9075     16.5551     69.9971
  1631.5000     98.0016     15.2706     19.2331     16.6698     67.7756
  1631.7500     97.6896     16.0930     19.9660     16.8530     67.4819
  1632.0000     96.9821     16.4686     20.8453     16.7997     59.9346
  1632.2500     96.7627     16.1680     20.0202     16.7613     62.7476
  1632.5000     95.6691     16.6156     20.7663     17.0331     56.2021
  1632.7500     94.8441     16.5558     21.8263     18.0531     57.2715
  1633.0000     94.8692     16.6880     22.5994     19.0200     55.8053
  1633.2500     94.8135     15.7665     21.3656     20.4697     59.3743
  1633.5000     96.0080     16.6562     22.2595     22.3270     62.7636
  1633.7500     96.4172     16.9825     22.1164     24.7010     60.8311
  1634.0000     97.2763     16.9125     22.0164     26.6154     64.4612
  1634.2500     97.3191     16.3345     21.3522     26.9675     71.1605
  1634.5000     99.7793     15.9401     21.1556     25.2481     93.3163
  1634.7500    102.2706     16.0029     20.5302     20.6096    101.9488
  1635.0000    104.8265     15.9855     19.5184     16.0691    106.1605
  1635.2500    105.6482     16.0519     19.8047     14.5405    101.4180
  1635.5000    106.6002     15.9978     19.0981     13.9428     98.3164
  1635.7500    106.6445     16.3816     19.1321     14.2203    101.9959
  1636.0000    106.9739     16.0287     19.7171     16.3858     94.8785
  1636.2500    108.3386     15.6079     19.9637     18.1713     91.0615
  1636.5000    110.2336     15.1672     20.2512     19.3298     97.3768
  1636.7500    111.0480     15.5771     19.8232     20.5639     92.4880
  1637.0000    111.2268     14.9520     20.7596     21.1455     91.0431
  1637.2500    113.2675     14.1009     19.2751     19.8177     99.2994
  1637.5000    113.3005     14.8192     18.5814     17.9405    108.3683
  1637.7500    114.4988     14.1850     18.2578     16.0317    103.8033
  1638.0000    115.3674     13.8743     17.9966     16.3778    112.0172
  1638.2500    116.2461     13.8135     17.9849     19.1838    112.0172
  1638.5000    116.7047     13.9419     17.2541     19.2553    107.9278
  1638.7500    118.4665     13.8569     16.8346     15.6538    104.0853
  1639.0000    119.7702     13.5629     16.1624     13.9532    115.6439
  1639.2500    121.0068     13.5658     16.0993     12.9469    121.7082
  1639.5000    122.4323     13.6569     15.7027     13.2067    118.3002
  1639.7500    122.4128     13.1123     15.4565     13.8449    121.6550
  1640.0000    124.2468     12.8775     15.4041     14.6226    114.7891
  1640.2500    124.0912     12.5604     15.4483     14.4401    116.6038
  1640.5000    124.7027     12.7459     14.7675     13.7722    123.5931
  1640.7500    124.1339     12.7744     14.9605     13.8427    127.7500
  1641.0000    124.7237     12.5030     15.3232     13.8999    124.8832
  1641.2500    124.3425     13.1106     14.7563     13.7881    115.4928
  1641.5000    124.1492     13.2180     15.1392     13.8024    125.6852
  1641.7500    123.8357     13.3382     15.7152     14.1133    127.0298
  1642.0000    123.3983     13.9585     16.0069     14.7039    109.0400
  1642.2500    122.9401     14.3248     16.2917     15.2196    101.6405
  1642.5000    121.4713     14.7302     16.9530     15.8229     91.0257
  1642.7500    121.0992     14.9147     17.6041     17.1967     88.6911
  1643.0000    119.0232     15.1584     17.7409     18.9092     79.7815
  1643.2500    117.2739     14.6921     18.5924     20.4496     74.7172
  1643.5000    118.0101     15.7197     19.2793     20.9120     70.8137
  1643.7500    116.6936     15.9965     19.4277     20.9380     74.0484
  1644.0000    115.4752     15.7957     19.9378     20.6200     78.6059
  1644.2500    114.4612     15.2100     19.6708     19.3243     82.5222
  1644.5000    113.3094     16.4250     19.3189     17.7735     84.5439
  1644.7500    111.1736     16.8296     19.7662     16.1908     78.0138
  1645.0000    108.5773     17.6157     19.0393     16.3016     86.0170
  1645.2500    104.8605     17.4838     19.2576     17.7118     91.9754
  1645.5000    103.0050     18.0220     19.7170     17.0560    104.4142
  1645.7500    101.1300     18.2800     19.5999     14.8143    110.3428
  1646.0000     98.9014     17.6618     20.0518     13.3947    104.0897
  1646.2500     96.3952     17.7990     20.5552     13.6282     87.8961
  1646.5000     92.7639     19.0451     21.1651     16.6181     67.1905
  1646.7500     88.8862     19.5749     23.0831     21.3708     53.6385
  1647.0000     84.8430     20.0050     24.7636     25.5838     52.8762
  1647.2500     81.2106     19.7265     24.7772     27.2514     49.5496
  1647.5000     77.7035     19.7348     25.2614     28.5699     42.0682
  1647.7500     76.5603     20.1231     26.4320     29.0827     41.2474
  1648.0000     74.2872     20.7292     28.7392     28.8874     45.1254
  1648.2500     73.9734     20.9778     27.0237     28.5022     42.7728
  1648.5000     72.1028     20.3547     27.3282     28.0815     45.4476
  1648.7500     71.3184     20.7930     26.7665     27.7043     42.5660
  1649.0000     70.4021     20.7685     27.3904     27.3527     49.0135
  1649.2500     69.5823     20.4110     26.9607     26.6989     49.5293
  1649.5000     69.4694     19.6753     26.5098     25.4457     51.3797
  1649.7500     68.8852     20.0020     27.6156     22.8599     54.0538
  1650.0000     70.2610     20.4579     27.1304     21.1612     57.7501
  1650.2500     69.4544     20.3391     25.0952     19.9771     57.9912
  1650.5000     68.8221     20.6255     23.6767     19.6117     58.3859
  1650.7500     66.0814     20.2111     23.7625     19.4105     59.0958
  1651.0000     65.5793     19.8006     23.7218     19.2269     59.6890
  1651.2500     63.1790     19.5136     23.5874     19.2161     57.0741
  1651.5000     61.0844     19.2041     23.2025     19.4320     70.0962
  1651.7500     57.3807     20.4595     22.7475     19.6224     65.6728
