~Version Information
VERS.                      2.0: CWLS Log ASCII Standard - VERSION 2.0
WRAP.                       NO: One line per depth step
~Well Information Block
STRT.FT               704.0000: 
STOP.FT              2530.0000: 
STEP.FT                 0.2500: 
NULL.                -999.2500: 
COMP.          Pioneer Natural Resources: COMPANY
WELL.          Aztec Federal 41-15: WELL
FLD.           Purgatorie River: FIELD
LOC.           706' FNL & 1253' FEL: LOCATION
CNTY.               Las Animas: COUNTY
SRVC.          Superior Well Services: SERVICE COMPANY
DATE.          Tue Mar 18 09-04-19 2008: LOG DATE
UWI.           05-071-08342-00: UNIQUE WELL ID
STAT.                       CO: STATE
~Curve Information Block
DEPT.FT            0 000 00 00: Depth
DIR.Ohm-m                     : IEL Induction Resistivity
SN.Ohm-m                      : IEL Short Normal
SP.mV                         : IEL Spontaneous Potential
GR.GAPI                       : Gamma Ray
~Parameter Information Block
~A  Depth       DIR          SN          SP          GR     
# ...
   737.5000     29.7705   2000.0000   2000.0000     80.7693
   737.7500     31.2750   2000.0000   2000.0000     78.9471
   738.0000     32.3730   2000.0000   2000.0000     78.1725
   738.2500     34.0540   2000.0000   2000.0000     77.4814
   738.5000     35.1171   2000.0000   2000.0000     77.0077
   738.7500     36.5165   2000.0000   2000.0000     75.8929
   739.0000     37.3019   2000.0000   2000.0000     74.9659
   739.2500     38.3128   2000.0000   2000.0000     73.8569
   739.5000     38.9171   2000.0000   2000.0000     73.5981
   739.7500     39.7009   2000.0000   2000.0000     73.9136
   740.0000     40.0412   2000.0000   2000.0000     74.2942
   740.2500     40.0156   2000.0000   2000.0000     74.6436
   740.5000     39.5544   2000.0000   2000.0000     74.7578
   740.7500     38.4079   2000.0000   2000.0000     75.3140
   741.0000     37.6912   2000.0000   2000.0000     76.2563
   741.2500     37.4446   2000.0000   2000.0000     78.4753
   741.5000     38.2209   2000.0000   2000.0000     80.1539
   741.7500     41.2133   2000.0000   2000.0000     82.4876
   742.0000     44.4491   2000.0000   2000.0000     83.8784
   742.2500     50.5846   2000.0000   2000.0000     85.7264
   742.5000     54.7659   2000.0000   2000.0000     86.6503
   742.7500     59.6594   2000.0000   2000.0000     87.1984
   743.0000     61.6260   2000.0000   2000.0000     86.8954
   743.2500     63.6166   2000.0000   2000.0000     85.4834
   743.5000     65.7691   2000.0000   2000.0000     84.0153
   743.7500     74.4311   2000.0000   2000.0000     81.4750
   744.0000     88.6594   2000.0000   2000.0000     80.0353
   744.2500    148.9328   2000.0000   2000.0000     79.1977
   744.5000    293.3341   2000.0000   2000.0000     79.8609
   744.7500 100000.0000   2000.0000   2000.0000     82.6322
   745.0000 100000.0000   2000.0000   2000.0000     85.2888
   745.2500    646.5630   2000.0000   2000.0000     89.4412
   745.5000    203.5236   2000.0000   2000.0000     91.6486
   745.7500     92.5098   2000.0000   2000.0000     93.2801
   746.0000     71.7790   2000.0000   2000.0000     93.0706
   746.2500     66.7593   2000.0000   2000.0000     91.0201
   746.5000     84.1778   2000.0000   2000.0000     88.9084
   746.7500 100000.0000   2000.0000   2000.0000     85.6675
   747.0000 100000.0000   2000.0000   2000.0000     83.9883
   747.2500 100000.0000   2000.0000   2000.0000     82.5127
   747.5000 100000.0000   2000.0000   2000.0000     82.0546
   747.7500 100000.0000   2000.0000   2000.0000     81.5034
   748.0000 100000.0000   2000.0000   2000.0000     80.9046
   748.2500 100000.0000   2000.0000   2000.0000     79.9486
   748.5000 100000.0000   2000.0000   2000.0000     80.1330
   748.7500     24.5852   2000.0000   2000.0000     83.6030
   749.0000     15.5239   2000.0000   2000.0000     88.7632
   749.2500     11.8182   2000.0000   2000.0000    100.3506
   749.5000     11.3323   2000.0000   2000.0000    109.4250
   749.7500     11.6045   2000.0000   2000.0000    122.1121
   750.0000     11.5480   2000.0000   2000.0000    128.3135
   750.2500      9.6757   2000.0000   2000.0000    132.4724
   750.5000      7.6028   2000.0000   2000.0000    131.7457
   750.7500      5.0033   2000.0000   2000.0000    127.1755
   751.0000      3.9427   2000.0000   2000.0000    123.5734
   751.2500      3.1541   2000.0000   2000.0000    119.8483
   751.5000      3.0224   2000.0000   2000.0000    118.7912
   751.7500      3.3465   2000.0000   2000.0000    118.1589
   752.0000      3.9945   2000.0000   2000.0000    117.6836
   752.2500      6.1460   2000.0000   2000.0000    116.9556
   752.5000      9.3261   2000.0000   2000.0000    116.8680
   752.7500     25.5636   2000.0000   2000.0000    117.4207
   753.0000    204.2631   2000.0000   2000.0000    117.8873
   753.2500 100000.0000   2000.0000   2000.0000    118.1700
   753.5000 100000.0000   2000.0000   2000.0000    117.9333
   753.7500 100000.0000   2000.0000   2000.0000    116.8378
   754.0000 100000.0000   2000.0000   2000.0000    115.7189
   754.2500 100000.0000   2000.0000   2000.0000    114.1102
   754.5000 100000.0000   2000.0000   2000.0000    113.5456
   754.7500     64.0058   2000.0000   2000.0000    113.8439
   755.0000     38.5883   2000.0000   2000.0000    114.6988
   755.2500     29.6614   2000.0000   2000.0000    116.3369
   755.5000     28.5048   2000.0000   2000.0000    117.1466
   755.7500     29.3036   2000.0000   2000.0000    117.1217
   756.0000     30.5961   2000.0000   2000.0000    116.0683
   756.2500     32.8319   2000.0000   2000.0000    113.1778
   756.5000     34.2667   2000.0000   2000.0000    110.7510
   756.7500     36.3471   2000.0000   2000.0000    107.0198
   757.0000     37.9167   2000.0000   2000.0000    104.7691
   757.2500     40.9478   2000.0000   2000.0000    102.2359
   757.5000     43.2873   2000.0000   2000.0000    101.4640
   757.7500     45.8619   2000.0000   2000.0000    102.2994
   758.0000     45.7744   2000.0000   2000.0000    104.2990
   758.2500     42.4327   2000.0000   2000.0000    108.7479
   758.5000     39.0530   2000.0000   2000.0000    111.7527
   758.7500     34.1976   2000.0000   2000.0000    114.6024
   759.0000     31.6135   2000.0000   2000.0000    114.8663
   759.2500     28.7275   2000.0000   2000.0000    113.2065
   759.5000     27.2937   2000.0000   2000.0000    111.5231
   759.7500     25.6540   2000.0000   2000.0000    109.5074
   760.0000     24.8676   2000.0000   2000.0000    108.8947
   760.2500     24.1938   2000.0000   2000.0000    109.0083
   760.5000     24.1003   2000.0000   2000.0000    109.5547
   760.7500     24.4206   2000.0000   2000.0000    110.7193
   761.0000     24.8254   2000.0000   2000.0000    111.5321
   761.2500     25.4496   2000.0000   2000.0000    112.4773
   761.5000     25.7389   2000.0000   2000.0000    112.7335
   761.7500     25.8778   2000.0000   2000.0000    112.1950
   762.0000     25.7978   2000.0000   2000.0000    111.1021
   762.2500     25.5348   2000.0000   2000.0000    108.8748
   762.5000     25.3286   2000.0000   2000.0000    107.7855
   762.7500     25.0326   2000.0000   2000.0000    107.8793
   763.0000     24.8522   2000.0000   2000.0000    108.9318
   763.2500     24.6041   2000.0000   2000.0000    110.4717
   763.5000     24.4545   2000.0000   2000.0000    110.6720
   763.7500     24.2558   2000.0000   2000.0000    109.5046
   764.0000     24.1328   2000.0000   2000.0000    108.1196
   764.2500     23.9323   2000.0000   2000.0000    105.9484
   764.5000     23.7735   2000.0000   2000.0000    104.8522
   764.7500     23.5043   2000.0000   2000.0000    104.1836
   765.0000     23.3287   2000.0000   2000.0000    104.4037
   765.2500     23.1237   2000.0000   2000.0000    105.4201
   765.5000     23.0471   2000.0000   2000.0000    106.3171
   765.7500     23.0317   2000.0000   2000.0000    107.5457
   766.0000     23.0812   2000.0000   2000.0000    108.0052
   766.2500     23.2283   2000.0000   2000.0000    107.9381
   766.5000     23.3680   2000.0000   2000.0000    107.6008
   766.7500     23.6353   2000.0000   2000.0000    107.3365
   767.0000     23.8498   2000.0000   2000.0000    107.5243
   767.2500     24.2129   2000.0000   2000.0000    108.0162
   767.5000     24.4661   2000.0000   2000.0000    108.0759
   767.7500     24.8240   2000.0000   2000.0000    107.3172
   768.0000     25.0272   2000.0000   2000.0000    106.3247
   768.2500     25.2598   2000.0000   2000.0000    104.7218
   768.5000     25.3691   2000.0000   2000.0000    103.9966
   768.7500     25.4915   2000.0000   2000.0000    103.8780
   769.0000     25.5721   2000.0000   2000.0000    104.5473
   769.2500     25.7478   2000.0000   2000.0000    106.8137
   769.5000     25.9317   2000.0000   2000.0000    109.2561
   769.7500     26.3324   2000.0000   2000.0000    114.0816
   770.0000     26.6716   2000.0000   2000.0000    117.4739
   770.2500     27.2196   2000.0000   2000.0000    121.2347
   770.5000     27.5509   2000.0000   2000.0000    122.0755
   770.7500     27.8909   2000.0000   2000.0000    120.4272
