~Version Information
VERS.                      2.0: CWLS Log ASCII Standard - VERSION 2.0
WRAP.                       NO: One line per depth step
~Well Information Block
STRT.FT               250.0000: 
STOP.FT               894.7000: 
STEP.FT                 0.1000: 
NULL.                -999.2500: 
COMP.          Pioneer Natural Resources: COMPANY
WELL.          Santisteven 13-22: WELL
FLD.           Purgatoire River: FIELD
LOC.           1861' FSL & 992' FWL----: LOCATION
PROV.                 Colorado: PROVINCE
CNTY.               Las Animas: COUNTRY
SRVC.                Patterson: SERVICE COMPANY
DATE.          Mon Apr 04 11:05:36 2005: LOG DATE
UWI.           05 071 08337 00: UNIQUE WELL ID
~Curve Information Block
DEPT.FT            0 000 00 00: Depth
DCAL.in                       : CDL Caliper
RHOB.g/cc                     : CDL Bulk Density
RHOC.g/cc                     : CDL Density Correction
DPOR.pu                       : CDL Density Porosity
NPOR.pu                       : Neutron Porosity
GR.GAPI                       : Gamma Ray
~Parameter Information Block
~A  Depth       DCAL        RHOB        RHOC        DPOR        NPOR         GR     
# ...
   288.4000      8.2680      2.5341      0.1343      7.0236     26.9322    155.1685
   288.5000      8.2647      2.5218      0.1131      7.7681     26.6530    150.6410
   288.6000      8.2647      2.5052      0.1101      8.7738     26.7069    153.1554
   288.7000      8.2647      2.4946      0.0614      9.4211     26.9271    159.3173
   288.8000      8.2632      2.5021      0.0670      8.9664     26.6390    162.3631
   288.9000      8.2632      2.5277      0.0909      7.4100     25.8767    162.5267
   289.0000      8.2638      2.5509      0.1083      6.0055     25.3733    162.1685
   289.1000      8.2638      2.5547      0.0747      5.7756     25.5186    158.6521
   289.2000      8.2638      2.5454      0.0427      6.3388     26.0388    152.5901
   289.3000      8.2649      2.5401      0.0154      6.6601     26.5667    147.1803
   289.4000      8.2649      2.5443      0.0618      6.4072     26.7995    142.9960
   289.5000      8.2653      2.5508      0.0620      6.0133     26.6063    142.2359
   289.6000      8.2653      2.5586      0.0542      5.5409     26.4084    146.7167
   289.7000      8.2653      2.5724      0.0587      4.7027     26.4102    153.4525
   289.8000      8.2653      2.5934      0.0837      3.4283     26.0460    159.1525
   289.9000      8.2653      2.6099      0.1024      2.4294     25.1347    162.3852
   290.0000      8.2662      2.6105      0.0750      2.3950     24.4330    160.2252
   290.1000      8.2662      2.6077      0.0784      2.5607     24.4125    151.1656
   290.2000      8.2662      2.6182      0.0811      1.9244     24.8017    139.7772
   290.3000      8.2668      2.6382      0.0557      0.7157     25.6628    130.4137
   290.4000      8.2668      2.6509      0.1082     -0.0528     27.0602    122.5225
   290.5000      8.2695      2.6441      0.0660      0.3574     28.3226    117.0946
   290.6000      8.2695      2.6235      0.0448      1.6035     29.2113    116.5612
   290.7000      8.2695      2.5981     -0.0017      3.1427     29.9407    119.7858
   290.8000      8.2784      2.5703      0.0005      4.8309     30.2474    124.2428
   290.9000      8.2784      2.5516     -0.0477      5.9611     29.8974    127.7112
   291.0000      8.2855      2.5534     -0.0294      5.8536     29.2456    129.7461
   291.1000      8.2855      2.5661      0.0072      5.0848     28.8558    130.2103
   291.2000      8.2855      2.5781      0.0303      4.3558     28.7171    128.8833
   291.3000      8.2861      2.5902      0.0326      3.6259     28.4387    127.6347
   291.4000      8.2861      2.6056      0.0470      2.6905     28.0119    130.1979
   291.5000      8.2858      2.6179      0.0798      1.9450     27.7513    135.7530
   291.6000      8.2858      2.6136      0.1061      2.2032     27.6996    137.9386
   291.7000      8.2858      2.5980      0.0616      3.1535     27.5282    135.0508
   291.8000      8.2880      2.5898      0.0852      3.6457     27.0937    131.7468
   291.9000      8.2880      2.5916      0.0846      3.5403     26.7967    134.9282
   292.0000      8.2918      2.5899      0.0828      3.6424     26.9044    145.2759
   292.1000      8.2918      2.5718      0.0785      4.7399     27.2529    152.5237
   292.2000      8.2918      2.5448      0.0247      6.3753     27.6922    150.9415
   292.3000      8.2927      2.5386      0.0043      6.7498     27.8762    148.7199
   292.4000      8.2927      2.5539      0.0904      5.8262     27.4960    153.0145
   292.5000      8.2900      2.5546      0.0618      5.7844     27.1088    159.6432
   292.6000      8.2900      2.5325      0.0200      7.1199     27.3590    162.3322
   292.7000      8.2900      2.5134      0.0187      8.2760     27.8647    159.5034
   292.8000      8.2881      2.5105      0.0272      8.4530     27.7461    156.2085
   292.9000      8.2881      2.5146      0.0576      8.2040     26.8302    158.8697
   293.0000      8.2882      2.5174      0.0387      8.0387     25.9221    163.2481
   293.1000      8.2882      2.5198      0.0493      7.8927     25.7581    162.6828
   293.2000      8.2882      2.5204      0.0827      7.8525     25.9581    158.8705
   293.3000      8.2886      2.5195      0.0925      7.9062     25.8622    156.4468
   293.4000      8.2886      2.5244      0.0790      7.6141     25.7776    157.6860
   293.5000      8.2871      2.5416      0.0592      6.5702     25.9629    159.5142
   293.6000      8.2871      2.5693      0.1071      4.8881     26.0872    160.0353
   293.7000      8.2871      2.5925      0.1470      3.4820     26.1751    162.2193
   293.8000      8.2851      2.5976      0.1583      3.1751     26.4807    163.9759
   293.9000      8.2851      2.5902      0.1195      3.6215     27.0326    158.7264
   294.0000      8.2844      2.5818      0.1165      4.1331     27.6896    150.6497
   294.1000      8.2844      2.5758      0.0830      4.4958     28.0946    153.0630
   294.2000      8.2844      2.5812      0.0729      4.1690     28.1786    161.3486
   294.3000      8.2850      2.6005      0.0967      3.0014     28.3976    155.8780
   294.4000      8.2850      2.6175      0.0664      1.9698     28.8836    138.7066
   294.5000      8.2864      2.6242      0.0678      1.5660     29.1361    129.9614
   294.6000      8.2864      2.6282      0.0639      1.3211     29.0195    132.3398
   294.7000      8.2864      2.6334      0.0834      1.0075     29.1172    134.8636
   294.8000      8.2891      2.6355      0.0857      0.8786     29.6238    135.8880
   294.9000      8.2891      2.6286      0.0950      1.2969     30.0684    139.8818
   295.0000      8.2907      2.6164      0.0373      2.0388     30.2416    147.3174
   295.1000      8.2907      2.6145      0.0388      2.1529     30.0635    150.6420
   295.2000      8.2907      2.6218      0.0704      1.7069     29.6506    145.1256
   295.3000      8.2906      2.6215      0.0633      1.7272     29.5274    137.2997
   295.4000      8.2906      2.6052      0.0433      2.7133     29.7819    135.6676
   295.5000      8.2930      2.5720      0.0533      4.7284     30.0943    143.1327
   295.6000      8.2930      2.5364      0.0103      6.8833     30.3874    154.4167
   295.7000      8.2930      2.5294      0.0065      7.3068     30.7271    161.5464
   295.8000      8.3061      2.5574      0.0296      5.6132     31.0038    161.9708
   295.9000      8.3061      2.5879      0.0861      3.7613     31.0829    158.7157
   296.0000      8.3331      2.5886      0.0754      3.7203     31.3679    157.7226
   296.1000      8.3331      2.5606      0.0509      5.4207     31.9751    161.4926
   296.2000      8.3331      2.5283      0.0315      7.3734     32.1239    165.7574
   296.3000      8.3586      2.5086      0.0352      8.5670     31.6484    166.5913
   296.4000      8.3586      2.4980      0.0444      9.2112     30.8744    164.8013
   296.5000      8.3705      2.4933      0.0182      9.4949     29.7434    163.2525
   296.6000      8.3705      2.5063      0.0238      8.7111     28.5133    163.9908
   296.7000      8.3705      2.5316      0.0903      7.1784     27.6341    166.3134
   296.8000      8.3726      2.5384      0.0726      6.7665     27.0296    167.0043
   296.9000      8.3726      2.5184      0.0132      7.9754     26.3925    163.6734
   297.0000      8.3716      2.4998      0.0096      9.1006     25.5666    159.3085
   297.1000      8.3716      2.5026      0.0492      8.9313     24.7546    158.8358
   297.2000      8.3716      2.5092      0.0730      8.5310     24.3984    160.5884
   297.3000      8.3709      2.4958      0.0097      9.3446     24.4391    160.0719
   297.4000      8.3709      2.4699      0.0247     10.9134     24.5130    158.1956
   297.5000      8.3676      2.4570     -0.0058     11.6969     24.5141    156.7260
   297.6000      8.3676      2.4694      0.0444     10.9450     24.2097    156.9425
   297.7000      8.3676      2.4884      0.0850      9.7927     23.5384    158.0816
   297.8000      8.3580      2.4885      0.1050      9.7906     23.0856    158.1973
   297.9000      8.3580      2.4769      0.0584     10.4930     23.2764    158.6774
