~Version Information
VERS.                      2.0: CWLS Log ASCII Standard - VERSION 2.0
WRAP.                       NO: One line per depth step
~Well Information Block
STRT.FT                -7.7500: 
STOP.FT              1383.2500: 
STEP.FT                 0.2500: 
NULL.                -999.2500: 
COMP.          Petrogulf Corporation: COMPANY
WELL.          Great Plains 22-22R: WELL
FLD.           Purgatoire River: FIELD
LOC.           2042' FNL & 1657' FWL SENW 22 33S 67W ----: LOCATION
PROV.                 Colorado: PROVINCE
CNTY.               Las Animas: COUNTRY
SRVC.                         : SERVICE COMPANY
DATE.          Thu Sep 22 14:55:58 2005: LOG DATE
UWI.             07108028     : UNIQUE WELL ID
~Curve Information Block
DEPT.FT            0 000 00 00: Depth
CCL.                          : Casing Collar Locator
TT3.usec                      : CBL 3' Travel Time
AMP3.mV                       : CBL 3' Amplitude
GR.GAPI                       : Gamma Ray
~Parameter Information Block
~A  Depth       CCL         TT3         AMP3         GR     
# ...
  1265.2500      0.0000    560.1232      7.7820    114.5603
  1265.5000      0.0000    523.9532      7.4136    109.9640
  1265.7500      0.0000    491.6220      7.4149    105.1166
  1266.0000      0.0000    463.7166      7.5823    101.1478
  1266.2500     -2.0000    441.4175      7.7115     99.0783
  1266.5000      2.0000    424.2259      7.6746     99.3227
  1266.7500      0.0000    411.4575      7.4431    101.2256
  1267.0000      0.0000    405.9934      7.1049    103.4805
  1267.2500      0.0000    413.4890      6.8780    105.3765
  1267.5000      0.0000    436.3924      7.0400    107.3755
  1267.7500      0.0000    468.8592      7.7409    109.9346
  1268.0000      0.0000    498.2291      8.8380    111.9976
  1268.2500      0.0000    512.6535      9.9375    111.5231
  1268.5000      0.0000    507.9685     10.6449    107.8385
  1268.7500      0.0000    488.1278     10.8089    102.7240
  1269.0000      0.0000    461.4712     10.5607     98.7165
  1269.2500      0.0000    436.7937     10.1642     96.8951
  1269.5000      0.0000    419.8306      9.8382     96.6216
  1269.7500      0.0000    411.6056      9.6679     96.9142
  1270.0000      0.0000    411.0437      9.6278     97.6627
  1270.2500      0.0000    419.0502      9.6572     99.3256
  1270.5000      0.0000    437.5902      9.7180    101.4350
  1270.7500      0.0000    463.2207      9.8009    102.0281
  1271.0000      0.0000    483.8708      9.9035     99.4218
  1271.2500      0.0000    486.2242     10.0181     94.4627
  1271.5000      0.0000    467.5043     10.1357     90.2122
  1271.7500      0.0000    437.8610     10.2543     89.2384
  1272.0000      0.0000    410.8178     10.3814     91.8192
  1272.2500      0.0000    393.4241     10.5264     96.7484
  1272.5000      0.0000    385.0183     10.6875    102.8225
  1272.7500      0.0000    381.7758     10.8428    108.9382
  1273.0000      0.0000    380.5442     10.9589    113.5784
  1273.2500      0.0000    379.8226     11.0103    115.3183
  1273.5000      0.0000    379.2232     10.9934    113.9793
  1273.7500      0.0000    378.7677     10.9191    110.8129
  1274.0000      0.0000    378.4961     10.7951    107.4696
  1274.2500      0.0000    378.3776     10.6229    104.9300
  1274.5000      0.0000    378.3626     10.4149    103.3318
  1274.7500      0.0000    378.4411     10.2046    102.5405
  1275.0000      0.0000    378.6099     10.0319    102.5630
  1275.2500      0.0000    378.7999      9.9168    103.1811
  1275.5000      0.0000    378.8861      9.8514    103.4963
  1275.7500      0.0000    378.7898      9.8133    102.5308
  1276.0000      0.0000    378.5450      9.7861    100.4094
  1276.2500      0.0000    378.2429      9.7738     98.5037
  1276.5000      0.0000    377.9343      9.8016     98.2329
  1276.7500      0.0000    377.6145      9.8987     99.7948
  1277.0000      0.0000    377.2945     10.0729    101.9481
  1277.2500      0.0000    377.0453     10.2963    102.8343
  1277.5000      0.0000    376.9496     10.5184    101.1233
  1277.7500      0.0000    377.0440     10.6933     96.8043
  1278.0000      0.0000    377.3519     10.8005     91.2504
  1278.2500      0.0000    378.1663     10.8467     86.3824
  1278.5000      0.0000    380.5255     10.8530     83.4397
  1278.7500      0.0000    386.6336     10.8394     82.4926
  1279.0000      0.0000    399.1906     10.8190     83.1828
  1279.2500      0.0000    418.5927     10.8006     85.5836
  1279.5000      0.0000    439.8060     10.7892     89.9261
  1279.7500      0.0000    453.7111     10.7822     95.5965
  1280.0000      0.0000    454.1040     10.7718    100.8859
  1280.2500      0.0000    443.3661     10.7515    104.1289
  1280.5000      0.0000    430.5745     10.7175    105.0621
  1280.7500      0.0000    424.6673     10.6685    104.7985
  1281.0000      0.0000    428.4869     10.6118    104.4895
  1281.2500      0.0000    436.6655     10.5640    104.3076
  1281.5000      0.0000    439.4619     10.5391    103.7832
  1281.7500      0.0000    431.2564     10.5372    102.6511
  1282.0000      0.0000    415.6580     10.5492    101.0796
  1282.2500      0.0000    401.6482     10.5670     99.3248
  1282.5000      0.0000    396.4018     10.5843     97.4563
  1282.7500      0.0000    402.1902     10.5872     95.4253
  1283.0000      0.0000    416.3566     10.5536     93.3897
  1283.2500      0.0000    431.5201     10.4674     91.8950
  1283.5000      0.0000    438.5608     10.3302     91.6162
  1283.7500      0.0000    433.3294     10.1574     92.7649
  1284.0000      0.0000    420.1207      9.9697     94.6208
  1284.2500      0.0000    406.8786      9.7919     95.7272
  1284.5000      0.0000    398.5199      9.6543     94.9268
  1284.7500      0.0000    396.2316      9.5928     92.4068
  1285.0000      0.0000    401.0941      9.6426     89.4416
  1285.2500      0.0000    415.9330      9.8264     87.0289
  1285.5000      0.0000    443.7037     10.1397     85.2549
  1285.7500      0.0000    484.1830     10.5455     84.0665
  1286.0000      0.0000    530.9982     10.9862     83.9458
  1286.2500      0.0000    571.2896     11.4027     85.2494
  1286.5000      0.0000    589.9894     11.7482     87.2700
  1286.7500      0.0000    577.3989     11.9929     88.6115
  1287.0000      0.0000    536.0048     12.1314     88.4620
  1287.2500      0.0000    481.7309     12.1866     87.1108
  1287.5000      0.0000    437.3055     12.1985     85.3909
  1287.7500      0.0000    421.2486     12.1967     84.0325
  1288.0000      0.0000    439.6685     12.1844     83.4209
  1288.2500      0.0000    484.6388     12.1414     83.5281
  1288.5000      0.0000    538.6282     12.0359     83.9371
  1288.7500      0.0000    583.1388     11.8340     84.0901
  1289.0000      0.0000    606.6450     11.5116     83.6969
  1289.2500      0.0000    605.9778     11.0708     82.9694
  1289.5000      0.0000    582.7582     10.5534     82.4305
  1289.7500      0.0000    541.9626     10.0356     82.4466
  1290.0000      0.0000    493.4558      9.6021     82.9088
  1290.2500      0.0000    450.6586      9.3153     83.2609
  1290.5000      0.0000    425.5197      9.2013     82.8865
  1290.7500      0.0000    425.0078      9.2609     81.7313
  1291.0000      0.0000    450.5963      9.4928     80.6511
  1291.2500      0.0000    497.3008      9.9140     80.7884
  1291.5000      0.0000    552.9274     10.5652     82.3303
  1291.7500      0.0000    601.9702     11.5030     84.1436
  1292.0000      0.0000    632.6235     12.7819     84.8727
  1292.2500      0.0000    639.5231     14.4266     84.1950
  1292.5000      0.0000    620.8402     16.4110     82.9320
  1292.7500      0.0000    576.6608     18.6537     82.2782
  1293.0000      0.0000    512.3418     21.0161     83.0270
  1293.2500      0.0000    441.0363     23.2998     85.1746
  1293.5000      0.0000    378.8765     25.2750     87.9489
  1293.7500      0.0000    336.1552     26.7597     90.3031
  1294.0000      0.0000    313.5787     27.6902     91.6269
  1294.2500      0.0000    306.4217     28.1070     92.0006
  1294.5000      0.0000    311.1484     28.0629     91.6708
  1294.7500      0.0000    328.7432     27.5560     90.5844
  1295.0000      0.0000    363.2911     26.5669     88.9118
  1295.2500      0.0000    416.9061     25.1617     87.7247
  1295.5000      0.0000    484.1796     23.5356     88.3094
  1295.7500      0.0000    551.6318     21.9313     90.7545
  1296.0000      0.0000    604.8762     20.5096     93.9990
  1296.2500      0.0000    637.1417     19.3066     97.5702
  1296.5000      0.0000    650.4424     18.3054    102.5949
  1296.7500      0.0000    650.2557     17.5128    110.5096
  1297.0000      0.0000    641.4164     16.9526    120.9391
  1297.2500      0.0000    627.5024     16.6223    131.3386
  1297.5000      0.0000    611.2307     16.4791    138.9888
  1297.7500      0.0000    595.4836     16.4489    143.1782
  1298.0000      0.0000    584.9744     16.4316    145.0919
  1298.2500      0.0000    585.3123     16.3203    145.9103
  1298.5000      0.0000    598.1956     16.0520    145.8980
