~Version Information
VERS.                      2.0: CWLS Log ASCII Standard - VERSION 2.0
WRAP.                       NO: One line per depth step
~Well Information Block
STRT.FT               -12.0000: 
STOP.FT              2137.5000: 
STEP.FT                 0.2500: 
NULL.                -999.2500: 
COMP.          Pioneer Natural Resources: COMPANY
WELL.           Ogallela 44-12: WELL
FLD.           Purgatorie River: FIELD
LOC.           610' FSL & 671' FEL------------: LOCATION
PROV.                       CO: PROVINCE
CNTY.               Las Animas: COUNTRY
SRVC.          Patterson Wireline: SERVICE COMPANY
DATE.          Thu Apr 07 14:25:46 2005: LOG DATE
UWI.           05 071 08283 00: UNIQUE WELL ID
~Curve Information Block
DEPT.FT            0 000 00 00: Depth
CCL.                          : Casing Collar Locator
TT3.usec                      : CBL 3' Travel Time
AMP3.mV                       : CBL 3' Amplitude
ATT3.db/ft                    : CBL 3' Attenuation
GR.GAPI                       : Gamma Ray
~Parameter Information Block
~A  Depth       CCL         TT3         AMP3        ATT3         GR     
# ...
  1276.0000      0.0000    703.2725      2.7988    -10.1993     83.9234
  1276.2500      0.0000    694.7437      2.9707    -10.0267     77.6202
  1276.5000      0.0000    687.4586      3.1385     -9.8675     73.2290
  1276.7500      0.0000    687.7368      3.2945     -9.7271     71.8682
  1277.0000      0.0000    697.4818      3.4289     -9.6113     72.8873
  1277.2500      0.0000    710.6843      3.5385     -9.5202     74.4176
  1277.5000      0.0000    717.9111      3.6254     -9.4500     74.9593
  1277.7500      0.0000    713.6304      3.6912     -9.3980     74.3375
  1278.0000      0.0000    699.2108      3.7331     -9.3653     73.2921
  1278.2500      0.0000    681.5104      3.7473     -9.3542     72.4677
  1278.5000      0.0000    669.0396      3.7335     -9.3650     71.9533
  1278.7500      0.0000    666.2772      3.6962     -9.3940     71.6276
  1279.0000      0.0000    669.4711      3.6455     -9.4340     71.5530
  1279.2500      0.0000    668.2405      3.5939     -9.4752     71.7842
  1279.5000      0.0000    652.2327      3.5436     -9.5161     72.0590
  1279.7500      0.0000    618.3639      3.4742     -9.5733     72.1188
  1280.0000      0.0000    574.3764      3.3502     -9.6786     72.2076
  1280.2500      2.0000    535.7739      3.1478     -9.8590     72.7834
  1280.5000      2.0000    517.8027      2.8817    -10.1148     73.7970
  1280.7500      0.0000    528.1823      2.6091    -10.4025     74.7853
  1281.0000      0.0000    563.9707      2.4089    -10.6336     75.7111
  1281.2500      0.0000    612.9096      2.3461    -10.7101     77.1072
  1281.5000      0.0000    659.1044      2.4422    -10.5938     79.0883
  1281.7500      0.0000    690.4341      2.6693    -10.3363     80.6563
  1282.0000      0.0000    702.1570      2.9678    -10.0295     80.4498
  1282.2500      0.0000    695.2083      3.2700     -9.7487     78.1059
  1282.5000      0.0000    674.1688      3.5132     -9.5410     74.6913
  1282.7500      0.0000    648.4377      3.6427     -9.4362     71.9943
  1283.0000      0.0000    631.8275      3.6204     -9.4540     71.5068
  1283.2500      0.0000    635.1403      3.4388     -9.6030     73.5934
  1283.5000      0.0000    657.6890      3.1368     -9.8691     77.1565
  1283.7500      0.0000    689.1092      2.8039    -10.1940     80.3097
  1284.0000      0.0000    719.8060      2.5606    -10.4567     81.8128
  1284.2500      0.0000    746.9879      2.5112    -10.5132     81.8283
  1284.5000      0.0000    771.2675      2.6899    -10.3141     81.1590
  1284.7500      0.0000    791.5602      3.0430     -9.9571     80.1669
  1285.0000      0.0000    804.8544      3.4556     -9.5889     78.8241
  1285.2500      0.0000    809.1411      3.8013     -9.3128     77.3502
  1285.5000      0.0000    805.2348      3.9819     -9.1785     76.2643
  1285.7500      0.0000    796.2883      3.9533     -9.1993     75.9048
  1286.0000      0.0000    785.9708      3.7445     -9.3564     76.1170
  1286.2500      0.0000    776.4427      3.4578     -9.5871     76.3530
  1286.5000      0.0000    767.0308      3.2339     -9.7809     76.1427
  1286.7500      0.0000    754.2986      3.1866     -9.8235     75.5604
  1287.0000      0.0000    734.2377      3.3426     -9.6851     75.1091
  1287.2500      0.0000    705.7587      3.6307     -9.4458     75.0978
  1287.5000      0.0000    672.7275      3.9248     -9.2202     75.3265
  1287.7500      0.0000    642.7844      4.1061     -9.0895     75.4491
  1288.0000      0.0000    624.2222      4.1062     -9.0895     75.4379
  1288.2500      0.0000    622.8007      3.9302     -9.2162     75.5895
  1288.5000      0.0000    638.5726      3.6615     -9.4213     76.2420
  1288.7500      0.0000    664.3445      3.4332     -9.6077     77.5600
  1289.0000      0.0000    689.3639      3.3613     -9.6690     79.4729
  1289.2500      0.0000    705.9128      3.4701     -9.5768     81.6139
  1289.5000      0.0000    710.7562      3.6727     -9.4125     83.3383
  1289.7500      0.0000    701.2992      3.8244     -9.2953     83.9478
  1290.0000      0.0000    676.0126      3.8128     -9.3041     83.0285
  1290.2500      0.0000    641.5448      3.6312     -9.4454     80.6631
  1290.5000      0.0000    614.9411      3.3905     -9.6440     77.4324
  1290.7500      0.0000    612.6512      3.2524     -9.7643     74.1786
  1291.0000      0.0000    636.4592      3.3190     -9.7056     71.6445
  1291.2500      0.0000    672.4570      3.5624     -9.5008     70.2184
  1291.5000      0.0000    703.4219      3.8498     -9.2761     70.0138
  1291.7500      0.0000    720.7084      4.0395     -9.1368     71.1491
  1292.0000      0.0000    726.4971      4.0733     -9.1127     73.6784
  1292.2500      0.0000    728.6189      4.0102     -9.1579     77.0860
  1292.5000      0.0000    733.8521      3.9786     -9.1808     80.1927
  1292.7500      0.0000    743.8176      4.0732     -9.1128     81.9364
  1293.0000      0.0000    755.0908      4.2744     -8.9732     82.2167
  1293.2500      0.0000    762.2495      4.4616     -8.8491     81.7893
  1293.5000      0.0000    760.7484      4.5164     -8.8137     81.4337
  1293.7500      0.0000    747.9488      4.4244     -8.8734     81.4697
  1294.0000      0.0000    724.1566      4.2860     -8.9654     81.9076
  1294.2500      0.0000    694.9406      4.2241     -9.0075     82.6600
  1294.5000      0.0000    671.1934      4.2690     -8.9769     83.5661
  1294.7500      0.0000    663.3425      4.3310     -8.9351     84.3549
  1295.0000      0.0000    674.2429      4.2853     -8.9658     84.6010
  1295.2500      0.0000    698.3359      4.0908     -9.1004     83.8915
  1295.5000      0.0000    726.6530      3.8325     -9.2891     82.3153
  1295.7500      0.0000    751.8132      3.6511     -9.4296     80.8305
  1296.0000      0.0000    770.5046      3.6175     -9.4564     80.9062
  1296.2500      0.0000    783.4108      3.6711     -9.4137     83.4906
  1296.5000      0.0000    792.8157      3.6848     -9.4030     88.2617
  1296.7500      0.0000    799.9878      3.5920     -9.4768     93.9834
  1297.0000      0.0000    804.7719      3.4498     -9.5938     99.6142
  1297.2500      0.0000    806.6061      3.3743     -9.6578    104.9708
  1297.5000      0.0000    804.9265      3.4197     -9.6192    110.4371
  1297.7500      0.0000    799.7968      3.5249     -9.5314    116.2937
  1298.0000      0.0000    793.8331      3.5832     -9.4839    122.3632
  1298.2500      0.0000    792.3945      3.5558     -9.5061    128.0622
  1298.5000      0.0000    799.5620      3.5103     -9.5434    132.4784
  1298.7500      0.0000    813.8999      3.5459     -9.5142    134.4466
  1299.0000      0.0000    829.6421      3.6838     -9.4037    133.0525
  1299.2500      0.0000    841.7423      3.8404     -9.2832    128.5988
  1299.5000      0.0000    848.7017      3.9191     -9.2245    122.9907
  1299.7500      0.0000    851.5164      3.9195     -9.2242    118.5581
  1300.0000      0.0000    851.8430      3.9402     -9.2089    116.3766
  1300.2500      0.0000    851.3098      4.0732     -9.1128    116.1288
  1300.5000      0.0000    851.3123      4.3103     -8.9490    117.2988
  1300.7500      0.0000    852.5476      4.5537     -8.7900    119.6986
  1301.0000      0.0000    854.7602      4.6964     -8.7006    122.8854
  1301.2500      0.0000    857.1316      4.6780     -8.7119    125.9301
  1301.5000      0.0000    858.6884      4.4856     -8.8336    128.1455
  1301.7500      0.0000    858.1932      4.1464     -9.0612    129.4771
  1302.0000      0.0000    854.3229      3.7396     -9.3602    129.8174
  1302.2500      0.0000    847.0801      3.3874     -9.6466    128.5078
  1302.5000      0.0000    838.9517      3.1953     -9.8156    124.9794
  1302.7500      0.0000    833.2256      3.1849     -9.8250    119.6090
  1303.0000      0.0000    830.4257      3.2873     -9.7334    113.5893
  1303.2500      0.0000    827.3481      3.4030     -9.6333    108.0623
  1303.5000      0.0000    820.1901      3.4643     -9.5816    103.6296
  1303.7500      0.0000    808.0080      3.4528     -9.5912    100.6036
