~Version Information
VERS.                      2.0: CWLS Log ASCII Standard - VERSION 2.0
WRAP.                       NO: One line per depth step
~Well Information Block
STRT.FT               620.0000: 
STOP.FT              2663.2500: 
STEP.FT                 0.2500: 
NULL.                -999.2500: 
COMP.          Evergreen Operating Corporation: COMPANY
WELL.             Carbon 34-21: WELL
FLD.           Purgatoire River: FIELD
LOC.           56' FSL & 2304' FEL: LOCATION
PROV.                 Colorado: PROVINCE
CNTY.               Las Animas: COUNTRY
SRVC.                Patterson: SERVICE COMPANY
DATE.          Mon Sep 13 11:41:04 2004: LOG DATE
UWI.           05 071 08117 00: UNIQUE WELL ID
~Curve Information Block
DEPT.FT            0 000 00 00: Depth
DIR.Ohm-m                     : IEL Induction Resistivity
SN.Ohm-m                      : IEL Short Normal
SP.mV                         : IEL Spontaneous Potential
GR.GAPI                       : Gamma Ray
~Parameter Information Block
~A  Depth       DIR          SN          SP          GR     
# ...
  2228.0000     16.0914     19.7039    -20.5873     39.4603
  2228.2500     16.4902     19.9895    -20.7467     38.0630
  2228.5000     16.9317     20.2758    -20.9002     36.4801
  2228.7500     17.3402     20.5519    -21.0483     35.7675
  2229.0000     17.6280     20.8163    -21.2012     35.6405
  2229.2500     17.7503     21.0746    -21.3749     36.4214
  2229.5000     17.7343     21.3347    -21.5878     38.6976
  2229.7500     17.6513     21.6027    -21.8558     40.5201
  2230.0000     17.5658     21.8781    -22.1893     42.9573
  2230.2500     17.5076     22.1530    -22.5906     44.0445
  2230.5000     17.4778     22.4171    -23.0531     44.3290
  2230.7500     17.4696     22.6692    -23.5604     43.4608
  2231.0000     17.4823     22.9215    -24.0882     41.0398
  2231.2500     17.5231     23.1936    -24.6081     39.3313
  2231.5000     17.6025     23.4956    -25.0931     37.7119
  2231.7500     17.7291     23.8147    -25.5235     37.6030
  2232.0000     17.9075     24.1195    -25.8904     38.8868
  2232.2500     18.1336     24.3792    -26.1949     40.3322
  2232.5000     18.3920     24.5831    -26.4431     42.2766
  2232.7500     18.6558     24.7470    -26.6386     42.8330
  2233.0000     18.8939     24.9046    -26.7783     42.3377
  2233.2500     19.0798     25.0859    -26.8545     41.5150
  2233.5000     19.1939     25.2909    -26.8630     40.5216
  2233.7500     19.2195     25.4727    -26.8138     40.3768
  2234.0000     19.1420     25.5566    -26.7369     40.8548
  2234.2500     18.9585     25.4936    -26.6796     41.2384
  2234.5000     18.6931     25.3113    -26.6949     41.0282
  2234.7500     18.4015     25.1142    -26.8257     40.0629
  2235.0000     18.1561     25.0316    -27.0945     37.7328
  2235.2500     18.0187     25.1505    -27.4999     36.2501
  2235.5000     18.0184     25.4719    -28.0234     35.2476
  2235.7500     18.1416     25.9076    -28.6397     35.5966
  2236.0000     18.3425     26.3178    -29.3249     37.1402
  2236.2500     18.5677     26.5783    -30.0597     38.3627
  2236.5000     18.7847     26.6498    -30.8264     39.8263
  2236.7500     18.9948     26.6091    -31.6011     40.3303
  2237.0000     19.2205     26.6121    -32.3472     40.3774
  2237.2500     19.4800     26.7998    -33.0123     40.3077
  2237.5000     19.7651     27.2039    -33.5317     41.1866
  2237.7500     20.0321     27.7045    -33.8366     42.8769
  2238.0000     20.2032     28.0593    -33.8659     46.6159
  2238.2500     20.1813     28.0000    -33.5782     49.0444
  2238.5000     19.8791     27.3550    -32.9626     51.1494
  2238.7500     19.2583     26.1280    -32.0453     51.2194
  2239.0000     18.3567     24.4849    -30.8911     49.9889
  2239.2500     17.2786     22.6688    -29.5971     49.1789
  2239.5000     16.1517     20.9008    -28.2781     49.7192
  2239.7500     15.0804     19.3154    -27.0461     51.9956
  2240.0000     14.1222     17.9513    -25.9881     58.6852
  2240.2500     13.2895     16.7797    -25.1518     65.0533
  2240.5000     12.5672     15.7406    -24.5412     76.3746
  2240.7500     11.9313     14.7712    -24.1256     84.1866
  2241.0000     11.3609     13.8293    -23.8567     94.2465
  2241.2500     10.8427     12.9099    -23.6873     98.5792
  2241.5000     10.3706     12.0451    -23.5844    100.3956
  2241.7500      9.9461     11.2830    -23.5348     99.0145
  2242.0000      9.5778     10.6647    -23.5410     95.4820
  2242.2500      9.2783     10.2146    -23.6141     93.5513
  2242.5000      9.0592      9.9358    -23.7658     92.5285
  2242.7500      8.9255      9.8051    -24.0043     93.1999
  2243.0000      8.8726      9.7776    -24.3329     95.7788
  2243.2500      8.8878      9.8076    -24.7507     97.9752
  2243.5000      8.9536      9.8686    -25.2541    100.5356
  2243.7500      9.0542      9.9604    -25.8364    100.8059
  2244.0000      9.1802     10.1040    -26.4883     98.0024
  2244.2500      9.3296     10.3309    -27.1962     94.2022
  2244.5000      9.5051     10.6673    -27.9425     87.6315
  2244.7500      9.7105     11.1207    -28.7052     84.1953
  2245.0000      9.9497     11.6709    -29.4590     81.6140
  2245.2500     10.2256     12.2704    -30.1762     80.9380
  2245.5000     10.5372     12.8551    -30.8283     79.4502
  2245.7500     10.8736     13.3652    -31.3880     77.5862
  2246.0000     11.2109     13.7594    -31.8319     74.0329
  2246.2500     11.5155     14.0086    -32.1456     71.7279
  2246.5000     11.7569     14.0812    -32.3275     69.1616
  2246.7500     11.9175     13.9485    -32.3923     68.6474
  2247.0000     11.9935     13.6058    -32.3700     71.0167
  2247.2500     11.9842     13.0895    -32.3002     75.0417
  2247.5000     11.8830     12.4723    -32.2231     83.5610
  2247.7500     11.6823     11.8447    -32.1701     89.5263
  2248.0000     11.3871     11.2937    -32.1581     97.3317
  2248.2500     11.0237     10.8833    -32.1886    101.8920
  2248.5000     10.6301     10.6344    -32.2535    108.9729
  2248.7500     10.2406     10.5158    -32.3425    114.3322
  2249.0000      9.8763     10.4582    -32.4510    122.8436
  2249.2500      9.5481     10.3894    -32.5850    127.7932
  2249.5000      9.2638     10.2675    -32.7592    131.7852
  2249.7500      9.0323     10.0933    -32.9916    131.3171
  2250.0000      8.8619      9.9003    -33.2936    127.1232
  2250.2500      8.7580      9.7335    -33.6613    124.2733
  2250.5000      8.7208      9.6281    -34.0691    123.6783
  2250.7500      8.7460      9.5953    -34.4704    125.9642
  2251.0000      8.8258      9.6179    -34.8026    129.9950
  2251.2500      8.9498      9.6601    -34.9979    130.4911
  2251.5000      9.1052      9.6879    -34.9936    125.7393
  2251.7500      9.2764      9.6911    -34.7439    119.3083
  2252.0000      9.4473      9.6901    -34.2305    107.0878
  2252.2500      9.6038      9.7217    -33.4710     98.9560
  2252.5000      9.7363      9.8125    -32.5227     90.1524
  2252.7500      9.8393      9.9587    -31.4775     88.2693
  2253.0000      9.9087     10.1211    -30.4465     92.0309
  2253.2500      9.9389     10.2396    -29.5371     97.2635
  2253.5000      9.9241     10.2617    -28.8299    104.5347
  2253.7500      9.8637     10.1741    -28.3628    107.1595
  2254.0000      9.7672     10.0142    -28.1297    108.4220
  2254.2500      9.6532      9.8472    -28.0909    109.3224
  2254.5000      9.5434      9.7251    -28.1918    112.8382
  2254.7500      9.4547      9.6656    -28.3786    116.1519
  2255.0000      9.3980      9.6668    -28.6085    120.3421
  2255.2500      9.3797      9.7281    -28.8506    121.8551
  2255.5000      9.4047      9.8472    -29.0821    122.3165
  2255.7500      9.4744     10.0065    -29.2841    121.6697
  2256.0000      9.5825     10.1687    -29.4399    119.3423
  2256.2500      9.7120     10.2893    -29.5374    116.9711
  2256.5000      9.8374     10.3338    -29.5725    113.0226
  2256.7500      9.9344     10.2884    -29.5520    110.9488
  2257.0000      9.9879     10.1618    -29.4927    109.5909
  2257.2500      9.9946      9.9838    -29.4171    109.6108
  2257.5000      9.9581      9.8001    -29.3468    109.6641
  2257.7500      9.8842      9.6597    -29.2964    109.0980
  2258.0000      9.7798      9.5930    -29.2701    107.3768
  2258.2500      9.6549      9.5996    -29.2627    106.1926
  2258.5000      9.5226      9.6520    -29.2636    105.5850
  2258.7500      9.3964      9.7108    -29.2631    106.4786
  2259.0000      9.2860      9.7443    -29.2568    109.7447
  2259.2500      9.1953      9.7477    -29.2481    112.5980
  2259.5000      9.1248      9.7450    -29.2463    116.4807
  2259.7500      9.0752      9.7669    -29.2653    118.2681
  2260.0000      9.0493      9.8266    -29.3209    119.7313
  2260.2500      9.0518      9.9198    -29.4305    120.2001
  2260.5000      9.0873     10.0402    -29.6122    120.5270
  2260.7500      9.1601     10.1870    -29.8833    120.4197
  2261.0000      9.2740     10.3644    -30.2557    119.3379
  2261.2500      9.4335     10.5823    -30.7304    117.8082
