~Version Information
VERS.                                  2.0 : CWLS LAS VERSION
WRAP.                                   NO : WRAPING MODE
SWARE .                 MController 2.5.0J : SOFTWARE VERSION
~Well Information
WELL.                         State 16-43V : WELL
COMP.                       Petrogulf CORP : COMPANY
FLD.                NE/SE Sec 16 T33S R67W : FIELD
LOC.                      Purgatoire River : LOCATION
DATE.                            12/3-4/04 : DATE(S) LOGGED
SRVC.        Blanco Geological Service LLC : SERVICE COMPANY
STAT.                                   CO : STATE
CNTY.                            Las Animas: COUNTY
CTRY.                                  USA : COUNTRY
API.                           05-071-08015: API NUMBER
STRT.FT                             626.00 : START DEPTH
STOP.FT                            2125.00 : STOP DEPTH
STEP.FT                               1.00 : DEPTH INCREMENT
NULL.                                -9999 : NULL VALUE
~Curve information
DEPTH.FT                                   :
ROP.MIN/FT                                 :
GAS.UNITS                                  :
~ASCII Log data
# ...
      1038.0         0.17          7.3
      1039.0         0.20          7.8
      1040.0         0.17          6.7
      1041.0         0.17          7.4
      1042.0         0.15          7.8
      1043.0         0.17          9.1
      1044.0         0.20          9.3
      1045.0         0.23          7.6
      1046.0         0.27          6.0
      1047.0         0.17          5.7
      1048.0         0.37          5.7
      1049.0         0.33          6.7
      1050.0         0.23          6.3
      1051.0         0.27          6.7
      1052.0         0.13          7.9
      1053.0         0.27          7.5
      1054.0         0.23          7.5
      1055.0         0.27          8.3
      1056.0         0.27          8.4
      1057.0         0.23          7.6
      1058.0         0.25          7.5
      1059.0         0.27          7.4
      1060.0         0.20          7.7
      1061.0         0.23          8.0
      1062.0         0.27          7.6
      1063.0         0.20          6.5
      1064.0         0.23          6.6
      1065.0         0.20          7.2
      1066.0         0.23          7.3
      1067.0         0.23          6.6
      1068.0         0.23          6.2
      1069.0         0.20          5.7
      1070.0         0.20          6.1
      1071.0         0.23          7.1
      1072.0         0.25          8.3
      1073.0         0.20          8.5
      1074.0         0.20          8.3
      1075.0         0.20          8.0
      1076.0         0.20          7.8
      1077.0         0.33          6.2
      1078.0         0.33          7.8
      1079.0         0.27          8.3
      1080.0         0.27          6.6
      1081.0         0.27          6.1
      1082.0         0.23          7.2
      1083.0         0.27          8.1
      1084.0         0.25          7.3
      1085.0         0.27          6.1
      1086.0         0.23          6.8
      1087.0         0.23          6.8
      1088.0         0.27          5.9
      1089.0         0.23          6.6
      1090.0         0.27          6.2
      1091.0         0.27          5.6
      1092.0         0.23          6.8
      1093.0         0.23          7.6
      1094.0         0.27          7.9
      1095.0         0.23          7.5
      1096.0         0.27          6.6
      1097.0         0.23          5.6
      1098.0         0.25          5.3
      1099.0         0.23          6.1
      1100.0         0.23          6.7
      1101.0         0.23          6.7
      1102.0         0.23          6.2
      1103.0         0.23          5.3
      1104.0         0.23          5.4
      1105.0         0.17          5.0
      1106.0         0.27          5.4
      1107.0         0.37          6.6
      1108.0         0.33          6.0
      1109.0         0.30          5.3
      1110.0         0.27          5.7
      1111.0         0.28          5.4
      1112.0         0.27          5.3
      1113.0         0.30          5.7
      1114.0         0.23          6.1
      1115.0         0.27          6.6
      1116.0         0.23          6.1
      1117.0         0.23          6.0
      1118.0         0.23          4.9
      1119.0         0.23          4.5
      1120.0         0.23          5.3
      1121.0         0.27          5.7
      1122.0         0.37          5.6
      1123.0         0.17          5.9
      1124.0         0.22          5.8
      1125.0         0.17          4.5
      1126.0         0.20          4.5
      1127.0         0.13          5.0
      1128.0         0.27          3.7
      1129.0         0.27          4.5
      1130.0         0.23          5.9
      1131.0         0.30          6.0
      1132.0         0.27          5.2
      1133.0         0.20          4.5
      1134.0         0.23          4.4
      1135.0         0.27          4.2
      1136.0         0.10          4.6
      1137.0         0.37          3.6
      1138.0         0.37          5.1
      1139.0         0.45          4.3
      1140.0         0.33          3.0
      1141.0         0.30          3.9
      1142.0         0.23          3.7
      1143.0         0.33          3.5
      1144.0         0.30          3.5
      1145.0         0.37          4.5
      1146.0         0.20          5.5
      1147.0         0.20          5.2
      1148.0         0.23          3.9
      1149.0         0.23          2.8
      1150.0         0.27          3.9
      1151.0         0.25          3.8
      1152.0         0.23          4.1
      1153.0         0.23          4.5
      1154.0         0.23          4.8
      1155.0         0.23          3.4
      1156.0         0.23          4.9
      1157.0         0.23          4.7
      1158.0         0.20          4.7
      1159.0         0.27          4.5
      1160.0         0.23          3.9
      1161.0         0.23          4.2
      1162.0         0.20          3.5
      1163.0         0.23          4.6
      1164.0         0.23          4.7
      1165.0         0.25          5.7
      1166.0         0.13          3.1
      1167.0         0.27          3.7
      1168.0         0.17          4.2
      1169.0         0.23          3.4
      1170.0         0.20          4.0
      1171.0         0.23          4.5
      1172.0         0.17          4.7
      1173.0         0.17          4.2
      1174.0         0.23          3.1
      1175.0         0.13          2.8
      1176.0         0.13          3.4
      1177.0         0.13          3.7
      1178.0         0.20          3.2
      1179.0         0.20          1.9
      1180.0         0.28          2.3
      1181.0         0.27          4.8
      1182.0         0.30          5.1
      1183.0         0.20          4.7
      1184.0         0.20          3.9
      1185.0         0.20          4.3
      1186.0         0.20          2.8
      1187.0         0.17          2.8
      1188.0         0.17          3.0
      1189.0         0.17          2.9
      1190.0         0.20          3.1
      1191.0         0.23          3.7
      1192.0         0.27          5.0
      1193.0         0.20          6.1
      1194.0         0.17          5.4
      1195.0         0.27          4.2
      1196.0         0.28          3.0
      1197.0         0.35          3.9
      1198.0         0.30          3.8
      1199.0         0.30          3.7
      1200.0         0.30          4.0
      1201.0         0.30          4.8
      1202.0         0.27          4.5
      1203.0         0.23          3.4
      1204.0         0.27          3.7
      1205.0         0.20          4.5
      1206.0         0.23          3.0
      1207.0         0.20          2.0
      1208.0         0.23          3.3
      1209.0         0.23          4.1
      1210.0         0.22          4.0
      1211.0         0.20          4.8
      1212.0         0.20          4.1
      1213.0         0.17          4.5
      1214.0         0.20          4.8
      1215.0         0.17          4.0
      1216.0         0.20          4.1
      1217.0         0.20          3.0
      1218.0         0.23          2.9
      1219.0         0.20          2.2
      1220.0         0.20          3.1
      1221.0         0.20          3.5
      1222.0         0.20          3.7
      1223.0         0.20          4.1
      1224.0         0.23          4.6
      1225.0         0.20          4.2
      1226.0         0.47          4.6
      1227.0         0.20          4.2
      1228.0         0.27          3.6
      1229.0         0.30          2.9
      1230.0         0.37          3.9
      1231.0         0.23          4.3
      1232.0         0.23          4.9
      1233.0         0.17          3.6
      1234.0         0.17          3.9
      1235.0         0.17          3.7
      1236.0         0.20          3.7
      1237.0         0.20          3.6
      1238.0         0.23          3.5
      1239.0         0.20          3.1
      1240.0         0.20          2.5
      1241.0         0.35          4.2
      1242.0         0.27          5.0
      1243.0         0.20          4.4
