~Version Information
VERS.                      2.0: CWLS Log ASCII Standard - VERSION 2.0
WRAP.                       NO: One line per depth step
~Well Information Block
STRT.FT                -7.6500: 
STOP.FT              3097.2500: 
STEP.FT                 0.0500: 
NULL.                -999.2500: 
COMP.          Pioneer Natural Resources: COMPANY
WELL.            Paradise 13-8: WELL
FLD.           Purgatoire River: FIELD
LOC.           1896' FSL & 1120' FWL--: LOCATION
PROV.                 Colorado: PROVINCE
CNTY.               Las Animas: COUNTRY
SRVC.                Patterson: SERVICE COMPANY
DATE.          Fri Feb 04 16:52:25 2005: LOG DATE
UWI.           05 071 07946 00: UNIQUE WELL ID
~Curve Information Block
DEPT.FT            0 000 00 00: Depth
CCL.                          : Casing Collar Locator
TT3.usec                      : CBL 3' Travel Time
AMP3.mV                       : CBL 3' Amplitude
GR.GAPI                       : Gamma Ray
~Parameter Information Block
~A  Depth       CCL         TT3         AMP3         GR     
# ...
  1848.2500      0.0000    509.6249      2.0552    107.9978
  1848.3000      2.0000    509.6249      2.0552    107.9978
  1848.3500      2.0000    509.6249      2.0552    107.9978
  1848.4000     -2.0000    509.6249      2.0552    107.9978
  1848.4500     -2.0000    509.6249      2.0552    107.9978
  1848.5000      2.0000    519.6422      2.1201    105.6342
  1848.5500      2.0000    519.6422      2.1201    105.6342
  1848.6000      0.0000    519.6422      2.1201    105.6342
  1848.6500     -2.0000    519.6422      2.1201    105.6342
  1848.7000      0.0000    519.6422      2.1201    105.6342
  1848.7500      2.0000    538.9537      2.1826    106.6559
  1848.8000      0.0000    538.9537      2.1826    106.6559
  1848.8500      0.0000    538.9537      2.1826    106.6559
  1848.9000     -2.0000    538.9537      2.1826    106.6559
  1848.9500     -2.0000    538.9537      2.1826    106.6559
  1849.0000      0.0000    569.5211      2.2264    111.3707
  1849.0500      0.0000    569.5211      2.2264    111.3707
  1849.1000      0.0000    569.5211      2.2264    111.3707
  1849.1500      0.0000    569.5211      2.2264    111.3707
  1849.2000      0.0000    569.5211      2.2264    111.3707
  1849.2500      0.0000    608.1837      2.2471    117.7413
  1849.3000      0.0000    608.1837      2.2471    117.7413
  1849.3500      0.0000    608.1837      2.2471    117.7413
  1849.4000      0.0000    608.1837      2.2471    117.7413
  1849.4500      0.0000    608.1837      2.2471    117.7413
  1849.5000      0.0000    645.0307      2.2641    123.2557
  1849.5500      0.0000    645.0307      2.2641    123.2557
  1849.6000      0.0000    645.0307      2.2641    123.2557
  1849.6500      0.0000    645.0307      2.2641    123.2557
  1849.7000      0.0000    645.0307      2.2641    123.2557
  1849.7500      0.0000    666.6210      2.3065    126.8315
  1849.8000      0.0000    666.6210      2.3065    126.8315
  1849.8500      0.0000    666.6210      2.3065    126.8315
  1849.9000      0.0000    666.6210      2.3065    126.8315
  1849.9500      0.0000    666.6210      2.3065    126.8315
  1850.0000      0.0000    664.0464      2.3833    129.0320
  1850.0500      0.0000    664.0464      2.3833    129.0320
  1850.1000      0.0000    664.0464      2.3833    129.0320
  1850.1500      0.0000    664.0464      2.3833    129.0320
  1850.2000      0.0000    664.0464      2.3833    129.0320
  1850.2500      0.0000    639.7565      2.4728    131.1169
  1850.3000      0.0000    639.7565      2.4728    131.1169
  1850.3500      0.0000    639.7565      2.4728    131.1169
  1850.4000      0.0000    639.7565      2.4728    131.1169
  1850.4500      0.0000    639.7565      2.4728    131.1169
  1850.5000      0.0000    605.9172      2.5437    133.9820
  1850.5500      0.0000    605.9172      2.5437    133.9820
  1850.6000      0.0000    605.9172      2.5437    133.9820
  1850.6500      0.0000    605.9172      2.5437    133.9820
  1850.7000      0.0000    605.9172      2.5437    133.9820
  1850.7500      0.0000    576.0654      2.5786    137.5260
  1850.8000      0.0000    576.0654      2.5786    137.5260
  1850.8500      0.0000    576.0654      2.5786    137.5260
  1850.9000      0.0000    576.0654      2.5786    137.5260
  1850.9500      0.0000    576.0654      2.5786    137.5260
  1851.0000      0.0000    558.8662      2.5790    140.8854
  1851.0500      0.0000    558.8662      2.5790    140.8854
  1851.1000      0.0000    558.8662      2.5790    140.8854
  1851.1500      0.0000    558.8662      2.5790    140.8854
  1851.2000      0.0000    558.8662      2.5790    140.8854
  1851.2500      0.0000    557.2881      2.5567    143.3028
  1851.3000      0.0000    557.2881      2.5567    143.3028
  1851.3500      0.0000    557.2881      2.5567    143.3028
  1851.4000      0.0000    557.2881      2.5567    143.3028
  1851.4500      0.0000    557.2881      2.5567    143.3028
  1851.5000      0.0000    569.4402      2.5261    144.6266
  1851.5500      0.0000    569.4402      2.5261    144.6266
  1851.6000      0.0000    569.4402      2.5261    144.6266
  1851.6500      0.0000    569.4402      2.5261    144.6266
  1851.7000      0.0000    569.4402      2.5261    144.6266
  1851.7500      0.0000    589.0534      2.5007    145.2314
  1851.8000      0.0000    589.0534      2.5007    145.2314
  1851.8500      0.0000    589.0534      2.5007    145.2314
  1851.9000      0.0000    589.0534      2.5007    145.2314
  1851.9500      0.0000    589.0534      2.5007    145.2314
  1852.0000      0.0000    607.2611      2.4891    145.8476
  1852.0500      0.0000    607.2611      2.4891    145.8476
  1852.1000      0.0000    607.2611      2.4891    145.8476
  1852.1500      0.0000    607.2611      2.4891    145.8476
  1852.2000      0.0000    607.2611      2.4891    145.8476
  1852.2500      0.0000    616.3852      2.4907    147.1600
  1852.3000      0.0000    616.3852      2.4907    147.1600
  1852.3500      0.0000    616.3852      2.4907    147.1600
  1852.4000      0.0000    616.3852      2.4907    147.1600
  1852.4500      0.0000    616.3852      2.4907    147.1600
  1852.5000      0.0000    613.7917      2.4980    148.8538
  1852.5500      0.0000    613.7917      2.4980    148.8538
  1852.6000      0.0000    613.7917      2.4980    148.8538
  1852.6500      0.0000    613.7917      2.4980    148.8538
  1852.7000      0.0000    613.7917      2.4980    148.8538
  1852.7500      0.0000    603.1796      2.5044    149.2272
  1852.8000      0.0000    603.1796      2.5044    149.2272
  1852.8500      0.0000    603.1796      2.5044    149.2272
  1852.9000      0.0000    603.1796      2.5044    149.2272
  1852.9500      0.0000    603.1796      2.5044    149.2272
  1853.0000      0.0000    591.8768      2.5085    146.6750
  1853.0500      0.0000    591.8768      2.5085    146.6750
  1853.1000      0.0000    591.8768      2.5085    146.6750
  1853.1500      0.0000    591.8768      2.5085    146.6750
  1853.2000      0.0000    591.8768      2.5085    146.6750
  1853.2500      0.0000    585.7575      2.5114    141.6100
  1853.3000      0.0000    585.7575      2.5114    141.6100
  1853.3500      0.0000    585.7575      2.5114    141.6100
  1853.4000      0.0000    585.7575      2.5114    141.6100
  1853.4500      0.0000    585.7575      2.5114    141.6100
  1853.5000      0.0000    585.9513      2.5111    136.0344
  1853.5500      0.0000    585.9513      2.5111    136.0344
  1853.6000      0.0000    585.9513      2.5111    136.0344
  1853.6500      0.0000    585.9513      2.5111    136.0344
  1853.7000      0.0000    585.9513      2.5111    136.0344
  1853.7500      0.0000    590.1382      2.5030    131.3090
  1853.8000      0.0000    590.1382      2.5030    131.3090
  1853.8500      0.0000    590.1382      2.5030    131.3090
  1853.9000      0.0000    590.1382      2.5030    131.3090
  1853.9500      0.0000    590.1382      2.5030    131.3090
  1854.0000      0.0000    596.5531      2.4849    127.2749
  1854.0500      0.0000    596.5531      2.4849    127.2749
  1854.1000      0.0000    596.5531      2.4849    127.2749
  1854.1500      0.0000    596.5531      2.4849    127.2749
  1854.2000      0.0000    596.5531      2.4849    127.2749
  1854.2500      0.0000    606.0620      2.4581    123.3612
  1854.3000      0.0000    606.0620      2.4581    123.3612
  1854.3500      0.0000    606.0620      2.4581    123.3612
  1854.4000      0.0000    606.0620      2.4581    123.3612
  1854.4500      0.0000    606.0620      2.4581    123.3612
  1854.5000      0.0000    620.1647      2.4253    119.4767
  1854.5500      0.0000    620.1647      2.4253    119.4767
  1854.6000      0.0000    620.1647      2.4253    119.4767
  1854.6500      0.0000    620.1647      2.4253    119.4767
  1854.7000      0.0000    620.1647      2.4253    119.4767
  1854.7500      0.0000    637.6818      2.3888    115.6771
  1854.8000      0.0000    637.6818      2.3888    115.6771
  1854.8500      0.0000    637.6818      2.3888    115.6771
  1854.9000      0.0000    637.6818      2.3888    115.6771
