~Version Information
VERS.                      2.0: CWLS Log ASCII Standard - VERSION 2.0
WRAP.                       NO: One line per depth step
~Well Information Block
STRT.FT               651.5000: 
STOP.FT              2190.5000: 
STEP.FT                 0.2500: 
NULL.                -999.2500: 
COMP.          Pioneer Natural Resources: COMPANY
WELL.               King 22-13: WELL
FLD.           Purgatoire River: FIELD
LOC.           2419' FNL & 1806' FWL----: LOCATION
PROV.                 Colorado: PROVINCE
CNTY.               Las Animas: COUNTRY
SRVC.                Patterson: SERVICE COMPANY
DATE.          Thu Mar 31 14:33:28 2005: LOG DATE
UWI.           05 071 08318 00: UNIQUE WELL ID
~Curve Information Block
DEPT.FT            0 000 00 00: Depth
SN.Ohm-m                      : IEL Short Normal
SP.mV                         : IEL Spontaneous Potential
DIR.Ohm-m                     : IEL Induction Resistivity
GR.GAPI                       : Gamma Ray
~Parameter Information Block
~A  Depth        SN          SP         DIR          GR     
# ...
  1154.0000      8.5033   -324.1357      0.1301     71.5534
  1154.2500      3.2668   -315.3256      0.0964     73.6416
  1154.5000      0.7760   -297.7451      0.0687     79.7543
  1154.7500     -0.0466   -271.8383      0.0505     85.8017
  1155.0000      0.0024   -240.4323      0.0405     97.8676
  1155.2500      0.6843   -207.8966      0.0366    107.9493
  1155.5000      2.0061   -178.4408      0.0379    125.3610
  1155.7500      3.8240   -154.6429      0.0457    137.0246
  1156.0000      5.7400   -137.0762      0.0646    151.0699
  1156.2500      7.3270   -124.9167      0.1057    156.6491
  1156.5000      8.3574   -116.8089      0.1915    159.3074
  1156.7500      8.8207   -111.4649      0.3615    158.5098
  1157.0000      8.8332   -107.9035      0.7084    156.3594
  1157.2500      8.5812   -105.4636      1.5964    155.6282
  1157.5000      8.2890   -103.7279      5.9115    155.8711
  1157.7500      8.1516   -102.4430 100000.0000    156.0077
  1158.0000      8.2733   -101.4662 100000.0000    155.2637
  1158.2500      8.6491   -100.7275 100000.0000    154.9577
  1158.5000      9.1679   -100.1864 100000.0000    156.5978
  1158.7500      9.6918    -99.7936 100000.0000    158.6608
  1159.0000     10.1769    -99.4784 100000.0000    159.7178
  1159.2500     10.6716    -99.1659 100000.0000    157.0926
  1159.5000     11.2031    -98.7994 100000.0000    148.1575
  1159.7500     11.7247    -98.3500 100000.0000    141.1579
  1160.0000     12.1724    -97.8134 100000.0000    134.1395
  1160.2500     12.5222    -97.2066 100000.0000    133.5563
  1160.5000     12.7947    -96.5654 100000.0000    138.7877
  1160.7500     13.0481    -95.9381 100000.0000    145.0601
  1161.0000     13.3411    -95.3736 100000.0000    155.4180
  1161.2500     13.6774    -94.9123 100000.0000    160.9971
  1161.5000     14.0299    -94.5787 100000.0000    164.8607
  1161.7500     14.4071    -94.3783 100000.0000    163.7399
  1162.0000     14.8528    -94.2973 100000.0000    156.6880
  1162.2500     15.4156    -94.3055 100000.0000    149.3978
  1162.5000     16.1057    -94.3592 100000.0000    137.4250
  1162.7500     16.8840    -94.4133 100000.0000    130.2116
  1163.0000     17.7567    -94.4408 100000.0000    121.2418
  1163.2500     18.7799    -94.4468 100000.0000    116.1962
  1163.5000     19.8930    -94.4613     70.8634    110.1475
  1163.7500     20.9281    -94.5159     26.4066    107.8248
  1164.0000     21.8498    -94.6255     18.2059    107.8785
  1164.2500     22.8239    -94.7840     15.3103    110.0671
  1164.5000     23.9903    -94.9729     14.2322    115.1891
  1164.7500     25.2804    -95.1749     14.0108    118.9927
  1165.0000     26.4849    -95.3835     14.2793    124.3178
  1165.2500     27.4547    -95.5992     14.8787    127.0820
  1165.5000     28.2361    -95.8189     15.7283    128.6709
  1165.7500     29.0028    -96.0304     16.7491    127.3444
  1166.0000     29.8341    -96.2170     17.8135    122.2647
  1166.2500     30.5679    -96.3633     18.7394    117.8810
  1166.5000     30.8613    -96.4548     19.3440    110.7064
  1166.7500     30.3701    -96.4740     19.5248    104.9845
  1167.0000     28.9265    -96.3958     19.2962     94.1719
  1167.2500     26.6692    -96.1904     18.7556     86.1841
  1167.5000     24.0281    -95.8348     18.0212     75.9266
  1167.7500     21.4889    -95.3325     17.1895     72.0041
  1168.0000     19.3185    -94.7246     16.3242     72.6311
  1168.2500     17.5201    -94.0768     15.4616     77.6880
  1168.5000     15.9881    -93.4474     14.6230     90.1852
  1168.7500     14.6534    -92.8659     13.8245     99.3437
  1169.0000     13.5226    -92.3409     13.0812    110.4644
  1169.2500     12.6179    -91.8807     12.4063    115.2010
  1169.5000     11.8980    -91.5047     11.8084    118.6224
  1169.7500     11.2676    -91.2439     11.2893    119.1335
  1170.0000     10.6386    -91.1332     10.8453    119.1064
  1170.2500      9.9718    -91.1985     10.4698    120.0163
  1170.5000      9.3000    -91.4437     10.1563    124.4150
  1170.7500      8.7209    -91.8472      9.8991    128.8311
  1171.0000      8.3453    -92.3710      9.6937    134.4781
  1171.2500      8.2203    -92.9724      9.5361    135.9854
  1171.5000      8.2945    -93.6094      9.4234    135.6019
  1171.7500      8.4728    -94.2445      9.3548    135.8671
  1172.0000      8.6928    -94.8502      9.3314    140.3231
  1172.2500      8.9406    -95.4173      9.3571    145.5773
  1172.5000      9.2071    -95.9580      9.4373    152.3327
  1172.7500      9.4511    -96.4983      9.5777    153.2160
  1173.0000      9.6300    -97.0641      9.7821    147.8584
  1173.2500      9.7516    -97.6718     10.0504    141.8891
  1173.5000      9.8698    -98.3251     10.3791    134.8477
  1173.7500     10.0507    -99.0181     10.7627    133.3786
  1174.0000     10.3427    -99.7387     11.1963    135.1246
  1174.2500     10.7684   -100.4676     11.6783    136.9230
  1174.5000     11.3486   -101.1777     12.2119    137.6738
  1174.7500     12.1216   -101.8413     12.8049    136.3477
  1175.0000     13.1308   -102.4400     13.4689    132.5392
  1175.2500     14.3880   -102.9653     14.2181    129.8179
  1175.5000     15.8398   -103.4093     15.0671    126.5815
  1175.7500     17.3792   -103.7603     16.0282    124.8105
  1176.0000     18.9144   -104.0087     17.1086    121.5718
  1176.2500     20.4015   -104.1551     18.3074    118.6349
  1176.5000     21.7755   -104.2105     19.6143    113.9360
  1176.7500     22.9183   -104.1906     21.0089    111.7790
  1177.0000     23.7471   -104.1114     22.4619    111.2115
  1177.2500     24.3200   -103.9904     23.9386    111.8954
  1177.5000     24.8326   -103.8478     25.4039    111.5550
  1177.7500     25.4906   -103.7039     26.8261    109.1889
  1178.0000     26.3833   -103.5761     28.1804    103.2699
  1178.2500     27.4736   -103.4812     29.4508     99.6891
  1178.5000     28.6670   -103.4406     30.6302     97.9296
  1178.7500     29.8862   -103.4783     31.7164     99.2225
  1179.0000     31.1257   -103.6109     32.7108    101.6340
  1179.2500     32.4483   -103.8367     33.6216    101.3444
  1179.5000     33.8769   -104.1342     34.4669     97.1835
  1179.7500     35.2931   -104.4748     35.2718     93.3767
  1180.0000     36.5208   -104.8411     36.0607     89.2706
  1180.2500     37.4756   -105.2389     36.8548     88.2810
  1180.5000     38.1582   -105.6941     37.6704     88.0559
  1180.7500     38.6354   -106.2452     38.5122     87.4287
  1181.0000     39.0940   -106.9384     39.3586     84.7440
  1181.2500     39.7552   -107.8242     40.1533     82.4236
  1181.5000     40.6572   -108.9436     40.8163     80.4505
  1181.7500     41.5715   -110.3057     41.2721     81.0453
  1182.0000     42.1976   -111.8730     41.4818     84.1222
  1182.2500     42.5118   -113.5701     41.4637     86.2922
  1182.5000     42.8428   -115.3092     41.2905     87.8934
  1182.7500     43.4797   -117.0174     41.0671     87.6790
  1183.0000     44.3447   -118.6544     40.8998     86.1203
  1183.2500     45.1311   -120.2140     40.8713     84.7451
  1183.5000     45.6007   -121.7105     41.0254     82.8536
  1183.7500     45.6853   -123.1595     41.3602     81.9662
  1184.0000     45.4322   -124.5668     41.8309     81.4156
  1184.2500     44.9392   -125.9268     42.3618     81.6794
  1184.5000     44.3203   -127.2261     42.8714     83.3944
  1184.7500     43.7002   -128.4470     43.3043     85.4372
  1185.0000     43.2051   -129.5728     43.6525     88.7687
  1185.2500     42.9341   -130.5928     43.9504     90.1265
  1185.5000     42.9390   -131.5013     44.2422     90.0139
  1185.7500     43.2268   -132.2936     44.5490     88.9862
  1186.0000     43.7726   -132.9617     44.8635     87.5970
  1186.2500     44.5276   -133.4978     45.1737     87.3671
  1186.5000     45.3951   -133.9014     45.4893     87.7354
  1186.7500     46.2403   -134.1859     45.8400     87.6258
  1187.0000     46.9780   -134.3751     46.2540     85.7925
  1187.2500     47.6515   -134.4917     46.7389     83.6550
