~Version Information
VERS.                      2.0: CWLS Log ASCII Standard - VERSION 2.0
WRAP.                       NO: One line per depth step
~Well Information Block
STRT.FT               260.0000: 
STOP.FT              2610.0000: 
STEP.FT                 0.1000: 
NULL.                -999.2500: 
COMP.          Pioneer Natural Resources: COMPANY
WELL.           Costello 44-24: WELL
FLD.           Purgatoire River: FIELD
LOC.           327' FSL & 378' FEL: LOCATION
PROV.                 Colorado: PROVINCE
CNTY.               Las Animas: COUNTRY
SRVC.                Patterson: SERVICE COMPANY
DATE.          Mon Jul 11 10:42:19 2005: LOG DATE
UWI.           05 071 08413 00: UNIQUE WELL ID
~Curve Information Block
DEPT.FT            0 000 00 00: Depth
DCAL.in                       : CDL Caliper
RHOB.g/cc                     : CDL Bulk Density
RHOC.g/cc                     : CDL Density Correction
DPOR.pu                       : CDL Density Porosity
GR.GAPI                       : Gamma Ray
NPOR.pu                       : Neutron Porosity
~Parameter Information Block
~A  Depth       DCAL        RHOB        RHOC        DPOR         GR         NPOR    
# ...
   730.4000      8.4552      2.3892     -0.0387     15.8060    143.5965     23.4097
   730.5000      8.4590      2.4185      0.0522     14.0274    145.0641     22.9965
   730.6000      8.4590      2.4466      0.1184     12.3271    142.8772     22.2556
   730.7000      8.4590      2.4526      0.1194     11.9652    138.7368     21.6162
   730.8000      8.4629      2.4361      0.1684     12.9655    135.6526     21.0944
   730.9000      8.4629      2.4122      0.1150     14.4144    134.8420     20.3491
   731.0000      8.4641      2.3928      0.1594     15.5889    137.4309     19.4968
   731.1000      8.4641      2.3561      0.1759     17.8148    144.1593     18.7461
   731.2000      8.4641      2.2840      0.1096     22.1793    150.8668     18.0723
   731.3000      8.4632      2.1928      0.0975     27.7116    149.6437     17.4862
   731.4000      8.4632      2.1031      0.0211     33.1433    139.2454     17.0089
   731.5000      8.4656      2.0252      0.0359     37.8684    124.3275     16.6060
   731.6000      8.4656      1.9549      0.0323     42.1292    111.7757     16.3937
   731.7000      8.4656      1.8951     -0.0022     45.7498    107.6122     16.4578
   731.8000      8.4644      1.8579      0.0411     48.0045    109.6472     16.5360
   731.9000      8.4644      1.8275      0.1223     49.8497    111.7566     16.1360
   732.0000      8.4628      1.7803      0.0811     52.7104    111.3485     15.3485
   732.1000      8.4628      1.7203      0.0816     56.3439    108.6214     14.7665
   732.2000      8.4628      1.6586      0.0751     60.0828    104.2884     14.4489
   732.3000      8.4669      1.5998      0.0687     63.6509     99.5286     14.2297
   732.4000      8.4669      1.5449      0.0452     66.9733     95.8985     14.1764
   732.5000      8.4694      1.4944     -0.0111     70.0350     92.3080     14.1890
   732.6000      8.4694      1.4485     -0.0458     72.8155     86.6789     14.0978
   732.7000      8.4694      1.4033     -0.0330     75.5596     78.7386     14.0403
   732.8000      8.4539      1.3623     -0.0411     78.0429     67.6059     14.1283
   732.9000      8.4539      1.3360      0.0360     79.6335     54.7966     14.1597
   733.0000      8.4822      1.3196      0.0261     80.6311     45.0738     14.1509
   733.1000      8.4822      1.3042      0.0256     81.5640     39.4562     14.1968
   733.2000      8.4822      1.2952      0.0111     82.1068     36.2840     14.0399
   733.3000      8.4984      1.2962      0.0483     82.0500     33.9108     13.6124
   733.4000      8.4984      1.2968      0.0375     82.0112     30.8644     13.2086
   733.5000      8.5153      1.2896      0.0017     82.4506     27.4623     13.1674
   733.6000      8.5153      1.2737      0.0259     83.4112     24.2801     13.4996
   733.7000      8.5153      1.2504     -0.0030     84.8270     21.1915     13.7863
   733.8000      8.5617      1.2249     -0.0479     86.3718     18.3576     13.7742
   733.9000      8.5617      1.1974      0.0039     88.0388     16.0304     13.5496
   734.0000      8.6221      1.1634     -0.0026     90.0950     14.7140     12.9997
   734.1000      8.6221      1.1266     -0.0050     92.3244     15.6762     12.0598
   734.2000      8.6221      1.0887     -0.0038     94.6264     18.4188     11.0781
   734.3000      8.6482      1.0479     -0.0355     97.0998     20.5261     10.3984
   734.4000      8.6482      1.0090     -0.0504     99.4547     21.2043     10.0606
   734.5000      8.6018      0.9753     -0.0436    101.4940     20.9485     10.0451
   734.6000      8.6018      0.9545     -0.0224    102.7560     20.6560     10.1627
   734.7000      8.6018      0.9723     -0.0082    101.6783     22.3785     10.1372
   734.8000      8.6604      1.0461      0.1214     97.2058     26.7709     10.1369
   734.9000      8.6604      1.1608      0.2444     90.2565     30.7797     10.6036
   735.0000      8.8392      1.3059      0.2631     81.4591     33.4608     11.6925
   735.1000      8.8392      1.5004      0.2903     69.6740     38.3388     13.2618
   735.2000      8.8392      1.7341      0.4244     55.5092     45.0118     15.2996
   735.3000      8.9795      1.9491      0.4672     42.4780     50.4004     17.7344
   735.4000      8.9795      2.1212      0.4770     32.0486     54.5108     20.1042
   735.5000      8.7867      2.2730      0.5057     22.8488     56.9383     22.1361
   735.6000      8.7867      2.4044      0.5477     14.8842     58.6742     23.7910
   735.7000      8.7867      2.4970      0.5085      9.2714     61.9453     24.9384
   735.8000      8.6313      2.5537      0.3283      5.8338     66.1093     25.8432
   735.9000      8.6313      2.5781      0.2429      4.3579     69.6535     26.7644
   736.0000      8.4430      2.5666      0.1496      5.0559     70.4001     27.3067
   736.1000      8.4430      2.5374      0.0750      6.8227     70.8210     27.3611
   736.2000      8.4430      2.5163      0.1161      8.1025     76.1153     27.4055
   736.3000      8.2370      2.5103      0.0958      8.4668     85.7028     27.5369
   736.4000      8.2370      2.5186      0.0929      7.9654     97.8864     27.3362
   736.5000      8.1965      2.5401      0.0657      6.6624    109.5946     26.6013
   736.6000      8.1965      2.5730      0.0809      4.6655    114.4124     25.6803
   736.7000      8.1965      2.6105      0.1017      2.3926    112.6204     24.7986
   736.8000      8.1800      2.6350      0.1403      0.9080    110.4722     24.0130
   736.9000      8.1800      2.6304      0.1426      1.1900    108.2023     23.5203
   737.0000      8.1765      2.6074      0.0871      2.5790    102.3223     23.1982
   737.1000      8.1765      2.5950      0.0687      3.3329     96.8058     22.8868
   737.2000      8.1765      2.5932      0.0897      3.4415     97.4443     22.9262
   737.3000      8.1670      2.5748      0.0921      4.5553    100.1758     23.5171
   737.4000      8.1670      2.5442     -0.0236      6.4121     99.6278     24.1754
   737.5000      8.1563      2.5338     -0.0024      7.0435     99.4193     24.2474
   737.6000      8.1563      2.5400      0.0652      6.6642    104.1534     24.0511
   737.7000      8.1563      2.5408      0.0078      6.6202    109.0661     24.2581
   737.8000      8.1600      2.5434     -0.0069      6.4627    110.5505     24.3973
   737.9000      8.1600      2.5584      0.0068      5.5520    111.0371     23.8729
   738.0000      8.1656      2.5755      0.0514      4.5145    110.6139     23.2775
   738.1000      8.1656      2.5794      0.0448      4.2784    112.4410     23.1365
   738.2000      8.1656      2.5698      0.0190      4.8631    118.0550     23.3319
   738.3000      8.1781      2.5565      0.0294      5.6639    121.8142     23.7335
   738.4000      8.1781      2.5509      0.0146      6.0044    122.7936     24.1963
   738.5000      8.1812      2.5603      0.0270      5.4358    123.2825     24.5625
   738.6000      8.1812      2.5757      0.0363      4.5052    120.0430     24.6297
   738.7000      8.1812      2.5802      0.0659      4.2322    111.0605     24.2308
   738.8000      8.2016      2.5758      0.0453      4.4976    102.9845     23.6386
   738.9000      8.2016      2.5814      0.0013      4.1602    101.5165     23.3317
   739.0000      8.2239      2.5994      0.0587      3.0673    102.5954     23.3167
   739.1000      8.2239      2.6081      0.0715      2.5370    103.0493     23.3059
   739.2000      8.2239      2.5956      0.0401      3.2946    107.7473     23.2768
   739.3000      8.1991      2.5714      0.0422      4.7667    115.0648     23.4106
   739.4000      8.1991      2.5477      0.0092      6.1974    115.1185     23.8561
   739.5000      8.2075      2.5416     -0.0455      6.5704    107.1361     24.4898
   739.6000      8.2075      2.5606     -0.0070      5.4174     98.8692     25.0035
   739.7000      8.2075      2.5856     -0.0151      3.9053     95.6914     25.1881
   739.8000      8.2121      2.5988     -0.0029      3.1004     99.1530     25.1702
   739.9000      8.2121      2.5979      0.0135      3.1591    103.0547     25.0849
