~Version Information
VERS.                      2.0: CWLS Log ASCII Standard - VERSION 2.0
WRAP.                       NO: One line per depth step
~Well Information Block
STRT.FT               400.0000: 
STOP.FT              2201.0000: 
STEP.FT                 0.1000: 
NULL.                -999.2500: 
COMP.          Evergreen Operating Corporation: COMPANY
WELL.            Triumph 13-10: WELL
FLD.           Purgatorie River: FIELD
LOC.           1551' FSL & 522' FWL: LOCATION
PROV.                 Colorado: PROVINCE
CNTY.               Las Animas: COUNTRY
SRVC.                Patterson: SERVICE COMPANY
DATE.          Mon Jul 26 07:55:18 2004: LOG DATE
UWI.           05 071 08108 00: UNIQUE WELL ID
~Curve Information Block
DEPT.FT            0 000 00 00: Depth
DCAL.in                       : CDL Caliper
RHOB.g/cc                     : CDL Bulk Density
RHOC.g/cc                     : CDL Density Correction
DPOR.pu                       : CDL Density Porosity
NPOR.pu                       : Neutron Porosity
GR.GAPI                       : Gamma Ray
~Parameter Information Block
~A  Depth       DCAL        RHOB        RHOC        DPOR        NPOR         GR     
# ...
  1580.8000      8.2221      2.4728      0.2337     10.7419     31.7277    159.0146
  1580.9000      8.2221      2.5373      0.3633      6.8328     31.7275    147.1003
  1581.0000      8.4572      2.5609      0.4148      5.4003     31.9864    146.3683
  1581.1000      8.4572      2.5361      0.3871      6.9054     32.1955    149.3548
  1581.2000      8.4572      2.4764      0.3515     10.5200     32.1212    152.0404
  1581.3000      8.9213      2.4044      0.2479     14.8870     32.0760    155.5861
  1581.4000      8.9213      2.3350      0.2044     19.0889     32.3008    154.8452
  1581.5000      9.6576      2.2665      0.1710     23.2448     32.6334    152.9971
  1581.6000      9.6576      2.1934      0.1650     27.6722     32.9714    155.5555
  1581.7000      9.6576      2.1280      0.1300     31.6388     33.2522    158.5424
  1581.8000      9.9306      2.0928      0.1242     33.7726     33.3550    157.2997
  1581.9000      9.9306      2.0915      0.1392     33.8476     33.1711    154.8396
  1582.0000     10.6968      2.1009      0.1937     33.2775     32.8163    154.2691
  1582.1000     10.6968      2.0902      0.2772     33.9265     32.6369    156.7561
  1582.2000     10.6968      2.0492      0.3177     36.4139     32.7613    163.5040
  1582.3000     11.5386      1.9977      0.3020     39.5325     32.9374    171.4696
  1582.4000     11.5386      1.9613      0.2937     41.7415     32.9776    177.2836
  1582.5000     12.0601      1.9472      0.2916     42.5945     33.1801    174.1498
  1582.6000     12.0601      1.9487      0.2803     42.5033     33.3709    160.7475
  1582.7000     12.0601      1.9513      0.3051     42.3446     33.0640    153.2431
  1582.8000     12.4889      1.9364      0.3191     43.2491     32.7209    156.4698
  1582.9000     12.4889      1.9008      0.2933     45.4050     32.8670    155.1094
  1583.0000     12.7950      1.8642      0.2860     47.6213     33.1125    147.3412
  1583.1000     12.7950      1.8496      0.2619     48.5073     33.0075    146.5139
  1583.2000     12.7950      1.8686      0.2430     47.3589     32.6070    154.9274
  1583.3000     13.2556      1.9192      0.2645     44.2892     32.1229    164.6540
  1583.4000     13.2556      1.9902      0.3203     39.9863     31.7144    169.5737
  1583.5000     13.4424      2.0725      0.3278     35.0011     31.7839    166.7504
  1583.6000     13.4424      2.1620      0.3824     29.5776     32.3537    160.0564
  1583.7000     13.4424      2.2478      0.3997     24.3756     32.9563    156.8463
  1583.8000     13.2381      2.3111      0.4203     20.5369     33.2422    157.7223
  1583.9000     13.2381      2.3353      0.3853     19.0747     33.0627    160.0029
  1584.0000     12.6451      2.3176      0.3693     20.1463     32.6347    164.3106
  1584.1000     12.6451      2.2734      0.3010     22.8216     32.4367    167.9751
  1584.2000     12.6451      2.2334      0.2330     25.2483     32.2621    166.6735
  1584.3000     11.2433      2.2285      0.2090     25.5448     31.4418    163.1809
  1584.4000     11.2433      2.2634      0.2304     23.4310     30.3618    161.4481
  1584.5000     11.0117      2.3180      0.2669     20.1235     29.8888    155.9482
  1584.6000     11.0117      2.3849      0.2847     16.0666     29.6591    143.0556
  1584.7000     11.0117      2.4660      0.3520     11.1500     29.1353    133.5926
  1584.8000     10.6241      2.5399      0.3885      6.6715     28.7489    135.9157
  1584.9000     10.6241      2.5792      0.3948      4.2927     28.8397    142.4104
  1585.0000      8.9297      2.5848      0.3329      3.9542     29.1427    147.0974
  1585.1000      8.9297      2.5757      0.3078      4.5051     29.3615    152.7850
  1585.2000      8.9297      2.5591      0.2495      5.5088     29.2270    156.2033
  1585.3000      8.6900      2.5385      0.1857      6.7577     28.8905    155.2893
  1585.4000      8.6900      2.5266      0.1643      7.4791     28.8450    156.9782
  1585.5000      8.6572      2.5366      0.1374      6.8720     29.0170    158.5455
  1585.6000      8.6572      2.5656      0.1475      5.1125     29.2333    151.3289
  1585.7000      8.6572      2.5944      0.0619      3.3677     29.5646    138.9133
  1585.8000      8.5183      2.6076      0.0494      2.5672     29.7204    134.2143
  1585.9000      8.5183      2.5978      0.0453      3.1614     29.6472    139.7190
  1586.0000      8.3414      2.5696      0.0164      4.8721     29.8145    145.3053
  1586.1000      8.3414      2.5371      0.0386      6.8409     30.1721    143.8278
  1586.2000      8.3414      2.5094      0.0507      8.5197     30.3009    139.9344
  1586.3000      8.3352      2.4888      0.0020      9.7721     30.2692    143.2264
  1586.4000      8.3352      2.4636      0.0475     11.2998     30.4989    152.9078
  1586.5000      8.3327      2.4150     -0.0085     14.2408     31.0427    159.9437
  1586.6000      8.3327      2.3538     -0.0513     17.9497     31.3602    157.9139
  1586.7000      8.3327      2.3068     -0.0168     20.8017     30.9791    149.8745
  1586.8000      8.4981      2.2821     -0.0142     22.2970     30.2050    146.8927
  1586.9000      8.4981      2.2816     -0.0107     22.3273     29.8418    153.8541
  1587.0000      8.8165      2.3105      0.0522     20.5741     30.1780    162.5718
  1587.1000      8.8165      2.3546      0.2099     17.9048     30.8409    166.5092
  1587.2000      8.8165      2.3819      0.1712     16.2492     31.3428    169.0623
  1587.3000      8.6011      2.3894      0.1346     15.7952     31.0917    171.0999
  1587.4000      8.6011      2.4078      0.1290     14.6789     30.1811    170.6727
  1587.5000      8.4236      2.4553      0.1914     11.7971     29.7297    168.8508
  1587.6000      8.4236      2.5164      0.2528      8.0960     30.0699    162.6185
  1587.7000      8.4236      2.5661      0.2414      5.0866     30.3901    150.6472
  1587.8000      8.3860      2.5957      0.2684      3.2916     30.2823    141.5832
  1587.9000      8.3860      2.6030      0.3003      2.8503     29.7791    139.9262
  1588.0000      8.4350      2.5868      0.1856      3.8317     29.1945    142.1451
  1588.1000      8.4350      2.5536      0.1748      5.8422     28.7296    143.2472
  1588.2000      8.4350      2.5135      0.1457      8.2756     28.3112    141.4187
  1588.3000      8.3368      2.4816      0.1212     10.2084     28.1404    140.2648
  1588.4000      8.3368      2.4701      0.0725     10.9032     28.6940    142.1088
  1588.5000      8.3199      2.4673      0.1048     11.0701     30.0614    146.2349
  1588.6000      8.3199      2.4472      0.0551     12.2904     31.4161    147.2768
  1588.7000      8.3199      2.4034      0.0518     14.9427     31.8730    141.3723
  1588.8000      8.3163      2.3472      0.0159     18.3517     31.6531    134.6808
  1588.9000      8.3163      2.2904      0.0371     21.7915     31.5004    135.7385
  1589.0000      8.3430      2.2475      0.0192     24.3925     31.4751    145.4572
  1589.1000      8.3430      2.2297      0.1055     25.4725     31.1967    159.9242
  1589.2000      8.3430      2.2391      0.1279     24.9031     31.0900    173.6372
  1589.3000      8.5721      2.2760      0.1917     22.6639     31.9042    179.5611
  1589.4000      8.5721      2.3365      0.2331     19.0009     33.0057    175.0411
  1589.5000      8.9638      2.3956      0.3604     15.4204     33.2861    166.4783
  1589.6000      8.9638      2.4106      0.4171     14.5105     33.0564    160.6495
  1589.7000      8.9638      2.3603      0.4172     17.5549     32.8820    159.3890
  1589.8000      9.0306      2.2704      0.3125     23.0039     32.5179    162.2231
  1589.9000      9.0306      2.1844      0.2565     28.2203     32.0409    162.8067
  1590.0000      9.1107      2.1174      0.2024     32.2792     32.0284    156.0251
  1590.1000      9.1107      2.0621      0.1456     35.6290     32.5331    145.0137
  1590.2000      9.1107      2.0255      0.0985     37.8495     32.9460    137.1618
  1590.3000      9.0893      2.0294      0.1613     37.6107     32.8405    137.7328
