~Version Information
VERS.                      2.0: CWLS Log ASCII Standard - VERSION 2.0
WRAP.                       NO: One line per depth step
~Well Information Block
STRT.FT                -8.2500: 
STOP.FT              1795.0000: 
STEP.FT                 0.2500: 
NULL.                -999.2500: 
COMP.          Petrogulf Corporation: COMPANY
WELL.           Montoya 7-21 R: WELL
FLD.           Purgatoire River: FIELD
LOC.           445' FNL & 1942' FWL----: LOCATION
PROV.                 Colorado: PROVINCE
CNTY.               Las Animas: COUNTRY
SRVC.                         : SERVICE COMPANY
DATE.          Fri Sep 30 15:33:54 2005: LOG DATE
UWI.                          : UNIQUE WELL ID
~Curve Information Block
DEPT.FT            0 000 00 00: Depth
GR.GAPI                       : Gamma Ray
CCL.                          : Casing Collar Locator
TT3.usec                      : CBL 3' Travel Time
AMP3.mV                       : CBL 3' Amplitude
~Parameter Information Block
~A  Depth        GR         CCL         TT3         AMP3    
# ...
  1532.7500     65.1653      0.0000    551.4311     17.1317
  1533.0000     66.4461      0.0000    539.3826     17.1379
  1533.2500     72.7696      0.0000    533.8503     16.8472
  1533.5000     82.7691      0.0000    531.5062     16.2363
  1533.7500     95.0540      0.0000    532.4599     15.3854
  1534.0000    108.5423      0.0000    538.1577     14.4343
  1534.2500    122.0828      0.0000    546.9003     13.5165
  1534.5000    134.3470      0.0000    553.6309     12.7497
  1534.7500    144.0996      0.0000    553.7151     12.2388
  1535.0000    150.4729      0.0000    546.5519     12.0081
  1535.2500    153.1740      0.0000    535.7590     11.9438
  1535.5000    152.6271      0.0000    524.9971     11.8897
  1535.7500    149.9611      0.0000    514.3029     11.7943
  1536.0000    146.7753      0.0000    501.8029     11.7115
  1536.2500    144.6677      0.0000    485.5185     11.6904
  1536.5000    144.5911      0.0000    462.5021     11.7239
  1536.7500    146.2153      0.0000    431.8088     11.7797
  1537.0000    147.6404      0.0000    399.4938     11.8567
  1537.2500    146.1802      0.0000    375.5303     12.0177
  1537.5000    140.3529      0.0000    365.0647     12.3438
  1537.7500    131.4566      0.0000    365.3850     12.8186
  1538.0000    122.8682      0.0000    369.6972     13.3042
  1538.2500    117.6797      0.0000    371.4341     13.7013
  1538.5000    117.0765      0.0000    366.8835     14.0892
  1538.7500    120.5042      0.0000    356.5447     14.6458
  1539.0000    126.5682      0.0000    344.1020     15.4869
  1539.2500    133.5554      0.0000    333.2899     16.6443
  1539.5000    139.7775      0.0000    325.4393     18.1562
  1539.7500    144.2971      0.0000    319.3685     20.1087
  1540.0000    147.5053      0.0000    313.0514     22.5786
  1540.2500    150.4667      0.0000    305.4413     25.5464
  1540.5000    153.5943      0.0000    297.2065     28.8627
  1540.7500    156.4326      0.0000    289.9850     32.2783
  1541.0000    158.7560      0.0000    284.9661     35.4933
  1541.2500    161.3422      0.0000    282.1928     38.1943
  1541.5000    165.3654      0.0000    280.9489     40.0954
  1541.7500    171.0255      0.0000    280.4977     40.9894
  1542.0000    176.7311      0.0000    280.4738     40.7803
  1542.2500    179.7571      0.0000    280.9608     39.4779
  1542.5000    178.1575      0.0000    282.5072     37.1885
  1542.7500    172.3560      0.0000    286.3441     34.1335
  1543.0000    164.9081      0.0000    294.6251     30.6546
  1543.2500    158.7401      0.0000    310.6247     27.1343
  1543.5000    155.3562      0.0000    338.2007     23.8504
  1543.7500    154.2062      0.0000    379.6283     20.8836
  1544.0000    153.5307      0.0000    432.7703     18.1713
  1544.2500    151.9361      0.0000    491.1227     15.6576
  1544.5000    149.1848      0.0000    547.6122     13.3930
  1544.7500    145.6626      0.0000    597.7954     11.4983
  1545.0000    141.6748      0.0000    639.9835     10.0603
  1545.2500    137.4543      0.0000    674.7687      9.0701
  1545.5000    133.3602      0.0000    704.1328      8.4473
  1545.7500    129.7347      0.0000    728.5560      8.1053
  1546.0000    126.8199      0.0000    745.3809      7.9929
  1546.2500    124.9058      0.0000    751.5018      8.0859
  1546.5000    124.2247      0.0000    745.8481      8.3625
  1546.7500    124.6785      0.0000    726.7004      8.8120
  1547.0000    125.9586      0.0000    688.8405      9.4592
  1547.2500    127.9315      0.0000    628.0767     10.3448
  1547.5000    130.7607      0.0000    549.3044     11.4596
  1547.7500    134.7791      0.0000    467.7408     12.7067
  1548.0000    140.2804      0.0000    400.4631     13.9498
  1548.2500    147.2809      0.0000    356.3380     15.1025
  1548.5000    155.3865      0.0000    333.3986     16.1599
  1548.7500    163.7881      0.0000    323.9910     17.1357
  1549.0000    171.1560      0.0000    320.9766     17.9719
  1549.2500    175.6434      0.0000    320.2603     18.5208
  1549.5000    175.5734      0.0000    320.1838     18.6325
  1549.7500    170.5415      0.0000    320.2685     18.2857
  1550.0000    161.8932      0.0000    320.4430     17.6571
  1550.2500    152.2316      0.0000    320.6903     17.0533
  1550.5000    144.3781      0.0000    320.9486     16.7408
  1550.7500    140.0528      0.0000    321.1255     16.8068
  1551.0000    139.0198      0.0000    321.1822     17.1461
  1551.2500    139.8642      0.0000    321.1773     17.5557
  1551.5000    141.7514      0.0000    321.2308     17.8496
  1551.7500    144.9428      0.0000    321.4702     17.9255
  1552.0000    149.6370      0.0000    322.0359     17.7678
  1552.2500    155.1037      0.0000    323.4327     17.4128
  1552.5000    160.1340      0.0000    327.4575     16.9192
  1552.7500    163.8086      0.0000    338.5979     16.3525
  1553.0000    165.6009      0.0000    364.2961     15.7563
  1553.2500    165.0281      0.0000    411.3428     15.1180
  1553.5000    161.6244      0.0000    478.7665     14.3766
  1553.7500    155.5516      0.0000    554.2221     13.4861
  1554.0000    148.0597      0.0000    620.4211     12.4770
  1554.2500    140.8443      0.0000    666.3799     11.4537
  1554.5000    134.9348      0.0000    691.5911     10.5358
  1554.7500    130.5613      0.0000    701.0865      9.8015
  1555.0000    127.9422      0.0000    700.0922      9.2724
  1555.2500    127.6071      0.0000    693.4008      8.9312
  1555.5000    129.7913      0.0000    686.0676      8.7425
  1555.7500    133.7571      0.0000    681.8945      8.6619
  1556.0000    137.9243      0.0000    681.3521      8.6376
  1556.2500    140.9357      0.0000    681.9796      8.6149
  1556.5000    142.6873      0.0000    681.0452      8.5472
  1556.7500    144.1151      0.0000    677.9407      8.4076
  1557.0000    145.8447      0.0000    674.3563      8.1871
  1557.2500    147.2648      0.0000    672.4816      7.8852
  1557.5000    146.9019      0.0000    673.2062      7.5078
  1557.7500    143.5180      0.0000    676.1464      7.0771
  1558.0000    136.9052      0.0000    680.9755      6.6392
  1558.2500    127.8895      0.0000    687.7177      6.2553
  1558.5000    118.0013      0.0000    695.4341      5.9784
  1558.7500    109.3639      0.0000    701.6510      5.8304
  1559.0000    104.3181      0.0000    703.9192      5.7981
  1559.2500    104.1879      0.0000    701.2511      5.8515
  1559.5000    108.1043      0.0000    693.0189      5.9653
  1559.7500    113.3970      0.0000    677.6288      6.1272
  1560.0000    117.3393      0.0000    654.4486      6.3403
  1560.2500    118.5163      0.0000    626.2953      6.6222
  1560.5000    116.7450      0.0000    596.5806      6.9887
  1560.7500    112.2655      0.0000    563.3566      7.4268
  1561.0000    105.4594      0.0000    520.5621      7.8817
  1561.2500     97.2516      0.0000    467.5133      8.2759
  1561.5000     89.2736      0.0000    413.3936      8.5485
  1561.7500     83.3462      0.0000    369.9345      8.6822
  1562.0000     80.6084      0.0000    342.3487      8.6967
  1562.2500     80.8874      0.0000    328.4351      8.6163
  1562.5000     83.0315      0.0000    323.7689      8.4531
  1562.7500     86.1246      0.0000    326.5835      8.2211
  1563.0000     90.3016      0.0000    339.9952      7.9511
  1563.2500     96.1747      0.0000    370.9626      7.6842
  1563.5000    103.5415      0.0000    424.3802      7.4622
  1563.7500    110.9657      0.0000    494.1598      7.3322
  1564.0000    116.9727      0.0000    560.9561      7.3456
  1564.2500    121.6163      0.0000    604.4369      7.5337
  1564.5000    126.2929      0.0000    620.5643      7.8861
  1564.7500    131.8940      0.0000    623.3102      8.3588
  1565.0000    137.8199      0.0000    627.6155      8.9048
  1565.2500    143.0417      0.0000    633.8233      9.5004
  1565.5000    147.3761      0.0000    629.3456     10.1538
  1565.7500    151.2560      0.0000    601.5031     10.8900
  1566.0000    154.7783      0.0000    548.3356     11.7107
