~Version Information
VERS.                      2.0: CWLS Log ASCII Standard - VERSION 2.0
WRAP.                       NO: One line per depth step
~Well Information Block
STRT.FT                -9.2500: 
STOP.FT              2353.7500: 
STEP.FT                 0.2500: 
NULL.                -999.2500: 
COMP.          Petrogulf Corporation: COMPANY
WELL.             Kraft 17-23V: WELL
FLD.           Purgatorie River: FIELD
LOC.           1500' FSL & 1773' FWL--: LOCATION
PROV.                       CO: PROVINCE
CNTY.               Las Animas: COUNTRY
SRVC.          Patterson Wireline: SERVICE COMPANY
DATE.          Wed Dec 10 19:09:59 2003: LOG DATE
UWI.                          : UNIQUE WELL ID
~Curve Information Block
DEPT.FT            0 000 00 00: Depth
CCL.                          : Casing Collar Locator
TT3.usec                      : CBL 3' Travel Time
AMP3.mV                       : CBL 3' Amplitude
GR.GAPI                       : Gamma Ray
~Parameter Information Block
~A  Depth       CCL         TT3         AMP3         GR     
# ...
  1699.2500      0.0000    745.2075      1.3659     88.9133
  1699.5000      0.0000    737.6343      1.3144     92.5493
  1699.7500      0.0000    728.3564      1.2867     92.6953
  1700.0000      0.0000    719.9788      1.2879     91.1651
  1700.2500      0.0000    712.6620      1.3033     89.8826
  1700.5000      0.0000    705.6854      1.3089     89.3484
  1700.7500      0.0000    700.0328      1.2981     89.0055
  1701.0000      0.0000    699.3130      1.2939     88.4827
  1701.2500      0.0000    708.4805      1.3277     88.0531
  1701.5000      0.0000    731.1517      1.4088     87.9028
  1701.7500      0.0000    765.8624      1.5180     87.4153
  1702.0000      0.0000    803.3471      1.6288     85.7077
  1702.2500      0.0000    829.2468      1.7343     82.8168
  1702.5000      0.0000    832.8196      1.8551     79.9404
  1702.7500      0.0000    814.8903      2.0148     78.4438
  1703.0000      0.0000    787.1989      2.2142     78.8066
  1703.2500      0.0000    763.2476      2.4304     80.4422
  1703.5000      0.0000    749.4152      2.6286     82.3364
  1703.7500      0.0000    744.3698      2.7712     83.7291
  1704.0000      0.0000    744.9902      2.8265     84.3004
  1704.2500      0.0000    750.0302      2.7780     84.2406
  1704.5000      0.0000    757.8286      2.6346     84.6142
  1704.7500      0.0000    763.6794      2.4405     87.2785
  1705.0000      0.0000    762.6005      2.2618     93.5932
  1705.2500      0.0000    754.5477      2.1454    102.9224
  1705.5000      0.0000    744.7532      2.0907    112.7097
  1705.7500      0.0000    738.2555      2.0657    120.2364
  1706.0000      0.0000    735.8003      2.0367    124.3153
  1706.2500      0.0000    735.7441      1.9844    125.3461
  1706.5000      0.0000    737.6458      1.9122    124.0277
  1706.7500      0.0000    742.0224      1.8411    120.3442
  1707.0000      0.0000    747.9193      1.7926    113.9831
  1707.2500      0.0000    753.0286      1.7736    105.6140
  1707.5000      0.0000    755.8825      1.7717     97.3612
  1707.7500      0.0000    756.2468      1.7628     91.6563
  1708.0000      0.0000    753.6119      1.7257     89.7510
  1708.2500      0.0000    746.9854      1.6544     91.4465
  1708.5000      0.0000    736.8039      1.5619     95.7655
  1708.7500      0.0000    726.2742      1.4727    101.4490
  1709.0000      0.0000    720.2437      1.4081    107.2326
  1709.2500      0.0000    722.3981      1.3758    112.2926
  1709.5000      0.0000    732.6154      1.3730    116.5967
  1709.7500      0.0000    746.2769      1.3887    120.6992
  1710.0000      0.0000    756.5439      1.4041    125.0193
  1710.2500      0.0000    758.2456      1.4031    129.2247
  1710.5000      0.0000    750.5895      1.3860    132.4648
  1710.7500      0.0000    737.0885      1.3665    134.1822
  1711.0000      0.0000    722.9531      1.3545    134.3381
  1711.2500      0.0000    711.6903      1.3400    132.8712
  1711.5000      0.0000    703.3688      1.2966    129.4972
  1711.7500      0.0000    695.7428      1.2101    124.2061
  1712.0000      0.0000    686.9312      1.1081    117.7024
  1712.2500      0.0000    677.1635      1.0465    111.3628
  1712.5000      0.0000    668.2402      1.0565    106.9363
  1712.7500      0.0000    661.6678      1.1195    105.9894
  1713.0000      0.0000    657.6664      1.1958    108.9284
  1713.2500      0.0000    655.8362      1.2619    114.4281
  1713.5000      0.0000    656.1455      1.3132    120.2852
  1713.7500      0.0000    658.8804      1.3473    125.0311
  1714.0000      0.0000    663.9642      1.3624    128.4481
  1714.2500      0.0000    670.7504      1.3655    130.5874
  1714.5000      0.0000    678.0805      1.3714    130.9643
  1714.7500      0.0000    684.1435      1.3908    129.1710
  1715.0000      0.0000    687.0116      1.4221    125.9590
  1715.2500      0.0000    686.1541      1.4515    123.0921
  1715.5000      0.0000    683.1406      1.4638    121.9548
  1715.7500      0.0000    680.4865      1.4539    122.5521
  1716.0000      0.0000    680.2297      1.4305    123.9381
  1716.2500      0.0000    683.7384      1.4056    125.1888
  1716.5000      0.0000    692.0507      1.3828    125.7562
  1716.7500      0.0000    705.3329      1.3596    125.2930
  1717.0000      0.0000    721.6805      1.3386    123.4880
  1717.2500      0.0000    736.9835      1.3303    120.0750
  1717.5000      0.0000    746.8483      1.3430    115.0182
  1717.7500      0.0000    749.2099      1.3728    108.8888
  1718.0000      0.0000    745.2900      1.4050    102.9427
  1718.2500      0.0000    738.3596      1.4254     98.5282
  1718.5000      0.0000    731.7140      1.4319     96.3901
  1718.7500      0.0000    727.0266      1.4328     96.5667
  1719.0000      0.0000    723.6601      1.4366     98.6261
  1719.2500      0.0000    719.7949      1.4453    101.7847
  1719.5000      2.0000    715.2510      1.4551    105.1085
  1719.7500      2.0000    713.1097      1.4548    107.9280
  1720.0000      0.0000    717.0421      1.4320    110.0562
  1720.2500      0.0000    726.1548      1.3856    111.7023
  1720.5000      0.0000    733.6428      1.3291    113.4555
  1720.7500      0.0000    732.2606      1.2811    116.2239
  1721.0000      0.0000    721.1028      1.2564    120.6509
  1721.2500      0.0000    705.9211      1.2614    126.2393
  1721.5000      0.0000    693.3102      1.2919    131.1775
  1721.7500      0.0000    685.9712      1.3392    133.4382
  1722.0000      0.0000    682.9611      1.3949    132.4674
  1722.2500      0.0000    682.4255      1.4446    129.9708
  1722.5000      0.0000    683.4402      1.4662    128.7024
  1722.7500      0.0000    686.2687      1.4434    129.8687
  1723.0000      0.0000    691.6996      1.3797    131.7366
  1723.2500      0.0000    700.1140      1.2972    131.2753
  1723.5000      0.0000    710.9523      1.2252    127.2644
  1723.7500      0.0000    722.9331      1.1908    121.5144
  1724.0000      0.0000    734.3651      1.2109    117.2291
  1724.2500      0.0000    743.0882      1.2822    116.6762
  1724.5000      0.0000    746.9782      1.3819    120.1202
  1724.7500      0.0000    745.6091      1.4800    126.0238
  1725.0000      0.0000    741.1346      1.5507    132.0585
  1725.2500      0.0000    736.3303      1.5799    136.4035
  1725.5000      0.0000    731.6791      1.5675    138.2705
  1725.7500      0.0000    725.3523      1.5236    137.5136
  1726.0000      0.0000    716.1501      1.4627    134.7069
  1726.2500      0.0000    705.6591      1.4046    131.8824
  1726.5000      0.0000    697.5179      1.3697    131.9651
  1726.7500      0.0000    695.4229      1.3634    136.3043
  1727.0000      0.0000    701.8245      1.3690    142.8694
  1727.2500      0.0000    716.9634      1.3698    147.5179
  1727.5000      0.0000    737.6365      1.3744    147.3596
  1727.7500      0.0000    757.4150      1.4065    142.9050
  1728.0000      0.0000    769.7811      1.4719    137.2141
  1728.2500      0.0000    771.9847      1.5496    133.2547
  1728.5000      0.0000    766.0450      1.6114    131.8782
  1728.7500      0.0000    756.8524      1.6412    131.8705
  1729.0000      0.0000    749.8102      1.6421    131.7787
  1729.2500      0.0000    748.6154      1.6332    131.6955
  1729.5000      0.0000    753.0573      1.6363    133.1609
  1729.7500      0.0000    759.1420      1.6575    137.2998
  1730.0000      0.0000    763.4066      1.6779    143.2229
  1730.2500      0.0000    767.5165      1.6672    148.3614
  1730.5000      0.0000    776.8981      1.6103    150.5586
  1730.7500      0.0000    794.1537      1.5243    149.9301
  1731.0000      0.0000    815.0781      1.4481    148.4221
  1731.2500      0.0000    831.5562      1.4117    147.6491
  1731.5000      0.0000    837.1399      1.4128    147.7306
  1731.7500      0.0000    829.8613      1.4203    148.0934
  1732.0000      0.0000    812.2695      1.4013    148.4749
  1732.2500      0.0000    790.4056      1.3466    148.7676
  1732.5000      0.0000    770.9125      1.2746    148.3594
