~Version Information
VERS.                      2.0: CWLS Log ASCII Standard - VERSION 2.0
WRAP.                       NO: One line per depth step
~Well Information Block
STRT.FT               870.0000: 
STOP.FT              2517.5000: 
STEP.FT                 0.1000: 
NULL.                -999.2500: 
COMP.          Pioneer Natural Resources: COMPANY
WELL.              Tiaga 23-14: WELL
FLD.           Purgatoire River: FIELD
LOC.           2168' FSL & 2030' FWL: LOCATION
PROV.                 Colorado: PROVINCE
CNTY.               Las Animas: COUNTRY
SRVC.                         : SERVICE COMPANY
DATE.          Sat May 07 09:09:05 2005: LOG DATE
UWI.           05 071 08329 00: UNIQUE WELL ID
~Curve Information Block
DEPT.FT            0 000 00 00: Depth
LTEN.lb                       : Surface Line Tension
DCAL.in                       : CDL Caliper
RHOC.g/cc                     : CDL Density Correction
DPOR.pu                       : CDL Density Porosity
GR.GAPI                       : Gamma Ray
NPOR.pu                       : Neutron Porosity
~Parameter Information Block
~A  Depth       LTEN        DCAL        RHOC        DPOR         GR         NPOR    
# ...
  1417.2000    915.4624      8.0293     -0.0236      9.7614     81.7425     23.6814
  1417.3000    936.2969      8.0332      0.0000      8.6460     80.7957     23.3451
  1417.4000    936.2969      8.0332      0.0232      7.6359     78.7850     23.3917
  1417.5000    895.0345      8.0282      0.0466      7.3507     75.2941     23.1797
  1417.6000    895.0345      8.0282      0.0937      7.6517     71.5251     22.6354
  1417.7000    895.0345      8.0282      0.0759      8.5289     69.2169     22.1528
  1417.8000    954.6647      7.9937      0.0529      9.2583     68.2346     22.1796
  1417.9000    954.6647      7.9937      0.0785      9.1871     67.4654     22.4556
  1418.0000    916.2460      7.9561      0.0614      8.3509     65.5422     22.0733
  1418.1000    916.2460      7.9561      0.1055      6.8836     62.6945     21.0737
  1418.2000    916.2460      7.9561      0.0943      5.6207     62.2963     20.5055
  1418.3000    992.2817      7.9592      0.0518      5.1373     65.8589     20.9892
  1418.4000    992.2817      7.9592      0.0681      4.8206     70.2577     21.9891
  1418.5000    978.8716      7.9904      0.0690      4.4975     71.6599     22.8930
  1418.6000    978.8716      7.9904      0.0350      4.3851     69.4003     23.6634
  1418.7000    978.8716      7.9904      0.0648      4.5789     66.6087     23.9661
  1418.8000    950.3925      8.0559      0.0664      5.7734     68.8965     23.9763
  1418.9000    950.3925      8.0559     -0.0123      8.2445     77.9639     24.2045
  1419.0000    949.4044      8.0550     -0.0511     10.8363     87.0933     24.3354
  1419.1000    949.4044      8.0550     -0.0471     11.9413     89.8414     24.1488
  1419.2000    949.4044      8.0550      0.0195     11.2652     87.4737     24.0589
  1419.3000    940.1228      8.0359      0.0432     10.0223     82.8734     23.8210
  1419.4000    940.1228      8.0359     -0.0264      8.6323     76.6204     23.2550
  1419.5000    967.7155      8.0836      0.0685      6.6045     69.8560     23.1178
  1419.6000    967.7155      8.0836      0.0247      3.8752     64.1017     23.4627
  1419.7000    967.7155      8.0836      0.0769      0.4634     60.8000     23.6693
  1419.8000    926.8806      8.0784      0.1077     -2.8870     60.4307     23.4533
  1419.9000    926.8806      8.0784      0.1458     -4.6268     61.3488     22.8386
  1420.0000    949.1815      8.0381      0.1460     -3.8827     63.1531     22.5802
  1420.1000    949.1815      8.0381      0.1182     -1.2934     69.0085     23.4849
  1420.2000    949.1815      8.0381      0.0966      2.1691     78.7858     24.9955
  1420.3000    910.7756      8.0209      0.0065      5.6356     87.1456     25.5812
  1420.4000    910.7756      8.0209     -0.0578      7.3896     92.1516     24.8529
  1420.5000    976.2619      7.9854      0.0240      7.3180     94.8156     23.9074
  1420.6000    976.2619      7.9854     -0.0001      7.8987     95.6528     23.7101
  1420.7000    976.2619      7.9854     -0.0045      9.6861     96.4796     24.5139
  1420.8000    942.2581      8.0452      0.0829     11.0632     98.4367     25.8032
  1420.9000    942.2581      8.0452      0.0306     11.5383     99.2147     26.7222
  1421.0000    982.3088      8.0572     -0.0027     11.3831     95.6520     27.1435
  1421.1000    982.3088      8.0572      0.0275     10.8475     88.0518     27.2238
  1421.2000    982.3088      8.0572      0.0598     10.2030     81.2879     26.7467
  1421.3000    973.8998      8.1026      0.0582      9.3308     78.7614     25.9179
  1421.4000    973.8998      8.1026      0.1017      8.0372     78.5608     24.6538
  1421.5000    920.9963      8.1003      0.0899      6.5769     77.2398     22.7496
  1421.6000    920.9963      8.1003      0.1449      5.8172     73.6808     21.5493
  1421.7000    920.9963      8.1003      0.0774      6.4012     69.0228     21.8950
  1421.8000    993.3571      8.0715      0.0870      7.8303     63.9672     22.4881
  1421.9000    993.3571      8.0715      0.0064      9.1089     60.3629     22.2849
  1422.0000    962.1362      8.0676      0.0267      9.4946     60.2466     21.6917
  1422.1000    962.1362      8.0676      0.0310      9.5084     61.8551     21.1217
  1422.2000    962.1362      8.0676      0.0085     10.4822     62.2783     20.5564
  1422.3000    946.2956      8.0764     -0.0492     12.2493     60.3788     20.0271
  1422.4000    946.2956      8.0764     -0.0474     12.9258     56.7403     19.7665
  1422.5000    966.6268      8.1200      0.0157     11.7473     53.5959     20.1750
  1422.6000    966.6268      8.1200      0.0396     10.2382     52.5964     21.2733
  1422.7000    966.6268      8.1200      0.0337     10.2254     53.2867     22.5628
  1422.8000    926.0705      8.1143      0.0203     12.1760     54.1956     23.5427
  1422.9000    926.0705      8.1143     -0.0350     14.7315     56.6838     23.8202
  1423.0000    960.4630      8.0953     -0.0338     15.8358     61.5630     23.4667
  1423.1000    960.4630      8.0953      0.0048     15.1498     66.5346     23.0820
  1423.2000    960.4630      8.0953      0.0171     13.7778     70.3060     23.1163
  1423.3000    956.8407      8.0625     -0.0199     11.7967     72.0888     23.9963
  1423.4000    956.8407      8.0625      0.0666      8.6040     72.1482     25.0381
  1423.5000    914.0538      8.0407      0.1551      4.8761     71.4213     25.0768
  1423.6000    914.0538      8.0407      0.2233      2.0474     70.8154     24.4092
  1423.7000    914.0538      8.0407      0.1888      0.7145     71.4436     23.8295
  1423.8000    938.9156      7.9312      0.1384      0.3030     71.0995     23.4795
  1423.9000    938.9156      7.9312      0.1496      0.1060     69.0714     23.3201
  1424.0000    913.9892      7.9272      0.1619     -0.2305     68.0522     23.3465
  1424.1000    913.9892      7.9272      0.1428     -0.7311     68.4597     23.4840
  1424.2000    913.9892      7.9272      0.1278     -0.6759     69.3971     23.7471
  1424.3000    944.0488      7.9735      0.1552      0.8359     70.9125     24.3420
  1424.4000    944.0488      7.9735      0.1200      3.7361     73.3489     25.5773
  1424.5000    957.4866      7.9825      0.0403      6.8652     76.6482     26.8738
  1424.6000    957.4866      7.9825      0.0107      9.0534     78.5948     27.4167
  1424.7000    957.4866      7.9825      0.0271     10.1445     78.2865     27.6010
  1424.8000    912.3420      7.9931      0.0460     10.8286     78.1836     27.6633
  1424.9000    912.3420      7.9931      0.0525     11.3876     79.8568     27.4143
  1425.0000    954.9444      8.0226      0.0089     11.3798     82.5985     27.1999
  1425.1000    954.9444      8.0226      0.0195     10.5252     83.1834     27.0308
  1425.2000    954.9444      8.0226      0.0245      8.9201     80.1153     26.4975
  1425.3000    906.9788      8.0305      0.1304      7.0911     77.9064     25.6422
  1425.4000    906.9788      8.0305      0.0895      6.2585     79.1122     24.1685
  1425.5000    931.4031      8.0108      0.1067      7.2081     79.8819     22.6989
  1425.6000    931.4031      8.0108      0.0790      9.3948     78.2378     22.6394
  1425.7000    931.4031      8.0108      0.0297     11.2941     76.7642     23.5376
  1425.8000    976.7581      8.0096      0.0385     11.5461     78.3329     24.1623
  1425.9000    976.7581      8.0096     -0.0125     10.1834     82.1762     24.3059
  1426.0000    905.5228      7.9992      0.0863      7.8779     85.2282     24.2661
  1426.1000    905.5228      7.9992      0.1642      5.4860     84.9033     24.0260
  1426.2000    905.5228      7.9992      0.1637      4.4807     81.5386     23.5941
  1426.3000    995.0616      8.0035      0.1582      5.6836     78.6444     23.1047
  1426.4000    995.0616      8.0035      0.0340      7.7022     78.8728     22.3191
  1426.5000    938.0785      7.9980      0.0866      8.8721     80.4691     21.5350
  1426.6000    938.0785      7.9980      0.0484      9.9204     79.6273     21.7244
  1426.7000    938.0785      7.9980      0.0039     11.1598     76.7464     22.6968
