~Version Information
VERS.                      2.0: CWLS Log ASCII Standard - VERSION 2.0
WRAP.                       NO: One line per depth step
~Well Information Block
STRT.FT                39.7500: 
STOP.FT              1484.0000: 
STEP.FT                 0.2500: 
NULL.                -999.2500: 
COMP.          Evergreen Operating Corporation: COMPANY
WELL.              Chase 21-10: WELL
FLD.           Purgatoire River: FIELD
LOC.           1122' FNL & 1544' FWL: LOCATION
PROV.                       CO: PROVINCE
CNTY.               Las Animas: COUNTRY
SRVC.                         : SERVICE COMPANY
DATE.          Fri May 28 15:54:16 2004: LOG DATE
UWI.           05 071 08006 00: UNIQUE WELL ID
~Curve Information Block
DEPT.FT            0 000 00 00: Depth
TT3.usec                      : CBL 3' Travel Time
AMP3.mV                       : CBL 3' Amplitude
GR.GAPI                       : Gamma Ray
CCL.                          : Casing Collar Locator
~Parameter Information Block
~A  Depth       TT3         AMP3         GR         CCL     
# ...
  1078.2500    744.4805      7.3572     75.2309      0.0000
  1078.5000    734.9323      7.1769     70.2089      0.0000
  1078.7500    710.6520      6.9368     66.7871      0.0000
  1079.0000    667.4574      6.6719     64.9281      0.0000
  1079.2500    609.7012      6.4298     64.3799      0.0000
  1079.5000    549.3841      6.2413     64.5150      0.0000
  1079.7500    499.1300      6.1148     64.7614      0.0000
  1080.0000    465.1994      6.0466     65.3745      0.0000
  1080.2500    446.3997      6.0242     67.1565      0.0000
  1080.5000    437.8562      6.0243     70.1877      0.0000
  1080.7500    434.8381      6.0188     73.3548      0.0000
  1081.0000    434.2613      5.9910     75.4460      0.0000
  1081.2500    434.5886      5.9468     76.4296      0.0000
  1081.5000    435.2605      5.9104     77.3540      0.0000
  1081.7500    436.1671      5.9034     79.1004      0.0000
  1082.0000    437.2974      5.9275     81.5406      0.0000
  1082.2500    438.5837      5.9654     83.8495      0.0000
  1082.5000    439.8688      5.9962     85.3369      0.0000
  1082.7500    440.9683      6.0106     85.9930      0.0000
  1083.0000    441.7449      6.0156     86.5785      0.0000
  1083.2500    442.1549      6.0241     88.3882      0.0000
  1083.5000    442.2728      6.0378     92.6946      0.0000
  1083.7500    442.3123      6.0410     99.7825      0.0000
  1084.0000    442.7704      6.0132    107.9761      0.0000
  1084.2500    444.8258      5.9499    113.9009      0.0000
  1084.5000    451.0785      5.8706    114.5305      0.0000
  1084.7500    465.7269      5.8047    109.3985      0.0000
  1085.0000    492.4233      5.7704    100.6943      0.0000
  1085.2500    529.5714      5.7639     91.2037      0.0000
  1085.5000    567.3733      5.7681     82.3791      0.0000
  1085.7500    592.7112      5.7696     74.2925      0.0000
  1086.0000    600.4497      5.7679     66.9616      0.0000
  1086.2500    599.3854      5.7662     61.3270      0.0000
  1086.5000    603.9564      5.7580     58.8910      0.0000
  1086.7500    620.1178      5.7257     60.3830      0.0000
  1087.0000    642.0233      5.6579     64.6408      0.0000
  1087.2500    661.4156      5.5652     68.8149      0.0000
  1087.5000    676.0359      5.4762     70.0223      0.0000
  1087.7500    688.7886      5.4156     67.2583      0.0000
  1088.0000    702.5661      5.3880     61.8897      0.0000
  1088.2500    717.2786      5.3815     56.3049      0.0000
  1088.5000    730.2802      5.3829     52.0995      0.0000
  1088.7500    738.7456      5.3859     49.3602      0.0000
  1089.0000    742.0785      5.3861     47.2834      0.0000
  1089.2500    742.1703      5.3769     45.2151      0.0000
  1089.5000    741.4998      5.3525     43.1031      0.0000
  1089.7500    741.3989      5.3158     41.1944      0.0000
  1090.0000    741.9495      5.2812     39.6480      0.0000
  1090.2500    742.8085      5.2638     38.6264      0.0000
  1090.5000    743.7839      5.2651     38.5272      0.0000
  1090.7500    744.9114      5.2732     39.7632      0.0000
  1091.0000    746.2899      5.2791     42.3987      0.0000
  1091.2500    747.7872      5.2889     46.3346      0.0000
  1091.5000    748.7151      5.3163     51.7363      0.0000
  1091.7500    747.7154      5.3658     58.9327      0.0000
  1092.0000    742.9078      5.4276     67.8634      0.0000
  1092.2500    731.9794      5.4882     77.7386      0.0000
  1092.5000    712.0823      5.5410     87.1904      0.0000
  1092.7500    680.3144      5.5838     94.6732      0.0000
  1093.0000    635.7869      5.6120     98.8908      0.0000
  1093.2500    582.4889      5.6205     99.2637      0.0000
  1093.5000    529.7643      5.6131     96.2642      0.0000
  1093.7500    488.4387      5.6023     91.2024      0.0000
  1094.0000    465.9054      5.5968     85.4542      0.0000
  1094.2500    464.8061      5.5925     79.8489      0.0000
  1094.5000    484.3810      5.5805     74.7722      0.0000
  1094.7500    520.4675      5.5611     70.6257      0.0000
  1095.0000    564.9081      5.5430     67.9112      0.0000
  1095.2500    608.3665      5.5280     66.8330      0.0000
  1095.5000    645.2375      5.5055     66.9616      0.0000
  1095.7500    674.8876      5.4641     67.4203      0.0000
  1096.0000    698.4734      5.4031     67.4686      0.0000
  1096.2500    716.4845      5.3302     66.9214      0.0000
  1096.5000    729.4622      5.2527     65.9303      0.0000
  1096.7500    739.0714      5.1739     64.3313      0.0000
  1097.0000    747.2156      5.0995     61.4891      0.0000
  1097.2500    754.5728      5.0391     57.0977      0.0000
  1097.5000    760.5829      4.9988     51.9993      0.0000
  1097.7500    764.6078      4.9751     47.8429      0.0000
  1098.0000    766.7408      4.9590     45.7997      0.0000
  1098.2500    767.6251      4.9454     45.7105      0.0000
  1098.5000    767.9114      4.9339     46.4464      0.0000
  1098.7500    767.9836      4.9218     46.9051      0.0000
  1099.0000    767.9979      4.9016     46.6104      0.0000
  1099.2500    768.0000      4.8700     45.6343      0.0000
  1099.5000    768.0000      4.8364     44.2596      0.0000
  1099.7500    767.9984      4.8152     42.7830      0.0000
  1100.0000    767.9876      4.8114     41.4911      0.0000
  1100.2500    767.9330      4.8168     40.6631      0.0000
  1100.5000    767.7162      4.8228     40.5582      0.0000
  1100.7500    767.0458      4.8315     41.3421      0.0000
  1101.0000    765.4277      4.8504     42.9339      0.0000
  1101.2500    762.3740      4.8787     45.0266      0.0000
  1101.5000    757.8590      4.9060     47.4580      0.0000
  1101.7500    752.6176      4.9264     50.4753      0.0000
  1102.0000    747.8584      4.9477     54.4025      0.0000
  1102.2500    744.6171      4.9823     59.0893      0.0000
  1102.5000    743.4154      5.0319     63.7842      0.0000
  1102.7500    744.3879      5.0883     67.4135      0.0000
  1103.0000    747.3428      5.1475     69.0978      0.0000
  1103.2500    751.3593      5.2145     68.8884      0.0000
  1103.5000    754.2516      5.2909     68.2033      0.0000
  1103.7500    752.5336      5.3651     69.2528      0.0000
  1104.0000    742.2114      5.4220     73.6391      0.0000
  1104.2500    720.0250      5.4593     81.2347      0.0000
  1104.5000    684.5071      5.4894     90.3266      0.0000
  1104.7500    636.8041      5.5236     98.8887      0.0000
  1105.0000    581.6267      5.5624    105.7679      0.0000
  1105.2500    527.2796      5.6015    110.7333      0.0000
  1105.5000    482.7607      5.6418    113.6905      0.0000
  1105.7500    453.1205      5.6855    114.1913      0.0000
  1106.0000    437.5193      5.7265    111.6753      0.0000
  1106.2500    431.7663      5.7527    106.0235      0.0000
  1106.5000    432.3887      5.7591     97.8592      0.0000
  1106.7500    439.0976      5.7523     88.3409      0.0000
  1107.0000    454.7787      5.7406     78.7140      0.0000
  1107.2500    482.9594      5.7249     70.1386      0.0000
  1107.5000    523.7017      5.7046     63.7569      0.0000
  1107.7500    571.4401      5.6821     60.4366      0.0000
  1108.0000    617.8377      5.6577     60.1637      0.0000
  1108.2500    656.9751      5.6247     61.7983      0.0000
  1108.5000    687.2144      5.5783     63.6461      0.0000
  1108.7500    708.9866      5.5274     64.4498      0.0000
  1109.0000    722.5449      5.4880     64.0820      0.0000
  1109.2500    727.8228      5.4634     63.4880      0.0000
  1109.5000    725.1572      5.4402     63.9149      0.0000
  1109.7500    715.7966      5.4060     65.9314      0.0000
  1110.0000    702.1932      5.3648     68.9350      0.0000
  1110.2500    687.8975      5.3300     71.5522      0.0000
  1110.5000    676.7390      5.3074     72.6174      0.0000
  1110.7500    671.6136      5.2912     71.8793      0.0000
  1111.0000    673.5948      5.2774     69.7556      0.0000
  1111.2500    682.0248      5.2717     66.4949      0.0000
  1111.5000    695.3995      5.2814     61.9546      0.0000
