~Version Information
VERS.                      2.0: CWLS Log ASCII Standard - VERSION 2.0
WRAP.                       NO: One line per depth step
~Well Information Block
STRT.FT               780.0000: 
STOP.FT              1557.5000: 
STEP.FT                 0.1000: 
NULL.                -999.2500: 
COMP.          Pioneer Natural Resources: COMPANY
WELL.          Bunner's 13-26 Tr: WELL
FLD.           Purgatoire River: FIELD
LOC.           1843' FSL & 456' FWL----: LOCATION
PROV.                 Colorado: PROVINCE
CNTY.               Las Animas: COUNTRY
SRVC.                Patterson: SERVICE COMPANY
DATE.          Tue Mar 29 07:41:16 2005: LOG DATE
UWI.           05 071 08331 00: UNIQUE WELL ID
~Curve Information Block
DEPT.FT            0 000 00 00: Depth
DCAL.in                       : CDL Caliper
RHOB.g/cc                     : CDL Bulk Density
RHOC.g/cc                     : CDL Density Correction
DPOR.pu                       : CDL Density Porosity
NPOR.pu                       : Neutron Porosity
GR.GAPI                       : Gamma Ray
~Parameter Information Block
~A  Depth       DCAL        RHOB        RHOC        DPOR        NPOR         GR     
# ...
  1183.2000      8.0108      2.5422     -0.0019      6.5335     25.0635    130.6570
  1183.3000      8.0123      2.5156      0.0522      8.1480     24.6205    132.2273
  1183.4000      8.0123      2.4826      0.0330     10.1475     24.3762    135.7203
  1183.5000      8.0131      2.4485     -0.0286     12.2093     24.5119    131.3504
  1183.6000      8.0131      2.4353     -0.0231     13.0106     24.7896    123.2786
  1183.7000      8.0131      2.4484      0.0173     12.2183     24.6657    119.6592
  1183.8000      8.0129      2.4673      0.0394     11.0704     23.8820    121.9593
  1183.9000      8.0129      2.4657      0.0807     11.1701     22.7389    127.4872
  1184.0000      8.0150      2.4384      0.0361     12.8248     21.7088    131.9058
  1184.1000      8.0150      2.4098      0.0006     14.5571     20.8336    131.9802
  1184.2000      8.0150      2.4010      0.0086     15.0909     19.8404    129.1403
  1184.3000      8.0280      2.4026      0.0594     14.9960     18.8670    126.9042
  1184.4000      8.0280      2.3943      0.0597     15.4946     18.2364    125.8600
  1184.5000      8.0483      2.3724      0.0586     16.8237     17.8479    123.2836
  1184.6000      8.0483      2.3473      0.0180     18.3431     17.5447    118.0368
  1184.7000      8.0483      2.3365      0.0202     18.9977     17.5011    114.8851
  1184.8000      8.0618      2.3531      0.0344     17.9965     17.7570    117.4748
  1184.9000      8.0618      2.3977      0.1054     15.2904     18.0165    120.5575
  1185.0000      8.0672      2.4504      0.2163     12.0942     18.1806    119.8422
  1185.1000      8.0672      2.4823      0.1861     10.1635     18.5192    120.0302
  1185.2000      8.0672      2.4891      0.1589      9.7534     19.1120    123.8822
  1185.3000      8.0704      2.4848      0.1426     10.0118     19.6620    128.2821
  1185.4000      8.0704      2.4754      0.1442     10.5810     20.0924    131.0771
  1185.5000      8.0804      2.4599      0.1087     11.5209     20.6429    132.9562
  1185.6000      8.0804      2.4440      0.0331     12.4821     21.2730    135.5490
  1185.7000      8.0804      2.4299      0.0479     13.3381     21.8097    138.4811
  1185.8000      8.0986      2.4095      0.0152     14.5777     22.1669    141.0479
  1185.9000      8.0986      2.3839     -0.0223     16.1277     22.2900    143.6911
  1186.0000      8.1115      2.3618     -0.0224     17.4637     22.1672    145.1323
  1186.1000      8.1115      2.3421      0.0253     18.6601     21.8126    143.7411
  1186.2000      8.1115      2.3137      0.0192     20.3840     21.3798    139.6754
  1186.3000      8.1156      2.2738     -0.0450     22.7991     21.0430    134.8161
  1186.4000      8.1156      2.2332     -0.0187     25.2609     20.9400    129.0763
  1186.5000      8.1157      2.2001     -0.0189     27.2656     20.9934    123.4761
  1186.6000      8.1157      2.1732     -0.0165     28.8969     20.5863    119.8746
  1186.7000      8.1157      2.1439     -0.0153     30.6727     19.3825    116.5356
  1186.8000      8.1136      2.1052     -0.0013     33.0152     17.8607    114.7670
  1186.9000      8.1136      2.0559      0.0482     36.0058     16.5792    117.9227
  1187.0000      8.1124      1.9957      0.0576     39.6539     15.7869    122.7483
  1187.1000      8.1124      1.9277      0.0404     43.7758     15.2413    124.9253
  1187.2000      8.1124      1.8560      0.0230     48.1216     14.5370    123.0347
  1187.3000      8.1134      1.7863     -0.0207     52.3473     13.8151    117.5104
  1187.4000      8.1134      1.7291     -0.0545     55.8117     13.1889    111.8455
  1187.5000      8.1132      1.6847     -0.0554     58.5016     12.2918    110.5973
  1187.6000      8.1132      1.6435     -0.0918     60.9984     11.2171    115.2303
  1187.7000      8.1132      1.6007     -0.0253     63.5959     10.4770    122.5638
  1187.8000      8.1103      1.5490      0.0560     66.7284     10.1268    126.9691
  1187.9000      8.1103      1.4866      0.0484     70.5076      9.8287    127.6733
  1188.0000      8.1082      1.4352     -0.0358     73.6265      9.4083    126.7745
  1188.1000      8.1082      1.4204     -0.0371     74.5241      9.0319    123.1482
  1188.2000      8.1082      1.4382      0.0377     73.4416      8.9413    116.5225
  1188.3000      8.1131      1.4707      0.0525     71.4731      9.2568    110.0851
  1188.4000      8.1131      1.5198      0.0272     68.4990      9.9307    107.7740
  1188.5000      8.1319      1.5905      0.0848     64.2123     10.6909    110.1552
  1188.6000      8.1319      1.6672      0.1344     59.5660     11.2329    114.7913
  1188.7000      8.1319      1.7328      0.1724     55.5881     11.7461    120.4524
  1188.8000      8.1535      1.7865      0.1750     52.3329     12.6157    124.6825
  1188.9000      8.1535      1.8367      0.1471     49.2927     13.7158    125.5861
  1189.0000      8.1563      1.8942      0.0915     45.8041     14.7909    125.2941
  1189.1000      8.1563      1.9659      0.0570     41.4599     15.6188    123.7969
  1189.2000      8.1563      2.0438      0.1240     36.7402     15.9416    119.7749
  1189.3000      8.1543      2.1104      0.0989     32.7028     15.9563    117.3085
  1189.4000      8.1543      2.1585      0.0588     29.7851     16.0243    117.9483
  1189.5000      8.1635      2.1835      0.0744     28.2727     16.0988    120.4131
  1189.6000      8.1635      2.1693      0.0800     29.1354     15.8750    121.9966
  1189.7000      8.1635      2.1031      0.0689     33.1480     15.3444    117.0071
  1189.8000      8.1841      1.9996     -0.0533     39.4168     14.8988    108.2207
  1189.9000      8.1841      1.8886     -0.0573     46.1482     14.8536    102.2298
  1190.0000      8.2143      1.7769     -0.1208     52.9127     14.9158     99.9742
  1190.1000      8.2143      1.6692     -0.1980     59.4435     14.5685     99.9939
  1190.2000      8.2143      1.5875     -0.1815     64.3927     13.7068    101.3557
  1190.3000      8.2445      1.5376     -0.1260     67.4153     12.5078    102.2377
  1190.4000      8.2445      1.4946     -0.0445     70.0245     11.1098    100.0574
  1190.5000      8.2776      1.4409     -0.0374     73.2792      9.5810     96.5453
  1190.6000      8.2776      1.3861     -0.0056     76.6001      8.0712     94.2009
  1190.7000      8.2776      1.3405      0.0034     79.3660      6.8575     91.2959
  1190.8000      8.3132      1.3041      0.0101     81.5721      5.9454     85.2741
  1190.9000      8.3132      1.2738      0.0193     83.4046      5.1295     78.5218
  1191.0000      8.3376      1.2435      0.0326     85.2400      4.3848     74.3767
  1191.1000      8.3376      1.2127     -0.0370     87.1080      3.8254     71.3570
  1191.2000      8.3376      1.1991     -0.0662     87.9349      3.5080     66.7169
  1191.3000      8.3636      1.2223     -0.0424     86.5246      3.4413     62.0668
  1191.4000      8.3636      1.2719      0.0837     83.5233      3.5104     60.5271
  1191.5000      8.3984      1.3084      0.1245     81.3087      3.6321     61.3215
  1191.6000      8.3984      1.3101      0.1100     81.2066      3.9201     62.5098
  1191.7000      8.3984      1.2961      0.0780     82.0544      4.4451     62.8781
  1191.8000      8.4198      1.3080      0.0366     81.3323      5.1028     62.5392
  1191.9000      8.4198      1.3746      0.0640     77.2951      5.8153     63.0857
  1192.0000      8.4019      1.4848      0.1524     70.6158      6.5111     65.6743
  1192.1000      8.4019      1.6110      0.1310     62.9713      7.0550     71.0002
  1192.2000      8.4019      1.7450      0.1438     54.8484      7.4809     78.2010
  1192.3000      8.3396      1.8792      0.1907     46.7150      7.9876     84.5338
  1192.4000      8.3396      1.9924      0.2863     39.8517      8.5775     88.9476
  1192.5000      8.2293      2.0818      0.2900     34.4339      9.1926     92.4355
  1192.6000      8.2293      2.1660      0.2949     29.3313      9.8478     94.7806
  1192.7000      8.2293      2.2479      0.2808     24.3705     10.6220     95.2619
