~Version Information
VERS.                      2.0: CWLS Log ASCII Standard - VERSION 2.0
WRAP.                       NO: One line per depth step
~Well Information Block
STRT.FT               840.0000: 
STOP.FT              2268.0000: 
STEP.FT                 0.2500: 
NULL.                -999.2500: 
COMP.          Pioneer Natural Resources: COMPANY
WELL.              Tonto 42-23: WELL
FLD.           Purgatoire River: FIELD
LOC.           2217' FNL & 423' FEL: LOCATION
PROV.                 Colorado: PROVINCE
CNTY.               Las Animas: COUNTRY
SRVC.                Patterson: SERVICE COMPANY
DATE.          Sun Apr 17 01:24:47 2005: LOG DATE
UWI.           05 071 08335 00: UNIQUE WELL ID
~Curve Information Block
DEPT.FT            0 000 00 00: Depth
SN.Ohm-m                      : IEL Short Normal
SP.mV                         : IEL Spontaneous Potential
DIR.Ohm-m                     : IEL Induction Resistivity
GR.GAPI                       : Gamma Ray
~Parameter Information Block
~A  Depth        SN          SP         DIR          GR     
   840.0000   2000.0000   2000.0000     85.3885    120.1178
   840.2500   2000.0000   2000.0000     85.6279    121.9741
   840.5000   2000.0000   2000.0000     86.0800    123.9025
   840.7500   2000.0000   2000.0000     86.5722    124.2566
   841.0000   2000.0000   2000.0000     86.9390    122.9030
   841.2500   2000.0000   2000.0000     87.0564    120.4071
   841.5000   2000.0000   2000.0000     86.7808    113.7552
   841.7500   2000.0000   2000.0000     85.8678    107.4942
   842.0000   2000.0000   2000.0000     84.0423     96.7544
   842.2500   2000.0000   2000.0000     81.2893     89.9432
   842.5000   2000.0000   2000.0000     78.1142     82.1869
   842.7500   2000.0000   2000.0000     75.3988     79.4205
   843.0000   2000.0000   2000.0000     73.9328     79.5891
   843.2500   2000.0000   2000.0000     74.0387     82.5313
   843.5000   2000.0000   2000.0000     75.4771     89.8018
   843.7500   2000.0000   2000.0000     77.5749     95.0272
   844.0000   2000.0000   2000.0000     79.5411    100.6937
   844.2500   2000.0000   2000.0000     80.8447    102.1579
   844.5000   2000.0000   2000.0000     81.3953    101.4577
   844.7500   2000.0000   2000.0000     81.4134    100.3829
   845.0000   2000.0000   2000.0000     81.2162    100.4739
   845.2500   2000.0000   2000.0000     81.1116    102.6043
   845.5000   2000.0000   2000.0000     81.4000    108.8678
   845.7500   2000.0000   2000.0000     82.3724    114.3489
   846.0000   2000.0000   2000.0000     84.2356    122.7579
   846.2500   2000.0000   2000.0000     86.9727    127.4394
   846.5000   2000.0000   2000.0000     90.1497    131.7451
   846.7500   2000.0000   2000.0000     92.8437    132.6120
   847.0000   2000.0000   2000.0000     93.9789    131.6876
   847.2500   2000.0000   2000.0000     93.0778    130.3720
   847.5000   2000.0000   2000.0000     90.7018    128.5004
   847.7500   2000.0000   2000.0000     87.9758    127.6247
   848.0000   2000.0000   2000.0000     85.7979    126.7051
   848.2500   2000.0000   2000.0000     84.4893    126.0653
   848.5000   2000.0000   2000.0000     83.8822    124.9441
   848.7500   2000.0000   2000.0000     83.5697    124.4086
   849.0000   2000.0000   2000.0000     83.1756    124.5339
   849.2500   2000.0000   2000.0000     82.5901    125.1348
   849.5000   2000.0000   2000.0000     81.9886    125.8637
   849.7500   2000.0000   2000.0000     81.5781    125.7612
   850.0000   2000.0000   2000.0000     81.2444    124.8867
   850.2500   2000.0000   2000.0000     80.4542    124.3627
   850.5000   2000.0000   2000.0000     78.6163    124.4291
   850.7500   2000.0000   2000.0000     75.6907    125.0332
   851.0000   2000.0000   2000.0000     72.4047    125.9685
   851.2500   2000.0000   2000.0000     69.7766    125.9542
   851.5000   2000.0000   2000.0000     68.4287    124.3965
   851.7500   2000.0000   2000.0000     68.1647    122.6789
   852.0000   2000.0000   2000.0000     67.9255    120.4937
   852.2500   2000.0000   2000.0000     66.3276    119.9785
   852.5000   2000.0000   2000.0000     62.7419    120.7648
   852.7500   2000.0000   2000.0000     57.8270    121.9597
   853.0000   2000.0000   2000.0000     52.8996    123.9692
   853.2500   2000.0000   2000.0000     49.2036    125.0429
   853.5000   2000.0000   2000.0000     47.9022    125.5311
   853.7500   2000.0000   2000.0000     50.6780    124.7605
   854.0000   2000.0000   2000.0000     61.4825    121.9326
   854.2500   2000.0000   2000.0000     94.6455    119.3035
   854.5000   2000.0000   2000.0000    269.1599    115.1006
   854.7500   2000.0000   2000.0000 100000.0000    112.5662
   855.0000   2000.0000   2000.0000 100000.0000    109.8582
   855.2500   2000.0000   2000.0000 100000.0000    109.1374
   855.5000   2000.0000   2000.0000 100000.0000    109.8253
   855.7500   2000.0000   2000.0000 100000.0000    103.6450
   856.0000   2000.0000   2000.0000 100000.0000    105.1771
   856.2500   2000.0000   2000.0000 100000.0000    105.5144
   856.5000   2000.0000   2000.0000 100000.0000    105.1466
   856.7500   2000.0000   2000.0000 100000.0000    104.9147
   857.0000   2000.0000   2000.0000 100000.0000    105.2935
   857.2500   2000.0000   2000.0000 100000.0000    105.7833
   857.5000   2000.0000   2000.0000 100000.0000    105.6775
   857.7500   2000.0000   2000.0000 100000.0000     93.3936
   858.0000   2000.0000   2000.0000 100000.0000     91.2630
   858.2500   2000.0000   2000.0000 100000.0000     90.4601
   858.5000   2000.0000   2000.0000 100000.0000     91.9628
   858.7500   2000.0000   2000.0000 100000.0000     83.6638
   859.0000   2000.0000   2000.0000 100000.0000     89.6714
   859.2500   2000.0000   2000.0000 100000.0000     93.9783
   859.5000   2000.0000   2000.0000 100000.0000     99.2899
   859.7500   2000.0000   2000.0000 100000.0000     87.7197
   860.0000   2000.0000   2000.0000 100000.0000     89.3455
   860.2500   2000.0000   2000.0000 100000.0000     90.1590
   860.5000   2000.0000   2000.0000 100000.0000     91.8626
   860.7500   2000.0000   2000.0000   1085.1274     93.3558
   861.0000   2000.0000   2000.0000      8.0309     95.4543
   861.2500   2000.0000   2000.0000      3.9515     96.3302
   861.5000   2000.0000   2000.0000      2.8772     96.8531
   861.7500   2000.0000   2000.0000      2.5846     97.2111
   862.0000   2000.0000   2000.0000      2.6614     98.8968
   862.2500   2000.0000   2000.0000      2.9959    100.9750
   862.5000   2000.0000   2000.0000      3.5780    104.6018
   862.7500   2000.0000   2000.0000      4.4950    106.4944
   863.0000   2000.0000   2000.0000      6.0149    107.6063
   863.2500   2000.0000   2000.0000      8.7510    107.1469
   863.5000   2000.0000   2000.0000     13.7904    104.8452
   863.7500   2000.0000   2000.0000     21.2327    102.2620
   864.0000   2000.0000   2000.0000     24.8575     97.1747
   864.2500   2000.0000   2000.0000     20.5514     93.7318
   864.5000   2000.0000   2000.0000     15.3337     90.3688
   864.7500   2000.0000   2000.0000     12.1586     90.0899
   865.0000   2000.0000   2000.0000     10.5344     92.4563
   865.2500   2000.0000   2000.0000      9.7825     95.0525
   865.5000   2000.0000   2000.0000      9.4806     98.6914
   865.7500   2000.0000   2000.0000      9.3864    100.1967
   866.0000   2000.0000   2000.0000      9.3703    100.7933
   866.2500   2000.0000   2000.0000      9.3781    100.4852
   866.5000   2000.0000   2000.0000      9.4122    100.0213
   866.7500   2000.0000   2000.0000      9.5189    100.1394
   867.0000   2000.0000   2000.0000      9.7626    101.2077
   867.2500   2000.0000   2000.0000     10.1880    102.5701
   867.5000   2000.0000   2000.0000     10.7769    105.5708
   867.7500   2000.0000   2000.0000     11.4240    107.8803
   868.0000   2000.0000   2000.0000     11.9722    110.6266
   868.2500   2000.0000   2000.0000     12.3103    111.3271
   868.5000   2000.0000   2000.0000     12.4425    110.3892
   868.7500   2000.0000   2000.0000     12.4483    108.7327
   869.0000   2000.0000   2000.0000     12.3944    105.5014
   869.2500   2000.0000   2000.0000     12.2978    103.3643
   869.5000   2000.0000   2000.0000     12.1536    101.1772
   869.7500   2000.0000   2000.0000     11.9782    100.9110
   870.0000   2000.0000   2000.0000     11.8236    102.4915
   870.2500   2000.0000   2000.0000     11.7541    104.4337
   870.5000   2000.0000   2000.0000     11.8137    107.3832
   870.7500   2000.0000   2000.0000     12.0101    108.6780
   871.0000   2000.0000   2000.0000     12.3204    109.0505
   871.2500   2000.0000   2000.0000     12.7079    108.3331
   871.5000   2000.0000   2000.0000     13.1334    106.3541
   871.7500   2000.0000   2000.0000     13.5563    104.8203
   872.0000   2000.0000   2000.0000     13.9345    102.8761
   872.2500   2000.0000   2000.0000     14.2344    102.1823
   872.5000   2000.0000   2000.0000     14.4452    102.5184
   872.7500   2000.0000   2000.0000     14.5807    103.8764
   873.0000   2000.0000   2000.0000     14.6658    107.7650
   873.2500   2000.0000   2000.0000     14.7224    111.2158
