~Version Information
VERS.                      2.0: CWLS Log ASCII Standard - VERSION 2.0
WRAP.                       NO: One line per depth step
~Well Information Block
STRT.FT               750.3000: 
STOP.FT              1254.0000: 
STEP.FT                 0.1000: 
NULL.                -999.2500: 
COMP.          Petrogulf Corporation: COMPANY
WELL.           Montoya 13-41V: WELL
FLD.           Purgatorie River: FIELD
LOC.           449' FNL & 891' FEL: LOCATION
CNTY.               Las Animas: COUNTY
SRVC.                         : SERVICE COMPANY
DATE.          Tue Aug 17 15:47:43 2004: LOG DATE
UWI.           05 071 08021 00: UNIQUE WELL ID
STAT.                 Colorado: STATE
~Curve Information Block
DEPT.FT            0 000 00 00: Depth
DCAL.in                       : CDL Caliper
RHOB.g/cc                     : CDL Bulk Density
RHOC.g/cc                     : CDL Density Correction
DPOR.pu                       : CDL Density Porosity
GR.GAPI                       : Gamma Ray
NPOR.pu                       : Neutron Porosity
~Parameter Information Block
~A  Depth       DCAL        RHOB        RHOC        DPOR         GR         NPOR    
# ...
   769.5000   -999.2500   -999.2500   -999.2500   -999.2500     79.9563     42.5153
   769.6000   -999.2500   -999.2500   -999.2500   -999.2500     82.1253     42.3009
   769.7000   -999.2500   -999.2500   -999.2500   -999.2500     85.5456     41.7265
   769.8000   -999.2500   -999.2500   -999.2500   -999.2500     85.4081     41.2383
   769.9000   -999.2500   -999.2500   -999.2500   -999.2500     85.2494     41.2192
   770.0000   -999.2500   -999.2500   -999.2500   -999.2500     88.5875     41.3659
   770.1000   -999.2500   -999.2500   -999.2500   -999.2500     91.9076     41.4491
   770.2000   -999.2500   -999.2500   -999.2500   -999.2500     94.1223     41.7285
   770.3000   -999.2500   -999.2500   -999.2500   -999.2500     96.0782     42.2062
   770.4000   -999.2500   -999.2500   -999.2500   -999.2500     94.9659     42.5522
   770.5000   -999.2500   -999.2500   -999.2500   -999.2500     91.3878     42.5563
   770.6000   -999.2500   -999.2500   -999.2500   -999.2500     92.1220     42.2039
   770.7000   -999.2500   -999.2500   -999.2500   -999.2500     99.8351     41.6904
   770.8000   -999.2500   -999.2500   -999.2500   -999.2500    107.5483     41.3942
   770.9000   -999.2500   -999.2500   -999.2500   -999.2500    108.7412     41.4894
   771.0000   -999.2500   -999.2500   -999.2500   -999.2500    104.5944     41.7667
   771.1000   -999.2500   -999.2500   -999.2500   -999.2500     96.2141     41.8591
   771.2000   -999.2500   -999.2500   -999.2500   -999.2500     88.1529     41.6691
   771.3000   -999.2500   -999.2500   -999.2500   -999.2500     87.5042     41.4716
   771.4000   -999.2500   -999.2500   -999.2500   -999.2500     90.6979     41.4639
   771.5000   -999.2500   -999.2500   -999.2500   -999.2500     91.5646     41.4655
   771.6000   -999.2500   -999.2500   -999.2500   -999.2500     93.5038     41.4316
   771.7000   -999.2500   -999.2500   -999.2500   -999.2500     97.5902     41.5537
   771.8000   -999.2500   -999.2500   -999.2500   -999.2500     97.0276     41.7165
   771.9000   -999.2500   -999.2500   -999.2500   -999.2500     89.9949     41.6296
   772.0000   -999.2500   -999.2500   -999.2500   -999.2500     83.7707     41.3163
   772.1000   -999.2500   -999.2500   -999.2500   -999.2500     82.4757     41.1236
   772.2000   -999.2500   -999.2500   -999.2500   -999.2500     82.2363     41.1712
   772.3000   -999.2500   -999.2500   -999.2500   -999.2500     80.5940     41.1847
   772.4000   -999.2500   -999.2500   -999.2500   -999.2500     80.9784     41.1157
   772.5000   -999.2500   -999.2500   -999.2500   -999.2500     83.9256     41.3441
   772.6000   -999.2500   -999.2500   -999.2500   -999.2500     85.7653     41.8904
   772.7000   -999.2500   -999.2500   -999.2500   -999.2500     86.6348     42.1655
   772.8000   -999.2500   -999.2500   -999.2500   -999.2500     87.2693     41.9474
   772.9000   -999.2500   -999.2500   -999.2500   -999.2500     87.9320     41.7270
   773.0000   -999.2500   -999.2500   -999.2500   -999.2500     90.7832     41.8625
   773.1000   -999.2500   -999.2500   -999.2500   -999.2500     96.2416     42.1394
   773.2000   -999.2500   -999.2500   -999.2500   -999.2500     99.4396     42.1661
   773.3000   -999.2500   -999.2500   -999.2500   -999.2500     97.4597     41.9181
   773.4000   -999.2500   -999.2500   -999.2500   -999.2500     93.3662     41.7273
   773.5000   -999.2500   -999.2500   -999.2500   -999.2500     89.9561     41.7266
   773.6000   -999.2500   -999.2500   -999.2500   -999.2500     88.9497     41.8701
   773.7000   -999.2500   -999.2500   -999.2500   -999.2500     90.7054     42.0797
   773.8000   -999.2500   -999.2500   -999.2500   -999.2500     91.2138     42.1035
   773.9000   -999.2500   -999.2500   -999.2500   -999.2500     90.4961     41.8079
   774.0000   -999.2500   -999.2500   -999.2500   -999.2500     94.4355     41.5214
   774.1000   -999.2500   -999.2500   -999.2500   -999.2500    101.3801     41.6118
   774.2000   -999.2500   -999.2500   -999.2500   -999.2500    105.6233     41.9285
   774.3000   -999.2500   -999.2500   -999.2500   -999.2500    107.0306     42.1055
   774.4000   -999.2500   -999.2500   -999.2500   -999.2500    106.3205     42.0737
   774.5000      2.3671   -999.2500   -999.2500   -999.2500    104.5962     42.0176
   774.6000      2.3671   -999.2500     -0.4935   -999.2500    104.1066     42.0345
   774.7000      2.3671   -999.2500     -0.5319   -999.2500    103.5778     42.0239
   774.8000      2.3679   -999.2500     -0.5090   -999.2500    101.1791     41.9306
   774.9000      2.3679   -999.2500     -0.5655   -999.2500     98.9603     41.9216
   775.0000      2.3671   -999.2500     -0.6086   -999.2500     98.3876     42.0350
   775.1000      2.3671      2.0380     -0.5639     37.0924     97.3361     41.8973
   775.2000      2.3671      2.0585     -0.5402     35.8495     96.4071     41.4585
   775.3000      2.3679      2.0760     -0.5319     34.7881     98.1075     41.3238
   775.4000      2.3679      2.0905     -0.5344     33.9072    100.3346     41.8068
   775.5000      2.3673      2.1083     -0.4791     32.8279     99.1916     42.4593
   775.6000      2.3673      2.1280     -0.5013     31.6380     96.4746     42.6299
   775.7000      2.3673      2.1368     -0.4742     31.1026     97.0432     42.1523
   775.8000      2.3698      2.1235     -0.5096     31.9078     99.4905     41.5246
   775.9000      2.3698      2.0984     -0.5372     33.4326    100.3083     41.3308
   776.0000      2.3677      2.0782     -0.5194     34.6523    101.4707     41.5827
   776.1000      2.3677      2.0669     -0.5202     35.3377    103.4905     41.8751
   776.2000      2.3677      2.0640     -0.5407     35.5144    102.8763     41.8135
   776.3000      2.3677      2.0621     -0.4759     35.6287     99.5558     41.4424
   776.4000      2.3677      2.0519     -0.5846     36.2471     97.0118     41.2313
   776.5000      2.3681      2.0456     -0.5617     36.6320     96.0600     41.3962
   776.6000      2.3681      2.0587     -0.5179     35.8378     94.6247     41.7440
   776.7000      2.3681      2.0869     -0.5346     34.1249     92.2012     42.0539
   776.8000      2.3680      2.1153     -0.4985     32.4071     90.7950     42.2394
   776.9000      2.3680      2.1329     -0.5495     31.3419     90.5239     42.2743
   777.0000      2.3668      2.1350     -0.4721     31.2141     91.3122     42.0240
   777.1000      2.3668      2.1250     -0.5224     31.8176     94.8663     41.5822
   777.2000      2.3668      2.1154     -0.5224     32.4023     98.5738     41.4746
   777.3000      2.3678      2.1089     -0.5438     32.7917     97.9606     41.7910
   777.4000      2.3678      2.0989     -0.5591     33.3970     94.6208     42.0130
   777.5000      2.3643      2.0910     -0.5773     33.8780     94.1916     41.8791
   777.6000      2.3643      2.0963     -0.5185     33.5603     98.6733     41.5921
   777.7000      2.3643      2.1076     -0.5052     32.8732    103.4287     41.4086
   777.8000      2.3687      2.1069     -0.5011     32.9149    105.6045     41.3262
   777.9000      2.3687      2.0894     -0.5554     33.9735    107.2983     41.2644
   778.0000      2.3676      2.0742     -0.5801     34.8988    108.2213     41.2199
   778.1000      2.3676      2.0786     -0.5483     34.6331    106.0114     41.2787
   778.2000      2.3676      2.0897     -0.5097     33.9586    100.3224     41.3632
   778.3000      2.3676      2.0927     -0.5680     33.7740     95.2101     41.3283
   778.4000      2.3676      2.0952     -0.5522     33.6235     92.8487     41.2826
   778.5000      2.3672      2.1046     -0.5621     33.0549     89.5216     41.2847
   778.6000      2.3672      2.1202     -0.5208     32.1065     85.9709     41.3606
   778.7000      2.3672      2.1363     -0.5267     31.1355     85.6050     41.5613
   778.8000      2.3664      2.1461     -0.4774     30.5403     85.5167     41.7040
   778.9000      2.3664      2.1548     -0.4987     30.0100     82.9218     41.6360
   779.0000      2.3664      2.1702     -0.4571     29.0791     80.5459     41.5102
