~Version Information
VERS.                      2.0: CWLS Log ASCII Standard - VERSION 2.0
WRAP.                       NO: One line per depth step
~Well Information Block
STRT.FT               300.0000: 
STOP.FT               871.2500: 
STEP.FT                 0.2500: 
NULL.                -999.2500: 
COMP.          Pioneer Natural Resources: COMPANY
WELL.            Hustler 12-17: WELL
FLD.           Purgatoire River: FIELD
LOC.           2150' FNL & 450' FWL: LOCATION
PROV.                 Colorado: PROVINCE
CNTY.               Las Animas: COUNTRY
SRVC.                Patterson: SERVICE COMPANY
DATE.          Mon Dec 20 09:25:34 2004: LOG DATE
UWI.           05 071 08236 00: UNIQUE WELL ID
~Curve Information Block
DEPT.FT            0 000 00 00: Depth
SN.Ohm-m                      : IEL Short Normal
SP.mV                         : IEL Spontaneous Potential
DIR.Ohm-m                     : IEL Induction Resistivity
GR.GAPI                       : Gamma Ray
~Parameter Information Block
~A  Depth        SN          SP         DIR          GR     
# ...
   735.5000    645.9807   -800.0005     20.9921    105.3821
   735.7500    645.9807   -800.0005     20.9669    106.7252
   736.0000    645.9807   -800.0005     20.9928    108.0327
   736.2500    645.9807   -800.0005     21.0567    108.3429
   736.5000    645.9807   -800.0005     21.1500    108.8628
   736.7500    645.9807   -800.0005     21.2716    109.6267
   737.0000    645.9807   -800.0005     21.4295    110.9545
   737.2500    645.9807   -800.0005     21.6345    111.4617
   737.5000    645.9807   -800.0005     21.8840    111.3771
   737.7500    645.9807   -800.0005     22.1486    110.9134
   738.0000    645.9807   -800.0005     22.3742    109.7846
   738.2500    645.9807   -800.0005     22.5050    108.6832
   738.5000    645.9807   -800.0005     22.5141    106.4994
   738.7500    645.9807   -800.0005     22.4196    104.9732
   739.0000    645.9807   -800.0005     22.2741    103.5071
   739.2500    645.9807   -800.0005     22.1369    103.5865
   739.5000    645.9807   -800.0005     22.0478    105.5100
   739.7500    645.9807   -800.0005     22.0165    107.6074
   740.0000    645.9807   -800.0005     22.0274    110.6265
   740.2500    645.9807   -800.0005     22.0556    111.7007
   740.5000    645.9807   -800.0005     22.0857    111.2257
   740.7500    645.9807   -800.0005     22.1243    109.8838
   741.0000    645.9807   -800.0005     22.1990    107.9212
   741.2500    645.9807   -800.0005     22.3410    107.6365
   741.5000    645.9807   -800.0005     22.5645    109.8404
   741.7500    645.9807   -800.0005     22.8557    113.2111
   742.0000    645.9807   -800.0005     23.1771    120.3476
   742.2500    645.9807   -800.0005     23.4836    125.3848
   742.5000    645.9807   -800.0005     23.7391    130.9313
   742.7500    645.9807   -800.0005     23.9269    132.1858
   743.0000    645.9807   -800.0005     24.0479    129.9277
   743.2500    645.9807   -800.0005     24.1094    126.3328
   743.5000    645.9807   -800.0005     24.1122    120.1023
   743.7500    645.9807   -800.0005     24.0535    116.6741
   744.0000    645.9807   -800.0005     23.9443    113.2837
   744.2500    645.9807   -800.0005     23.8217    111.7004
   744.5000    645.9807   -800.0005     23.7395    109.5470
   744.7500    645.9807   -800.0005     23.7433    108.4376
   745.0000    645.9807   -800.0005     23.8515    108.1047
   745.2500    645.9807   -800.0005     24.0575    108.9246
   745.5000    645.9807   -800.0005     24.3452    111.0697
   745.7500    645.9807   -800.0005     24.7070    112.5130
   746.0000    645.9807   -800.0005     25.1508    113.8255
   746.2500    645.9807   -800.0005     25.6942    113.8188
   746.5000    645.9807   -800.0005     26.3489    112.5236
   746.7500    645.9807   -800.0005     27.1082    111.3072
   747.0000    645.9807   -800.0005     27.9423    110.2636
   747.2500    645.9807   -800.0005     28.8019    110.5281
   747.5000    645.9807   -800.0005     29.6230    111.9067
   747.7500    645.9807   -800.0005     30.3317    112.8415
   748.0000    645.9807   -800.0005     30.8575    113.7273
   748.2500    645.9807   -800.0005     31.1568    114.3045
   748.5000    645.9807   -800.0005     31.2308    116.4668
   748.7500    645.9807   -800.0005     31.1209    119.5134
   749.0000    645.9807   -800.0005     30.8874    126.9452
   749.2500    645.9807   -800.0005     30.5902    133.4244
   749.5000    645.9807   -800.0005     30.2804    143.9957
   749.7500    645.9807   -800.0005     29.9968    150.6583
   750.0000    645.9807   -800.0005     29.7597    158.5794
   750.2500    645.9807   -800.0005     29.5648    161.7437
   750.5000    645.9807   -800.0005     29.3873    162.6366
   750.7500    645.9807   -800.0005     29.2014    160.9773
   751.0000    645.9807   -800.0005     29.0036    157.3929
   751.2500    645.9807   -800.0005     28.8191    156.4611
   751.5000    645.9807   -800.0005     28.6829    160.8045
   751.7500    645.9807   -800.0005     28.6123    168.1577
   752.0000    645.9807   -800.0005     28.5976    183.3238
   752.2500    645.9807   -800.0005     28.6110    193.3574
   752.5000    645.9807   -800.0005     28.6225    203.6051
   752.7500    645.9807   -800.0005     28.6047    205.3097
   753.0000    645.9807   -800.0005     28.5282    198.3763
   753.2500    645.9807   -800.0005     28.3578    187.4165
   753.5000    645.9807   -800.0005     28.0554    163.9460
   753.7500    645.9807   -800.0005     27.5947    146.3979
   754.0000    645.9807   -800.0005     26.9814    122.4980
   754.2500    645.9807   -800.0005     26.2670    110.2557
   754.5000    645.9807   -800.0005     25.5383     98.1840
   754.7500    645.9807   -800.0005     24.8830     93.5910
   755.0000    645.9807   -800.0005     24.3538     90.2447
   755.2500    645.9807   -800.0005     23.9560     89.6776
   755.5000    645.9807   -800.0005     23.6594     90.1995
   755.7500    645.9807   -800.0005     23.4196     90.6018
   756.0000    645.9807   -800.0005     23.1939     90.1240
   756.2500    645.9807   -800.0005     22.9491     89.1542
   756.5000    645.9807   -800.0005     22.6669     87.8635
   756.7500    645.9807   -800.0005     22.3484     87.6479
   757.0000    645.9807   -800.0005     22.0112     88.3995
   757.2500    645.9807   -800.0005     21.6796     89.4888
   757.5000    645.9807   -800.0005     21.3726     91.8588
   757.7500    645.9807   -800.0005     21.0955     93.7914
   758.0000    645.9807   -800.0005     20.8379     96.7473
   758.2500    645.9807   -800.0005     20.5763     98.3749
   758.5000    645.9807   -800.0005     20.2794     99.7072
   758.7500    645.9807   -800.0005     19.9162     99.8513
   759.0000    645.9807   -800.0005     19.4659     99.9276
   759.2500    645.9807   -800.0005     18.9278    100.7162
   759.5000    645.9807   -800.0005     18.3267    103.7231
   759.7500    645.9807   -800.0005     17.7086    106.7346
   760.0000    645.9807   -800.0005     17.1287    112.0906
   760.2500    645.9807   -800.0005     16.6366    116.1037
   760.5000    645.9807   -800.0005     16.2637    122.9763
   760.7500    645.9807   -800.0005     16.0160    128.0326
   761.0000    645.9807   -800.0005     15.8745    135.1919
   761.2500    645.9807   -800.0005     15.8012    138.4583
   761.5000    645.9807   -800.0005     15.7510    138.8637
   761.7500    645.9807   -800.0005     15.6837    135.6473
   762.0000    645.9807   -800.0005     15.5727    127.3584
   762.2500    645.9807   -800.0005     15.4067    121.6696
   762.5000    645.9807   -800.0005     15.1858    116.2083
   762.7500    645.9807   -800.0005     14.9143    115.4973
   763.0000    645.9807   -800.0005     14.5956    118.7114
   763.2500    645.9807   -800.0005     14.2334    123.1452
   763.5000    645.9807   -800.0005     13.8368    131.8252
   763.7500    645.9807   -800.0005     13.4241    137.9741
   764.0000    645.9807   -800.0005     13.0213    146.1856
   764.2500    645.9807   -800.0005     12.6536    150.3590
   764.5000    645.9807   -800.0005     12.3390    153.9968
   764.7500    645.9807   -800.0005     12.0859    154.4839
   765.0000    645.9807   -800.0005     11.8975    152.5354
   765.2500    645.9807   -800.0005     11.7785    149.9884
   765.5000    645.9807   -800.0005     11.7385    145.6966
   765.7500    645.9807   -800.0005     11.7891    143.2702
   766.0000    645.9807   -800.0005     11.9350    140.5090
   766.2500    645.9807   -800.0005     12.1639    138.6281
   766.5000    645.9807   -800.0005     12.4421    134.6735
   766.7500    645.9807   -800.0005     12.7201    131.5213
   767.0000    645.9807   -800.0005     12.9501    127.8754
   767.2500    645.9807   -800.0005     13.1068    127.3172
   767.5000    645.9807   -800.0005     13.1932    130.2232
   767.7500    645.9807   -800.0005     13.2274    134.3778
   768.0000    645.9807   -800.0005     13.2195    142.0414
   768.2500    645.9807   -800.0005     13.1617    146.5012
   768.5000    645.9807   -800.0005     13.0400    150.1441
   768.7500    645.9807   -800.0005     12.8570    150.5632
