~Version Information
 VERS.                                  2.0 : CWLS LAS VERSION
 WRAP.                                   NO : WRAPING MODE
 SWARE .                 MController 2.5.0J : SOFTWARE VERSION
~Well Information
 WELL.                         State 16-12V : WELL
 COMP.                Petrogulf Corporation : COMPANY
 FLD.                      Purgatoire River : FIELD
 LOC.                       05-071-08016-00 : LOCATION
 DATE.                             08/03/05 : DATE(S) LOGGED
 SRVC.       BLANCO Geological Services LLC : SERVICE COMPANY
 STAT.                                   CO : STATE
 CNTY.                           Las Animas : COUNTY
 CTRY.                                  USA : COUNTRY
 API.                       05-071-08016-00 : API NUMBER
 STRT.FT                             611.00 : START DEPTH
 STOP.FT                            2155.00 : STOP DEPTH
 STEP.FT                               1.00 : DEPTH INCREMENT
 NULL.                                -9999 : NULL VALUE
~Curve information
 DEPTH.FT                                   :
 ROP.MIN/FT                                 :
 GAS.UNITS                                  :
~ASCII Log data
       611.0     -9999.00          5.9 
       612.0         0.45          6.2 
       613.0         0.40          6.5 
       614.0         2.62          6.9 
       615.0         0.17          6.7 
       616.0         3.35          6.6 
       617.0         0.92          6.4 
       618.0         0.27          6.2 
       619.0         1.30          6.4 
       620.0         0.20          6.1 
       621.0         1.62          6.4 
       622.0         0.50          6.5 
       623.0         0.83          6.6 
       624.0         0.20          6.3 
       625.0         0.10          6.1 
       626.0        10.83          6.7 
       627.0         0.40          6.3 
       628.0         0.80          6.2 
       629.0         0.30          5.7 
       630.0         0.92          6.2 
       631.0         0.30          6.2 
       632.0         0.77          6.0 
       633.0         0.27          6.0 
       634.0         0.30          6.0 
       635.0         0.37          6.1 
       636.0         0.20          5.6 
       637.0         0.28          6.2 
       638.0         1.03          6.0 
       639.0         0.73          5.9 
       640.0         0.10          5.2 
       641.0         0.17          5.8 
       642.0         0.67          6.0 
       643.0         0.45          5.9 
       644.0         0.77          5.8 
       645.0         0.20          5.7 
       646.0         0.13          5.2 
       647.0         0.87          5.9 
       648.0         0.30          5.6 
       649.0         0.23          5.7 
       650.0         0.57          5.6 
       651.0         0.32          5.9 
       652.0         0.57          5.6 
       653.0         0.13          5.2 
       654.0         0.20          5.6 
       655.0         0.13          5.3 
       656.0         0.67          5.7 
       657.0         0.17          5.4 
       658.0         0.17          5.0 
       659.0         0.10          5.6 
       660.0         0.27          5.3 
       661.0         0.78          5.7 
       662.0         0.97          5.7 
       663.0         0.23          5.9 
       664.0         0.10          5.8 
       665.0         0.53          5.9 
       666.0         0.37          5.7 
       667.0         0.13          5.0 
       668.0         0.43          5.8 
       669.0         0.30          5.5 
       670.0         0.18          5.4 
       671.0         0.33          6.0 
       672.0         4.93          5.7 
       673.0         0.30          5.2 
       674.0         0.60          5.4 
       675.0         1.05          5.4 
       676.0         0.33          5.1 
       677.0         1.57          5.1 
       678.0         0.23          5.4 
       679.0         0.10          4.8 
       680.0         0.33          8.4 
       681.0         1.05          7.9 
       682.0         0.20          7.3 
       683.0         0.17          7.7 
       684.0         0.23          7.3 
       685.0         1.37          7.8 
       686.0         0.78          7.9 
       687.0         0.37          5.9 
       688.0         1.27        154.3 
       689.0         0.80         28.2 
       690.0         0.23          5.9 
       691.0         0.13          4.6 
       692.0         0.18          4.9 
       693.0         0.23          4.5 
       694.0         0.13          4.6 
       695.0         0.13          4.3 
       696.0         0.13          4.5 
       697.0         0.60          5.1 
       698.0         0.67          5.2 
       699.0         0.17          5.0 
       700.0         0.17          4.9 
       701.0         0.37          5.4 
       702.0         0.17          5.6 
       703.0         0.18          5.7 
       704.0         0.17          5.6 
       705.0         0.20          6.1 
       706.0         0.17          6.3 
       707.0         0.13          5.8 
       708.0         0.17          6.1 
       709.0         0.13          6.2 
       710.0         0.13          6.1 
       711.0         0.17          6.4 
       712.0         0.10          6.6 
       713.0         0.17          6.1 
       714.0         0.10          5.8 
       715.0         0.13          6.4 
       716.0         0.20          6.6 
       717.0         0.13          6.4 
       718.0         0.17          6.4 
       719.0         0.17          6.1 
       720.0         0.18          6.8 
       721.0         0.27          7.2 
       722.0         0.17          7.2 
       723.0         0.13          7.3 
       724.0         0.13          7.2 
       725.0         0.10          7.0 
       726.0         0.13          7.5 
       727.0         0.40          6.9 
       728.0         0.77          7.4 
       729.0         0.60          7.2 
       730.0         0.28          6.1 
       731.0         0.10          6.1 
       732.0         0.17          5.8 
       733.0         0.37          5.7 
       734.0         0.20          5.8 
       735.0         0.20          6.1 
       736.0         0.13          5.7 
       737.0         0.17          5.7 
       738.0         0.13          5.7 
       739.0         0.20          5.8 
       740.0         0.60          5.9 
       741.0         0.40          6.7 
       742.0         0.13          7.1 
       743.0         0.10          6.7 
       744.0         0.10          6.8 
       745.0         0.13          7.0 
       746.0         0.35          7.7 
       747.0         0.10          6.9 
       748.0         0.13          7.0 
       749.0         0.27          7.5 
       750.0         0.10          7.4 
       751.0         0.63          7.5 
       752.0         0.47          7.0 
       753.0         0.33          6.5 
       754.0         0.10          6.7 
       755.0         0.30          7.1 
       756.0         0.20          6.7 
       757.0         0.20          6.7 
       758.0         0.13          6.9 
       759.0         0.15          7.2 
       760.0         0.13          6.7 
       761.0         0.27          7.1 
       762.0         0.33          7.4 
       763.0         0.13          7.4 
       764.0         0.37          7.6 
       765.0         0.10          7.3 
       766.0         0.17          7.6 
       767.0         0.17          7.6 
       768.0         0.13          7.6 
       769.0         0.10          8.1 
       770.0         0.30          7.5 
       771.0         0.17          8.1 
       772.0         0.23          7.5 
       773.0         0.23          7.3 
       774.0         0.20          7.8 
       775.0         0.35          7.4 
       776.0         1.27          7.8 
       777.0         0.23          7.7 
       778.0         0.27          8.1 
       779.0         0.23          8.4 
       780.0         0.23          8.1 
       781.0         0.20          8.1 
       782.0         0.20          8.0 
       783.0         0.23          7.5 
       784.0         0.18          7.9 
       785.0         0.20          8.0 
       786.0         0.17          7.9 
       787.0         0.20          7.6 
       788.0         0.20          7.7 
       789.0         0.17          7.1 
       790.0         0.20          7.6 
       791.0         0.17          7.2 
       792.0         0.20          7.6 
       793.0         0.17          7.7 
       794.0         0.20          7.5 
       795.0         0.17          7.4 
       796.0         0.20          7.9 
       797.0         0.23          7.5 
       798.0         0.20          8.1 
       799.0         0.20          8.1 
       800.0         0.20          7.8 
       801.0         0.25          8.2 
       802.0         0.17          7.8 
       803.0         0.20          7.9 
       804.0         0.17          7.9 
       805.0         0.27          7.8 
       806.0         1.47          8.3 
       807.0         0.27          8.3 
       808.0         0.27          8.5 
       809.0         0.27          8.1 
       810.0         0.22          8.3 
