~Version Information
VERS.                      2.0: CWLS Log ASCII Standard - VERSION 2.0
WRAP.                       NO: One line per depth step
~Well Information Block
STRT.FT               545.0000: 
STOP.FT              1920.5000: 
STEP.FT                 0.1000: 
NULL.                -999.2500: 
COMP.          Pioneer Natural Resources: COMPANY
WELL.            Summers 21-19: WELL
FLD.           Purgatoire River: FIELD
LOC.           900' FNL & 1950' FWL: LOCATION
PROV.                 Colorado: PROVINCE
CNTY.               Las Animas: COUNTRY
SRVC.                Patterson: SERVICE COMPANY
DATE.          Mon Oct 17 07:05:22 2005: LOG DATE
UWI.           05 071 08315 00: UNIQUE WELL ID
~Curve Information Block
DEPT.FT            0 000 00 00: Depth
DCAL.in                       : CDL Caliper
RHOB.g/cc                     : CDL Bulk Density
RHOC.g/cc                     : CDL Density Correction
DPOR.pu                       : CDL Density Porosity
GR.GAPI                       : Gamma Ray
NPOR.pu                       : Neutron Porosity
~Parameter Information Block
~A  Depth       DCAL        RHOB        RHOC        DPOR         GR         NPOR    
# ...
  1639.4000      7.9990      2.3366      0.0272     18.9942     95.3780     29.3239
  1639.5000      7.9953      2.3355      0.0059     19.0582     92.7061     29.0585
  1639.6000      7.9953      2.3490      0.0665     18.2409     92.9638     27.8844
  1639.7000      7.9953      2.3745      0.0575     16.6978     93.1290     26.6773
  1639.8000      7.9913      2.4085      0.1294     14.6369     92.0463     26.7342
  1639.9000      7.9913      2.4420      0.1604     12.6075     89.8451     28.0422
  1640.0000      7.9988      2.4601      0.1824     11.5065     89.5085     28.7786
  1640.1000      7.9988      2.4563      0.1705     11.7402     94.4778     28.0080
  1640.2000      7.9988      2.4420      0.0939     12.6064    102.4115     27.3356
  1640.3000      8.0034      2.4351      0.0415     13.0263    108.1914     28.1377
  1640.4000      8.0034      2.4420      0.0581     12.6066    110.4600     29.4608
  1640.5000      7.9934      2.4539      0.0495     11.8860    109.0336     29.5681
  1640.6000      7.9934      2.4595      0.0355     11.5454    105.6704     28.4985
  1640.7000      7.9934      2.4603      0.0346     11.4942    103.6387     27.6052
  1640.8000      7.9968      2.4611      0.0672     11.4461    101.3834     27.3764
  1640.9000      7.9968      2.4591      0.0676     11.5688     96.6558     27.7956
  1641.0000      8.0384      2.4530      0.0198     11.9416     92.6661     28.9119
  1641.1000      8.0384      2.4428      0.0093     12.5573     94.2202     30.2292
  1641.2000      8.0384      2.4144      0.0688     14.2810    102.3285     31.1137
  1641.3000      8.0579      2.3509      0.0130     18.1255    110.4851     31.2395
  1641.4000      8.0579      2.2659     -0.0122     23.2789    110.9284     30.5855
  1641.5000      8.0262      2.1794     -0.0261     28.5212    105.9651     29.6973
  1641.6000      8.0262      2.0760     -0.0472     34.7874    103.2262     29.2415
  1641.7000      8.0262      1.9359     -0.0915     43.2789    102.8899     29.5428
  1641.8000      8.0258      1.7904     -0.1824     52.0998     99.5672     30.7473
  1641.9000      8.0258      1.6898     -0.1615     58.1936     90.8164     32.3214
  1642.0000      8.0463      1.6251     -0.0962     62.1160     82.1665     33.2134
  1642.1000      8.0463      1.5473     -0.0925     66.8288     77.8880     33.3995
  1642.2000      8.0463      1.4519     -0.1115     72.6103     73.8880     33.6803
  1642.3000      8.0732      1.3819     -0.0525     76.8532     67.0558     33.9626
  1642.4000      8.0732      1.3592      0.0330     78.2297     59.8917     33.5283
  1642.5000      8.1456      1.3709      0.0236     77.5207     55.8405     32.8137
  1642.6000      8.1456      1.4127      0.0559     74.9865     54.8584     32.9813
  1642.7000      8.1456      1.4971      0.0216     69.8752     53.8244     33.8599
  1642.8000      8.4687      1.6181      0.0474     62.5366     50.8521     34.2079
  1642.9000      8.4687      1.7418      0.1022     55.0427     48.3944     33.8154
  1643.0000      8.5734      1.8508      0.1180     48.4340     49.1579     33.4481
  1643.1000      8.5734      1.9634      0.1444     41.6115     52.6250     33.5880
  1643.2000      8.5734      2.0929      0.2038     33.7614     58.9319     33.6197
  1643.3000      8.5671      2.2309      0.2109     25.3984     67.7072     32.1795
  1643.4000      8.5671      2.3634      0.1727     17.3687     76.2720     30.1115
  1643.5000      8.6152      2.4751      0.1457     10.6009     83.0714     29.8293
  1643.6000      8.6152      2.5465      0.1403      6.2725     86.2186     31.0527
  1643.7000      8.6152      2.5690      0.0752      4.9102     85.9134     31.3520
  1643.8000      8.1965      2.5570      0.0278      5.6380     88.6386     29.6527
  1643.9000      8.1965      2.5354      0.0330      6.9472     95.8759     27.2723
  1644.0000      7.9856      2.5261      0.0021      7.5091    101.1622     25.7695
  1644.1000      7.9856      2.5358      0.0052      6.9198    102.1875     25.1701
  1644.2000      7.9856      2.5524     -0.0018      5.9152     99.1186     24.7952
  1644.3000      7.9633      2.5647      0.0294      5.1721     92.6812     24.2722
  1644.4000      7.9633      2.5703      0.0556      4.8323     87.3019     23.5919
  1644.5000      7.9609      2.5637      0.0274      5.2316     85.8306     22.9306
  1644.6000      7.9609      2.5459     -0.0093      6.3085     88.2238     22.6529
  1644.7000      7.9609      2.5346     -0.0056      6.9952     92.5225     22.3331
  1644.8000      7.9588      2.5433     -0.0022      6.4670     93.4644     21.3927
  1644.9000      7.9588      2.5645      0.0185      5.1795     90.4605     21.0667
  1645.0000      7.9700      2.5751      0.0543      4.5384     87.4063     22.0362
  1645.1000      7.9700      2.5656      0.0051      5.1136     88.9786     22.8725
  1645.2000      7.9700      2.5563     -0.0235      5.6788     95.7227     22.8576
  1645.3000      7.9806      2.5629      0.0265      5.2768    100.3673     22.5801
  1645.4000      7.9806      2.5760      0.0036      4.4835     98.7626     22.1208
  1645.5000      7.9721      2.5760      0.0508      4.4873     95.1083     21.8222
  1645.6000      7.9721      2.5544     -0.0064      5.7930     94.4427     22.2863
  1645.7000      7.9721      2.5296     -0.0524      7.2956     96.6912     22.9460
  1645.8000      7.9930      2.5257     -0.0225      7.5346     98.9974     23.0267
  1645.9000      7.9930      2.5433     -0.0018      6.4695    100.6394     22.3624
  1646.0000      8.0080      2.5579      0.0249      5.5840    101.5508     21.4992
  1646.1000      8.0080      2.5515     -0.0168      5.9700     98.2944     21.1018
  1646.2000      8.0080      2.5438     -0.0037      6.4367     90.5450     20.8716
  1646.3000      8.0211      2.5643      0.0171      5.1942     84.9772     20.6628
  1646.4000      8.0211      2.6037      0.0698      2.8041     83.3346     20.9385
  1646.5000      8.0245      2.6205      0.1189      1.7903     80.9245     21.2747
  1646.6000      8.0245      2.5999      0.0298      3.0361     78.6311     21.0839
  1646.7000      8.0245      2.5707      0.0091      4.8035     81.2845     21.0188
  1646.8000      8.0270      2.5546      0.0101      5.7796     87.8375     21.0128
  1646.9000      8.0270      2.5518      0.0024      5.9525     92.8815     20.4286
  1647.0000      8.0137      2.5577      0.0260      5.5926     93.9765     19.8599
  1647.1000      8.0137      2.5709      0.0415      4.7967     89.5133     19.9218
  1647.2000      8.0137      2.5939      0.0459      3.4024     79.5318     20.4719
  1647.3000      7.9844      2.6172      0.0963      1.9883     71.3989     21.4880
  1647.4000      7.9844      2.6232      0.0319      1.6242     70.3940     23.0324
  1647.5000      7.9728      2.6136      0.0542      2.2045     74.2881     24.0093
  1647.6000      7.9728      2.6046      0.0114      2.7525     80.1447     23.2229
  1647.7000      7.9728      2.6036      0.0408      2.8135     85.2089     21.4862
  1647.8000      7.9565      2.5992      0.0623      3.0773     85.8929     20.3462
  1647.9000      7.9565      2.5840      0.0420      3.9977     81.3064     19.7056
  1648.0000      7.9446      2.5720      0.0332      4.7263     76.0582     19.0110
  1648.1000      7.9446      2.5829      0.0183      4.0638     74.7152     18.8662
  1648.2000      7.9446      2.6117      0.0964      2.3217     75.7322     19.5869
  1648.3000      7.9371      2.6291      0.1015      1.2639     77.5973     20.4431
  1648.4000      7.9371      2.6277      0.0787      1.3513     80.2059     20.8430
  1648.5000      7.9360      2.6285      0.0507      1.3020     78.2011     20.9174
  1648.6000      7.9360      2.6437      0.0594      0.3826     68.2287     21.1492
  1648.7000      7.9360      2.6520      0.1061     -0.1215     58.8455     21.3153
  1648.8000      7.9450      2.6300      0.0736      1.2147     59.2890     21.0057
  1648.9000      7.9450      2.5897      0.0390      3.6521     64.7798     20.4167
