~Version Information
VERS.                      2.0: CWLS Log ASCII Standard - VERSION 2.0
WRAP.                       NO: One line per depth step
~Well Information Block
STRT.FT               -17.7500: 
STOP.FT              1590.5000: 
STEP.FT                 0.2500: 
NULL.                -999.2500: 
COMP.          Petrogulf Corporation: COMPANY
WELL.          Great Plains 22-21V: WELL
FLD.           Purgatorie River: FIELD
LOC.           63' FNL & 1895' FWL--: LOCATION
CNTY.               Las Animas: COUNTY
SRVC.          Superior Well Services: SERVICE COMPANY
DATE.          Fri Dec 08 14:45:19 2006: LOG DATE
UWI.           05 071 08346 00: UNIQUE WELL ID
STAT.                       CO: STATE
~Curve Information Block
DEPT.FT            0 000 00 00: Depth
CCL.                          : Casing Collar Locator
TT3.usec                      : CBL 3' Travel Time
AMP3.mV                       : CBL 3' Amplitude
GR.GAPI                       : Gamma Ray
~Parameter Information Block
~A  Depth       CCL         TT3         AMP3         GR     
# ...
   518.2500      0.0000    258.3700     76.1560     86.9141
   518.5000      0.0000    258.3633     76.1372     85.2403
   518.7500      0.0000    258.3584     76.1269     83.6220
   519.0000      0.0000    258.3575     76.1312     83.7285
   519.2500      0.0000    258.3570     76.1493     85.6009
   519.5000      0.0000    258.3523     76.1753     88.2870
   519.7500      0.0000    258.3441     76.2029     90.8698
   520.0000      0.0000    258.3366     76.2255     92.6994
   520.2500      0.0000    258.3316     76.2340     93.2678
   520.5000      0.0000    258.3281     76.2205     92.6190
   520.7500      0.0000    258.3233     76.1835     91.6910
   521.0000      0.0000    258.3153     76.1301     91.5080
   521.2500      0.0000    258.3041     76.0733     91.9105
   521.5000      0.0000    258.2928     76.0272     91.4106
   521.7500      0.0000    258.2867     76.0005     88.4633
   522.0000      0.0000    258.2896     75.9924     82.9805
   522.2500      0.0000    258.3007     75.9936     76.7558
   522.5000      0.0000    258.3148     75.9911     72.4148
   522.7500      0.0000    258.3261     75.9740     71.7208
   523.0000      0.0000    258.3311     75.9401     74.6489
   523.2500      0.0000    258.3301     75.8985     79.9074
   523.5000      0.0000    258.3243     75.8620     86.0501
   523.7500      0.0000    258.3141     75.8359     92.0448
   524.0000      0.0000    258.2995     75.8151     97.4251
   524.2500      0.0000    258.2828     75.7929    102.4612
   524.5000      0.0000    258.2672     75.7686    107.7446
   524.7500      0.0000    258.2547     75.7462    112.9316
   525.0000      0.0000    258.2450     75.7257    116.1891
   525.2500      0.0000    258.2370     75.7016    115.7269
   525.5000      0.0000    258.2311     75.6700    111.8050
   525.7500      0.0000    258.2305     75.6350    106.6205
   526.0000      0.0000    258.2378     75.6067    102.3911
   526.2500      0.0000    258.2518     75.5920    100.0596
   526.5000      0.0000    258.2660     75.5898     99.6352
   526.7500      0.0000    258.2741     75.5942    100.9629
   527.0000      0.0000    258.2745     75.5983    103.6997
   527.2500      0.0000    258.2709     75.5960    106.9296
   527.5000      0.0000    258.2669     75.5834    109.5234
   527.7500      0.0000    258.2627     75.5589    110.9725
   528.0000      0.0000    258.2551     75.5202    111.4694
   528.2500      0.0000    258.2415     75.4620    111.2794
   528.5000      0.0000    258.2232     75.3818    110.4624
   528.7500      0.0000    258.2059     75.2853    108.9687
   529.0000      0.0000    258.1940     75.1819    106.7849
   529.2500      0.0000    258.1863     75.0740    104.2955
   529.5000      0.0000    258.1767     74.9539    102.2553
   529.7500      0.0000    258.1595     74.8075    100.8767
   530.0000      0.0000    258.1338     74.6200     99.2705
   530.2500      0.0000    258.1048     74.3843     96.4575
   530.5000      0.0000    258.0815     74.1104     92.7606
   530.7500      0.0000    258.0723     73.8229     89.7471
   531.0000      0.0000    258.0799     73.5427     88.8662
   531.2500      0.0000    258.0989     73.2715     90.2866
   531.5000      0.0000    258.1195     72.9983     92.8133
   531.7500      0.0000    258.1353     72.7214     94.7598
   532.0000      0.0000    258.1464     72.4560     95.0518
   532.2500      0.0000    258.1546     72.2211     93.5747
   532.5000      0.0000    258.1585     72.0291     90.6451
   532.7500      0.0000    258.1560     71.8923     86.6202
   533.0000      0.0000    258.1493     71.8297     82.0543
   533.2500      0.0000    258.1449     71.8602     77.7147
   533.5000      0.0000    258.1486     71.9880     74.3095
   533.7500      0.0000    258.1612     72.1976     72.2166
   534.0000      0.0000    258.1781     72.4601     71.0308
   534.2500      0.0000    258.1929     72.7421     69.2780
   534.5000      0.0000    258.2019     73.0145     65.3606
   534.7500      0.0000    258.2055     73.2583     59.3334
   535.0000      0.0000    258.2067     73.4694     53.1610
   535.2500      0.0000    258.2085     73.6577     48.8695
   535.5000      0.0000    258.2124     73.8421     47.0335
   535.7500      0.0000    258.2187     74.0415     47.2424
   536.0000      0.0000    258.2278     74.2653     49.1671
   536.2500      0.0000    258.2403     74.5098     52.7022
   536.5000      0.0000    258.2533     74.7607     57.6869
   536.7500      0.0000    258.2602     74.9972     64.0270
   537.0000      0.0000    258.2550     75.2001     71.8462
   537.2500      0.0000    258.2387     75.3585     81.0082
   537.5000      0.0000    258.2184     75.4699     90.2797
   537.7500      0.0000    258.2020     75.5335     97.3500
   538.0000      0.0000    258.1931     75.5465    100.2595
   538.2500      0.0000    258.1903     75.5060     98.7678
   538.5000      0.0000    258.1883     75.4134     94.1307
   538.7500      0.0000    258.1819     75.2774     88.0935
   539.0000      0.0000    258.1708     75.1152     82.5215
   539.2500      0.0000    258.1599     74.9482     79.2254
   539.5000      0.0000    258.1543     74.7938     79.1635
   539.7500      0.0000    258.1539     74.6615     81.9408
   540.0000      0.0000    258.1544     74.5578     86.4504
   540.2500      0.0000    258.1541     74.4918     91.5695
   540.5000      0.0000    258.1562     74.4742     96.1172
   540.7500      0.0000    258.1634     74.5095     99.0076
   541.0000      0.0000    258.1724     74.5884     99.9401
   541.2500      0.0000    258.1750     74.6922     99.4970
   541.5000      0.0000    258.1650     74.8046     98.4192
   541.7500      0.0000    258.1430     74.9159     97.2686
   542.0000      0.0000    258.1220     75.0105     96.7711
   542.2500      0.0000    258.1360     75.0403     97.7967
   542.5000      0.0000    258.3170     74.8592    100.4697
   542.7500      0.0000    259.0491     74.1206    103.4741
   543.0000      0.0000    261.1264     72.2424    104.8360
   543.2500      0.0000    265.4925     68.7107    103.6469
   543.5000      0.0000    272.1729     63.7208    100.8137
   543.7500      0.0000    279.1620     58.4820     98.1259
   544.0000      0.0000    283.1388     54.4861     96.8143
   544.2500      0.0000    282.1974     52.3403     96.9468
   544.5000      0.0000    277.6167     51.5448     97.8639
   544.7500      0.0000    272.4351     51.3155     98.8594
   545.0000      0.0000    268.7823     51.2458     99.5648
   545.2500      0.0000    266.9577     51.2510    100.1331
   545.5000      2.0000    266.3040     51.3227    101.2505
   545.7500     -2.0000    266.1846     51.4730    103.6070
   546.0000      0.0000    266.2578     51.8175    106.9412
   546.2500      0.0000    266.3213     52.6612    109.7918
   546.5000      0.0000    266.1404     54.4391    110.6518
   546.7500      0.0000    265.4605     57.3879    109.5957
   547.0000      0.0000    264.2190     61.2162    108.5399
   547.2500      0.0000    262.6802     65.2406    109.5052
   547.5000      0.0000    261.2817     68.8281    112.4610
   547.7500      0.0000    260.3238     71.6221    115.0058
   548.0000      0.0000    259.8266     73.5101    114.2839
   548.2500      0.0000    259.6346     74.5865    109.2094
   548.5000      0.0000    259.5818     75.1000    101.0228
   548.7500      0.0000    259.5694     75.3179     92.0752
   549.0000      0.0000    259.5602     75.4174     84.2950
   549.2500      0.0000    259.5501     75.4800     78.5410
   549.5000      0.0000    259.5431     75.5397     74.9890
   549.7500      0.0000    259.5396     75.6060     73.9353
   550.0000      0.0000    259.5374     75.6712     76.1363
   550.2500      0.0000    259.5362     75.7165     81.9156
   550.5000      0.0000    259.5385     75.7297     89.8776
   550.7500      0.0000    259.5461     75.7174     97.2841
   551.0000      0.0000    259.5571     75.6991    102.1820
   551.2500      0.0000    259.5666     75.6932    104.8675
   551.5000      0.0000    259.5713     75.7066    107.0427
