~Version Information
 VERS.                                  2.0 : CWLS LAS VERSION
 WRAP.                                   NO : WRAPING MODE
 SWARE .                 MController 2.5.0J : SOFTWARE VERSION
~Well Information
 WELL.                          Quack 22-24 : WELL
 COMP.    PIONEER NATURAL RESOURCES USA INC : COMPANY
 FLD.                      PURGATOIRE RIVER : FIELD
 LOC.                 SE/NW Sec 24 32S  67W : LOCATION
 DATE.                                  N/A : DATE(S) LOGGED
 SRVC.       Blanco Geological Services LLC : SERVICE COMPANY
 STAT.                                   CO : STATE
 CNTY.                           LAS ANIMAS : COUNTY
 CTRY.                                  USA : COUNTRY
 API.                       05-071-08402-00 : API NUMBER
 STRT.FT                             201.00 : START DEPTH
 STOP.FT                            2610.00 : STOP DEPTH
 STEP.FT                               1.00 : DEPTH INCREMENT
 NULL.                                -9999 : NULL VALUE
~Curve information
 DEPTH.FT                                   :
 ROP.MIN/FT                                 :
 GAS.UNITS                                  :
~ASCII Log data
# ...
       801.0         0.10         11.3 
       802.0         0.10         11.7 
       803.0         0.10         12.2 
       804.0         0.13         12.1 
       805.0         0.17         10.9 
       806.0         1.67          8.6 
       807.0         0.23          5.6 
       808.0         0.17          4.7 
       809.0         0.07          3.9 
       810.0         0.25          4.3 
       811.0         0.27          3.7 
       812.0         0.20          3.7 
       813.0         0.20          3.5 
       814.0         0.17          3.8 
       815.0         0.27          3.7 
       816.0         0.23          3.9 
       817.0         0.27          4.5 
       818.0         0.27          4.7 
       819.0         0.27          4.4 
       820.0         0.23          4.3 
       821.0         0.23          4.0 
       822.0         0.27          3.5 
       823.0         0.22          3.7 
       824.0         0.17          3.7 
       825.0         0.13          3.8 
       826.0         0.23          3.7 
       827.0         0.20          3.4 
       828.0         0.23          3.2 
       829.0         0.23          3.4 
       830.0         0.23          4.6 
       831.0         0.23          6.8 
       832.0         0.20          8.4 
       833.0         0.23          8.7 
       834.0         0.27          8.9 
       835.0         0.37          8.3 
       836.0         1.55          7.0 
       837.0         0.30          6.6 
       838.0         0.20         11.3 
       839.0         0.20         11.6 
       840.0         0.17         10.9 
       841.0         0.17          9.5 
       842.0         0.23          8.7 
       843.0         0.23          7.9 
       844.0         0.23          7.2 
       845.0         0.27          7.2 
       846.0         0.23          7.1 
       847.0         0.22          7.8 
       848.0         0.20          8.8 
       849.0         0.20         10.4 
       850.0         0.17         11.3 
       851.0         0.13         11.9 
       852.0         0.17         11.8 
       853.0         0.17         12.0 
       854.0         0.17         13.4 
       855.0         0.13         15.6 
       856.0         0.13         19.1 
       857.0         0.13         24.2 
       858.0         0.10         28.5 
       859.0         0.13         35.3 
       860.0         0.10         42.6 
       861.0         0.13         53.2 
       862.0         0.10         60.8 
       863.0         0.10         66.3 
       864.0         0.17         69.7 
       865.0         0.20         69.5 
       866.0         1.62         65.2 
       867.0         0.30         23.0 
       868.0         0.20         19.2 
       869.0         0.20         17.6 
       870.0         0.23         16.8 
       871.0         0.23         15.0 
       872.0         0.20         14.6 
       873.0         0.23         15.1 
       874.0         0.23         15.1 
       875.0         0.23         14.8 
       876.0         0.25         14.7 
       877.0         0.23         14.4 
       878.0         0.27         14.2 
       879.0         0.20         14.3 
       880.0         0.17         14.4 
       881.0         0.10         13.8 
       882.0         0.20         13.4 
       883.0         0.23         13.3 
       884.0         0.23         12.8 
       885.0         0.20         11.8 
       886.0         0.10         10.7 
       887.0         0.13         10.0 
       888.0         0.20         10.4 
       889.0         0.20         12.8 
       890.0         0.23         17.6 
       891.0         0.20         23.8 
       892.0         0.23         32.9 
       893.0         0.22         40.5 
       894.0         0.20         41.6 
       895.0         0.17         40.3 
       896.0         1.77         36.2 
       897.0         0.27         15.1 
       898.0         0.23         14.2 
       899.0         0.23         13.6 
       900.0         0.17         12.2 
       901.0         0.17         11.6 
       902.0         0.18         10.9 
       903.0         0.17         10.0 
       904.0         0.10          9.7 
       905.0         0.30          9.7 
       906.0         0.23          9.2 
       907.0         0.30          9.2 
       908.0         0.27          9.6 
       909.0         0.23          9.8 
       910.0         0.23          9.6 
       911.0         0.20          9.9 
       912.0         0.20         10.3 
       913.0         0.23         25.6 
       914.0         0.10         31.9 
       915.0         0.13         38.8 
       916.0         0.10         43.8 
       917.0         0.20         54.8 
       918.0         0.17         70.2 
       919.0         0.10         82.2 
       920.0         0.22        118.2 
       921.0         0.23        163.2 
       922.0         0.27        212.3 
       923.0         0.20        228.5 
       924.0         0.10        227.1 
       925.0         0.23        217.6 
       926.0         1.20        178.7 
       927.0         0.30         57.1 
       928.0         0.33         50.5 
       929.0         0.23         45.9 
       930.0         0.18         41.7 
       931.0         0.27         40.4 
       932.0         0.23         38.3 
       933.0         0.20         36.0 
       934.0         0.30         34.3 
       935.0         0.27         32.5 
       936.0         0.20         31.3 
       937.0         0.23         30.7 
       938.0         0.17         29.8 
       939.0         0.20         29.2 
       940.0         0.23         28.7 
       941.0         0.23         28.9 
       942.0         0.20         29.0 
       943.0         0.20         28.4 
       944.0         0.23         28.2 
       945.0         0.25         27.9 
       946.0         0.20         27.5 
       947.0         0.20         27.4 
       948.0         0.20         24.8 
       949.0         0.23         22.9 
       950.0         0.23         25.9 
       951.0         0.20         34.7 
       952.0         0.20         46.9 
       953.0         0.20         61.0 
       954.0         0.27         82.1 
       955.0         0.27         85.9 
       956.0         1.45         82.6 
       957.0         0.40         30.1 
       958.0         0.30         28.3 
       959.0         0.20         27.0 
       960.0         0.23         26.1 
       961.0         0.23         24.9 
       962.0         0.23         24.2 
       963.0         0.20         23.6 
       964.0         0.30         23.0 
       965.0         0.27         22.5 
       966.0         0.20         22.6 
       967.0         0.23         22.6 
       968.0         0.22         22.5 
       969.0         0.23         22.5 
       970.0         0.20         22.5 
       971.0         0.17         22.6 
       972.0         0.23         26.0 
       973.0         0.20         28.2 
       974.0         0.10         28.4 
       975.0         0.13         27.9 
       976.0         0.10         28.3 
       977.0         0.13         28.0 
       978.0         0.10         25.9 
       979.0         0.20         24.4 
       980.0         0.23         23.4 
       981.0         0.23         32.2 
       982.0         0.27         47.4 
       983.0         0.27         70.3 
       984.0         0.23         87.0 
       985.0         0.25         89.2 
       986.0         1.53         86.0 
       987.0         0.27         29.7 
       988.0         0.23         28.3 
       989.0         0.30         27.7 
       990.0         0.30         26.6 
       991.0         0.20         25.0 
       992.0         0.27         24.0 
       993.0         0.28         22.7 
       994.0         0.23         21.2 
       995.0         0.23         20.8 
       996.0         0.23         20.0 
       997.0         0.23         19.7 
       998.0         0.30         19.9 
       999.0         0.23         20.0 
      1000.0         0.23         19.6 
