~Version Information
VERS.                      2.0: CWLS Log ASCII Standard - VERSION 2.0
WRAP.                       NO: One line per depth step
~Well Information Block
STRT.FT               425.0000: 
STOP.FT              2461.0000: 
STEP.FT                 0.1000: 
NULL.                -999.2500: 
COMP.          Evergreen Operating Corporation: COMPANY
WELL.              Nomad 32-10: WELL
FLD.           Purgatorie River: FIELD
LOC.           2281' FNL & 1585' FEL: LOCATION
PROV.                 Colorado: PROVINCE
CNTY.               Las Animas: COUNTRY
SRVC.                Patterson: SERVICE COMPANY
DATE.          Thu Aug 12 11:13:52 2004: LOG DATE
UWI.           05 071 08127 00: UNIQUE WELL ID
~Curve Information Block
DEPT.FT            0 000 00 00: Depth
DCAL.in                       : CDL Caliper
RHOB.g/cc                     : CDL Bulk Density
RHOC.g/cc                     : CDL Density Correction
DPOR.pu                       : CDL Density Porosity
NPOR.pu                       : Neutron Porosity
GR.GAPI                       : Gamma Ray
~Parameter Information Block
~A  Depth       DCAL        RHOB        RHOC        DPOR        NPOR         GR     
# ...
  1356.2000      8.1223      2.6235      0.0665      1.6085     19.7506     71.4575
  1356.3000      8.1279      2.6229      0.0392      1.6445     19.0871     80.4642
  1356.4000      8.1279      2.6249      0.0129      1.5243     19.0615     87.8332
  1356.5000      8.1363      2.6293      0.0402      1.2574     19.7506     91.2504
  1356.6000      8.1363      2.6276      0.0785      1.3591     20.3845     92.8892
  1356.7000      8.1363      2.6123      0.0723      2.2834     20.1413     92.9791
  1356.8000      8.1329      2.5890      0.0745      3.6945     19.3893     96.2299
  1356.9000      8.1329      2.5678      0.0371      4.9827     19.2488    102.9702
  1357.0000      8.1338      2.5548      0.0474      5.7674     20.3925    102.7661
  1357.1000      8.1338      2.5524      0.0183      5.9138     22.5382     96.3186
  1357.2000      8.1338      2.5586      0.0529      5.5381     24.3791     94.8698
  1357.3000      8.1411      2.5623      0.0734      5.3124     24.8602    100.1532
  1357.4000      8.1411      2.5493      0.0466      6.1029     24.4170    104.5327
  1357.5000      8.1601      2.5163      0.0521      8.1011     24.1237    104.6595
  1357.6000      8.1601      2.4770      0.0133     10.4875     24.3138    102.5796
  1357.7000      8.1601      2.4545     -0.0011     11.8498     24.8941     99.9237
  1357.8000      8.1658      2.4649     -0.0062     11.2198     25.6359    101.8782
  1357.9000      8.1658      2.4950      0.0426      9.3945     26.0142    112.1342
  1358.0000      8.1636      2.5073      0.0861      8.6471     25.8207    125.0469
  1358.1000      8.1636      2.4886     -0.0164      9.7791     25.3675    132.1801
  1358.2000      8.1636      2.4671     -0.0099     11.0872     24.8710    130.6418
  1358.3000      8.1662      2.4654      0.0314     11.1865     24.6085    125.6465
  1358.4000      8.1662      2.4809      0.0209     10.2485     24.7828    125.6549
  1358.5000      8.1915      2.5012      0.0538      9.0168     25.1281    132.4367
  1358.6000      8.1915      2.5139      0.0822      8.2461     25.4866    138.9783
  1358.7000      8.1915      2.5165      0.0321      8.0938     25.7717    135.7222
  1358.8000      8.2144      2.5171      0.0386      8.0528     25.6116    121.1027
  1358.9000      8.2144      2.5214      0.0385      7.7910     25.3204    102.9503
  1359.0000      8.2186      2.5256      0.0551      7.5375     25.4115     91.1244
  1359.1000      8.2186      2.5271      0.0207      7.4477     25.4984     90.5277
  1359.2000      8.2186      2.5310      0.0549      7.2105     25.1005     95.9786
  1359.3000      8.2231      2.5355      0.0425      6.9389     24.2418     99.1116
  1359.4000      8.2231      2.5399      0.0387      6.6712     23.6071     99.3937
  1359.5000      8.2205      2.5601      0.0178      5.4490     23.9554    101.6682
  1359.6000      8.2205      2.5975      0.0575      3.1823     24.9376    108.4123
  1359.7000      8.2205      2.6287      0.0636      1.2913     25.8810    115.6054
  1359.8000      8.2171      2.6412      0.0628      0.5326     26.8259    116.4866
  1359.9000      8.2171      2.6446      0.0515      0.3286     27.5256    112.2900
  1360.0000      8.2145      2.6549      0.0177     -0.2943     27.5716    108.1506
  1360.1000      8.2145      2.6767      0.0333     -1.6179     27.6399    106.1934
  1360.2000      8.2145      2.6891      0.0827     -2.3698     27.9318    107.1487
  1360.3000      8.2094      2.6721      0.0469     -1.3410     27.5621    109.8427
  1360.4000      8.2094      2.6378      0.0436      0.7383     26.6392    112.6292
  1360.5000      8.1905      2.6048      0.0379      2.7403     26.2967    116.4185
  1360.6000      8.1905      2.5732      0.0297      4.6549     26.5490    119.2035
  1360.7000      8.1905      2.5354      0.0307      6.9477     26.5115    119.5255
  1360.8000      8.2148      2.4987     -0.0195      9.1726     26.1936    121.1648
  1360.9000      8.2148      2.4798      0.0111     10.3147     26.3715    121.3122
  1361.0000      8.2043      2.4772      0.0277     10.4743     27.1371    118.1753
  1361.1000      8.2043      2.4773      0.0725     10.4655     28.0915    118.6255
  1361.2000      8.2043      2.4736      0.0463     10.6926     28.8419    124.0201
  1361.3000      8.1934      2.4663      0.0292     11.1315     29.1012    129.9863
  1361.4000      8.1934      2.4585      0.0564     11.6080     28.9774    135.7527
  1361.5000      8.1940      2.4530      0.0439     11.9406     28.8216    137.0032
  1361.6000      8.1940      2.4496      0.0740     12.1459     29.0951    131.7647
  1361.7000      8.1940      2.4467      0.0513     12.3237     29.6135    126.7001
  1361.8000      8.1941      2.4457      0.0528     12.3800     29.4474    125.6374
  1361.9000      8.1941      2.4419      0.1035     12.6127     28.6442    125.4371
  1362.0000      8.1965      2.4286      0.0828     13.4172     28.0675    122.7302
  1362.1000      8.1965      2.4127      0.0311     14.3818     27.7784    116.9710
  1362.2000      8.1965      2.4076      0.0138     14.6908     27.4189    109.2889
  1362.3000      8.2198      2.4216      0.0195     13.8414     26.9634    103.4315
  1362.4000      8.2198      2.4511      0.0760     12.0517     26.5685    103.0593
  1362.5000      8.2154      2.4867      0.0639      9.8992     26.5116    104.4567
  1362.6000      8.2154      2.5156      0.1014      8.1439     26.8536    104.9125
  1362.7000      8.2154      2.5272      0.0657      7.4413     27.3603    107.8590
  1362.8000      8.2130      2.5318      0.0359      7.1660     27.8548    112.7885
  1362.9000      8.2130      2.5411      0.0624      6.5984     28.1656    116.4798
  1363.0000      8.2096      2.5431      0.0855      6.4781     28.2363    117.0551
  1363.1000      8.2096      2.5280      0.0985      7.3939     28.4719    113.8443
  1363.2000      8.2096      2.5099      0.0382      8.4885     28.7768    110.1408
  1363.3000      8.2145      2.5007      0.0303      9.0507     28.4834    111.3262
  1363.4000      8.2145      2.4951      0.0122      9.3893     27.9404    114.9967
  1363.5000      8.2259      2.4977      0.0057      9.2329     27.5899    114.5896
  1363.6000      8.2259      2.5188      0.0704      7.9512     26.8417    111.7083
  1363.7000      8.2259      2.5476      0.0788      6.2091     25.9934    110.3962
  1363.8000      8.2187      2.5600      0.0982      5.4571     25.9431    112.2650
  1363.9000      8.2187      2.5471      0.0846      6.2370     26.4074    117.8872
  1364.0000      8.2209      2.5239      0.0465      7.6444     26.6486    124.1278
  1364.1000      8.2209      2.5090      0.0205      8.5482     26.3709    126.5307
  1364.2000      8.2209      2.4989      0.1172      9.1557     25.6789    122.3703
  1364.3000      8.2187      2.4854      0.0478      9.9744     24.8732    112.2458
  1364.4000      8.2187      2.4835      0.0225     10.0929     24.0279    100.6414
  1364.5000      8.2133      2.5046      0.0767      8.8126     23.1434     93.4251
  1364.6000      8.2133      2.5335      0.0915      7.0579     22.5187     94.8553
  1364.7000      8.2133      2.5538      0.0688      5.8287     21.9980    101.6435
  1364.8000      8.2217      2.5619      0.1175      5.3392     21.4449    106.1442
  1364.9000      8.2217      2.5545      0.0855      5.7867     21.4456    105.2418
  1365.0000      8.2153      2.5392      0.0471      6.7137     22.4240     97.5986
  1365.1000      8.2153      2.5333      0.0458      7.0706     24.0488     87.3697
  1365.2000      8.2153      2.5392      0.0742      6.7160     25.5987     84.9248
  1365.3000      8.2120      2.5445      0.0575      6.3940     26.5658     94.1222
  1365.4000      8.2120      2.5384      0.0377      6.7625     27.0340    107.8049
  1365.5000      8.2084      2.5219      0.0492      7.7637     27.2707    116.2696
  1365.6000      8.2084      2.5076      0.0161      8.6313     27.4409    116.5053
  1365.7000      8.2084      2.5030      0.0139      8.9108     27.7242    113.7901
