~Version Information
VERS.                      2.0: CWLS Log ASCII Standard - VERSION 2.0
WRAP.                       NO: One line per depth step
~Well Information Block
STRT.FT                -7.5000: 
STOP.FT              1545.0000: 
STEP.FT                 0.2500: 
NULL.                -999.2500: 
COMP.          Pioneer Natural Resources: COMPANY
WELL.          Kristin 22-23 Tr: WELL
FLD.           Purgatorie River: FIELD
LOC.           2273' FNL & 2029' FWL--: LOCATION
PROV.                       CO: PROVINCE
CNTY.               Las Animas: COUNTRY
SRVC.                         : SERVICE COMPANY
DATE.          Tue Jan 25 11:16:36 2005: LOG DATE
UWI.           071-08259      : UNIQUE WELL ID
~Curve Information Block
DEPT.FT            0 000 00 00: Depth
CCL.                          : Casing Collar Locator
TT3.usec                      : CBL 3' Travel Time
AMP3.mV                       : CBL 3' Amplitude
GR.GAPI                       : Gamma Ray
~Parameter Information Block
~A  Depth       CCL         TT3         AMP3         GR     
    -7.5000   -999.2500   -999.2500   -999.2500   -999.2500
    -7.2500   -999.2500   -999.2500   -999.2500    121.8916
    -7.0000   -999.2500   -999.2500   -999.2500    128.4237
    -6.7500   -999.2500   -999.2500   -999.2500    131.5478
    -6.5000   -999.2500   -999.2500   -999.2500    128.8576
    -6.2500   -999.2500   -999.2500   -999.2500    121.8181
    -6.0000   -999.2500   -999.2500   -999.2500    114.0970
    -5.7500   -999.2500   -999.2500   -999.2500    108.5082
    -5.5000   -999.2500   -999.2500   -999.2500    105.7476
    -5.2500   -999.2500   -999.2500   -999.2500    105.2441
    -5.0000   -999.2500   -999.2500   -999.2500    106.1674
    -4.7500   -999.2500   -999.2500   -999.2500    107.6290
    -4.5000   -999.2500   -999.2500   -999.2500    108.8362
    -4.2500   -999.2500   -999.2500   -999.2500    109.5570
    -4.0000   -999.2500   -999.2500   -999.2500    110.1877
    -3.7500   -999.2500   -999.2500   -999.2500    111.0323
    -3.5000   -999.2500   -999.2500   -999.2500    111.5443
    -3.2500   -999.2500   -999.2500   -999.2500    110.5834
    -3.0000   -999.2500   -999.2500   -999.2500    107.6291
    -2.7500   -999.2500   -999.2500   -999.2500    103.4422
    -2.5000   -999.2500   -999.2500   -999.2500     99.2812
    -2.2500   -999.2500    798.0000      1.1725     95.8766
    -2.0000   -999.2500    798.0000      1.1709     93.4560
    -1.7500   -999.2500    798.0000      1.1654     92.2852
    -1.5000   -999.2500    798.0000      1.1630     92.5947
    -1.2500   -999.2500    798.0000      1.1679     93.8852
    -1.0000   -999.2500    798.0000      1.1803     93.0884
    -0.7500   -999.2500    798.0000      1.1965     88.9685
    -0.5000   -999.2500    798.0000      1.2090     83.2902
    -0.2500   -999.2500    798.0000      1.2077     77.2045
     0.0000   -999.2500    798.0000      1.1875     71.2024
     0.2500   -999.2500    798.0000      1.1551     65.5045
     0.5000   -999.2500    798.0000      1.1244     60.3170
     0.7500   -999.2500    798.0000      1.1057     55.5133
     1.0000   -999.2500    798.0000      1.1011     50.5624
     1.2500   -999.2500    798.0000      1.1084     45.1241
     1.5000   -999.2500    798.0000      1.1257     39.7836
     1.7500   -999.2500    798.0000      1.1486     36.1914
     2.0000   -999.2500    798.0000      1.1685     36.2287
     2.2500   -999.2500    798.0000      1.1783     40.7473
     2.5000   -999.2500    798.0000      1.1790     48.9825
     2.7500   -999.2500    798.0000      1.1773     58.9479
     3.0000   -999.2500    798.0000      1.1770     68.2183
     3.2500      0.0000    798.0000      1.1777     74.7008
     3.5000      0.0000    798.0000      1.1789     77.3674
     3.7500      0.0000    797.9644      1.1849     76.7254
     4.0000      0.0000    797.7319      1.2120     74.4955
     4.2500      0.0000    796.5511      1.3425     72.3615
     4.5000      0.0000    791.8812      1.8583     70.7557
     4.7500      0.0000    777.4969      3.4351     68.9692
     5.0000      0.0000    742.9919      7.1605     66.3816
     5.2500      0.0000    678.5320     13.9796     63.3766
     5.5000      0.0000    584.7618     23.6035     61.1342
     5.7500      0.0000    478.5682     33.9011     60.7802
     6.0000      0.0000    385.0431     41.8400     62.5678
     6.2500      0.0000    321.3095     45.3984     65.4794
     6.5000      0.0000    288.5904     44.6287     67.6985
     6.7500      0.0000    278.1519     41.0749     67.9088
     7.0000      0.0000    281.2491     36.4749     66.1827
     7.2500      0.0000    293.7003     31.9314     63.4977
     7.5000      0.0000    314.7695     27.8477     60.7132
     7.7500      0.0000    343.7441     24.2466     58.3146
     8.0000      0.0000    377.0222     21.0587     56.7779
     8.2500      0.0000    408.7523     18.2351     56.6080
     8.5000      0.0000    436.4236     15.7376     57.8488
     8.7500      0.0000    465.7280     13.5227     59.7867
     9.0000      0.0000    506.6553     11.5605     61.4715
     9.2500      0.0000    561.6091      9.8711     62.5184
     9.5000      0.0000    618.4586      8.5203     63.0815
     9.7500      0.0000    659.2841      7.5631     63.3076
    10.0000      0.0000    676.7280      6.9839     63.3514
    10.2500      0.0000    677.3375      6.6916     63.5760
    10.5000      0.0000    667.6340      6.5664     64.1943
    10.7500      0.0000    644.0521      6.5101     65.0545
    11.0000      0.0000    602.4439      6.4668     65.9846
    11.2500      0.0000    553.3276      6.4174     66.8672
    11.5000      0.0000    520.4727      6.3628     67.3797
    11.7500      0.0000    523.3651      6.3096     67.1676
    12.0000      0.0000    562.4923      6.2613     66.2159
    12.2500      0.0000    620.1532      6.2177     64.9540
    12.5000      0.0000    673.6599      6.1783     64.2321
    12.7500      0.0000    708.5688      6.1426     64.8884
    13.0000      0.0000    722.5399      6.1071     66.7994
    13.2500      0.0000    720.3943      6.0649     68.6482
    13.5000      0.0000    708.4376      6.0068     69.1686
    13.7500      0.0000    693.4480      5.9261     68.4909
    14.0000      0.0000    684.1430      5.8253     67.9034
    14.2500      0.0000    688.8962      5.7178     68.2517
    14.5000      0.0000    709.2391      5.6201     68.9063
    14.7500      0.0000    737.4534      5.5411     68.6388
    15.0000      0.0000    763.0086      5.4828     67.2949
    15.2500      0.0000    780.3774      5.4456     66.0176
    15.5000      0.0000    790.0416      5.4227     65.8522
    15.7500      2.0000    794.7629      5.3979     66.7199
    16.0000     -2.0000    796.8242      5.3610     67.8869
    16.2500      0.0000    797.5108      5.3207     68.9870
    16.5000      0.0000    797.3029      5.3040     70.3045
    16.7500      0.0000    795.9257      5.3462     72.1057
    17.0000      0.0000    792.5060      5.4716     73.8735
    17.2500      0.0000    786.1566      5.6674     74.5072
    17.5000      0.0000    777.0372      5.8766     73.4281
    17.7500      0.0000    766.8928      6.0392     71.3732
    18.0000      0.0000    758.1646      6.1372     69.9916
    18.2500      0.0000    752.3585      6.1879     70.5982
    18.5000      0.0000    749.3450      6.2092     73.0926
    18.7500      0.0000    748.0579      6.2087     75.9295
    19.0000      0.0000    747.4973      6.1989     77.3374
    19.2500      0.0000    747.0883      6.2043     76.7623
    19.5000      0.0000    746.4672      6.2475     75.1262
    19.7500      0.0000    745.1518      6.3286     73.7306
    20.0000      0.0000    742.4673      6.4218     73.0286
    20.2500      0.0000    737.9747      6.4972     72.5383
    20.5000      0.0000    732.3047      6.5444     71.9868
    20.7500      0.0000    727.4165      6.5730     72.1157
    21.0000      0.0000    725.3168      6.5938     73.7695
    21.2500      0.0000    726.2007      6.6070     76.4309
    21.5000      0.0000    728.4282      6.6090     78.4246
    21.7500      0.0000    730.4925      6.6073     78.5915
    22.0000      0.0000    732.1086      6.6272     77.3571
    22.2500      0.0000    732.9388      6.6986     76.4721
    22.5000      0.0000    731.6089      6.8317     77.9871
    22.7500      0.0000    727.4517      7.0055     82.8539
    23.0000      0.0000    722.5228      7.1804     90.0741
    23.2500      0.0000    719.8297      7.3247     97.6111
    23.5000      0.0000    718.2414      7.4301    104.1577
    23.7500      0.0000    710.6421      7.5122    109.5228
    24.0000      0.0000    689.7687      7.5948    113.5010
    24.2500      0.0000    656.9851      7.6860    115.2641
    24.5000      0.0000    624.0401      7.7639    114.2987
    24.7500      0.0000    603.9202      7.7932    111.4942
    25.0000      0.0000    599.1195      7.7600    108.5703
    25.2500      0.0000    600.7068      7.6848    106.2845
    25.5000      0.0000    601.1128      7.5987    103.7965
    25.7500      0.0000    605.9072      7.5118    100.1902
