~Version Information
VERS.                      2.0: CWLS Log ASCII Standard - VERSION 2.0
WRAP.                       NO: One line per depth step
~Well Information Block
STRT.FT                -7.5000: 
STOP.FT              1702.2500: 
STEP.FT                 0.2500: 
NULL.                -999.2500: 
COMP.          Pioneer Natural Resources: COMPANY
WELL.          Warrior 33-1 Tr: WELL
FLD.           Purgatoire River: FIELD
LOC.           2648' FSL & 2341' FEL--: LOCATION
PROV.                 Colorado: PROVINCE
CNTY.               Las Animas: COUNTRY
SRVC.                Patterson: SERVICE COMPANY
DATE.          Wed Jun 22 12:18:08 2005: LOG DATE
UWI.           05 071 08412 00: UNIQUE WELL ID
~Curve Information Block
DEPT.FT            0 000 00 00: Depth
CCL.                          : Casing Collar Locator
TT3.usec                      : CBL 3' Travel Time
AMP3.mV                       : CBL 3' Amplitude
GR.GAPI                       : Gamma Ray
~Parameter Information Block
~A  Depth       CCL         TT3         AMP3         GR     
# ...
   327.5000      0.0000    726.6554      9.4968     54.0883
   327.7500      0.0000    727.6473      9.3205     65.7300
   328.0000      0.0000    728.3011      9.1632     78.7941
   328.2500      0.0000    729.3556      9.0351     89.7817
   328.5000      0.0000    731.6005      8.9485     96.0997
   328.7500      0.0000    735.6173      8.9110     97.4382
   329.0000      0.0000    741.4319      8.9162     95.6090
   329.2500      0.0000    748.5408      8.9448     93.2321
   329.5000      0.0000    756.3256      8.9750     92.2725
   329.7500      0.0000    764.3168      8.9925     93.2056
   330.0000      0.0000    772.0625      8.9951     95.2433
   330.2500      0.0000    778.8882      8.9896     97.3603
   330.5000      0.0000    783.7822      8.9855     99.1679
   330.7500      0.0000    785.7316      8.9895    100.8802
   331.0000      0.0000    784.5743      9.0031    102.6411
   331.2500      0.0000    781.3770      9.0249    104.0928
   331.5000      0.0000    777.5375      9.0536    104.6530
   331.7500      0.0000    773.7009      9.0875    104.0183
   332.0000      0.0000    769.9548      9.1221    102.2781
   332.2500      0.0000    766.8106      9.1506     99.7601
   332.5000      0.0000    765.3221      9.1706     97.0295
   332.7500      0.0000    766.0483      9.1895     94.8030
   333.0000      0.0000    768.5228      9.2215     93.3284
   333.2500      0.0000    772.2280      9.2727     91.8548
   333.5000      0.0000    777.6048      9.3315     89.2826
   333.7500      0.0000    785.3943      9.3791     85.3950
   334.0000      0.0000    795.1859      9.4100     80.9376
   334.2500      0.0000    805.1201      9.4377     76.6201
   334.5000      0.0000    812.4888      9.4791     72.8012
   334.7500      0.0000    814.0797      9.5356     69.9767
   335.0000      0.0000    807.1533      9.5929     68.6158
   335.2500      0.0000    791.9600      9.6361     68.3124
   335.5000      0.0000    773.3867      9.6626     67.7929
   335.7500      0.0000    758.8716      9.6826     66.0370
   336.0000      0.0000    753.6724      9.7081     63.2266
   336.2500      0.0000    757.4365      9.7417     60.6462
   336.5000      0.0000    764.7436      9.7765     59.8019
   336.7500      0.0000    769.2550      9.8063     61.4653
   337.0000      0.0000    768.4711      9.8338     65.2617
   337.2500      0.0000    764.9481      9.8659     70.0475
   337.5000      0.0000    762.8843      9.9019     74.7280
   337.7500      0.0000    763.8966      9.9278     78.6632
   338.0000      0.0000    766.3297      9.9266     81.3030
   338.2500      0.0000    767.7288      9.8921     81.8535
   338.5000      0.0000    766.5618      9.8311     79.8598
   338.7500      0.0000    761.9952      9.7541     76.0500
   339.0000      0.0000    754.1259      9.6715     72.0609
   339.2500      0.0000    744.8347      9.5945     69.2201
   339.5000      0.0000    736.8931      9.5321     68.0206
   339.7500      0.0000    731.8655      9.4855     68.7823
   340.0000      0.0000    729.4481      9.4502     72.1325
   340.2500      0.0000    728.5333      9.4237     78.2112
   340.5000      0.0000    728.2649      9.4089     85.5292
   340.7500      0.0000    728.2522      9.4091     91.1819
   341.0000      0.0000    728.3690      9.4241     92.6224
   341.2500      0.0000    728.5278      9.4544     89.5533
   341.5000      0.0000    728.5641      9.5050     84.3036
   341.7500      0.0000    728.3069      9.5800     80.1980
   342.0000      0.0000    727.9221      9.6720     79.2487
   342.2500      0.0000    728.4188      9.7608     81.2088
   342.5000      0.0000    731.5961      9.8266     84.3973
   342.7500      0.0000    738.7087      9.8650     86.9375
   343.0000      0.0000    748.7007      9.8865     87.5546
   343.2500      0.0000    758.1743      9.9049     86.2162
   343.5000      0.0000    763.6403      9.9264     84.4476
   343.7500      0.0000    764.0285      9.9500     84.3053
   344.0000      0.0000    761.5602      9.9745     86.3742
   344.2500      0.0000    760.7610     10.0053     89.0707
   344.5000      0.0000    766.0875     10.0541     90.4331
   344.7500      0.0000    779.1537     10.1320     90.3339
   345.0000      0.0000    797.2841     10.2431     90.4635
   345.2500      0.0000    814.4315     10.3795     92.2479
   345.5000      0.0000    824.0637     10.5185     95.1868
   345.7500      0.0000    822.7021     10.6259     97.3639
   346.0000      0.0000    812.3046     10.6743     97.2763
   346.2500      0.0000    799.5715     10.6659     94.9082
   346.5000      0.0000    791.9839     10.6355     91.2553
   346.7500      0.0000    793.2647     10.6251     87.3273
   347.0000      0.0000    801.7737     10.6532     83.8164
   347.2500      0.0000    812.7888     10.7057     81.4586
   347.5000      0.0000    822.4500     10.7530     81.2343
   347.7500      0.0000    829.6952     10.7702     83.8521
   348.0000      0.0000    834.3220     10.7522     89.1338
   348.2500      0.0000    833.7264     10.7144     96.0502
   348.5000      0.0000    822.7273     10.6759    103.0135
   348.7500      0.0000    798.2797     10.6352    107.9306
   349.0000      0.0000    765.9739     10.5702    108.8739
   349.2500      0.0000    740.6635     10.4663    105.5619
   349.5000      0.0000    736.1743     10.3362     99.9751
   349.7500      0.0000    752.1877     10.2103     95.1617
   350.0000      0.0000    773.9755     10.1189     93.5033
   350.2500      0.0000    786.5183     10.0878     95.7219
   350.5000      0.0000    786.5064     10.1308    100.6071
   350.7500      0.0000    780.5971     10.2165    105.4830
   351.0000      0.0000    776.7556     10.2321    107.6216
   351.2500      0.0000    779.9566     10.0094    105.7909
   351.5000      0.0000    792.1449      9.4439    100.6130
   351.7500      0.0000    811.2391      8.6159     93.6486
   352.0000      0.0000    830.8402      7.7672     86.3466
   352.2500      0.0000    844.0961      7.1278     79.7492
   352.5000      0.0000    848.2347      6.7730     74.8390
   352.7500      2.0000    845.5203      6.6305     72.7324
   353.0000     -2.0000    841.5316      6.5795     74.1403
   353.2500      0.0000    841.9146      6.5482     78.4214
   353.5000      0.0000    847.6863      6.5829     83.3722
   353.7500      0.0000    852.7405      6.8408     86.5162
   354.0000      0.0000    847.8909      7.4505     86.9331
   354.2500      0.0000    828.8272      8.3344     85.6196
   354.5000      0.0000    800.0504      9.2157     84.0608
   354.7500      0.0000    771.0601      9.8363     82.9737
   355.0000      0.0000    749.3201     10.1358     82.4891
   355.2500      0.0000    736.7023     10.2160     82.7742
   355.5000      0.0000    730.9316     10.2033     83.9106
   355.7500      0.0000    728.8199     10.1737     85.5008
   356.0000      0.0000    728.1632     10.1581     86.9383
   356.2500      0.0000    727.9278     10.1647     88.1645
   356.5000      0.0000    727.7133     10.1923     89.8994
   356.7500      0.0000    727.2429     10.2382     92.9714
   357.0000      0.0000    726.0215     10.3012     97.3598
   357.2500      0.0000    723.2466     10.3789    101.6979
   357.5000      0.0000    718.2380     10.4650    103.8741
   357.7500      0.0000    711.3318     10.5488    102.7299
   358.0000      0.0000    704.2710     10.6151     99.3425
   358.2500      0.0000    699.1331     10.6493     96.3157
   358.5000      0.0000    696.5988     10.6456     95.7971
   358.7500      0.0000    695.7096     10.6114     98.4341
   359.0000      0.0000    695.4587     10.5624    103.7846
   359.2500      0.0000    695.9377     10.5127    110.6250
   359.5000      0.0000    697.5384     10.4666    116.6027
   359.7500      0.0000    699.7478     10.4200    118.7989
   360.0000      0.0000    701.5121     10.3675    115.7840
   360.2500      0.0000    702.6463     10.3089    108.8842
   360.5000      0.0000    704.3333     10.2484    100.7954
   360.7500      0.0000    707.9482     10.1899     93.2818
