~Version Information
VERS.                      2.0: CWLS Log ASCII Standard - VERSION 2.0
WRAP.                       NO: One line per depth step
~Well Information Block
STRT.FT               -17.7500: 
STOP.FT              1590.5000: 
STEP.FT                 0.2500: 
NULL.                -999.2500: 
COMP.          Petrogulf Corporation: COMPANY
WELL.          Great Plains 22-21V: WELL
FLD.           Purgatorie River: FIELD
LOC.           63' FNL & 1895' FWL--: LOCATION
CNTY.               Las Animas: COUNTY
SRVC.          Superior Well Services: SERVICE COMPANY
DATE.          Fri Dec 08 14:45:19 2006: LOG DATE
UWI.           05 071 08346 00: UNIQUE WELL ID
STAT.                       CO: STATE
~Curve Information Block
DEPT.FT            0 000 00 00: Depth
CCL.                          : Casing Collar Locator
TT3.usec                      : CBL 3' Travel Time
AMP3.mV                       : CBL 3' Amplitude
GR.GAPI                       : Gamma Ray
~Parameter Information Block
~A  Depth       CCL         TT3         AMP3         GR     
# ...
   283.7500      0.0000    259.5269     76.3326     66.4177
   284.0000      0.0000    259.5609     76.2446     69.0888
   284.2500      0.0000    259.5905     76.1725     73.1584
   284.5000      0.0000    259.6066     76.1451     76.9660
   284.7500      0.0000    259.6032     76.1856     79.0285
   285.0000      0.0000    259.5830     76.2957     78.7715
   285.2500      0.0000    259.5569     76.4494     76.5769
   285.5000      0.0000    259.5370     76.6077     73.3911
   285.7500      0.0000    259.5281     76.7421     70.3705
   286.0000      0.0000    259.5261     76.8454     68.8730
   286.2500      0.0000    259.5238     76.9235     70.1922
   286.5000      0.0000    259.5169     76.9822     74.3922
   286.7500      0.0000    259.5045     77.0222     79.3819
   287.0000      0.0000    259.4891     77.0383     82.0159
   287.2500      0.0000    259.4754     77.0249     80.5692
   287.5000      0.0000    259.4672     76.9886     75.9712
   287.7500      0.0000    259.4633     76.9520     70.7198
   288.0000      0.0000    259.4603     76.9358     66.8761
   288.2500      0.0000    259.4611     76.9363     64.9126
   288.5000      0.0000    259.4749     76.9286     63.9241
   288.7500      0.0000    259.5067     76.8915     62.6810
   289.0000      0.0000    259.5498     76.8236     60.6681
   289.2500      0.0000    259.5915     76.7367     58.3588
   289.5000      0.0000    259.6225     76.6447     56.6642
   289.7500      0.0000    259.6397     76.5595     56.2679
   290.0000      0.0000    259.6444     76.4934     57.5543
   290.2500      0.0000    259.6402     76.4530     60.8532
   290.5000      0.0000    259.6332     76.4326     66.3741
   290.7500      0.0000    259.6284     76.4179     73.9052
   291.0000      0.0000    259.6281     76.3979     82.6042
   291.2500      0.0000    259.6324     76.3686     90.8104
   291.5000      0.0000    259.6405     76.3351     96.2136
   291.7500      0.0000    259.6475     76.3161     97.0847
   292.0000      0.0000    259.6443     76.3380     93.8383
   292.2500      0.0000    259.6263     76.4079     88.9753
   292.5000      0.0000    259.6011     76.4963     85.0967
   292.7500      0.0000    259.5816     76.5600     83.1947
   293.0000      0.0000    259.5746     76.5781     82.8615
   293.2500      0.0000    259.5772     76.5606     83.3756
   293.5000      0.0000    259.5829     76.5294     84.1038
   293.7500      0.0000    259.5872     76.4997     84.3687
   294.0000      0.0000    259.5894     76.4744     83.8191
   294.2500      0.0000    259.5916     76.4476     83.1245
   294.5000      0.0000    259.5970     76.4100     83.7865
   294.7500      0.0000    259.6092     76.3540     86.7582
   295.0000      0.0000    259.6296     76.2790     91.3302
   295.2500      0.0000    259.6543     76.1956     95.7175
   295.5000      0.0000    259.6750     76.1221     98.6517
   295.7500      0.0000    259.6855     76.0756    100.0898
   296.0000      0.0000    259.6859     76.0639    100.5761
   296.2500      0.0000    259.6819     76.0843    100.5048
   296.5000      0.0000    259.6802     76.1262    100.0537
   296.7500      0.0000    259.6849     76.1746     99.1890
   297.0000      0.0000    259.6969     76.2158     97.4510
   297.2500      0.0000    259.7134     76.2451     94.2205
   297.5000      0.0000    259.7272     76.2688     89.4197
   297.7500      0.0000    259.7296     76.2981     83.6271
   298.0000      0.0000    259.7157     76.3403     77.5634
   298.2500      0.0000    259.6895     76.3913     71.8822
   298.5000      0.0000    259.6631     76.4358     67.3286
   298.7500      0.0000    259.6477     76.4563     64.6184
   299.0000      0.0000    259.6453     76.4469     64.0350
   299.2500      0.0000    259.6468     76.4240     65.1784
   299.5000      0.0000    259.6375     76.4203     67.0405
   299.7500      0.0000    259.6069     76.4632     68.5675
   300.0000      0.0000    259.5580     76.5495     69.4631
   300.2500      0.0000    259.5101     76.6401     70.1733
   300.5000      0.0000    259.4891     76.6833     70.8288
   300.7500      0.0000    259.5080     76.6505     70.7753
   301.0000      0.0000    259.5565     76.5539     69.7153
   301.2500      0.0000    259.6104     76.4318     68.7640
   301.5000      0.0000    259.6522     76.3185     69.5013
   301.7500      0.0000    259.6792     76.2319     72.0617
   302.0000      0.0000    259.6945     76.1841     74.8317
   302.2500      0.0000    259.6985     76.1918     76.2113
   302.5000      0.0000    259.6903     76.2652     76.1465
   302.7500      0.0000    259.6736     76.3929     75.6419
   303.0000      0.0000    259.6557     76.5492     75.2582
   303.2500      0.0000    259.6408     76.7160     74.6823
   303.5000      0.0000    259.6276     76.8901     73.5812
   303.7500      0.0000    259.6126     77.0683     72.3312
   304.0000      0.0000    259.5947     77.2340     72.0032
   304.2500      0.0000    259.5749     77.3639     73.9490
   304.5000      0.0000    259.5555     77.4403     78.9627
   304.7500      0.0000    259.5397     77.4529     86.2572
   305.0000      0.0000    259.5307     77.3762     93.5025
   305.2500      0.0000    259.5323     77.1087     98.4392
   305.5000      0.0000    259.5584     76.3932    100.4921
   305.7500      0.0000    259.6510     74.8146    100.8192
   306.0000      0.0000    259.8952     72.0481    101.2041
   306.2500      0.0000    260.4084     68.2585    102.8902
   306.5000      0.0000    261.2788     64.1492    105.8478
   306.7500      0.0000    262.4713     60.4236    108.8524
   307.0000      0.0000    263.7824     57.3155    110.3617
   307.2500      0.0000    264.9267     54.8048    109.4216
   307.5000      0.0000    265.7083     53.0041    105.9370
   307.7500      0.0000    266.1183     52.0371    100.4587
   308.0000      2.0000    266.3113     51.7346     93.9463
   308.2500      2.0000    266.5549     51.7049     87.4938
   308.5000     -2.0000    267.2217     51.6064     81.8658
   308.7500      0.0000    268.6599     51.3376     77.2828
   309.0000      0.0000    270.7621     51.1621     73.8213
   309.2500      0.0000    272.5606     51.6926     71.7617
   309.5000      0.0000    272.6367     53.5133     71.2423
   309.7500      0.0000    270.3604     56.7044     71.8292
   310.0000      0.0000    266.6077     60.8305     72.7284
   310.2500      0.0000    262.9890     65.2603     73.4564
   310.5000      0.0000    260.5417     69.3321     74.3211
   310.7500      0.0000    259.3087     72.4631     76.1875
   311.0000      0.0000    258.8290     74.4091     79.6093
   311.2500      0.0000    258.6793     75.3708     84.1182
   311.5000      0.0000    258.6416     75.7562     88.3207
   311.7500      0.0000    258.6382     75.8927     90.5775
   312.0000      0.0000    258.6478     75.9389     89.5943
   312.2500      0.0000    258.6623     75.9508     84.8111
   312.5000      0.0000    258.6791     75.9484     76.9131
   312.7500      0.0000    258.6983     75.9492     68.0209
   313.0000      0.0000    258.7197     75.9622     60.7388
   313.2500      0.0000    258.7405     75.9838     56.6013
   313.5000      0.0000    258.7573     76.0033     55.5809
   313.7500      0.0000    258.7694     76.0131     56.9952
   314.0000      0.0000    258.7791     76.0141     60.2158
   314.2500      0.0000    258.7890     76.0142     64.3213
   314.5000      0.0000    258.7994     76.0220     67.8149
   314.7500      0.0000    258.8086     76.0383     69.3644
   315.0000      0.0000    258.8125     76.0546     68.7635
   315.2500      0.0000    258.8084     76.0615     66.9977
   315.5000      0.0000    258.8004     76.0585     65.3915
   315.7500      0.0000    258.7989     76.0511     64.7179
   316.0000      0.0000    258.8094     76.0431     64.9917
   316.2500      0.0000    258.8242     76.0342     65.8395
   316.5000      0.0000    258.8289     76.0220     66.9401
   316.7500      0.0000    258.8160     76.0010     68.3342
   317.0000      0.0000    258.7886     75.9622     70.5213
