~Version Information
VERS.                      2.0: CWLS Log ASCII Standard - VERSION 2.0
WRAP.                       NO: One line per depth step
~Well Information Block
STRT.FT                -7.5000: 
STOP.FT               978.5000: 
STEP.FT                 0.2500: 
NULL.                -999.2500: 
COMP.          Pioneer Natural Resources: COMPANY
WELL.          Piggyback 33-25: WELL
FLD.           Purgatoire River: FIELD
LOC.           1600' FSL & 1800' FEL: LOCATION
PROV.                 Colorado: PROVINCE
CNTY.               Las Animas: COUNTRY
SRVC.                Patterson: SERVICE COMPANY
DATE.          Mon May 09 09:22:28 2005: LOG DATE
UWI.           05 071 08233 00: UNIQUE WELL ID
~Curve Information Block
DEPT.FT            0 000 00 00: Depth
CCL.                          : Casing Collar Locator
TT3.usec                      : CBL 3' Travel Time
AMP3.mV                       : CBL 3' Amplitude
GR.GAPI                       : Gamma Ray
~Parameter Information Block
~A  Depth       CCL         TT3         AMP3         GR     
# ...
   361.0000      0.0000    718.0351      7.7696    102.6337
   361.2500      0.0000    712.7490      7.7156     98.9599
   361.5000      0.0000    707.4868      7.6874     94.2179
   361.7500      0.0000    702.1411      7.6763     90.2577
   362.0000      0.0000    696.4045      7.6763     88.4672
   362.2500      0.0000    691.8451      7.6812     89.1638
   362.5000      0.0000    691.1993      7.6823     91.4207
   362.7500      0.0000    696.2449      7.6715     93.5646
   363.0000      0.0000    705.9755      7.6454     94.1914
   363.2500      0.0000    715.9072      7.6092     92.8930
   363.5000      0.0000    719.7483      7.5813     90.2041
   363.7500      0.0000    713.2642      7.5935     87.1276
   364.0000      0.0000    696.9407      7.6785     84.7810
   364.2500      0.0000    674.7097      7.8463     84.1485
   364.5000      0.0000    650.9175      8.0670     85.6924
   364.7500      0.0000    629.0449      8.2847     88.9878
   365.0000      0.0000    611.7688      8.4579     92.8273
   365.2500      0.0000    600.4553      8.5864     95.9183
   365.5000      0.0000    594.6848      8.6972     97.6986
   365.7500      0.0000    593.0798      8.8106     98.4795
   366.0000      0.0000    594.6844      8.9223     98.7205
   366.2500      0.0000    599.3428      9.0073     98.3198
   366.5000      0.0000    606.8956      9.0378     96.7989
   366.7500      0.0000    616.2480      9.0003     94.1603
   367.0000      0.0000    625.2963      8.9040     91.3943
   367.2500      0.0000    631.6805      8.7728     89.9640
   367.5000      0.0000    633.6635      8.6334     90.4788
   367.7500      0.0000    630.6539      8.5059     91.6694
   368.0000      0.0000    623.3842      8.4008     91.1093
   368.2500      0.0000    613.8477      8.3208     87.5346
   368.5000      0.0000    604.7229      8.2656     82.4025
   368.7500      0.0000    598.1385      8.2333     78.7956
   369.0000      0.0000    594.7341      8.2183     78.7591
   369.2500      0.0000    594.0769      8.2129     81.7375
   369.5000      0.0000    595.9462      8.2140     85.2650
   369.7500      0.0000    601.0214      8.2248     86.9086
   370.0000      0.0000    610.0422      8.2466     85.9494
   370.2500      0.0000    622.1520      8.2701     83.6745
   370.5000      0.0000    634.6461      8.2767     81.9542
   370.7500      0.0000    645.1160      8.2524     81.3459
   371.0000      0.0000    653.3973      8.2027     80.7877
   371.2500      0.0000    660.3610      8.1517     79.2319
   371.5000      0.0000    665.2274      8.1198     77.0919
   371.7500      0.0000    665.2184      8.1058     75.7392
   372.0000      0.0000    657.9309      8.0936     75.8768
   372.2500      0.0000    643.8034      8.0724     76.7193
   372.5000      0.0000    626.5209      8.0440     76.6876
   372.7500      0.0000    610.9481      8.0141     74.7020
   373.0000      0.0000    600.2178      7.9847     70.8749
   373.2500      0.0000    594.4986      7.9551     66.3512
   373.5000      0.0000    592.1052      7.9264     62.8025
   373.7500      0.0000    591.2310      7.9019     61.8155
   374.0000      0.0000    590.7166      7.8895     64.1175
   374.2500      0.0000    589.8942      7.9043     69.0173
   374.5000      0.0000    588.3970      7.9604     74.7506
   374.7500      0.0000    586.4996      8.0545     79.6359
   375.0000      0.0000    585.6052      8.1602     83.1011
   375.2500      0.0000    587.7601      8.2466     85.9296
   375.5000      0.0000    593.8137      8.3002     89.7058
   375.7500      0.0000    602.2017      8.3270     95.6467
   376.0000      0.0000    610.5173      8.3381    103.5271
   376.2500      0.0000    618.2753      8.3384    111.8003
   376.5000      0.0000    626.5287      8.3312    119.0425
   376.7500      0.0000    634.6268      8.3239    125.1992
   377.0000      0.0000    639.9440      8.3258    131.3064
   377.2500      0.0000    642.0768      8.3415    138.3248
   377.5000      0.0000    644.8116      8.3711    146.5528
   377.7500      0.0000    651.9251      8.4158    155.6718
   378.0000      0.0000    662.6939      8.4702    164.4848
   378.2500      0.0000    673.2111      8.5078    170.7647
   378.5000      0.0000    680.8860      8.4863    172.4851
   378.7500      0.0000    686.4578      8.3798    169.6248
   379.0000      0.0000    692.6121      8.2069    164.2553
   379.2500      0.0000    701.2861      8.0249    158.8974
   379.5000      0.0000    711.3964      7.8928    155.2004
   379.7500      0.0000    718.8903      7.8333    153.6592
   380.0000      0.0000    720.2260      7.8282    153.6167
   380.2500      0.0000    716.4501      7.8511    153.5330
   380.5000      0.0000    713.0087      7.8950    152.0773
   380.7500      0.0000    715.1505      7.9594    149.2563
   381.0000      0.0000    723.8661      8.0165    145.9953
   381.2500      0.0000    735.8256      8.0177    142.5553
   381.5000      0.0000    746.0918      7.9420    138.1381
   381.7500      0.0000    750.9648      7.8253    132.2262
   382.0000      0.0000    749.6606      7.7304    125.4867
   382.2500      0.0000    744.2803      7.6882    119.1139
   382.5000      0.0000    738.0092      7.6643    114.0899
   382.7500      0.0000    732.7685      7.5722    111.2968
   383.0000      0.0000    728.1730      7.3238    111.4600
   383.2500      0.0000    722.9697      6.8928    114.5135
   383.5000      0.0000    718.1274      6.3567    119.4197
   383.7500      0.0000    718.3533      5.8580    124.7609
   384.0000      0.0000    729.0776      5.4839    129.2659
   384.2500      0.0000    750.9536      5.2004    131.9253
   384.5000      0.0000    777.9487      4.9475    132.1297
   384.7500      0.0000    801.4113      4.7546    129.8981
   385.0000      0.0000    816.0986      4.6951    125.8238
   385.2500     -2.0000    822.5910      4.7721    120.7351
   385.5000     -2.0000    825.1660      4.9201    115.4730
   385.7500      2.0000    828.2187      5.0909    110.8598
   386.0000      0.0000    833.3331      5.3020    107.5207
   386.2500      0.0000    837.1765      5.6209    105.5881
   386.5000      0.0000    832.8313      6.1037    104.8503
   386.7500      0.0000    815.7570      6.7108    105.2548
   387.0000      0.0000    788.1597      7.2947    107.0223
   387.2500      0.0000    756.4843      7.7235    110.1517
   387.5000      0.0000    726.0251      8.0015    114.0593
   387.7500      0.0000    698.5093      8.2270    117.9867
   388.0000      0.0000    672.8619      8.4659    121.5292
   388.2500      0.0000    646.8678      8.7065    124.3792
   388.5000      0.0000    618.4464      8.9057    125.8295
   388.7500      0.0000    586.9770      9.0361    125.1357
   389.0000      0.0000    555.6450      9.0939    122.2148
   389.2500      0.0000    532.2224      9.0899    117.6283
   389.5000      0.0000    524.3387      9.0416    112.3765
   389.7500      0.0000    532.7885      8.9691    108.1061
   390.0000      0.0000    551.5884      8.8939    106.7602
   390.2500      0.0000    573.6997      8.8347    109.2689
   390.5000      0.0000    594.1656      8.8022    114.7112
   390.7500      0.0000    609.7488      8.7948    121.0108
   391.0000      0.0000    619.4388      8.8004    126.5177
   391.2500      0.0000    625.0807      8.8044    130.9524
   391.5000      0.0000    629.0996      8.7987    134.8506
   391.7500      0.0000    631.5426      8.7874    138.2060
   392.0000      0.0000    630.7009      8.7853    139.9953
   392.2500      0.0000    625.8005      8.8121    139.2778
   392.5000      0.0000    616.7880      8.8827    136.4326
   392.7500      0.0000    601.6223      8.9994    133.0372
   393.0000      0.0000    576.2910      9.1544    130.8365
   393.2500      0.0000    538.8890      9.3386    130.9194
   393.5000      0.0000    493.2945      9.5424    133.1440
   393.7500      0.0000    448.2552      9.7396    135.8638
   394.0000      0.0000    412.3951      9.8854    136.7088
   394.2500      0.0000    389.4371      9.9470    134.2859
