~Version Information
VERS.                      2.0: CWLS Log ASCII Standard - VERSION 2.0
WRAP.                       NO: One line per depth step
~Well Information Block
STRT.FT                -7.0000: 
STOP.FT              2736.0000: 
STEP.FT                 0.2500: 
NULL.                -999.2500: 
COMP.          Pioneer Natural Resources: COMPANY
WELL.              Getem 21-23: WELL
FLD.           Purgatorie River: FIELD
LOC.           2623' FWL & 790' FNL----: LOCATION
PROV.                       CO: PROVINCE
CNTY.               Las Animas: COUNTRY
SRVC.          Patterson Wireline: SERVICE COMPANY
DATE.          Mon Jun 27 09:57:55 2005: LOG DATE
UWI.           05 071 08411 00: UNIQUE WELL ID
~Curve Information Block
DEPT.FT            0 000 00 00: Depth
CCL.                          : Casing Collar Locator
TT3.usec                      : CBL 3' Travel Time
AMP3.mV                       : CBL 3' Amplitude
GR.GAPI                       : Gamma Ray
~Parameter Information Block
~A  Depth       CCL         TT3         AMP3         GR     
# ...
   529.0000      0.0000    857.9349      7.8033    133.3914
   529.2500      0.0000    843.5803      7.6779    140.5233
   529.5000      0.0000    823.2986      7.5776    143.1224
   529.7500      0.0000    802.3945      7.4910    142.2608
   530.0000      0.0000    785.8096      7.4212    140.5026
   530.2500      0.0000    774.2312      7.3783    139.8225
   530.5000      0.0000    764.9241      7.3684    140.4769
   530.7500      0.0000    755.7004      7.3909    141.4324
   531.0000      0.0000    746.3816      7.4373    141.6158
   531.2500      0.0000    737.2195      7.4914    140.8633
   531.5000      0.0000    728.0762      7.5363    139.8352
   531.7500      0.0000    719.2713      7.5652    139.1584
   532.0000      0.0000    711.9430      7.5835    138.8971
   532.2500      0.0000    707.2156      7.5982    138.7715
   532.5000      0.0000    705.5815      7.6052    138.4389
   532.7500      0.0000    707.2885      7.5930    137.4701
   533.0000      0.0000    712.9075      7.5587    135.4757
   533.2500      0.0000    723.2700      7.5161    132.6413
   533.5000      0.0000    738.8010      7.4810    130.0662
   533.7500      0.0000    758.3751      7.4538    129.2181
   534.0000      0.0000    777.9432      7.4204    130.8136
   534.2500      0.0000    790.8786      7.3719    134.1898
   534.5000      0.0000    791.9272      7.3170    137.7479
   534.7500      0.0000    781.8092      7.2743    140.1156
   535.0000      0.0000    766.8060      7.2576    141.1897
   535.2500      0.0000    753.3492      7.2676    142.1356
   535.5000      0.0000    743.8375      7.2923    144.1053
   535.7500      0.0000    737.3012      7.3120    146.8353
   536.0000      0.0000    732.4109      7.3102    148.7465
   536.2500      0.0000    729.1262      7.2871    148.4168
   536.5000      0.0000    728.2991      7.2626    145.8514
   536.7500      0.0000    730.6561      7.2593    142.4871
   537.0000      0.0000    736.3433      7.2863    139.9639
   537.2500      0.0000    744.8453      7.3416    138.6642
   537.5000      0.0000    754.3990      7.4184    137.4288
   537.7500      0.0000    761.3860      7.5018    134.9086
   538.0000      0.0000    761.9205      7.5697    131.1189
   538.2500      0.0000    755.9916      7.6117    127.4737
   538.5000      0.0000    749.5850      7.6437    125.4648
   538.7500      0.0000    750.8061      7.6945    125.4719
   539.0000      0.0000    763.3428      7.7774    126.4175
   539.2500      0.0000    784.1464      7.8829    126.2474
   539.5000      0.0000    806.5684      7.9943    123.2772
   539.7500      0.0000    824.5298      8.1009    117.6023
   540.0000      0.0000    835.0072      8.1955    110.9634
   540.2500      0.0000    839.0775      8.2731    105.1832
   540.5000      0.0000    840.5715      8.3359    101.2129
   540.7500      0.0000    841.8832      8.3882     99.5018
   541.0000      0.0000    841.3134      8.4234    100.3447
   541.2500      0.0000    835.5836      8.4254    103.6321
   541.5000      0.0000    823.9899      8.3904    108.8455
   541.7500      0.0000    808.7234      8.3378    115.4157
   542.0000      0.0000    792.2305      8.2901    122.6359
   542.2500      0.0000    776.1757      8.2480    129.2381
   542.5000      0.0000    762.2975      8.1971    133.4828
   542.7500      0.0000    752.2957      8.1366    134.0710
   543.0000      0.0000    746.5879      8.0868    131.2974
   543.2500      0.0000    744.1428      8.0660    127.1901
   543.5000      0.0000    743.6230      8.0714    123.9820
   543.7500      0.0000    744.3964      8.0874    122.2698
   544.0000      0.0000    746.5519      8.0996    120.8877
   544.2500      0.0000    750.0779      8.0984    118.4084
   544.5000      0.0000    753.8523      8.0750    114.4520
   544.7500      0.0000    755.6537      8.0283    109.8843
   545.0000      0.0000    753.9783      7.9724    106.3155
   545.2500      0.0000    750.1198      7.9294    105.2074
   545.5000      0.0000    747.6575      7.9103    106.9722
   545.7500      0.0000    749.0784      7.9053    110.7274
   546.0000      0.0000    753.1048      7.8984    114.8280
   546.2500      0.0000    755.8994      7.8865    117.6363
   546.5000      0.0000    754.7274      7.8804    118.2282
   546.7500      0.0000    749.8570      7.8871    116.8947
   547.0000      0.0000    743.1735      7.9003    114.9488
   547.2500      0.0000    736.2111      7.9122    113.5856
   547.5000      0.0000    730.0850      7.9254    112.6826
   547.7500      0.0000    726.2601      7.9476    110.9097
   548.0000      0.0000    726.0206      7.9765    107.1340
   548.2500      0.0000    729.1080      8.0009    101.5228
   548.5000      0.0000    733.6381      8.0137     95.3061
   548.7500      0.0000    737.5914      8.0172     89.8822
   549.0000      0.0000    740.0659      8.0151     86.2906
   549.2500      0.0000    741.2231      8.0095     85.0515
   549.5000      0.0000    741.5765      8.0079     86.1728
   549.7500      0.0000    741.5167      8.0224     89.3364
   550.0000      0.0000    741.1577      8.0544     94.0464
   550.2500      0.0000    740.2178      8.0858     99.5215
   550.5000      0.0000    737.9919      8.0947    104.7091
   550.7500      0.0000    733.7654      8.0764    108.7018
   551.0000      0.0000    727.6876      8.0471    111.2991
   551.2500      0.0000    721.2302      8.0263    113.3314
   551.5000      0.0000    716.2791      8.0173    116.1114
   551.7500      0.0000    713.4936      8.0083    119.7776
   552.0000      0.0000    711.8984      7.9899    122.2612
   552.2500      0.0000    710.3383      7.9635    121.0133
   552.5000      0.0000    709.0145      7.9297    116.1478
   552.7500      0.0000    709.3624      7.8825    110.9913
   553.0000      0.0000    712.6578      7.8221    109.0438
   553.2500      0.0000    718.8143      7.7620    110.8667
   553.5000      0.0000    726.2677      7.7130    114.1337
   553.7500      0.0000    732.9625      7.6707    116.1268
   554.0000      0.0000    737.6252      7.6257    115.8130
   554.2500      0.0000    740.2274      7.5795    113.9581
   554.5000      0.0000    741.4505      7.5417    112.0838
   554.7500      0.0000    741.9398      7.5181    111.5635
   555.0000      0.0000    741.9916      7.5070    113.0083
   555.2500      0.0000    741.5846      7.5055    115.8380
   555.5000      0.0000    740.4429      7.5164    118.4520
   555.7500      0.0000    738.1215      7.5466    119.1629
   556.0000      0.0000    734.4184      7.5972    117.2648
   556.2500      0.0000    730.0847      7.6600    113.4611
   556.5000      0.0000    726.9470      7.7202    109.4265
   556.7500      0.0000    726.6486      7.7609    106.8523
   557.0000      0.0000    728.9720      7.7703    106.5886
   557.2500      0.0000    731.7821      7.7516    108.2056
   557.5000      0.0000    732.8837      7.7235    110.3104
   557.7500      0.0000    731.6845      7.7061    111.7349
   558.0000      0.0000    728.9023      7.7077    112.5516
   558.2500      0.0000    725.1261      7.7262    113.5499
   558.5000      0.0000    720.3748      7.7614    114.9342
   558.7500      0.0000    715.0750      7.8145    116.1910
   559.0000      0.0000    710.7321      7.8770    117.1938
   559.2500      0.0000    709.2174      7.9284    118.7100
   559.5000      0.0000    711.5062      7.9545    121.4844
   559.7500      0.0000    716.9274      7.9638    125.3275
   560.0000      0.0000    723.2139      7.9804    129.5466
   560.2500      0.0000    727.4276      8.0210    133.8219
   560.5000      0.0000    727.5178      8.0832    138.0124
   560.7500      0.0000    723.6077      8.1555    141.3690
   561.0000      0.0000    718.0923      8.2337    142.6583
   561.2500      0.0000    714.4189      8.3211    141.1640
   561.5000      0.0000    715.2742      8.4144    137.4190
   561.7500      0.0000    721.1622      8.4969    133.0679
   562.0000      0.0000    730.0625      8.5435    130.0788
   562.2500      0.0000    738.1580      8.5259    129.9413
