~Version Information
VERS.                      2.0: CWLS Log ASCII Standard - VERSION 2.0
WRAP.                       NO: One line per depth step
~Well Information Block
STRT.FT                -2.5000: 
STOP.FT              2329.5000: 
STEP.FT                 0.2500: 
NULL.                -999.2500: 
COMP.          Pioneer Natural Resources: COMPANY
WELL.              Whinny 42-2: WELL
FLD.           Purgatorie River: FIELD
LOC.           1836' FNL & 466' FEL--: LOCATION
PROV.                       CO: PROVINCE
CNTY.               Las Animas: COUNTRY
SRVC.          Patterson Wireline: SERVICE COMPANY
DATE.          Mon Aug 29 13:18:04 2005: LOG DATE
UWI.           05 071 08406 00: UNIQUE WELL ID
~Curve Information Block
DEPT.FT            0 000 00 00: Depth
CCL.                          : Casing Collar Locator
TT3.usec                      : CBL 3' Travel Time
AMP3.mV                       : CBL 3' Amplitude
GR.GAPI                       : Gamma Ray
~Parameter Information Block
~A  Depth       CCL         TT3         AMP3         GR     
# ...
  1538.5000      0.0000    697.0010      7.4883    134.7343
  1538.7500      0.0000    699.3849      7.4971    136.7942
  1539.0000      0.0000    702.0829      7.5009    133.9045
  1539.2500      0.0000    704.3117      7.4976    127.5165
  1539.5000      0.0000    705.4117      7.4850    120.1758
  1539.7500      0.0000    705.0612      7.4633    114.0734
  1540.0000      0.0000    702.9428      7.4368    109.9244
  1540.2500      0.0000    698.8942      7.4132    106.6394
  1540.5000      0.0000    693.6384      7.3995    102.2850
  1540.7500      0.0000    688.8893      7.3980     95.6683
  1541.0000      0.0000    686.0567      7.4078     87.0138
  1541.2500      0.0000    684.9794      7.4305     77.5858
  1541.5000      0.0000    684.5630      7.4719     69.0958
  1541.7500      0.0000    684.3812      7.5293     63.0421
  1542.0000      0.0000    684.7056      7.5779     59.9536
  1542.2500      0.0000    685.2740      7.5792     59.3374
  1542.5000      0.0000    685.3226      7.5150     60.5793
  1542.7500      0.0000    684.7858      7.4115     63.6628
  1543.0000      0.0000    684.1786      7.3207     68.6915
  1543.2500      0.0000    683.2026      7.2759     74.9482
  1543.5000      0.0000    680.7447      7.2712     80.9934
  1543.7500      0.0000    676.5809      7.2767     86.0510
  1544.0000      0.0000    672.1390      7.2652     91.0523
  1544.2500      0.0000    669.0243      7.2216     97.8186
  1544.5000      0.0000    667.0324      7.1404    107.1936
  1544.7500      0.0000    663.6998      7.0259    118.2831
  1545.0000      0.0000    656.2730      6.8943    129.2088
  1545.2500      0.0000    645.0735      6.7685    137.8905
  1545.5000      0.0000    634.8196      6.6645    142.4138
  1545.7500      0.0000    631.1895      6.5846    141.8423
  1546.0000      0.0000    635.6163      6.5269    137.0488
  1546.2500      0.0000    644.3982      6.4947    130.1253
  1546.5000      0.0000    652.7114      6.4959    122.6597
  1546.7500      0.0000    658.1909      6.5333    114.7523
  1547.0000      0.0000    660.9548      6.6021    105.7165
  1547.2500      0.0000    661.9280      6.6920     95.6045
  1547.5000      0.0000    661.8213      6.7871     85.9889
  1547.7500      0.0000    661.0698      6.8650     79.3121
  1548.0000      0.0000    660.1885      6.9036     77.5123
  1548.2500      0.0000    659.9354      6.8970     81.0038
  1548.5000      0.0000    660.8494      6.8618     88.6136
  1548.7500      0.0000    662.6376      6.8221     98.5409
  1549.0000      0.0000    664.6697      6.7852    109.5554
  1549.2500      0.0000    667.0858      6.7384    121.1649
  1549.5000      0.0000    670.3975      6.6696    132.6367
  1549.7500      0.0000    673.7783      6.5852    142.2428
  1550.0000      0.0000    675.1002      6.5030    148.0363
  1550.2500      0.0000    673.2444      6.4305    149.6270
  1550.5000      0.0000    669.3929      6.3595    149.0182
  1550.7500      0.0000    665.6698      6.2801    149.3522
  1551.0000      0.0000    663.2910      6.1947    152.5897
  1551.2500      0.0000    662.2305      6.1171    158.2534
  1551.5000      0.0000    661.9429      6.0595    164.2361
  1551.7500      0.0000    661.9571      6.0227    168.4224
  1552.0000      0.0000    662.0039      5.9950    169.5050
  1552.2500      0.0000    661.8949      5.9586    167.0888
  1552.5000      0.0000    661.3955      5.8991    161.8752
  1552.7500      0.0000    660.3054      5.8082    155.6322
  1553.0000      0.0000    658.9319      5.6830    150.5036
  1553.2500      0.0000    658.6655      5.5249    148.1729
  1553.5000      0.0000    661.6674      5.3427    149.3046
  1553.7500      0.0000    669.1650      5.1569    153.2248
  1554.0000      0.0000    679.8304      4.9974    158.1165
  1554.2500      0.0000    690.3727      4.8921    161.7647
  1554.5000      0.0000    697.9233      4.8513    162.4651
  1554.7500      0.0000    701.5784      4.8629    159.9922
  1555.0000      0.0000    701.8571      4.9028    156.3056
  1555.2500      0.0000    699.5084      4.9546    154.5907
  1555.5000      0.0000    695.3094      5.0203    156.5171
  1555.7500      0.0000    690.5170      5.1156    160.4696
  1556.0000      0.0000    686.4758      5.2560    163.0377
  1556.2500      0.0000    683.3528      5.4454    161.9821
  1556.5000      0.0000    679.9488      5.6715    157.3372
  1556.7500      0.0000    675.2526      5.9105    150.1635
  1557.0000      0.0000    669.6626      6.1369    141.1403
  1557.2500      0.0000    664.4320      6.3297    130.6531
  1557.5000      0.0000    660.5594      6.4706    119.9592
  1557.7500      0.0000    658.3529      6.5444    111.7540
  1558.0000      0.0000    657.4747      6.5473    108.9669
  1558.2500      0.0000    657.2663      6.4958    112.5159
  1558.5000      0.0000    657.4493      6.4219    120.1696
  1558.7500      0.0000    658.6287      6.3573    127.8897
  1559.0000      0.0000    662.1594      6.3202    132.5980
  1559.2500      0.0000    669.8267      6.3113    133.8515
  1559.5000      0.0000    683.1749      6.3186    133.2012
  1559.7500      0.0000    701.8200      6.3275    132.3820
  1560.0000      0.0000    722.1899      6.3312    132.2120
  1560.2500      0.0000    739.1508      6.3356    132.5250
  1560.5000      0.0000    749.2352      6.3535    132.3074
  1560.7500      0.0000    751.8315      6.3952    130.0113
  1561.0000      0.0000    748.0978      6.4596    124.5798
  1561.2500      0.0000    739.8655      6.5335    116.6389
  1561.5000      0.0000    728.9399      6.5994    108.5958
  1561.7500      0.0000    716.8540      6.6462    103.4071
  1562.0000      0.0000    705.4818      6.6743    103.0721
  1562.2500      0.0000    696.7666      6.6891    107.7575
  1562.5000      0.0000    690.6359      6.6923    115.6799
  1562.7500      0.0000    684.5419      6.6813    123.7992
  1563.0000      0.0000    676.6484      6.6576    129.1146
  1563.2500      0.0000    668.2722      6.6330    129.7700
  1563.5000      0.0000    661.9851      6.6263    125.4439
  1563.7500      0.0000    658.6721      6.6539    117.2389
  1564.0000      0.0000    657.5347      6.7164    107.4246
  1564.2500      0.0000    657.8040      6.7948     98.9558
  1564.5000      0.0000    659.3424      6.8645     94.5833
  1564.7500      0.0000    662.2214      6.9141     95.7997
  1565.0000      0.0000    666.3991      6.9465    102.3411
  1565.2500      0.0000    671.3010      6.9640    112.5455
  1565.5000      0.0000    675.0344      6.9616    124.0869
  1565.7500      0.0000    674.4736      6.9357    134.6711
  1566.0000      0.0000    667.0494      6.8935    142.6564
  1566.2500      0.0000    653.1278      6.8492    147.2987
  1566.5000      0.0000    637.0516      6.8147    148.5716
  1566.7500      0.0000    625.5678      6.7955    147.0186
  1567.0000      0.0000    623.7025      6.7919    143.6306
  1567.2500      0.0000    631.0234      6.8007    139.5782
  1567.5000      0.0000    642.2657      6.8173    136.0716
  1567.7500      0.0000    651.7197      6.8370    134.1265
  1568.0000      0.0000    656.2528      6.8562    133.9037
  1568.2500      0.0000    654.5148      6.8702    134.3662
  1568.5000      0.0000    645.3352      6.8718    134.1726
  1568.7500      0.0000    628.5775      6.8534    133.1432
  1569.0000      0.0000    607.0612      6.8135    132.6289
  1569.2500      0.0000    585.8689      6.7634    134.2856
  1569.5000      0.0000    569.0852      6.7275    138.5365
  1569.7500      0.0000    558.0880      6.7326    144.1413
  1570.0000      0.0000    553.3407      6.7857    149.2015
  1570.2500      0.0000    556.5650      6.8480    152.7713
  1570.5000      0.0000    570.1729      6.8316    155.3560
  1570.7500      0.0000    595.0696      6.6502    157.5755
  1571.0000      0.0000    629.4191      6.3006    159.0046
  1571.2500      0.0000    668.3358      5.8867    159.1034
  1571.5000      0.0000    704.2897      5.5436    158.6475
  1571.7500      0.0000    730.1356      5.3389    159.0638
