~Version Information
VERS.                      2.0: CWLS Log ASCII Standard - VERSION 2.0
WRAP.                       NO: One line per depth step
~Well Information Block
STRT.FT                -7.5000: 
STOP.FT              2226.0000: 
STEP.FT                 0.2500: 
NULL.                -999.2500: 
COMP.          Pioneer Natural Resources: COMPANY
WELL.              Tonto 42-23: WELL
FLD.           Purgatorie River: FIELD
LOC.           2217' FNL & 423' FEL----: LOCATION
PROV.                       CO: PROVINCE
CNTY.               Las Animas: COUNTRY
SRVC.          Patterson Wireline: SERVICE COMPANY
DATE.          Fri Apr 22 11:40:07 2005: LOG DATE
UWI.           05 071 08335 00: UNIQUE WELL ID
~Curve Information Block
DEPT.FT            0 000 00 00: Depth
CCL.                          : Casing Collar Locator
TT3.usec                      : CBL 3' Travel Time
AMP3.mV                       : CBL 3' Amplitude
GR.GAPI                       : Gamma Ray
~Parameter Information Block
~A  Depth       CCL         TT3         AMP3         GR     
# ...
  1031.0000      0.0000    751.8022      8.4355     70.5602
  1031.2500      0.0000    751.5509      8.5922     72.3687
  1031.5000      0.0000    749.5901      8.7730     72.5255
  1031.7500      0.0000    745.3790      8.9506     71.5417
  1032.0000      0.0000    740.2799      9.1238     70.2883
  1032.2500      0.0000    736.0709      9.3164     69.4906
  1032.5000      0.0000    733.3694      9.5601     69.4340
  1032.7500      0.0000    731.4111      9.8693     69.7655
  1033.0000      0.0000    728.9225     10.2251     69.6480
  1033.2500      0.0000    725.3049     10.5860     68.7620
  1033.5000      0.0000    721.3864     10.9144     68.3979
  1033.7500      0.0000    718.7650     11.1831     71.0123
  1034.0000      0.0000    717.9904     11.3668     78.0649
  1034.2500      0.0000    717.8908     11.4527     88.3608
  1034.5000      0.0000    717.3239     11.4607     98.8152
  1034.7500      0.0000    717.0046     11.4342    106.7100
  1035.0000      0.0000    718.6808     11.4016    111.3453
  1035.2500      0.0000    722.7848     11.3509    114.2745
  1035.5000      0.0000    727.7529     11.2438    118.0628
  1035.7500      0.0000    731.6013     11.0521    123.9735
  1036.0000      0.0000    733.5191     10.7807    130.6783
  1036.2500      0.0000    733.9363     10.4626    135.6747
  1036.5000      0.0000    733.6714     10.1362    137.8167
  1036.7500      0.0000    733.2748      9.8296    138.1395
  1037.0000      0.0000    732.9020      9.5610    138.5674
  1037.2500      0.0000    732.4290      9.3406    140.3057
  1037.5000      0.0000    731.5479      9.1708    143.2489
  1037.7500      0.0000    729.9072      9.0488    146.1980
  1038.0000      0.0000    727.4709      8.9632    147.2866
  1038.2500      0.0000    724.8287      8.8906    144.6688
  1038.5000      0.0000    722.7696      8.8062    137.6235
  1038.7500      0.0000    721.2728      8.6976    127.4458
  1039.0000      0.0000    719.3978      8.5665    117.1886
  1039.2500      0.0000    716.7280      8.4240    110.2763
  1039.5000      0.0000    714.4871      8.2864    108.7920
  1039.7500      0.0000    714.3821      8.1730    112.3543
  1040.0000      0.0000    716.3511      8.0988    118.3993
  1040.2500      0.0000    718.0859      8.0594    123.8127
  1040.5000      0.0000    716.9504      8.0316    126.5312
  1040.7500      0.0000    712.1829      7.9955    125.9788
  1041.0000      0.0000    705.3860      7.9493    122.8456
  1041.2500      0.0000    699.2041      7.8992    118.9218
  1041.5000      0.0000    695.5708      7.8488    116.3398
  1041.7500      0.0000    694.9053      7.7965    116.0329
  1042.0000      0.0000    696.3538      7.7440    117.1879
  1042.2500      0.0000    698.3659      7.7097    118.5373
  1042.5000      0.0000    699.3887      7.7189    119.5880
  1042.7500      0.0000    698.7653      7.7767    120.3911
  1043.0000      0.0000    697.1946      7.8652    120.9024
  1043.2500      0.0000    696.1431      7.9665    121.1198
  1043.5000      0.0000    696.7711      8.0711    121.6566
  1043.7500      0.0000    699.3106      8.1710    123.7799
  1044.0000      0.0000    703.2038      8.2609    128.4390
  1044.2500      0.0000    707.9223      8.3438    135.1273
  1044.5000      0.0000    713.7297      8.4284    141.9899
  1044.7500      0.0000    721.1238      8.5193    147.1877
  1045.0000      0.0000    729.2732      8.6112    150.0429
  1045.2500      0.0000    735.8099      8.6955    151.0885
  1045.5000      0.0000    738.8162      8.7685    151.3016
  1045.7500      0.0000    738.5289      8.8281    151.1616
  1046.0000      0.0000    736.7405      8.8742    150.4561
  1046.2500      0.0000    735.0826      8.9167    149.1194
  1046.5000      0.0000    734.2096      8.9720    147.7557
  1046.7500      0.0000    734.1100      9.0511    146.8321
  1047.0000      0.0000    734.6447      9.1545    145.8756
  1047.2500      0.0000    735.8126      9.2735    144.0727
  1047.5000      0.0000    737.6650      9.3959    141.3066
  1047.7500      0.0000    739.8658      9.5149    138.0552
  1048.0000      0.0000    741.2504      9.6167    134.4486
  1048.2500      0.0000    739.8665      9.6496    129.8115
  1048.5000      0.0000    733.6187      9.5202    123.2805
  1048.7500      0.0000    720.9453      9.1555    114.9706
  1049.0000      0.0000    702.1216      8.5989    106.4038
  1049.2500      0.0000    682.0451      8.0234     99.4238
  1049.5000      0.0000    671.4567      7.5910     94.7234
  1049.7500      0.0000    680.9583      7.3128     91.6443
  1050.0000      0.0000    710.3575      7.0955     89.1578
  1050.2500      0.0000    745.6965      6.8982     86.5567
  1050.5000      0.0000    769.4919      6.7740     83.3366
  1050.7500     -2.0000    773.5441      6.7799     79.1086
  1051.0000     -2.0000    761.9306      6.9058     74.0663
  1051.2500     -2.0000    743.0511      7.0948     69.4128
  1051.5000      0.0000    718.9355      7.3053     67.0695
  1051.7500      0.0000    683.6580      7.5479     68.6573
  1052.0000      0.0000    635.4791      7.8642     74.6081
  1052.2500      0.0000    588.8979      8.2653     84.1530
  1052.5000      0.0000    567.7825      8.7030     95.8570
  1052.7500      0.0000    583.7772      9.1378    107.9341
  1053.0000      0.0000    625.2548      9.6042    118.3378
  1053.2500      0.0000    668.6931     10.1427    125.1903
  1053.5000      0.0000    697.3649     10.6914    127.5420
  1053.7500      0.0000    708.7575     11.1197    125.6515
  1054.0000      0.0000    709.4385     11.3542    120.4925
  1054.2500      0.0000    706.8526     11.4172    113.3986
  1054.5000      0.0000    704.7686     11.3648    106.3565
  1054.7500      0.0000    703.2889     11.2392    101.7927
  1055.0000      0.0000    701.3808     11.0686    101.1893
  1055.2500      0.0000    698.9117     10.8697    103.9220
  1055.5000      0.0000    696.6367     10.6521    107.7303
  1055.7500      0.0000    695.1329     10.4274    110.2571
  1056.0000      0.0000    694.3323     10.2036    110.3705
  1056.2500      0.0000    693.8727      9.9740    108.5682
  1056.5000      0.0000    693.5401      9.7335    106.4594
  1056.7500      0.0000    693.3962      9.5006    105.5972
  1057.0000      0.0000    693.7095      9.3115    106.2283
  1057.2500      0.0000    694.9407      9.1945    107.1306
  1057.5000      0.0000    697.7238      9.1451    107.1117
  1057.7500      0.0000    702.4999      9.1193    106.6300
  1058.0000      0.0000    708.6811      9.0586    107.3487
  1058.2500      0.0000    714.1613      8.9282    110.1245
  1058.5000      0.0000    716.2800      8.7327    114.0081
  1058.7500      0.0000    713.9229      8.5083    117.1613
  1059.0000      0.0000    708.7273      8.2991    118.3311
  1059.2500      0.0000    704.0351      8.1239    117.5354
  1059.5000      0.0000    702.4933      7.9708    115.7462
  1059.7500      0.0000    704.1579      7.8275    113.8888
  1060.0000      0.0000    706.3892      7.7020    112.0313
  1060.2500      0.0000    706.0516      7.6074    109.6983
  1060.5000      0.0000    702.8008      7.5496    107.0683
  1060.7500      0.0000    700.1218      7.5332    105.6380
  1061.0000      0.0000    702.3132      7.5607    107.2589
  1061.2500      0.0000    710.3895      7.6275    112.2143
  1061.5000      0.0000    721.1889      7.7222    118.4011
  1061.7500      0.0000    730.1842      7.8335    122.7555
  1062.0000      0.0000    734.8544      7.9604    123.5868
  1062.2500      0.0000    735.6462      8.1132    121.5537
  1062.5000      0.0000    734.4221      8.2934    118.6603
  1062.7500      0.0000    732.5665      8.4844    116.6637
  1063.0000      0.0000    730.3074      8.6691    116.3388
  1063.2500      0.0000    727.0473      8.8397    117.5539
  1063.5000      0.0000    722.0441      8.9901    119.5142
  1063.7500      0.0000    715.2164      9.1146    121.1651
  1064.0000      0.0000    707.6417      9.2120    121.8357
  1064.2500      0.0000    701.1259      9.2804    121.5227
