~Version Information
VERS.                      2.0: CWLS Log ASCII Standard - VERSION 2.0
WRAP.                       NO: One line per depth step
~Well Information Block
STRT.FT                -3.0000: 
STOP.FT              1679.2500: 
STEP.FT                 0.2500: 
NULL.                -999.2500: 
COMP.          Evergreen Operating Corp.: COMPANY
WELL.            Rimrock 14-29: WELL
FLD.           Purgatorie River: FIELD
LOC.           945' FSL & 604' FWL--: LOCATION
PROV.                       CO: PROVINCE
CNTY.               Las Animas: COUNTRY
SRVC.                         : SERVICE COMPANY
DATE.          Mon Oct 04 13:02:21 2004: LOG DATE
UWI.           05 071 08136 00: UNIQUE WELL ID
~Curve Information Block
DEPT.FT            0 000 00 00: Depth
GR.GAPI                       : Gamma Ray
CCL.                          : Casing Collar Locator
TT3.usec                      : CBL 3' Travel Time
AMP3.mV                       : CBL 3' Amplitude
~Parameter Information Block
~A  Depth        GR         CCL         TT3         AMP3    
# ...
   231.5000     93.9475      0.0000    741.2357      7.6032
   231.7500     92.0329      0.0000    736.9613      7.5739
   232.0000     90.4232      0.0000    735.0208      7.5768
   232.2500     90.4532      0.0000    735.8103      7.6218
   232.5000     92.9723      0.0000    740.5178      7.7274
   232.7500     97.5494      0.0000    751.0047      7.9158
   233.0000    102.2372      0.0000    767.6057      8.1880
   233.2500    104.3818      0.0000    786.4232      8.5078
   233.5000    102.3787      0.0000    800.1131      8.8131
   233.7500     97.0093      0.0000    803.1544      9.0417
   234.0000     90.9045      0.0000    796.2554      9.1614
   234.2500     86.4158      0.0000    785.1346      9.1899
   234.5000     83.8290      0.0000    776.0845      9.1869
   234.7500     81.6203      0.0000    772.7553      9.2137
   235.0000     78.3571      0.0000    774.9136      9.2919
   235.2500     74.1248      0.0000    778.7067      9.3998
   235.5000     70.1483      0.0000    778.3654      9.5062
   235.7500     67.4938      0.0000    769.1509      9.6000
   236.0000     66.4207      0.0000    751.2634      9.6805
   236.2500     66.6301      0.0000    732.8282      9.7302
   236.5000     67.6862      0.0000    727.6928      9.7199
   236.7500     69.2910      0.0000    746.9061      9.6457
   237.0000     71.5611      0.0000    790.4894      9.5421
   237.2500     75.1909      0.0000    846.3494      9.4474
   237.5000     81.1559      0.0000    895.5521      9.3674
   237.7500     89.7546      0.0000    920.0862      9.2843
   238.0000     99.5992      0.0000    911.2179      9.1902
   238.2500    107.7442      0.0000    875.4383      9.0980
   238.5000    111.4415      0.0000    831.9719      9.0214
   238.7500    110.1508      0.0000    799.8597      8.9546
   239.0000    105.8486      0.0000    784.7899      8.8801
   239.2500    101.3277      0.0000    779.3303      8.7915
   239.5000     98.0435      0.0000    775.3148      8.7044
   239.7500     95.3565      0.0000    772.9526      8.6399
   240.0000     91.7374      0.0000    777.5449      8.6026
   240.2500     86.6985      0.0000    790.8319      8.5809
   240.5000     81.5321      0.0000    808.1898      8.5692
   240.7500     78.2421      0.0000    823.2856      8.5811
   241.0000     77.9144      0.0000    833.7157      8.6366
   241.2500     80.1210      0.0000    842.2726      8.7370
   241.5000     83.5770      0.0000    853.3854      8.8573
   241.7500     86.9348      0.0000    868.9366      8.9620
   242.0000     89.0142      0.0000    887.8016      9.0321
   242.2500     89.0347      0.0000    907.7892      9.0782
   242.5000     87.2828      0.0000    926.3633      9.1263
   242.7500     85.2767      0.0000    940.4850      9.1907
   243.0000     84.7160      0.0000    946.9295      9.2626
   243.2500     86.2191      0.0000    942.5776      9.3279
   243.5000     89.1769      0.0000    925.4529      9.3879
   243.7500     92.6006      0.0000    897.2053      9.4571
   244.0000     95.7908      0.0000    864.1098      9.5394
   244.2500     98.2477      0.0000    833.8074      9.6168
   244.5000     99.4232      0.0000    810.6605      9.6652
   244.7500     98.9380      0.0000    794.3515      9.6803
   245.0000     96.8233      0.0000    781.9739      9.6836
   245.2500     93.2533      0.0000    770.6133      9.7050
   245.5000     88.3232      0.0000    758.6644      9.7548
   245.7500     82.4450      0.0000    746.3657      9.8141
   246.0000     76.7865      0.0000    735.6870      9.8540
   246.2500     72.9404      0.0000    729.0226      9.8661
   246.5000     72.0497      0.0000    727.4981      9.8691
   246.7500     74.1977      0.0000    730.6505      9.8859
   247.0000     78.4748      0.0000    737.6360      9.9230
   247.2500     83.4261      0.0000    748.7152      9.9732
   247.5000     87.5359      0.0000    765.6801     10.0287
   247.7500     89.7751      0.0000    790.2805     10.0838
   248.0000     90.0601      0.0000    821.3884     10.1321
   248.2500     89.1266      0.0000    854.0748     10.1661
   248.5000     87.8726      0.0000    882.4584     10.1814
   248.7500     86.8449      0.0000    903.2960     10.1810
   249.0000     86.2039      0.0000    916.3260     10.1755
   249.2500     85.9351      0.0000    922.0246     10.1769
   249.5000     86.0804      0.0000    920.5190     10.1909
   249.7500     86.7768      0.0000    912.8713     10.2168
   250.0000     87.8909      0.0000    902.1130     10.2552
   250.2500     88.5594      0.0000    890.8377     10.3132
   250.5000     87.4291      0.0000    876.8875     10.3976
   250.7500     83.8057      0.0000    854.0557     10.5037
   251.0000     78.6302      0.0000    820.3868     10.6089
   251.2500     73.9711      0.0000    784.7224     10.6791
   251.5000     71.3847      0.0000    761.5583     10.6842
   251.7500     70.8840      0.0000    758.9401     10.6158
   252.0000     71.4690      0.0000    772.3802     10.4944
   252.2500     72.4271      0.0000    789.0222     10.3584
   252.5000     74.0928      0.0000    796.7058     10.2419
   252.7500     77.3887      0.0000    791.7618     10.1568
   253.0000     82.5763      0.0000    780.2889     10.0897
   253.2500     88.4673      0.0000    771.4536     10.0174
   253.5000     93.0461      0.0000    769.8018      9.9287
   253.7500     94.9554      0.0000    773.9158      9.8364
   254.0000     94.3138      0.0000    779.8177      9.7656
   254.2500     92.2994      0.0000    783.8387      9.7308
   254.5000     90.3008      0.0000    783.9637      9.7225
   254.7500     89.4115      0.0000    780.5545      9.7136
   255.0000     90.2564      0.0000    776.0264      9.6802
   255.2500     92.8980      0.0000    773.4132      9.6209
   255.5000     96.6639      0.0000    775.4595      9.5575
   255.7500    100.0903      0.0000    784.2636      9.5172
   256.0000    101.4385      0.0000    799.8038      9.5111
   256.2500     99.7113      0.0000    817.7244      9.5313
   256.5000     95.2873      0.0000    830.1287      9.5665
   256.7500     89.6658      0.0000    830.7891      9.6160
   257.0000     84.7816      0.0000    819.8810      9.6816
   257.2500     82.3060      0.0000    803.4736      9.7490
   257.5000     82.9367      0.0000    789.4887      9.7870
   257.7500     85.9947      0.0000    784.5130      9.7695
   258.0000     89.8082      0.0000    792.3770      9.6979
   258.2500     92.6979      0.0000    811.9230      9.5980
   258.5000     93.9192      0.0000    834.0822      9.4978
   258.7500     94.0433      0.0000    844.3462      9.4071
   259.0000     94.4216      0.0000    833.7883      9.3183
   259.2500     95.9942      0.0000    808.1461      9.2226
   259.5000     98.3893      0.0000    782.4974      9.1238
   259.7500    100.0949      0.0000    767.2887      9.0350
   260.0000     99.4870      0.0000    762.3126      8.9693
   260.2500     95.7940      0.0000    762.0056      8.9344
   260.5000     89.2959      0.0000    762.2378      8.9289
   260.7500     80.9073      0.0000    762.4337      8.9351
   261.0000     71.7304      0.0000    764.3425      8.9117
   261.2500     62.9874      0.0000    769.2349      8.7981
   261.5000     56.3014      0.0000    775.4307      8.5436
   261.7500     53.7097      0.0000    779.9122      8.1422
   262.0000     56.6407      0.0000    784.1845      7.6371
   262.2500     64.3989      0.0000    796.5566      7.0839
   262.5000     73.8897      0.0000    825.6389      6.5216
   262.7500     81.3439      0.0000    871.4910      5.9877
   263.0000     84.7215      0.0000    924.0327      5.5357
   263.2500     84.5790      0.0000    969.0106      5.2217
   263.5000     82.5383      0.0000    995.3100      5.0748
   263.7500     79.2958      0.0000    999.3513      5.0817
   264.0000     74.6917     -2.0000    985.3846      5.1941
   264.2500     69.2798      0.0000    961.4829      5.3759
   264.5000     64.7511      0.0000    933.7890      5.6589
   264.7500     62.7279      0.0000    905.0114      6.1148
