~Version Information
VERS.                      2.0: CWLS Log ASCII Standard - VERSION 2.0
WRAP.                       NO: One line per depth step
~Well Information Block
STRT.FT               546.2500: 
STOP.FT              2496.7500: 
STEP.FT                 0.2500: 
NULL.                -999.2500: 
COMP.          Petrogulf Corporation: COMPANY
WELL.               Egan 9-11V: WELL
FLD.           Purgatorie River: FIELD
LOC.           724' FNL & 1379' FWL: LOCATION
PROV.                 Colorado: PROVINCE
CNTY.               Las Animas: COUNTRY
SRVC.          Patterson Wireline: SERVICE COMPANY
DATE.          Fri Jul 11 23:32:41 2003: LOG DATE
UWI.           05 071 07875 00: UNIQUE WELL ID
~Curve Information Block
DEPT.FT            0 000 00 00: Depth
SP.mV                         : DIL Spontaneous Potential
RILD.Ohm-m                    : DIL Deep Resistivity
RILM.Ohm-m                    : DIL Medium Resistivity
RLL3.Ohm-m                    : DIL Shallow Resistivity
GR.GAPI                       : Gamma Ray
~Parameter Information Block
~A  Depth        SP         RILD        RILM        RLL3         GR     
# ...
  2478.2500      3.4679     20.6913     27.4049     27.3703   -999.2500
  2478.5000      3.0917     20.7547     27.2828     27.0327   -999.2500
  2478.7500      2.7356     20.8423     27.2556     26.5543   -999.2500
  2479.0000      2.4706     20.9982     27.3206     26.1216   -999.2500
  2479.2500      2.3120     21.2983     27.4696     26.0243   -999.2500
  2479.5000      2.2146     21.8751     27.6890     26.6076   -999.2500
  2479.7500      2.0985     22.9564     27.9585     28.1840   -999.2500
  2480.0000      1.8897     24.9090     28.2529     30.8643   -999.2500
  2480.2500      1.5593     28.5341     28.5440     34.3530   -999.2500
  2480.5000      1.1426     34.2847     28.8033     37.8762   -999.2500
  2480.7500      0.7237     43.5399     29.0072     40.4117   -999.2500
  2481.0000      0.3871     57.6006     29.1418     41.1667   -999.2500
  2481.2500      0.1715     76.7967     29.2082     39.9900   -999.2500
  2481.5000      0.0620     98.5642     29.2256     37.4144   -999.2500
  2481.7500      0.0180    117.5065     29.2321     34.3170   -999.2500
  2482.0000      0.0042    129.8233     29.2838     31.4528   -999.2500
  2482.2500      0.0008    136.2865     29.4524     29.1752   -999.2500
  2482.5000      0.0001    139.8738     29.8239     27.4799   -999.2500
  2482.7500   -999.2500    143.0975     30.4997     26.2447   -999.2500
  2483.0000   -999.2500    147.4994     31.6022     25.4072   -999.2500
  2483.2500   -999.2500    524.2527     33.2867     24.9482   -999.2500
  2483.5000   -999.2500    638.1683     35.7623     24.7894   -999.2500
  2483.7500   -999.2500    829.4113     39.3276     24.7744   -999.2500
  2484.0000   -999.2500   1140.7577     44.4342     24.7681   -999.2500
  2484.2500   -999.2500   1612.4142     51.8018     24.7547   -999.2500
  2484.5000   -999.2500   2224.7771     62.6476     24.8236   -999.2500
  2484.7500   -999.2500   2837.0486     79.1851     25.0564   -999.2500
  2485.0000   -999.2500   3273.8743    105.8532     25.4265   -999.2500
  2485.2500   -999.2500   3496.4875    152.9359     25.8044   -999.2500
  2485.5000   -999.2500   3582.3599    250.6035     26.0470   -999.2500
  2485.7500   -999.2500   3609.0015    540.8155     26.0772   -999.2500
  2486.0000   -999.2500   3615.8950   8135.8311     25.9000   -999.2500
  2486.2500   -999.2500 100000.0000 100000.0000     25.5796   -999.2500
  2486.5000   -999.2500 100000.0000 100000.0000     25.2241   -999.2500
  2486.7500   -999.2500 100000.0000 100000.0000     24.9687   -999.2500
  2487.0000   -999.2500 100000.0000 100000.0000     24.9282   -999.2500
  2487.2500   -999.2500 100000.0000 100000.0000     25.1280   -999.2500
  2487.5000   -999.2500 100000.0000 100000.0000     25.4684   -999.2500
  2487.7500   -999.2500 100000.0000 100000.0000     25.7614   -999.2500
  2488.0000   -999.2500 100000.0000 100000.0000     25.8090   -999.2500
  2488.2500   -999.2500 100000.0000 100000.0000     25.4440   -999.2500
  2488.5000   -999.2500 100000.0000 100000.0000     24.4588   -999.2500
  2488.7500   -999.2500 100000.0000 100000.0000     22.4970   -999.2500
  2489.0000   -999.2500 100000.0000 100000.0000     19.1680   -999.2500
  2489.2500   -999.2500 100000.0000 100000.0000     14.4890   -999.2500
  2489.5000   -999.2500 100000.0000   3224.2615      9.2263   -999.2500
  2489.7500   -999.2500   -999.2500   4122.3296      4.5724   -999.2500
  2490.0000   -999.2500   -999.2500   5616.3662      1.3592   -999.2500
  2490.2500   -999.2500   -999.2500   8402.1348     -0.3684   -999.2500
  2490.5000   -999.2500   -999.2500  14870.3291     -1.0914   -999.2500
  2490.7500   -999.2500   -999.2500  42183.9609     -1.3268   -999.2500
  2491.0000   -999.2500   -999.2500 100000.0000     -1.3864   -999.2500
  2491.2500   -999.2500   -999.2500 100000.0000     -1.3982   -999.2500
  2491.5000   -999.2500   -999.2500 100000.0000   -999.2500   -999.2500
  2491.7500   -999.2500   -999.2500 100000.0000   -999.2500   -999.2500
  2492.0000   -999.2500   -999.2500 100000.0000   -999.2500   -999.2500
  2492.2500   -999.2500   -999.2500 100000.0000   -999.2500   -999.2500
  2492.5000   -999.2500   -999.2500 100000.0000   -999.2500   -999.2500
  2492.7500   -999.2500   -999.2500 100000.0000   -999.2500   -999.2500
  2493.0000   -999.2500   -999.2500 100000.0000   -999.2500   -999.2500
  2493.2500   -999.2500   -999.2500 100000.0000   -999.2500   -999.2500
  2493.5000   -999.2500   -999.2500 100000.0000   -999.2500   -999.2500
  2493.7500   -999.2500   -999.2500 100000.0000   -999.2500   -999.2500
  2494.0000   -999.2500   -999.2500 100000.0000   -999.2500   -999.2500
  2494.2500   -999.2500   -999.2500 100000.0000   -999.2500   -999.2500
  2494.5000   -999.2500   -999.2500 100000.0000   -999.2500   -999.2500
  2494.7500   -999.2500   -999.2500 100000.0000   -999.2500   -999.2500
  2495.0000   -999.2500   -999.2500 100000.0000   -999.2500   -999.2500
  2495.2500   -999.2500   -999.2500 100000.0000   -999.2500   -999.2500
  2495.5000   -999.2500   -999.2500 100000.0000   -999.2500   -999.2500
  2495.7500   -999.2500   -999.2500 100000.0000   -999.2500   -999.2500
  2496.0000   -999.2500   -999.2500 100000.0000   -999.2500   -999.2500
  2496.2500   -999.2500   -999.2500 100000.0000   -999.2500   -999.2500
  2496.5000   -999.2500   -999.2500 100000.0000   -999.2500   -999.2500
  2496.7500   -999.2500   -999.2500 100000.0000   -999.2500   -999.2500
