~Version Information
VERS.                      2.0: CWLS Log ASCII Standard - VERSION 2.0
WRAP.                       NO: One line per depth step
~Well Information Block
STRT.FT               460.0000: 
STOP.FT               961.2500: 
STEP.FT                 0.2500: 
NULL.                -999.2500: 
COMP.          Pioneer Natural Resources: COMPANY
WELL.                Pug 33-19: WELL
FLD.           Purgatoire River: FIELD
LOC.           1381' FSL & 2140' FEL: LOCATION
PROV.                 Colorado: PROVINCE
CNTY.               Las Animas: COUNTRY
SRVC.                Patterson: SERVICE COMPANY
DATE.          Tue Dec 14 08:25:14 2004: LOG DATE
UWI.           05 071 08193 00: UNIQUE WELL ID
~Curve Information Block
DEPT.FT            0 000 00 00: Depth
SN.Ohm-m                      : IEL Short Normal
SP.mV                         : IEL Spontaneous Potential
DIR.Ohm-m                     : IEL Induction Resistivity
GR.GAPI                       : Gamma Ray
~Parameter Information Block
~A  Depth        SN          SP         DIR          GR     
# ...
   862.0000     22.8473    100.5930     21.3387     81.5964
   862.2500     22.8894    100.5510     21.3948     82.4646
   862.5000     22.9203    100.5309     21.4061     84.3248
   862.7500     22.9442    100.5210     21.3840     85.6875
   863.0000     22.9559    100.5258     21.3372     87.8153
   863.2500     22.9445    100.5585     21.2654     89.1624
   863.5000     22.8997    100.6298     21.1578     90.3705
   863.7500     22.8166    100.7384     20.9991     90.3126
   864.0000     22.6971    100.8678     20.7797     89.4174
   864.2500     22.5518    100.9890     20.5071     88.9976
   864.5000     22.4003    101.0682     20.2101     89.2425
   864.7500     22.2670    101.0748     19.9341     89.6091
   865.0000     22.1725    100.9896     19.7269     89.4271
   865.2500     22.1273    100.8092     19.6241     88.7192
   865.5000     22.1327    100.5460     19.6393     87.6145
   865.7500     22.1852    100.2253     19.7626     87.3466
   866.0000     22.2762     99.8782     19.9677     87.6516
   866.2500     22.3907     99.5358     20.2205     87.9016
   866.5000     22.5110     99.2241     20.4860     87.5936
   866.7500     22.6275     98.9619     20.7310     86.7258
   867.0000     22.7461     98.7607     20.9279     84.4041
   867.2500     22.8836     98.6248     21.0633     82.2842
   867.5000     23.0527     98.5507     21.1461     78.9528
   867.7500     23.2514     98.5261     21.2054     77.4768
   868.0000     23.4634     98.5303     21.2749     77.9298
   868.2500     23.6649     98.5368     21.3729     80.3127
   868.5000     23.8329     98.5192     21.4932     85.9733
   868.7500     23.9535     98.4573     21.6136     89.9690
   869.0000     24.0265     98.3411     21.7140     94.5279
   869.2500     24.0639     98.1715     21.7884     96.1319
   869.5000     24.0838     97.9573     21.8424     96.4963
   869.7500     24.1040     97.7104     21.8811     95.7597
   870.0000     24.1385     97.4416     21.9039     94.0503
   870.2500     24.1961     97.1578     21.9106     92.9938
   870.5000     24.2800     96.8618     21.9130     92.0284
   870.7500     24.3889     96.5548     21.9367     91.7927
   871.0000     24.5178     96.2384     22.0092     91.5964
   871.2500     24.6604     95.9161     22.1421     91.1359
   871.5000     24.8101     95.5940     22.3234     89.2245
   871.7500     24.9612     95.2787     22.5215     87.0247
   872.0000     25.1077     94.9755     22.6997     83.1132
   872.2500     25.2421     94.6865     22.8288     80.9148
   872.5000     25.3567     94.4113     22.8928     79.2017
   872.7500     25.4473     94.1472     22.8904     79.0416
   873.0000     25.5162     93.8908     22.8377     79.3911
   873.2500     25.5720     93.6377     22.7663     79.5759
   873.5000     25.6265     93.3820     22.7114     79.6765
   873.7500     25.6908     93.1149     22.6933     79.7738
   874.0000     25.7728     92.8245     22.7095     79.9601
   874.2500     25.8759     92.4966     22.7448     79.9003
   874.5000     26.0009     92.1172     22.7901     79.3279
   874.7500     26.1479     91.6768     22.8511     78.8276
   875.0000     26.3161     91.1758     22.9399     78.5175
   875.2500     26.5015     90.6290     23.0609     78.7159
   875.5000     26.6941     90.0674     23.2066     79.0451
   875.7500     26.8761     89.5348     23.3665     78.7703
   876.0000     27.0241     89.0794     23.5390     77.2873
   876.2500     27.1143     88.7428     23.7313     75.8481
   876.5000     27.1301     88.5505     23.9432     73.6396
   876.7500     27.0658     88.5061     24.1486     72.2932
   877.0000     26.9284     88.5931     24.2952     70.5880
   877.2500     26.7360     88.7821     24.3301     69.9214
   877.5000     26.5113     89.0409     24.2305     70.3291
   877.7500     26.2680     89.3423     24.0113     71.7322
   878.0000     26.0003     89.6675     23.7030     75.0793
   878.2500     25.6850     90.0038     23.3250     77.6395
   878.5000     25.2989     90.3407     22.8800     81.3687
   878.7500     24.8360     90.6674     22.3706     83.5890
   879.0000     24.3153     90.9726     21.8188     86.0485
   879.2500     23.7725     91.2466     21.2697     86.7960
   879.5000     23.2473     91.4842     20.7751     86.6388
   879.7500     22.7712     91.6850     20.3721     86.1914
   880.0000     22.3609     91.8532     20.0700     85.9170
   880.2500     22.0189     91.9944     19.8521     86.0882
   880.5000     21.7381     92.1117     19.6887     86.4484
   880.7500     21.5070     92.2033     19.5516     86.6411
   881.0000     21.3128     92.2632     19.4230     87.2245
   881.2500     21.1450     92.2852     19.2950     88.0404
   881.5000     20.9978     92.2683     19.1655     89.6036
   881.7500     20.8724     92.2205     19.0372     90.3275
   882.0000     20.7729     92.1578     18.9189     90.2578
   882.2500     20.7016     92.0980     18.8223     89.5918
   882.5000     20.6545     92.0542     18.7512     88.5358
   882.7500     20.6209     92.0312     18.6918     88.1361
   883.0000     20.5846     92.0277     18.6145     87.7755
   883.2500     20.5278     92.0404     18.4880     87.3128
   883.5000     20.4352     92.0676     18.2963     85.8647
   883.7500     20.2978     92.1094     18.0451     84.4587
   884.0000     20.1119     92.1651     17.7552     82.3142
   884.2500     19.8810     92.2347     17.4515     81.4396
   884.5000     19.6173     92.3249     17.1565     82.0206
   884.7500     19.3375     92.4591     16.8872     84.1493
   885.0000     19.0489     92.6827     16.6507     90.4195
   885.2500     18.7334     93.0577     16.4380     96.5401
   885.5000     18.3510     93.6449     16.2220    107.1304
   885.7500     17.8660     94.4808     15.9653    113.4512
   886.0000     17.2775     95.5582     15.6368    118.9488
   886.2500     16.6343     96.8191     15.2291    119.4301
   886.5000     16.0266     98.1613     14.7663    117.4100
   886.7500     15.5593     99.4595     14.2979    116.3426
   887.0000     15.3131    100.5906     13.8825    117.6090
   887.2500     15.3081    101.4593     13.5718    120.4161
   887.5000     15.4944    102.0117     13.3992    126.0691
   887.7500     15.7847    102.2370     13.3741    129.4264
   888.0000     16.1077    102.1586     13.4831    130.9802
   888.2500     16.4454    101.8212     13.6967    128.4549
   888.5000     16.8312    101.2818     13.9838    119.6481
   888.7500     17.3243    100.6038     14.3276    111.9763
   889.0000     17.9808     99.8534     14.7347    100.8510
   889.2500     18.8300     99.0950     15.2315     94.9244
   889.5000     19.8555     98.3840     15.8492     89.1664
   889.7500     20.9902     97.7601     16.6038     87.3915
   890.0000     22.1356     97.2414     17.4782     87.1112
   890.2500     23.2003     96.8216     18.4163     87.8870
   890.5000     24.1337     96.4690     19.3347     89.4895
   890.7500     24.9316     96.1308     20.1516     90.4264
   891.0000     25.6194     95.7413     20.8126     91.0001
   891.2500     26.2293     95.2359     21.2975     90.4374
   891.5000     26.7887     94.5668     21.6142     88.0011
   891.7500     27.3171     93.7169     21.7980     85.8407
   892.0000     27.8224     92.7066     21.9126     83.2610
   892.2500     28.2947     91.5910     22.0353     82.4126
   892.5000     28.7059     90.4497     22.2281     81.9478
   892.7500     29.0198     89.3705     22.5121     81.6461
   893.0000     29.2082     88.4334     22.8627     80.8088
   893.2500     29.2643     87.6968     23.2241     80.0690
   893.5000     29.2064     87.1913     23.5307     78.9566
   893.7500     29.0642     86.9196     23.7266     78.3575
   894.0000     28.8578     86.8649     23.7766     78.0133
   894.2500     28.5839     87.0013     23.6676     78.5059
   894.5000     28.2208     87.3020     23.4036     81.1809
   894.7500     27.7417     87.7415     22.9986     84.6533
   895.0000     27.1245     88.2908     22.4711     92.3471
   895.2500     26.3597     88.9120     21.8430     98.6143
