~Version Information
VERS.                      2.0: CWLS Log ASCII Standard - VERSION 2.0
WRAP.                       NO: One line per depth step
~Well Information Block
STRT.FT                60.5000: 
STOP.FT              1875.7500: 
STEP.FT                 0.2500: 
NULL.                -999.2500: 
COMP.          Petrogulf Corporation: COMPANY
WELL.             State 16-14R: WELL
FLD.           Purgatorie River: FIELD
LOC.           598' FSL & 682' FWL--: LOCATION
PROV.                       CO: PROVINCE
CNTY.               Las Animas: COUNTRY
SRVC.                         : SERVICE COMPANY
DATE.          Fri Nov 12 08:50:45 2004: LOG DATE
UWI.            005 071 08034 : UNIQUE WELL ID
~Curve Information Block
DEPT.FT            0 000 00 00: Depth
GR.GAPI                       : Gamma Ray
CCL.                          : Casing Collar Locator
TT3.usec                      : CBL 3' Travel Time
AMP3.mV                       : CBL 3' Amplitude
~Parameter Information Block
~A  Depth        GR         CCL         TT3         AMP3    
# ...
  1601.5000    127.3983      0.0000    648.5887      2.2177
  1601.7500    133.6599      0.0000    644.0834      2.1292
  1602.0000    140.7475      0.0000    638.7499      2.0912
  1602.2500    146.7427      0.0000    633.8087      2.0743
  1602.5000    150.5558      0.0000    633.7973      2.0453
  1602.7500    151.7388      0.0000    641.8320      1.9901
  1603.0000    149.7574      0.0000    655.6707      1.9237
  1603.2500    144.4498      0.0000    667.8977      1.8796
  1603.5000    137.0968      0.0000    670.7864      1.8851
  1603.7500    130.0486      0.0000    662.2208      1.9458
  1604.0000    124.7750      0.0000    646.9507      2.0475
  1604.2500    120.8420      0.0000    632.1606      2.1704
  1604.5000    117.5319      0.0000    622.4314      2.3006
  1604.7500    115.9284      0.0000    618.6057      2.4324
  1605.0000    118.3567      0.0000    619.5399      2.5618
  1605.2500    126.1424      0.0000    623.3924      2.6802
  1605.5000    138.7249      0.0000    627.5701      2.7755
  1605.7500    154.1725      0.0000    629.2132      2.8373
  1606.0000    169.3470      0.0000    627.1170      2.8601
  1606.2500    180.1824      0.0000    623.0137      2.8439
  1606.5000    183.4400      0.0000    620.3850      2.7938
  1606.7500    178.5936      0.0000    621.9349      2.7199
  1607.0000    167.5547      0.0000    627.7286      2.6358
  1607.2500    152.9736      0.0000    634.8975      2.5557
  1607.5000    137.4520      0.0000    639.5549      2.4886
  1607.7500    123.6162      0.0000    640.1716      2.4362
  1608.0000    113.5276      0.0000    638.8033      2.3978
  1608.2500    107.6136      0.0000    638.1688      2.3790
  1608.5000    104.4150      0.0000    638.3120      2.3931
  1608.7500    101.6341      0.0000    637.2832      2.4565
  1609.0000     97.9104      0.0000    634.4149      2.5820
  1609.2500     93.9621      0.0000    631.5917      2.7728
  1609.5000     91.9215      0.0000    631.4805      3.0229
  1609.7500     93.2787      0.0000    635.7302      3.3240
  1610.0000     97.3106      0.0000    645.3557      3.6692
  1610.2500    101.5822      0.0000    661.9597      4.0525
  1610.5000    104.0277      0.0000    687.0017      4.4647
  1610.7500    104.1997      0.0000    718.7657      4.8858
  1611.0000    102.3874      0.0000    751.0063      5.2756
  1611.2500     98.4844      0.0000    777.0609      5.5698
  1611.5000     92.6126      0.0000    796.0670      5.6934
  1611.7500     86.0113      0.0000    812.6530      5.5930
  1612.0000     80.2438      0.0000    829.0850      5.2737
  1612.2500     75.9812      0.0000    840.5701      4.8154
  1612.5000     73.3283      0.0000    840.7426      4.3475
  1612.7500     72.8207      0.0000    830.0536      3.9848
  1613.0000     75.2213      0.0000    816.7074      3.7632
  1613.2500     80.3909      0.0000    809.6417      3.6354
  1613.5000     86.9525      0.0000    810.8459      3.5294
  1613.7500     93.3418      0.0000    814.0663      3.4089
  1614.0000     99.0716      0.0000    811.6187      3.2848
  1614.2500    104.9030      0.0000    802.4518      3.1892
  1614.5000    111.9259      0.0000    792.1454      3.1374
  1614.7500    120.3442      0.0000    786.0207      3.1053
  1615.0000    128.7641      0.0000    785.5082      3.0475
  1615.2500    134.7765      0.0000    790.4482      2.9539
  1615.5000    136.5841      0.0000    799.8322      2.8804
  1615.7500    134.1175      0.0000    809.5656      2.9115
  1616.0000    128.8480      0.0000    814.8179      3.0972
  1616.2500    123.0077     -2.0000    816.3615      3.4366
  1616.5000    118.8738      2.0000    820.0648      3.9115
  1616.7500    118.1590      0.0000    828.3926      4.5347
  1617.0000    121.6369      0.0000    836.1218      5.3630
  1617.2500    128.9230      0.0000    836.0581      6.4365
  1617.5000    138.1845      0.0000    826.5322      7.6766
  1617.7500    146.5023      0.0000    811.9323      8.8814
  1618.0000    151.6142      0.0000    797.6509      9.8759
  1618.2500    153.6525      0.0000    786.2173     10.6357
  1618.5000    154.6024      0.0000    777.4304     11.2240
  1618.7500    156.1397      0.0000    769.5761     11.6643
  1619.0000    158.7085      0.0000    759.6379     11.9336
  1619.2500    162.4437      0.0000    744.3780     12.0355
  1619.5000    167.5723      0.0000    723.1952     12.0189
  1619.7500    173.3552      0.0000    699.6796     11.9359
  1620.0000    177.7635      0.0000    679.2804     11.8198
  1620.2500    179.1747      0.0000    665.5543     11.7046
  1620.5000    177.8106      0.0000    659.0042     11.6352
  1620.7500    174.9054      0.0000    658.9416     11.6460
  1621.0000    171.2367      0.0000    665.4799     11.7370
  1621.2500    167.1973      0.0000    679.2448     11.8894
  1621.5000    163.6525      0.0000    699.2311     12.1087
  1621.7500    161.7038      0.0000    721.5242     12.4365
  1622.0000    161.5066      0.0000    740.8752     12.9107
  1622.2500    162.0108      0.0000    753.7545     13.5165
  1622.5000    162.1270      0.0000    760.0948     14.1886
  1622.7500    161.6532      0.0000    762.9877     14.8635
  1623.0000    160.8603      0.0000    767.3509     15.5215
  1623.2500    159.9014      0.0000    778.1282     16.1721
  1623.5000    158.9958      0.0000    798.0930     16.7973
  1623.7500    158.6728      0.0000    825.8333     17.3201
  1624.0000    159.5441      0.0000    855.5854     17.6372
  1624.2500    161.8720      0.0000    880.3713     17.6879
  1624.5000    165.1420      0.0000    896.5261     17.4959
  1624.7500    168.1287      0.0000    905.2644     17.1459
  1625.0000    169.8090      0.0000    910.0002     16.7170
  1625.2500    170.2187      0.0000    912.8158     16.2457
  1625.5000    170.1531      0.0000    913.1847     15.7538
  1625.7500    170.2428      0.0000    908.8718     15.2941
  1626.0000    170.4843      0.0000    897.6434     14.9388
  1626.2500    170.1119      0.0000    879.0653     14.7167
  1626.5000    167.5717      0.0000    855.5670     14.5783
  1626.7500    161.4122      0.0000    831.7611     14.4415
  1627.0000    152.0338      0.0000    812.4562     14.2648
  1627.2500    142.2253      0.0000    801.0884     14.0652
  1627.5000    135.2870      0.0000    799.3004     13.8755
  1627.7500    132.7025      0.0000    806.3932     13.7118
  1628.0000    133.7839      0.0000    817.8940     13.5867
  1628.2500    136.8496      0.0000    825.4457     13.5259
  1628.5000    140.3147      0.0000    820.7083     13.5461
  1628.7500    143.3595      0.0000    801.1362     13.6255
  1629.0000    146.1042      0.0000    771.7364     13.7152
  1629.2500    149.0572      0.0000    741.0525     13.7796
  1629.5000    152.4935      0.0000    715.7980     13.8139
  1629.7500    156.3422      0.0000    698.5482     13.8237
  1630.0000    160.0631      0.0000    688.4234     13.8013
  1630.2500    162.5333      0.0000    683.0595     13.7354
  1630.5000    162.8320      0.0000    681.1924     13.6455
  1630.7500    161.2741      0.0000    684.5217     13.5937
  1631.0000    158.8908      0.0000    696.0243     13.6407
  1631.2500    155.8407      0.0000    715.2572     13.7825
  1631.5000    151.2689      0.0000    736.2467     13.9377
  1631.7500    144.6842      0.0000    750.9152     14.0066
  1632.0000    136.5688      0.0000    753.7896     13.9467
  1632.2500    127.7428      0.0000    743.2147     13.7955
  1632.5000    119.2213      0.0000    720.1489     13.6284
  1632.7500    112.8785      0.0000    687.4135     13.4982
  1633.0000    111.2694      0.0000    648.8824     13.4187
  1633.2500    116.0206      0.0000    607.4375     13.3907
  1633.5000    126.2399      0.0000    564.3637     13.4207
  1633.7500    138.4216      0.0000    522.2374     13.5012
  1634.0000    148.0090      0.0000    486.8943     13.5884
  1634.2500    151.7751      0.0000    464.8018     13.6193
  1634.5000    149.6409      0.0000    459.6471     13.5608
  1634.7500    144.5773      0.0000    472.4587     13.4344
