~Version Information
VERS.                      2.0: CWLS Log ASCII Standard - VERSION 2.0
WRAP.                       NO: One line per depth step
~Well Information Block
STRT.FT               -12.5000: 
STOP.FT              2200.2500: 
STEP.FT                 0.2500: 
NULL.                -999.2500: 
COMP.          Pioneer Natural Resources: COMPANY
WELL.           Ogallela 44-12: WELL
FLD.           Purgatorie River: FIELD
LOC.           610' FSL & 671' FEL------: LOCATION
PROV.                       CO: PROVINCE
CNTY.               Las Animas: COUNTRY
SRVC.          Patterson Wireline: SERVICE COMPANY
DATE.          Tue Mar 22 17:18:22 2005: LOG DATE
UWI.           05 071 08283 00: UNIQUE WELL ID
~Curve Information Block
DEPT.FT            0 000 00 00: Depth
CCL.                          : Casing Collar Locator
TT3.usec                      : CBL 3' Travel Time
AMP3.mV                       : CBL 3' Amplitude
GR.GAPI                       : Gamma Ray
~Parameter Information Block
~A  Depth       CCL         TT3         AMP3         GR     
# ...
  1595.5000      0.0000    654.6456      2.8070    119.0506
  1595.7500      0.0000    654.4330      2.8326    115.6057
  1596.0000      0.0000    654.6935      2.8552    117.2321
  1596.2500      0.0000    655.2469      2.8641    122.7458
  1596.5000      0.0000    655.9175      2.8421    129.5936
  1596.7500      0.0000    656.6068      2.7850    135.9189
  1597.0000      0.0000    657.2893      2.7199    141.1517
  1597.2500      0.0000    657.9523      2.6846    145.2076
  1597.5000      0.0000    658.5669      2.6911    147.6346
  1597.7500      0.0000    659.1273      2.7179    147.3720
  1598.0000      0.0000    659.6644      2.7392    143.0712
  1598.2500      0.0000    660.1665      2.7495    134.0567
  1598.5000      0.0000    660.5157      2.7540    121.5980
  1598.7500      0.0000    660.5792      2.7480    109.0043
  1599.0000      0.0000    660.3709      2.7201     99.6167
  1599.2500      0.0000    660.0590      2.6741     94.3451
  1599.5000      0.0000    659.7700      2.6326     91.2869
  1599.7500      0.0000    659.3738      2.6105     87.7902
  1600.0000      0.0000    658.3725      2.5975     82.9613
  1600.2500     -2.0000    655.9557      2.5732     78.2430
  1600.5000     -2.0000    651.4384      2.5360     75.7683
  1600.7500      0.0000    645.1620      2.5096     76.4245
  1601.0000      0.0000    639.1074      2.5181     79.3536
  1601.2500      0.0000    636.0594      2.5592     82.7973
  1601.5000      0.0000    637.5389      2.6064     85.3680
  1601.7500      0.0000    642.5117      2.6368     86.8554
  1602.0000      0.0000    648.3307      2.6511     87.8733
  1602.2500      0.0000    652.8339      2.6623     88.8014
  1602.5000      0.0000    655.4413      2.6753     89.4271
  1602.7500      0.0000    656.6914      2.6849     89.5900
  1603.0000      0.0000    657.3230      2.6882     89.7103
  1603.2500      0.0000    657.8153      2.6884     90.3703
  1603.5000      0.0000    658.3616      2.6845     91.5530
  1603.7500      0.0000    658.9565      2.6694     92.7427
  1604.0000      0.0000    659.5013      2.6448     93.8316
  1604.2500      0.0000    659.9426      2.6273     95.4094
  1604.5000      0.0000    660.3893      2.6276     97.8624
  1604.7500      0.0000    661.1405      2.6307    100.5052
  1605.0000      0.0000    662.6862      2.6109    101.7792
  1605.2500      0.0000    665.6644      2.5638    100.3539
  1605.5000      0.0000    670.6286      2.5149     96.3516
  1605.7500      0.0000    677.6614      2.4938     91.6169
  1606.0000      0.0000    686.1727      2.5060     88.3178
  1606.2500      0.0000    694.8951      2.5291     87.0715
  1606.5000      0.0000    701.7906      2.5339     86.7851
  1606.7500      0.0000    704.3110      2.5105     86.2477
  1607.0000      0.0000    700.7628      2.4710     85.3170
  1607.2500      0.0000    691.9420      2.4322     84.5304
  1607.5000      0.0000    681.0650      2.4024     84.2337
  1607.7500      0.0000    671.6591      2.3891     84.3901
  1608.0000      0.0000    665.4522      2.4072     84.9322
  1608.2500      0.0000    662.1104      2.4657     85.9679
  1608.5000      0.0000    660.4470      2.5473     87.6746
  1608.7500      0.0000    659.5702      2.6154     90.2366
  1609.0000      0.0000    659.2671      2.6467     93.8796
  1609.2500      0.0000    659.9329      2.6509     98.5704
  1609.5000      0.0000    662.4052      2.6538    103.5003
  1609.7500      0.0000    667.5767      2.6645    107.2651
  1610.0000      0.0000    675.7471      2.6720    108.8304
  1610.2500      0.0000    686.3284      2.6705    108.2248
  1610.5000      0.0000    698.4412      2.6712    106.2854
  1610.7500      0.0000    711.6124      2.6832    103.9990
  1611.0000      0.0000    725.1245      2.6962    102.0724
  1611.2500      0.0000    736.5235      2.6973    100.7620
  1611.5000      0.0000    741.8867      2.6956     99.9737
  1611.7500      0.0000    738.8173      2.7148     99.4577
  1612.0000      0.0000    729.1216      2.7598     98.6391
  1612.2500      0.0000    717.7445      2.8065     96.3676
  1612.5000      0.0000    709.0424      2.8337     91.6561
  1612.7500      0.0000    704.4445      2.8508     85.1552
  1613.0000      0.0000    703.0888      2.8799     79.3231
  1613.2500      0.0000    703.5833      2.9165     76.4365
  1613.5000      0.0000    705.0091      2.9287     76.6437
  1613.7500      0.0000    707.0582      2.9008     78.3003
  1614.0000      0.0000    709.9822      2.8580     79.8770
  1614.2500      0.0000    714.6135      2.8375     81.0640
  1614.5000      0.0000    722.1204      2.8457     82.1860
  1614.7500      0.0000    733.1943      2.8633     83.1720
  1615.0000      0.0000    747.1028      2.8791     83.3835
  1615.2500      0.0000    761.6115      2.8964     82.2930
  1615.5000      0.0000    774.0652      2.9108     80.2598
  1615.7500      0.0000    782.8256      2.9122     78.7116
  1616.0000      0.0000    787.7515      2.9123     79.2594
  1616.2500      0.0000    789.3113      2.9418     82.1293
  1616.5000      0.0000    787.5054      3.0095     85.5187
  1616.7500      0.0000    782.0113      3.0837     86.9970
  1617.0000      0.0000    773.0758      3.1305     85.6185
  1617.2500      0.0000    761.6981      3.1530     82.3651
  1617.5000      0.0000    749.2498      3.1785     78.7031
  1617.7500      0.0000    737.4275      3.2188     75.3650
  1618.0000      0.0000    728.0509      3.2666     72.6419
  1618.2500      0.0000    722.1838      3.3210     71.0518
  1618.5000      0.0000    719.5539      3.3902     71.1038
  1618.7500      0.0000    719.0119      3.4704     72.6371
  1619.0000      0.0000    719.4218      3.5502     74.7043
  1619.2500      0.0000    720.1719      3.6367     75.9964
  1619.5000      0.0000    721.2363      3.7504     75.4548
  1619.7500      0.0000    723.0617      3.8862     72.9093
  1620.0000      0.0000    726.4399      4.0061     69.2892
  1620.2500      0.0000    732.1063      4.0840     66.0206
  1620.5000      0.0000    739.6441      4.1336     64.1175
  1620.7500      0.0000    746.4272      4.1766     63.7678
  1621.0000      0.0000    748.5590      4.2043     64.5588
  1621.2500      0.0000    743.8927      4.1995     66.0246
  1621.5000      0.0000    733.8083      4.1777     67.9688
  1621.7500      0.0000    721.5724      4.1749     70.2425
  1622.0000      0.0000    709.7712      4.2000     72.4770
  1622.2500      0.0000    699.7567      4.2302     74.3447
  1622.5000      0.0000    692.3964      4.2525     75.9612
  1622.7500      0.0000    688.3704      4.2763     77.6514
  1623.0000      0.0000    688.0125      4.2997     79.2647
  1623.2500      0.0000    691.1857      4.2996     80.0937
  1623.5000      0.0000    697.0726      4.2688     79.7217
  1623.7500      0.0000    704.0402      4.2323     78.6936
  1624.0000      0.0000    710.1920      4.2109     78.1224
  1624.2500      0.0000    714.3154      4.1938     78.6898
  1624.5000      0.0000    716.2299      4.1700     79.9930
  1624.7500      0.0000    716.2055      4.1583     80.7912
  1625.0000      0.0000    714.2561      4.1781     80.1257
  1625.2500      0.0000    710.1436      4.2084     78.2746
  1625.5000      0.0000    704.0654      4.2123     76.3231
  1625.7500      0.0000    697.1501      4.1920     74.8975
  1626.0000      0.0000    690.9987      4.1838     73.7725
  1626.2500      0.0000    686.6514      4.1952     72.6002
  1626.5000      0.0000    684.0922      4.1837     71.4661
  1626.7500      0.0000    682.6735      4.1203     70.7059
  1627.0000      0.0000    681.7924      4.0475     70.5765
  1627.2500      0.0000    681.1670      4.0459     71.0598
  1627.5000      0.0000    680.7255      4.1461     71.8495
  1627.7500      0.0000    680.4398      4.2919     72.7383
  1628.0000      0.0000    680.2786      4.3923     73.9489
  1628.2500      0.0000    680.2286      4.4002     75.6102
  1628.5000      0.0000    680.2983      4.3429     76.9928
  1628.7500      0.0000    680.4771      4.2812     76.8127
