~Version Information
VERS.                      2.0: CWLS Log ASCII Standard - VERSION 2.0
WRAP.                       NO: One line per depth step
~Well Information Block
STRT.FT               423.0000: 
STOP.FT              2308.2500: 
STEP.FT                 0.2500: 
NULL.                -999.2500: 
COMP.          Pioneer Natural Resources: COMPANY
WELL.             Culver 14-12: WELL
FLD.           Purgatoire River: FIELD
LOC.           913' FSL & 1140' FWL: LOCATION
PROV.                 Colorado: PROVINCE
CNTY.               Las Animas: COUNTRY
SRVC.                Patterson: SERVICE COMPANY
DATE.          Tue Jun 07 00:21:41 2005: LOG DATE
UWI.           05 071 08386 00: UNIQUE WELL ID
~Curve Information Block
DEPT.FT            0 000 00 00: Depth
SN.Ohm-m                      : IEL Short Normal
SP.mV                         : IEL Spontaneous Potential
DIR.Ohm-m                     : IEL Induction Resistivity
GR.GAPI                       : Gamma Ray
~Parameter Information Block
~A  Depth        SN          SP         DIR          GR     
# ...
  1763.0000      8.5567    -54.9204      8.7006    143.3830
  1763.2500      9.2149    -54.7372      9.0965    138.1508
  1763.5000     10.0820    -54.6226      9.5119    124.9345
  1763.7500     11.0742    -54.5721      9.9341    114.3305
  1764.0000     12.1591    -54.5676     10.3582     99.5198
  1764.2500     13.3997    -54.5863     10.7902     91.9355
  1764.5000     14.9254    -54.6089     11.2484     84.7931
  1764.7500     16.7530    -54.6231     11.7617     82.4956
  1765.0000     18.6615    -54.6204     12.3647     81.5743
  1765.2500     20.3619    -54.5920     13.0878     81.9599
  1765.5000     21.7311    -54.5272     13.9424     83.1331
  1765.7500     22.7864    -54.4157     14.9049     83.9687
  1766.0000     23.5215    -54.2488     15.9081     85.0861
  1766.2500     23.8680    -54.0210     16.8499     85.9060
  1766.5000     23.7973    -53.7348     17.6191     87.8822
  1766.7500     23.4152    -53.4045     18.1276     89.9542
  1767.0000     22.9322    -53.0516     18.3281     93.9217
  1767.2500     22.5070    -52.6949     18.2175     96.6879
  1767.5000     22.1029    -52.3443     17.8314    100.5197
  1767.7500     21.5282    -51.9999     17.2399    103.0255
  1768.0000     20.6176    -51.6553     16.5374    107.4861
  1768.2500     19.3584    -51.3017     15.8214    111.2342
  1768.5000     17.8816    -50.9295     15.1685    117.7611
  1768.7500     16.3619    -50.5318     14.6213    122.2297
  1769.0000     14.9137    -50.1093     14.1893    128.2253
  1769.2500     13.5928    -49.6777     13.8598    131.3554
  1769.5000     12.4875    -49.2695     13.6076    134.2705
  1769.7500     11.7294    -48.9294     13.4004    134.8498
  1770.0000     11.4082    -48.7021     13.2005    133.5570
  1770.2500     11.5416    -48.6165     12.9729    131.3643
  1770.5000     12.0650    -48.6761     12.6955    126.9003
  1770.7500     12.7721    -48.8604     12.3675    124.0743
  1771.0000     13.3633    -49.1357     12.0069    121.9135
  1771.2500     13.6246    -49.4685     11.6412    122.5751
  1771.5000     13.5273    -49.8342     11.2965    126.6755
  1771.7500     13.1761    -50.2173     10.9909    130.6959
  1772.0000     12.7050    -50.6040     10.7309    136.8013
  1772.2500     12.2020    -50.9722     10.5143    140.2196
  1772.5000     11.6916    -51.2936     10.3345    144.2707
  1772.7500     11.1750    -51.5476     10.1854    146.3383
  1773.0000     10.6786    -51.7354     10.0620    148.0464
  1773.2500     10.2580    -51.8801      9.9572    148.0101
  1773.5000      9.9629    -52.0116      9.8597    146.8986
  1773.7500      9.8111    -52.1486      9.7565    146.3070
  1774.0000      9.7948    -52.2880      9.6408    146.2677
  1774.2500      9.8799    -52.4068      9.5173    146.3374
  1774.5000      9.9982    -52.4747      9.4003    145.4397
  1774.7500     10.1011    -52.4690      9.3046    143.9481
  1775.0000     10.2075    -52.3836      9.2371    140.7091
  1775.2500     10.3451    -52.2270      9.1955    138.1515
  1775.5000     10.4865    -52.0137      9.1720    134.1472
  1775.7500     10.5703    -51.7580      9.1584    131.7537
  1776.0000     10.5579    -51.4739      9.1493    129.5859
  1776.2500     10.4665    -51.1801      9.1409    129.6399
  1776.5000     10.3599    -50.9001      9.1291    132.2277
  1776.7500     10.3018    -50.6522      9.1082    135.2393
  1777.0000     10.2851    -50.4340      9.0714    140.3435
  1777.2500     10.1879    -50.2173      9.0140    143.2161
  1777.5000      9.8516    -49.9591      8.9353    145.5042
  1777.7500      9.2487    -49.6230      8.8376    145.4996
  1778.0000      8.5445    -49.1980      8.7247    143.9893
  1778.2500      7.9736    -48.7033      8.6008    142.7976
  1778.5000      7.6852    -48.1784      8.4720    141.8270
  1778.7500      7.7086    -47.6653      8.3475    141.8578
  1779.0000      7.9831    -47.1894      8.2393    142.4157
  1779.2500      8.3638    -46.7502      8.1592    142.7165
  1779.5000      8.6622    -46.3273      8.1156    142.5247
  1779.7500      8.7715    -45.8983      8.1125    141.7347
  1780.0000      8.7529    -45.4588      8.1508    139.2496
  1780.2500      8.7683    -45.0284      8.2301    136.7009
  1780.5000      8.9329    -44.6376      8.3488    131.8550
  1780.7500      9.2277    -44.3063      8.5031    128.2561
  1781.0000      9.5410    -44.0333      8.6848    122.8018
  1781.2500      9.7843    -43.8014      8.8820    119.2638
  1781.5000      9.9594    -43.5918      9.0815    114.0319
  1781.7500     10.1502    -43.3959      9.2737    110.5643
  1782.0000     10.4899    -43.2203      9.4574    105.9469
  1782.2500     11.0696    -43.0855      9.6412    103.9852
  1782.5000     11.8216    -43.0202      9.8407    103.9570
  1782.7500     12.5345    -43.0519     10.0720    106.1052
  1783.0000     13.0292    -43.1960     10.3420    111.8033
  1783.2500     13.3034    -43.4492     10.6452    116.3631
  1783.5000     13.4742    -43.7922     10.9666    122.5619
  1783.7500     13.6275    -44.1987     11.2932    125.1361
  1784.0000     13.7767    -44.6415     11.6217    124.7295
  1784.2500     13.9279    -45.0937     11.9584    120.9469
  1784.5000     14.1228    -45.5308     12.3127    110.6715
  1784.7500     14.4192    -45.9375     12.6942    102.1624
  1785.0000     14.8628    -46.3122     13.1125     89.6313
  1785.2500     15.4786    -46.6646     13.5761     82.3982
  1785.5000     16.2627    -47.0058     14.0876     73.6589
  1785.7500     17.1868    -47.3416     14.6388     69.1802
  1786.0000     18.2035    -47.6735     15.2095     64.1806
  1786.2500     19.2290    -48.0019     15.7707     61.6334
  1786.5000     20.1506    -48.3282     16.2932     58.2974
  1786.7500     20.8763    -48.6539     16.7595     56.2247
  1787.0000     21.3709    -48.9804     17.1730     53.5392
  1787.2500     21.6605    -49.3049     17.5598     52.2444
  1787.5000     21.8174    -49.6162     17.9590     51.2032
  1787.7500     21.9166    -49.8986     18.4088     50.9648
  1788.0000     21.9998    -50.1448     18.9293     50.6854
  1788.2500     22.0737    -50.3622     19.5080     50.1742
  1788.5000     22.1259    -50.5607     20.0956     48.5807
  1788.7500     22.1410    -50.7374     20.6226     47.0242
  1789.0000     22.1082    -50.8794     21.0322     44.4032
  1789.2500     22.0247    -50.9798     21.3057     42.8234
  1789.5000     21.9116    -51.0460     21.4626     41.2961
  1789.7500     21.8216    -51.0955     21.5424     41.0952
  1790.0000     21.7912    -51.1473     21.5884     42.0882
  1790.2500     21.8034    -51.2157     21.6378     43.3704
  1790.5000     21.8310    -51.3078     21.7154     45.5838
  1790.7500     21.8748    -51.4252     21.8267     46.9861
  1791.0000     21.9443    -51.5678     21.9578     48.7233
  1791.2500     22.0430    -51.7369     22.0890     49.4286
  1791.5000     22.1747    -51.9383     22.2117     49.2674
  1791.7500     22.3458    -52.1834     22.3327     48.0963
  1792.0000     22.5523    -52.4852     22.4593     44.7829
  1792.2500     22.7656    -52.8495     22.5807     41.9075
  1792.5000     22.9409    -53.2640     22.6672     37.6514
  1792.7500     23.0420    -53.6999     22.6905     35.4528
  1793.0000     23.0619    -54.1260     22.6441     33.6257
  1793.2500     23.0238    -54.5256     22.5438     33.3168
  1793.5000     22.9589    -54.9007     22.4120     33.7432
  1793.7500     22.8810    -55.2636     22.2642     34.3625
  1794.0000     22.7817    -55.6240     22.1093     35.5482
  1794.2500     22.6372    -55.9816     21.9528     36.3699
  1794.5000     22.4183    -56.3256     21.7960     37.2396
  1794.7500     22.1136    -56.6397     21.6326     37.3665
  1795.0000     21.7413    -56.9089     21.4495     37.0394
  1795.2500     21.3287    -57.1243     21.2305     36.9210
  1795.5000     20.8934    -57.2864     20.9645     37.6720
  1795.7500     20.4492    -57.4052     20.6532     38.8681
  1796.0000     20.0088    -57.4992     20.3142     41.0786
  1796.2500     19.5810    -57.5914     19.9746     42.3470
