~Version Information
VERS.                      2.0: CWLS Log ASCII Standard - VERSION 2.0
WRAP.                       NO: One line per depth step
~Well Information Block
STRT.FT               768.0000: 
STOP.FT              2637.5000: 
STEP.FT                 0.2500: 
NULL.                -999.2500: 
COMP.          Pioneer Natural Resources: COMPANY
WELL.               Zink 44-10: WELL
FLD.           Purgatoire River: FIELD
LOC.           548' FSL & 473' FEL: LOCATION
PROV.                 Colorado: PROVINCE
CNTY.               Las Animas: COUNTRY
SRVC.                Patterson: SERVICE COMPANY
DATE.          Mon May 30 05:59:42 2005: LOG DATE
UWI.           05 071 08380 00: UNIQUE WELL ID
~Curve Information Block
DEPT.FT            0 000 00 00: Depth
SN.Ohm-m                      : IEL Short Normal
SP.mV                         : IEL Spontaneous Potential
DIR.Ohm-m                     : IEL Induction Resistivity
GR.GAPI                       : Gamma Ray
~Parameter Information Block
~A  Depth        SN          SP         DIR          GR     
# ...
  2007.5000      8.6441    -68.8162      8.4031    183.0566
  2007.7500      8.1952    -68.3426      8.2931    184.5811
  2008.0000      7.7347    -67.8244      8.1896    186.3538
  2008.2500      7.3944    -67.2638      8.0901    187.1123
  2008.5000      7.2655    -66.6716      7.9957    187.4098
  2008.7500      7.3080    -66.0684      7.9092    187.1313
  2009.0000      7.4505    -65.4784      7.8329    186.2787
  2009.2500      7.6725    -64.9206      7.7679    185.3888
  2009.5000      7.9372    -64.4039      7.7146    183.2176
  2009.7500      8.1644    -63.9271      7.6733    181.1013
  2010.0000      8.2951    -63.4839      7.6435    177.3431
  2010.2500      8.3244    -63.0699      7.6237    175.0995
  2010.5000      8.2762    -62.6880      7.6111    173.4483
  2010.7500      8.1844    -62.3486      7.6019    173.7806
  2011.0000      8.0883    -62.0636      7.5920    175.2782
  2011.2500      8.0127    -61.8405      7.5779    175.6503
  2011.5000      7.9600    -61.6812      7.5571    173.7924
  2011.7500      7.9177    -61.5835      7.5296    171.1668
  2012.0000      7.8741    -61.5405      7.4981    166.9875
  2012.2500      7.8388    -61.5379      7.4673    165.2359
  2012.5000      7.8238    -61.5558      7.4426    165.3282
  2012.7500      7.8159    -61.5758      7.4274    167.1811
  2013.0000      7.8019    -61.5906      7.4224    171.5385
  2013.2500      7.7867    -61.6088      7.4255    174.5048
  2013.5000      7.7783    -61.6488      7.4337    177.5505
  2013.7500      7.7782    -61.7254      7.4451    178.2128
  2014.0000      7.7816    -61.8399      7.4592    177.0028
  2014.2500      7.7808    -61.9823      7.4764    174.8124
  2014.5000      7.7732    -62.1407      7.4968    170.2343
  2014.7500      7.7648    -62.3063      7.5211    167.3019
  2015.0000      7.7653    -62.4756      7.5516    164.8366
  2015.2500      7.7842    -62.6511      7.5923    164.8418
  2015.5000      7.8286    -62.8438      7.6482    166.4895
  2015.7500      7.8998    -63.0696      7.7232    167.7442
  2016.0000      7.9905    -63.3428      7.8175    168.3722
  2016.2500      8.0888    -63.6729      7.9276    167.5530
  2016.5000      8.1866    -64.0669      8.0465    164.8487
  2016.7500      8.2771    -64.5346      8.1675    162.6018
  2017.0000      8.3527    -65.0876      8.2861    159.2448
  2017.2500      8.4186    -65.7298      8.4012    157.2617
  2017.5000      8.4979    -66.4528      8.5133    155.2511
  2017.7500      8.6149    -67.2460      8.6221    154.7829
  2018.0000      8.7811    -68.1075      8.7240    154.8937
  2018.2500      8.9955    -69.0415      8.8132    154.9027
  2018.5000      9.2336    -70.0417      8.8837    154.4105
  2018.7500      9.4410    -71.0810      8.9339    154.0917
  2019.0000      9.5601    -72.1187      8.9658    154.3798
  2019.2500      9.5718    -73.1194      8.9833    155.1321
  2019.5000      9.5152    -74.0661      8.9904    156.4841
  2019.7500      9.4685    -74.9569      8.9931    157.1268
  2020.0000      9.5025    -75.7928      9.0015    157.4853
  2020.2500      9.6384    -76.5680      9.0290    157.4278
  2020.5000      9.8408    -77.2714      9.0872    157.0907
  2020.7500     10.0368    -77.8918      9.1799    156.7695
  2021.0000     10.1428    -78.4162      9.3007    156.3967
  2021.2500     10.0969    -78.8255      9.4359    156.4388
  2021.5000      9.8893    -79.0914      9.5709    156.9400
  2021.7500      9.5606    -79.1779      9.6951    157.0977
  2022.0000      9.1802    -79.0454      9.8035    155.5759
  2022.2500      8.8278    -78.6553      9.8945    152.5952
  2022.5000      8.5688    -77.9762      9.9689    145.0001
  2022.7500      8.4614    -76.9983     10.0281    138.6617
  2023.0000      8.5995    -75.7544     10.0746    129.6047
  2023.2500      9.0791    -74.3355     10.1117    125.2838
  2023.5000      9.9033    -72.8768     10.1422    123.0979
  2023.7500     10.9354    -71.5136     10.1658    124.7869
  2024.0000     11.9159    -70.3380     10.1764    130.9268
  2024.2500     12.5742    -69.3844     10.1618    136.0261
  2024.5000     12.7926    -68.6438     10.1068    142.8214
  2024.7500     12.6488    -68.0827     10.0008    146.1776
  2025.0000     12.3061    -67.6546      9.8438    149.8884
  2025.2500     11.8664    -67.3094      9.6485    152.0223
  2025.5000     11.3225    -67.0072      9.4355    155.1323
  2025.7500     10.6727    -66.7249      9.2262    157.0003
  2026.0000     10.0249    -66.4502      9.0361    159.0688
  2026.2500      9.5157    -66.1753      8.8727    159.8932
  2026.5000      9.2102    -65.9005      8.7358    160.5178
  2026.7500      9.1219    -65.6412      8.6199    160.5168
  2027.0000      9.2461    -65.4262      8.5166    158.9919
  2027.2500      9.5280    -65.2795      8.4171    156.0623
  2027.5000      9.8389    -65.2014      8.3165    147.9718
  2027.7500     10.0507    -65.1639      8.2166    140.7765
  2028.0000     10.1286    -65.1304      8.1281    130.2265
  2028.2500     10.1225    -65.0791      8.0695    125.2270
  2028.5000     10.1131    -65.0112      8.0627    122.5182
  2028.7500     10.1709    -64.9382      8.1274    123.7788
  2029.0000     10.3141    -64.8624      8.2747    128.8010
  2029.2500     10.4866    -64.7702      8.5040    133.3099
  2029.5000     10.6097    -64.6454      8.8039    140.7155
  2029.7500     10.6630    -64.4879      9.1555    145.3565
  2030.0000     10.6840    -64.3186      9.5363    149.5417
  2030.2500     10.7292    -64.1651      9.9233    148.8625
  2030.5000     10.8647    -64.0442     10.2959    141.6904
  2030.7500     11.1623    -63.9551     10.6408    133.9866
  2031.0000     11.6811    -63.8865     10.9585    121.6865
  2031.2500     12.4484    -63.8295     11.2666    114.7781
  2031.5000     13.4308    -63.7832     11.5958    107.8465
  2031.7500     14.5113    -63.7482     11.9778    105.7093
  2032.0000     15.5113    -63.7147     12.4332    106.0710
  2032.2500     16.2893    -63.6597     12.9614    108.4380
  2032.5000     16.8603    -63.5603     13.5367    114.2901
  2032.7500     17.3852    -63.4117     14.1077    118.7000
  2033.0000     17.9903    -63.2332     14.6029    123.4437
  2033.2500     18.5987    -63.0576     14.9432    123.9284
  2033.5000     18.9645    -62.9120     15.0637    120.1711
  2033.7500     18.8798    -62.8056     14.9364    115.9877
  2034.0000     18.3332    -62.7298     14.5812    110.9820
  2034.2500     17.4846    -62.6684     14.0580    110.3681
  2034.5000     16.5348    -62.6097     13.4429    114.5835
  2034.7500     15.6202    -62.5538     12.8051    120.1766
  2035.0000     14.7791    -62.5126     12.1926    130.7490
  2035.2500     13.9819    -62.5051     11.6284    138.2262
  2035.5000     13.1903    -62.5524     11.1154    148.7788
  2035.7500     12.3989    -62.6734     10.6450    154.6564
  2036.0000     11.6404    -62.8784     10.2087    160.6462
  2036.2500     10.9637    -63.1679      9.8062    162.5928
  2036.5000     10.4074    -63.5369      9.4486    163.4009
  2036.7500      9.9894    -63.9829      9.1536    163.4192
  2037.0000      9.7107    -64.5082      8.9397    163.5119
  2037.2500      9.5638    -65.1194      8.8203    163.5097
  2037.5000      9.5412    -65.8246      8.8015    162.9011
  2037.7500      9.6274    -66.6292      8.8827    161.9877
  2038.0000      9.7977    -67.5316      9.0587    159.9716
  2038.2500     10.0396    -68.5177      9.3211    158.1446
  2038.5000     10.3652    -69.5593      9.6609    153.7930
  2038.7500     10.7933    -70.6204     10.0697    148.8394
  2039.0000     11.3318    -71.6659     10.5408    136.9877
  2039.2500     11.9992    -72.6687     11.0697    126.3577
  2039.5000     12.8767    -73.6115     11.6530    108.6287
  2039.7500     14.1415    -74.4848     12.2859     97.4191
  2040.0000     16.0095    -75.2843     12.9611     84.0345
  2040.2500     18.5237    -76.0067     13.6680     78.2439
  2040.5000     21.3293    -76.6450     14.3932     74.5554
  2040.7500     23.7755    -77.1888     15.1162     74.8775
