~Version Information
VERS.                      2.0: CWLS Log ASCII Standard - VERSION 2.0
WRAP.                       NO: One line per depth step
~Well Information Block
STRT.FT               -11.2500: 
STOP.FT              1597.0000: 
STEP.FT                 0.2500: 
NULL.                -999.2500: 
COMP.          Petrogulf Corporation: COMPANY
WELL.          Great Plains 22-21R: WELL
FLD.           Purgatorie River: FIELD
LOC.           73' FNL & 1992' FWL--: LOCATION
PROV.                       CO: PROVINCE
CNTY.               Las Animas: COUNTRY
SRVC.          Patterson Wireline: SERVICE COMPANY
DATE.          Fri Sep 09 09:02:35 2005: LOG DATE
UWI.           05 071 08343 00: UNIQUE WELL ID
~Curve Information Block
DEPT.FT            0 000 00 00: Depth
CCL.                          : Casing Collar Locator
TT3.usec                      : CBL 3' Travel Time
AMP3.mV                       : CBL 3' Amplitude
GR.GAPI                       : Gamma Ray
~Parameter Information Block
~A  Depth       CCL         TT3         AMP3         GR     
# ...
   826.2500      0.0000    734.7451      8.8385    150.9135
   826.5000      0.0000    747.5781      9.5023    151.3500
   826.7500      0.0000    760.4752      9.9747    147.9647
   827.0000      0.0000    770.3766     10.2553    140.4960
   827.2500      0.0000    774.8182     10.4097    130.2675
   827.5000      0.0000    772.8771     10.5134    118.9380
   827.7500      0.0000    766.0132     10.6001    108.0791
   828.0000      0.0000    758.4363     10.6613     99.6760
   828.2500      0.0000    755.3080     10.6892     95.8696
   828.5000      0.0000    758.4797     10.7047     97.5291
   828.7500      0.0000    764.3188     10.7395    103.3702
   829.0000      0.0000    766.8296     10.7970    110.8077
   829.2500      0.0000    762.0792     10.8431    117.5847
   829.5000      0.0000    749.6796     10.8375    122.7672
   829.7500      0.0000    733.0281     10.7726    126.6087
   830.0000      0.0000    719.2427     10.6808    129.6056
   830.2500      0.0000    715.5735     10.6029    131.5936
   830.5000      0.0000    723.2664     10.5512    131.8978
   830.7500      0.0000    736.1250     10.5103    130.3386
   831.0000      0.0000    746.4285     10.4693    127.7086
   831.2500      0.0000    751.4090     10.4395    125.2731
   831.5000      0.0000    753.3844     10.4355    124.0924
   831.7500      0.0000    755.2606     10.4511    124.4979
   832.0000      0.0000    757.7128     10.4640    125.6138
   832.2500      0.0000    759.8747     10.4564    125.6021
   832.5000      0.0000    760.7108     10.4227    123.0846
   832.7500      0.0000    759.4717     10.3587    118.4279
   833.0000      0.0000    756.0786     10.2545    113.3599
   833.2500      0.0000    751.6737     10.1013    109.4172
   833.5000      0.0000    748.1432      9.9032    107.0232
   833.7500      0.0000    746.6404      9.6789    105.7996
   834.0000      0.0000    746.8233      9.4506    105.2982
   834.2500      0.0000    747.6205      9.2327    105.3231
   834.5000      0.0000    748.3323      9.0296    105.8721
   834.7500      0.0000    748.9240      8.8425    107.0646
   835.0000      0.0000    749.6837      8.6753    109.1750
   835.2500      0.0000    750.9150      8.5339    112.4555
   835.5000      0.0000    752.5952      8.4217    116.5282
   835.7500      0.0000    753.7563      8.3370    119.8018
   836.0000      0.0000    752.1254      8.2750    119.9904
   836.2500      0.0000    745.3419      8.2304    115.8891
   836.5000      0.0000    733.4115      8.2003    108.7732
   836.7500      0.0000    719.4643      8.1835    101.8574
   837.0000      0.0000    707.1567      8.1778     98.3514
   837.2500      0.0000    697.9317      8.1821     99.8019
   837.5000      0.0000    691.7946      8.2016    105.4908
   837.7500      0.0000    689.4309      8.2526    112.7149
   838.0000      0.0000    691.5809      8.3579    118.1388
   838.2500      0.0000    697.0557      8.5305    119.9065
   838.5000      0.0000    703.2193      8.7567    118.8062
   838.7500      0.0000    708.1299      9.0010    117.2274
   839.0000      0.0000    711.3589      9.2294    117.0676
   839.2500      0.0000    714.0334      9.4297    118.5141
   839.5000      0.0000    718.5871      9.6071    120.1915
   839.7500      0.0000    726.3555      9.7693    120.1157
   840.0000      0.0000    734.9230      9.9164    116.9444
   840.2500      0.0000    739.8173     10.0388    110.8371
   840.5000      0.0000    739.1133     10.1223    103.2613
   840.7500      0.0000    735.1507     10.1602     95.8324
   841.0000      0.0000    732.0938     10.1627     89.2049
   841.2500      0.0000    732.9042     10.1536     83.0945
   841.5000      0.0000    738.2113     10.1557     77.2294
   841.7500      0.0000    746.8840     10.1791     71.8616
   842.0000      0.0000    757.2285     10.2207     67.2988
   842.2500      0.0000    767.5051     10.2705     63.4529
   842.5000      0.0000    775.6091     10.3196     60.1894
   842.7500      0.0000    779.4730     10.3646     57.7352
   843.0000      0.0000    778.5878     10.4041     56.3747
   843.2500      0.0000    774.6340     10.4355     56.0414
   843.5000      0.0000    769.9075     10.4544     56.4644
   843.7500      0.0000    765.4522     10.4572     57.4884
   844.0000      0.0000    761.1908     10.4423     58.9322
   844.2500      0.0000    757.2024     10.4145     60.2461
   844.5000      0.0000    754.0349     10.3865     60.7099
   844.7500      0.0000    752.0261     10.3752     60.1305
   845.0000      0.0000    750.9872     10.3907     59.1401
   845.2500      0.0000    750.5105     10.4301     58.7558
   845.5000      0.0000    750.2336     10.4810     59.7186
   845.7500      0.0000    749.6699     10.5344     61.9999
   846.0000      0.0000    747.7835     10.5989     64.5889
   846.2500      0.0000    742.7465     10.7038     65.9369
   846.5000      0.0000    732.5071     10.8735     65.0369
   846.7500      0.0000    716.5339     11.0780     62.2253
   847.0000      0.0000    697.0969     11.2088     58.8881
   847.2500      0.0000    677.5627     11.1429     56.3728
   847.5000      0.0000    659.2281     10.8676     55.1876
   847.7500      0.0000    642.0375     10.5253     55.0259
   848.0000      0.0000    628.5029     10.2974     55.3745
   848.2500      0.0000    623.3076     10.2509     56.3177
   848.5000     -2.0000    628.1830     10.3150     58.8141
   848.7500      0.0000    640.4104     10.3777     63.7303
   849.0000      0.0000    656.3361     10.3779     70.4326
   849.2500      0.0000    673.0883     10.3427     76.7900
   849.5000      0.0000    687.5259     10.3796     80.8723
   849.7500      0.0000    696.1585     10.6125     82.5481
   850.0000      0.0000    696.5612     11.0796     83.3863
   850.2500      0.0000    689.6733     11.6946     85.1108
   850.5000      0.0000    682.1701     12.3186     88.1971
   850.7500      0.0000    683.9991     12.8452     91.9668
   851.0000      0.0000    699.6158     13.2204     95.8781
   851.2500      0.0000    722.7479     13.4432    100.4379
   851.5000      0.0000    742.4131     13.5752    106.5931
   851.7500      0.0000    752.6752     13.7158    114.2274
   852.0000      0.0000    755.0625     13.9333    121.6619
   852.2500      0.0000    754.0602     14.2189    126.7968
   852.5000      0.0000    752.8127     14.5006    128.4381
   852.7500      0.0000    752.3095     14.6892    126.6657
   853.0000      0.0000    752.4701     14.7127    122.7834
   853.2500      0.0000    753.0800     14.5367    119.3001
   853.5000      0.0000    754.1802     14.1740    119.2879
   853.7500      0.0000    755.9760     13.6802    124.7291
   854.0000      0.0000    758.4056     13.1296    134.7204
   854.2500      0.0000    760.6375     12.5832    145.2826
   854.5000      0.0000    761.3544     12.0654    151.7706
   854.7500      0.0000    759.9070     11.5573    152.2672
   855.0000      0.0000    757.0568     11.0132    148.6412
   855.2500      0.0000    754.3896     10.3995    144.1903
   855.5000      0.0000    753.5349      9.7288    140.5408
   855.7500      0.0000    756.7098      9.0582    137.0141
   856.0000      0.0000    768.1953      8.4535    132.5960
   856.2500      0.0000    794.0289      7.9515    127.7273
   856.5000      0.0000    837.0228      7.5520    123.7722
   856.7500      0.0000    889.1179      7.2387    121.0909
   857.0000      0.0000    930.3314      6.9984    118.2126
   857.2500      0.0000    940.7674      6.8220    112.9904
   857.5000      0.0000    916.1204      6.6996    104.2262
   857.7500      0.0000    869.5372      6.6225     92.2459
   858.0000      0.0000    818.8089      6.5868     78.5509
   858.2500      0.0000    774.8799      6.5928     65.2009
   858.5000      0.0000    741.3765      6.6417     54.0735
   858.7500      0.0000    719.0228      6.7305     46.1790
   859.0000      0.0000    707.0656      6.8476     41.4475
   859.2500      0.0000    702.5487      6.9774     39.0714
   859.5000      0.0000    701.4966      7.1051     37.9979
