~Version Information
 VERS.                                  2.0 : CWLS LAS VERSION
 WRAP.                                   NO : WRAPING MODE
 SWARE .                 MController 2.5.0N : SOFTWARE VERSION
~Well Information
 WELL.                         Vector 33-23 : WELL
 COMP.    Pioneer Natural Resources USA Inc : COMPANY
 FLD.                      Purgatoire River : FIELD
 LOC.                NW/SE Sec 23 T32S R66W : LOCATION
 DATE.                              3/25/05 : DATE(S) LOGGED
 SRVC.       Blanco Geological Services LLC : SERVICE COMPANY
 STAT.                                   CO : STATE
 CNTY.                           Las Animas : COUNTY
 CTRY.                                  USA : COUNTRY
 API.                       05-071-08336-00 : API NUMBER
 STRT.FT                             770.00 : START DEPTH
 STOP.FT                            2300.00 : STOP DEPTH
 STEP.FT                               1.00 : DEPTH INCREMENT
 NULL.                                -9999 : NULL VALUE
~Curve information
 DEPTH.FT                                   :
 ROP.MIN/FT                                 :
 GAS.UNITS                                  :
~ASCII Log data
# ...
      1170.0         0.20          6.4 
      1171.0         0.20          7.6 
      1172.0         0.23          7.2 
      1173.0         0.17          7.1 
      1174.0         0.20          7.2 
      1175.0         0.17          6.9 
      1176.0         0.20          7.0 
      1177.0         0.20          6.4 
      1178.0         0.20          6.3 
      1179.0         0.13          6.6 
      1180.0         0.13          7.1 
      1181.0         0.17          7.2 
      1182.0         0.17          6.8 
      1183.0         0.17          7.1 
      1184.0         0.48          7.4 
      1185.0         0.37          7.8 
      1186.0         0.17          6.9 
      1187.0         0.17          6.2 
      1188.0         0.17          7.1 
      1189.0         0.13          6.8 
      1190.0         0.13          7.8 
      1191.0         0.17          7.2 
      1192.0         0.13          6.6 
      1193.0         0.13          7.0 
      1194.0         0.17          7.6 
      1195.0         0.40          7.5 
      1196.0         1.78          7.8 
      1197.0         0.80          7.6 
      1198.0         0.57          7.5 
      1199.0         0.47          6.7 
      1200.0         0.40          7.0 
      1201.0         0.38          7.1 
      1202.0         0.43          8.2 
      1203.0         0.40          7.5 
      1204.0         0.23          7.5 
      1205.0         0.17          6.7 
      1206.0         0.23          6.8 
      1207.0         0.20          7.4 
      1208.0         0.17          7.7 
      1209.0         0.17          7.1 
      1210.0         0.20          7.4 
      1211.0         0.27          7.8 
      1212.0         0.13          7.4 
      1213.0         0.23          7.4 
      1214.0         0.17          6.6 
      1215.0         0.18          6.8 
      1216.0         0.23          7.0 
      1217.0         0.20          8.0 
      1218.0         0.13          7.4 
      1219.0         0.20          7.4 
      1220.0         0.13          6.8 
      1221.0         0.17          7.4 
      1222.0         0.17          7.5 
      1223.0         0.17          7.0 
      1224.0         0.13          7.0 
      1225.0         0.13          7.2 
      1226.0         2.35          7.7 
      1227.0         0.27          7.2 
      1228.0         0.17          6.7 
      1229.0         0.80          7.5 
      1230.0         0.13          8.0 
      1231.0         0.27          8.1 
      1232.0         0.23          7.3 
      1233.0         0.17          6.5 
      1234.0         0.20          7.0 
      1235.0         0.17          8.0 
      1236.0         0.20          9.2 
      1237.0         0.18         19.8 
      1238.0         0.13         23.4 
      1239.0         0.13         15.1 
      1240.0         0.10          8.1 
      1241.0         0.17          7.0 
      1242.0         0.07          6.9 
      1243.0         0.13          7.2 
      1244.0         0.17          7.1 
      1245.0         0.13          7.6 
      1246.0         0.17          6.1 
      1247.0         0.17          6.0 
      1248.0         0.20          5.6 
      1249.0         0.17          5.0 
      1250.0         0.23          4.7 
      1251.0         0.20          4.6 
      1252.0         0.10          4.7 
      1253.0         0.20          4.5 
      1254.0         0.10          4.9 
      1255.0         0.20          4.3 
      1256.0         3.18          5.3 
      1257.0         0.47          4.8 
      1258.0         0.22          3.9 
      1259.0         0.17          4.4 
      1260.0         0.17          4.1 
      1261.0         0.23          4.3 
      1262.0         0.17          4.1 
      1263.0         0.17          4.4 
      1264.0         0.17          4.5 
      1265.0         0.20          4.2 
      1266.0         0.17          4.3 
      1267.0         0.17          4.0 
      1268.0         0.17          3.9 
      1269.0         0.20          3.8 
      1270.0         0.17          3.8 
      1271.0         0.17          3.8 
      1272.0         0.17          4.6 
      1273.0         0.17          4.4 
      1274.0         0.20          4.2 
      1275.0         0.23          4.9 
      1276.0         0.22          4.5 
      1277.0         0.20          4.2 
      1278.0         0.17          4.1 
      1279.0         0.17          4.8 
      1280.0         0.17          4.9 
      1281.0         0.17          4.2 
      1282.0         0.17          4.3 
      1283.0         0.17          3.7 
      1284.0         0.23          4.2 
      1285.0         0.10          3.8 
      1286.0         2.22          4.5 
      1287.0         0.27          4.9 
      1288.0         0.20          5.1 
      1289.0         0.20          4.9 
      1290.0         0.20          4.8 
      1291.0         0.17          3.8 
      1292.0         0.17          3.1 
      1293.0         0.20          3.3 
      1294.0         0.20          2.6 
      1295.0         0.17          2.5 
      1296.0         0.13          2.6 
      1297.0         0.13          2.9 
      1298.0         0.10          3.1 
      1299.0         0.13          3.0 
      1300.0         0.13          2.9 
      1301.0         0.30          3.2 
      1302.0         0.35          3.4 
      1303.0         0.20         10.6 
      1304.0         0.23         45.5 
      1305.0         0.47         75.5 
      1306.0         0.37        110.3 
      1307.0         0.20        124.8 
      1308.0         0.17        127.0 
      1309.0         0.17        125.7 
      1310.0         0.17        114.1 
      1311.0         0.20        102.3 
      1312.0         0.17        109.1 
      1313.0         0.23        139.3 
      1314.0         0.17        170.3 
      1315.0         0.20        229.8 
      1316.0         2.35        338.8 
      1317.0         0.27        131.6 
      1318.0         0.27        118.1 
      1319.0         0.17        108.7 
      1320.0         0.17        103.6 
      1321.0         0.13         98.5 
      1322.0         0.13         95.3 
      1323.0         0.18         92.7 
      1324.0         0.17         88.5 
      1325.0         0.10         86.0 
      1326.0         0.13         84.1 
      1327.0         0.27         82.8 
      1328.0         0.27         80.6 
      1329.0         0.20         79.7 
      1330.0         0.20         80.0 
      1331.0         0.20         79.6 
      1332.0         0.17         79.6 
      1333.0         0.20         78.4 
      1334.0         0.17         77.1 
      1335.0         0.17         77.0 
      1336.0         0.17         75.7 
      1337.0         0.17         72.4 
      1338.0         0.20         68.9 
      1339.0         0.20         65.2 
      1340.0         0.20         60.8 
      1341.0         0.25         54.8 
      1342.0         0.17         50.9 
      1343.0         0.10         50.6 
      1344.0         0.10         50.5 
      1345.0         0.10         53.6 
      1346.0         2.85        234.8 
      1347.0         0.43        117.2 
      1348.0         0.33         97.8 
      1349.0         0.40         91.0 
      1350.0         0.43         85.5 
      1351.0         0.43         81.0 
      1352.0         0.27         78.3 
      1353.0         0.20         76.1 
      1354.0         0.20         71.4 
      1355.0         0.23         66.8 
      1356.0         0.25         72.8 
      1357.0         0.23         79.3 
      1358.0         0.17         82.1 
      1359.0         0.20         83.6 
      1360.0         0.17         84.8 
      1361.0         0.17         85.1 
      1362.0         0.17         85.0 
      1363.0         0.17         83.3 
      1364.0         0.20         81.8 
      1365.0         0.17         79.9 
      1366.0         0.20         79.9 
      1367.0         0.23         79.7 
      1368.0         0.20         78.3 
      1369.0         0.20         75.2 
