~Version Information
VERS.                      2.0: CWLS Log ASCII Standard - VERSION 2.0
WRAP.                       NO: One line per depth step
~Well Information Block
STRT.FT                39.7500: 
STOP.FT              1484.0000: 
STEP.FT                 0.2500: 
NULL.                -999.2500: 
COMP.          Evergreen Operating Corporation: COMPANY
WELL.              Chase 21-10: WELL
FLD.           Purgatoire River: FIELD
LOC.           1122' FNL & 1544' FWL: LOCATION
PROV.                       CO: PROVINCE
CNTY.               Las Animas: COUNTRY
SRVC.                         : SERVICE COMPANY
DATE.          Fri May 28 15:54:16 2004: LOG DATE
UWI.           05 071 08006 00: UNIQUE WELL ID
~Curve Information Block
DEPT.FT            0 000 00 00: Depth
TT3.usec                      : CBL 3' Travel Time
AMP3.mV                       : CBL 3' Amplitude
GR.GAPI                       : Gamma Ray
CCL.                          : Casing Collar Locator
~Parameter Information Block
~A  Depth       TT3         AMP3         GR         CCL     
# ...
  1245.7500    765.3962      6.3196     78.4608      0.0000
  1246.0000    766.7628      6.3491     78.2315      0.0000
  1246.2500    765.7183      6.3496     78.0159      0.0000
  1246.5000    761.4272      6.3299     77.6753      0.0000
  1246.7500    751.6232      6.3215     77.3277      0.0000
  1247.0000    734.2051      6.3616     77.3056      0.0000
  1247.2500    709.5112      6.4668     77.8990      0.0000
  1247.5000    681.2756      6.6198     79.2499      0.0000
  1247.7500    654.8607      6.7774     81.4004      0.0000
  1248.0000    634.1255      6.8937     84.0992      0.0000
  1248.2500    619.6454      6.9436     86.5573      0.0000
  1248.5000    609.3016      6.9309     87.7453      0.0000
  1248.7500    600.4059      6.8773     87.1607      0.0000
  1249.0000    591.7729      6.8053     85.1433      0.0000
  1249.2500    584.1298      6.7315     82.4593      0.0000
  1249.5000    578.8027      6.6692     79.9180      0.0000
  1249.7500    576.5609      6.6274     78.3813      0.0000
  1250.0000    578.0148      6.6077     78.5613      0.0000
  1250.2500    584.8548      6.6063     80.3568      0.0000
  1250.5000    600.0078      6.6196     82.5991      0.0000
  1250.7500    625.4532      6.6438     83.9107      0.0000
  1251.0000    658.9559      6.6710     83.9329      0.0000
  1251.2500    693.3672      6.6886     83.5542      0.0000
  1251.5000    720.5109      6.6849     83.8862      0.0000
  1251.7500    736.3352      6.6549     85.1776      0.0000
  1252.0000    742.2561      6.6033     86.7473      0.0000
  1252.2500    742.2796      6.5378     87.7238      0.0000
  1252.5000    739.3493      6.4606     87.6219      0.0000
  1252.7500    733.7654      6.3684     86.3505      0.0000
  1253.0000    724.2089      6.2630     84.0109      0.0000
  1253.2500    709.9706      6.1569     80.8958      0.0000
  1253.5000    691.9084      6.0651     77.5631      0.0000
  1253.7500    671.7741      5.9962     74.6681      0.0000
  1254.0000    651.9681      5.9514     72.5121      0.0000
  1254.2500    635.8442      5.9299     70.7481      0.0000
  1254.5000    626.8457      5.9305     68.7560      0.0000
  1254.7500    627.3232      5.9492     66.4040      0.0000
  1255.0000    638.5767      5.9770     64.2871      0.0000
  1255.2500    660.3815      6.0039     63.2050      0.0000
  1255.5000    689.1688      6.0274     63.5151      0.0000
  1255.7500    718.1927      6.0549     64.8453      0.0000
  1256.0000    741.1941      6.0979     66.1753      0.0000
  1256.2500    755.7867      6.1636     66.2428      0.0000
  1256.5000    763.3076      6.2520     64.2254      0.0000
  1256.7500    766.4880      6.3565     60.4335      0.0000
  1257.0000    767.5815      6.4642     56.4219      0.0000
  1257.2500    767.8176      6.5604     54.1711      0.0000
  1257.5000    767.5270      6.6364     54.8281      0.0000
  1257.7500    766.2152      6.6931     58.0436      0.0000
  1258.0000    762.3436      6.7369     62.4058      0.0000
  1258.2500    753.2079      6.7708     66.4585      0.0000
  1258.5000    735.9088      6.7924     69.4317      0.0000
  1258.7500    709.9442      6.8011     71.4128      0.0000
  1259.0000    679.9772      6.8034     73.0870      0.0000
  1259.2500    655.5341      6.8091     75.0821      0.0000
  1259.5000    645.7018      6.8211     77.1800      0.0000
  1259.7500    652.1749      6.8334     78.3021      0.0000
  1260.0000    667.3487      6.8389     77.6054      0.0000
  1260.2500    680.0836      6.8377     75.5364      0.0000
  1260.5000    683.3337      6.8375     73.5157      0.0000
  1260.7500    676.4423      6.8459     72.6291      0.0000
  1261.0000    662.5845      6.8628     72.8471      0.0000
  1261.2500    646.5549      6.8802     73.4777      0.0000
  1261.5000    634.2978      6.8904     73.9544      0.0000
  1261.7500    631.7062      6.8939     74.0945      0.0000
  1262.0000    641.9040      6.9006     73.9520      0.0000
  1262.2500    663.0844      6.9209     73.4979      0.0000
  1262.5000    689.0624      6.9542     72.2266      0.0000
  1262.7500    712.5967      6.9877     69.4382      0.0000
  1263.0000    729.1592      7.0071     65.3781      0.0000
  1263.2500    738.2604      7.0074     61.7022      0.0000
  1263.5000    741.8600      6.9869     60.1064      0.0000
  1263.7500    742.0806      6.9335     60.6578      0.0000
  1264.0000    739.9335      6.8244     62.0133      0.0000
  1264.2500    735.1648      6.6552     63.0366      0.0000
  1264.5000    726.6642      6.4738     63.5490      0.0000
  1264.7500    712.9439      6.3658     63.7205      0.0000
  1265.0000    692.0709      6.3804     63.6354      0.0000
  1265.2500    661.7074      6.4859     63.6383      0.0000
  1265.5000    621.3070      6.6270     64.2634      0.0000
  1265.7500    576.3486      6.7978     65.3613      0.0000
  1266.0000    539.3337      7.0179     65.8371      3.0000
  1266.2500    523.5029      7.2643     64.7606      3.0000
  1266.5000    534.1891      7.4682     62.4703     -3.0000
  1266.7500    566.7576      7.5654     60.2495      0.0000
  1267.0000    611.6417      7.5366     59.0902      0.0000
  1267.2500    659.0126      7.4234     59.0760      0.0000
  1267.5000    699.9461      7.3065     59.7792      0.0000
  1267.7500    727.6898      7.2380     60.8327      0.0000
  1268.0000    740.0308      7.1936     61.9566      0.0000
  1268.2500    739.6226      7.1233     62.6266      0.0000
  1268.5000    731.4330      7.0294     62.0354      0.0000
  1268.7500    719.9518      6.9531     59.6206      0.0000
  1269.0000    708.3160      6.9085     55.7531      0.0000
  1269.2500    698.7878      6.8731     51.8164      0.0000
  1269.5000    692.9672      6.8265     49.3478      0.0000
  1269.7500    691.7890      6.7691     48.9366      0.0000
  1270.0000    695.8530      6.7121     49.9168      0.0000
  1270.2500    705.5040      6.6686     51.0216      0.0000
  1270.5000    719.8629      6.6523     51.3034      0.0000
  1270.7500    736.0308      6.6715     50.5994      0.0000
  1271.0000    750.1747      6.7224     49.3371      0.0000
  1271.2500    759.8270      6.7904     48.0216      0.0000
  1271.5000    764.9642      6.8599     46.8969      0.0000
  1271.7500    767.0937      6.9207     45.9985      0.0000
  1272.0000    767.7651      6.9691     45.4118      0.0000
  1272.2500    767.8453      7.0097     45.4018      0.0000
  1272.5000    767.5070      7.0573     46.2385      0.0000
  1272.7500    766.3583      7.1330     47.9499      0.0000
  1273.0000    763.5468      7.2526     50.3717      0.0000
  1273.2500    758.0810      7.4145     53.3638      0.0000
  1273.5000    749.3698      7.5986     56.8839      0.0000
  1273.7500    737.4655      7.7796     60.9419      0.0000
  1274.0000    722.7614      7.9430     65.4069      0.0000
  1274.2500    706.0074      8.0857     69.5853      0.0000
  1274.5000    689.2072      8.1969     72.1657      0.0000
  1274.7500    676.2181      8.2427     72.0767      0.0000
  1275.0000    671.4979      8.1804     69.4729      0.0000
  1275.2500    677.4160      7.9937     65.6190      0.0000
  1275.5000    692.2017      7.7097     61.8326      0.0000
  1275.7500    710.4091      7.3788     58.7788      0.0000
  1276.0000    726.0786      7.0367     56.7343      0.0000
  1276.2500    736.2806      6.6888     56.1524      0.0000
  1276.5000    741.9206      6.3243     57.6361      0.0000
  1276.7500    745.2888      5.9435     61.2945      0.0000
  1277.0000    747.1859      5.5696     66.2783      0.0000
  1277.2500    746.7564      5.2357     70.9981      0.0000
  1277.5000    743.9291      4.9603     73.8056      0.0000
  1277.7500    741.1326      4.7379     73.6732      0.0000
  1278.0000    741.6580      4.5507     70.6467      0.0000
  1278.2500    746.2874      4.3834     65.9364      0.0000
  1278.5000    752.1427      4.2276     61.4608      0.0000
  1278.7500    754.8688      4.0784     58.8094      0.0000
  1279.0000    751.5128      3.9335     58.2612      0.0000
