~Version Information
VERS.                      2.0: CWLS Log ASCII Standard - VERSION 2.0
WRAP.                       NO: One line per depth step
~Well Information Block
STRT.FT               265.0000: 
STOP.FT              1214.0000: 
STEP.FT                 0.2500: 
NULL.                -999.2500: 
COMP.          Pioneer Natural Resources: COMPANY
WELL.          Pacheco 33-27 Tr: WELL
FLD.           Purgatoire River: FIELD
LOC.           2251' FSL & 2342' FEL: LOCATION
PROV.                 Colorado: PROVINCE
CNTY.               Las Animas: COUNTRY
SRVC.                Patterson: SERVICE COMPANY
DATE.          Fri Jun 10 13:29:04 2005: LOG DATE
UWI.           05 071 08384 00: UNIQUE WELL ID
~Curve Information Block
DEPT.FT            0 000 00 00: Depth
SN.Ohm-m                      : IEL Short Normal
SP.mV                         : IEL Spontaneous Potential
DIR.Ohm-m                     : IEL Induction Resistivity
GR.GAPI                       : Gamma Ray
~Parameter Information Block
~A  Depth        SN          SP         DIR          GR     
# ...
  1035.5000     12.6726      9.0424     10.7427    128.1775
  1035.7500     13.2628      9.1956     11.1450    125.3764
  1036.0000     13.6866      9.2659     11.5188    118.2842
  1036.2500     14.0019      9.2518     11.8327    112.2445
  1036.5000     14.3020      9.1684     12.0662    102.5458
  1036.7500     14.6216      9.0427     12.2119     96.6963
  1037.0000     14.9886      8.9017     12.2769     90.6930
  1037.2500     15.4562      8.7623     12.2792     89.1329
  1037.5000     15.9970      8.6303     12.2388     90.2106
  1037.7500     16.4605      8.5078     12.1669     92.5581
  1038.0000     16.6856      8.4014     12.0619     97.2466
  1038.2500     16.5769      8.3230     11.9140    100.5888
  1038.5000     16.1113      8.2805     11.7171    105.5194
  1038.7500     15.3773      8.2681     11.4780    108.7594
  1039.0000     14.5600      8.2656     11.2153    113.5249
  1039.2500     13.8344      8.2510     10.9493    116.4877
  1039.5000     13.2548      8.2165     10.6920    120.3275
  1039.7500     12.7274      8.1771     10.4452    122.3703
  1040.0000     12.1534      8.1620     10.2082    124.4272
  1040.2500     11.6016      8.1937      9.9863    125.0532
  1040.5000     11.2364      8.2724      9.7945    125.3119
  1040.7500     11.0923      8.3773      9.6520    125.5793
  1041.0000     11.0691      8.4824      9.5741    126.7232
  1041.2500     11.1070      8.5750      9.5686    127.7527
  1041.5000     11.2218      8.6660      9.6391    128.5341
  1041.7500     11.4220      8.7845      9.7909    127.8504
  1042.0000     11.7141      8.9544     10.0353    124.4113
  1042.2500     12.1945      9.1716     10.3864    120.6081
  1042.5000     13.0074      9.4068     10.8540    113.4597
  1042.7500     14.1813      9.6289     11.4375    108.3500
  1043.0000     15.6136      9.8191     12.1267    100.8173
  1043.2500     17.1821      9.9617     12.9117     95.7766
  1043.5000     18.7946     10.0343     13.7954     87.4471
  1043.7500     20.4019     10.0134     14.7945     81.0985
  1044.0000     22.0407      9.8938     15.9249     70.8058
  1044.2500     23.8160      9.6995     17.1794     64.0892
  1044.5000     25.8140      9.4744     18.5163     55.3253
  1044.7500     28.1047      9.2604     19.8657     50.7282
  1045.0000     30.7369      9.0795     21.1496     45.9172
  1045.2500     33.5691      8.9311     22.3024     44.0357
  1045.5000     36.1913      8.7979     23.2819     42.7489
  1045.7500     38.1357      8.6541     24.0706     42.5615
  1046.0000     39.1277      8.4733     24.6714     43.0640
  1046.2500     39.1295      8.2384     25.1007     44.2234
  1046.5000     38.2593      7.9490     25.3792     48.1338
  1046.7500     36.7397      7.6176     25.5172     52.4792
  1047.0000     34.8884      7.2597     25.5041     60.7998
  1047.2500     33.0537      6.8835     25.3111     66.3001
  1047.5000     31.4543      6.4890     24.9095     72.0102
  1047.7500     30.1035      6.0705     24.2904     73.2765
  1048.0000     28.9435      5.6221     23.4744     71.7565
  1048.2500     27.9654      5.1419     22.5094     69.5769
  1048.5000     27.1548      4.6311     21.4616     66.8660
  1048.7500     26.4213      4.0891     20.4014     66.4611
  1049.0000     25.6202      3.5192     19.3851     68.8200
  1049.2500     24.6434      2.9468     18.4434     72.3725
  1049.5000     23.5116      2.4231     17.5832     79.7616
  1049.7500     22.3334      1.9993     16.8004     85.0276
  1050.0000     21.1824      1.6967     16.0928     91.5715
  1050.2500     20.0772      1.5037     15.4639     94.5041
  1050.5000     19.0184      1.3956     14.9164     97.2732
  1050.7500     17.9814      1.3563     14.4434     98.8621
  1051.0000     16.9475      1.3832     14.0267    102.1527
  1051.2500     15.9446      1.4740     13.6432    105.1362
  1051.5000     15.0448      1.6129     13.2759    109.9025
  1051.7500     14.3675      1.7715     12.9205    112.4268
  1052.0000     13.9786      1.9197     12.5832    114.4724
  1052.2500     13.7730      2.0358     12.2741    115.0052
  1052.5000     13.6016      2.1100     12.0007    115.7902
  1052.7500     13.4264      2.1460     11.7665    116.6889
  1053.0000     13.2776      2.1552     11.5732    118.2006
  1053.2500     13.1784      2.1513     11.4235    118.8488
  1053.5000     13.1119      2.1497     11.3198    118.8222
  1053.7500     13.0397      2.1668     11.2595    118.0788
  1054.0000     12.9447      2.2072     11.2314    115.9511
  1054.2500     12.8371      2.2529     11.2156    114.0749
  1054.5000     12.7570      2.2743     11.1899    111.4178
  1054.7500     12.7445      2.2549     11.1376    110.4114
  1055.0000     12.7880      2.2022     11.0528    110.9549
  1055.2500     12.8402      2.1350     10.9388    112.7980
  1055.5000     12.8646      2.0690     10.8024    117.0619
  1055.7500     12.8238      2.0167     10.6461    120.1253
  1056.0000     12.6829      2.0004     10.4656    123.7860
  1056.2500     12.4871      2.0632     10.2539    125.1800
  1056.5000     12.3000      2.2645     10.0097    125.4097
  1056.7500     12.0361      2.6618      9.7437    124.2304
  1057.0000     11.5326      3.2880      9.4761    120.6176
  1057.2500     10.7621      4.1378      9.2257    117.5765
  1057.5000      9.8767      5.1665      8.9991    113.9347
  1057.7500      9.1109      6.2978      8.7881    113.1406
  1058.0000      8.6522      7.4393      8.5796    114.6969
  1058.2500      8.5429      8.5059      8.3678    116.6638
  1058.5000      8.6798      9.4461      8.1589    118.6698
  1058.7500      8.9061     10.2562      7.9647    118.4936
  1059.0000      9.1165     10.9701      7.7926    116.0597
  1059.2500      9.3002     11.6282      7.6423    113.5950
  1059.5000      9.4618     12.2462      7.5097    109.4671
  1059.7500      9.5435     12.8065      7.3937    106.6343
  1060.0000      9.5257     13.2772      7.2980    102.6749
  1060.2500      9.4982     13.6372      7.2302    100.7442
  1060.5000      9.5353     13.8883      7.1978     99.9086
  1060.7500      9.5849     14.0514      7.2065    100.9046
  1061.0000      9.5611     14.1551      7.2601    103.9030
  1061.2500      9.4916     14.2242      7.3620    106.0006
  1061.5000      9.4726     14.2767      7.5136    108.0673
  1061.7500      9.5414     14.3290      7.7131    108.6148
  1062.0000      9.7006     14.3968      7.9531    108.7190
  1062.2500      9.9515     14.4842      8.2210    108.4060
  1062.5000     10.2189     14.5748      8.5029    106.5909
  1062.7500     10.4181     14.6360      8.7897    103.9391
  1063.0000     10.5918     14.6358      9.0812     97.9205
  1063.2500     10.8277     14.5603      9.3865     93.3213
  1063.5000     11.1505     14.4263      9.7182     87.1610
  1063.7500     11.5639     14.2778     10.0872     84.1669
  1064.0000     12.0856     14.1637     10.4978     81.5462
  1064.2500     12.7067     14.1096     10.9455     80.7238
  1064.5000     13.3374     14.1043     11.4154     79.9527
  1064.7500     13.8449     14.1100     11.8822     79.3200
  1065.0000     14.1705     14.0884     12.3100     78.1717
  1065.2500     14.3459     14.0202     12.6550     77.6415
  1065.5000     14.4331     13.9098     12.8723     77.7894
  1065.7500     14.5264     13.7781     12.9292     78.4833
  1066.0000     14.7240     13.6517     12.8180     79.7706
  1066.2500     14.9999     13.5530     12.5608     80.4039
  1066.5000     15.1556     13.4957     12.1983     80.7743
  1066.7500     14.9766     13.4857     11.7736     80.7397
  1067.0000     14.4409     13.5266     11.3199     80.7839
  1067.2500     13.6946     13.6208     10.8587     81.4183
  1067.5000     12.8694     13.7667     10.4025     84.4339
  1067.7500     12.0290     13.9520      9.9580     88.1597
  1068.0000     11.2191     14.1500      9.5292     95.3759
  1068.2500     10.4858     14.3265      9.1190     99.9302
  1068.5000      9.8666     14.4585      8.7316    104.2568
  1068.7500      9.3942     14.5490      8.3719    105.1344
