~Version Information
VERS.                      2.0: CWLS Log ASCII Standard - VERSION 2.0
WRAP.                       NO: One line per depth step
~Well Information Block
STRT.FT               520.0000: 
STOP.FT              2183.5000: 
STEP.FT                 0.1000: 
NULL.                -999.2500: 
COMP.          Pioneer Natural Resources: COMPANY
WELL.             Enzo 43-8 Tr: WELL
FLD.           Purgatoire River: FIELD
LOC.           2303' FSL & 604' FEL: LOCATION
PROV.                 Colorado: PROVINCE
CNTY.               Las Animas: COUNTRY
SRVC.                Patterson: SERVICE COMPANY
DATE.          Sun Oct 31 15:10:54 2004: LOG DATE
UWI.           05 071 08213 00: UNIQUE WELL ID
~Curve Information Block
DEPT.FT            0 000 00 00: Depth
DCAL.in                       : CDL Caliper
RHOB.g/cc                     : CDL Bulk Density
RHOC.g/cc                     : CDL Density Correction
DPOR.pu                       : CDL Density Porosity
NPOR.pu                       : Neutron Porosity
GR.GAPI                       : Gamma Ray
~Parameter Information Block
~A  Depth       DCAL        RHOB        RHOC        DPOR        NPOR         GR     
# ...
  1278.4000      8.1022      1.4938      0.1340     70.0708      4.1277     48.1023
  1278.5000      8.0830      1.5225      0.1061     68.3339      4.0007     51.5574
  1278.6000      8.0830      1.5434      0.0994     67.0658      3.9141     54.0286
  1278.7000      8.0830      1.5638      0.1482     65.8315      3.8854     55.6041
  1278.8000      8.0698      1.5852      0.1408     64.5319      3.8385     57.0572
  1278.9000      8.0698      1.6057      0.1667     63.2910      3.8370     57.5428
  1279.0000      8.0626      1.6175      0.1525     62.5783      3.9429     57.6035
  1279.1000      8.0626      1.6239      0.0507     62.1869      3.9654     57.6662
  1279.2000      8.0626      1.6401      0.0559     61.2032      3.7770     55.6561
  1279.3000      8.0490      1.6644      0.0684     59.7331      3.6173     53.1363
  1279.4000      8.0490      1.6781      0.1337     58.9056      3.7459     52.2364
  1279.5000      8.0265      1.6732      0.1115     59.1991      4.0482     51.3544
  1279.6000      8.0265      1.6665      0.0909     59.6052      4.1454     51.2302
  1279.7000      8.0265      1.6821      0.0732     58.6598      4.1278     54.3849
  1279.8000      8.0021      1.7386      0.0817     55.2378      4.5051     58.2409
  1279.9000      8.0021      1.8467      0.1022     48.6830      5.3807     58.4518
  1280.0000      7.9835      1.9971      0.1864     39.5707      6.3634     56.2089
  1280.1000      7.9835      2.1544      0.2335     30.0333      7.2836     55.3464
  1280.2000      7.9835      2.2902      0.2553     21.8047      8.4296     57.0780
  1280.3000      7.9772      2.4048      0.2605     14.8576      9.9676     59.2824
  1280.4000      7.9772      2.4995      0.2909      9.1221     11.8243     60.2438
  1280.5000      7.9809      2.5680      0.2425      4.9678     14.2869     62.4713
  1280.6000      7.9809      2.6302      0.1697      1.2018     17.3462     67.4752
  1280.7000      7.9809      2.7056      0.1451     -3.3695     19.8654     70.2691
  1280.8000      7.9878      2.7578      0.1952     -6.5341     21.3734     68.0224
  1280.9000      7.9878      2.7467      0.0682     -5.8630     22.6050     64.9607
  1281.0000      7.9951      2.7148     -0.0724     -3.9247     23.6798     63.2062
  1281.1000      7.9951      2.7260     -0.0216     -4.6054     24.5093     62.3695
  1281.2000      7.9951      2.7679      0.0315     -7.1462     25.5524     61.8721
  1281.3000      7.9993      2.7900      0.0640     -8.4842     26.7252     60.5105
  1281.4000      7.9993      2.7859      0.0023     -8.2375     27.4010     59.5262
  1281.5000      8.0005      2.7904     -0.0235     -8.5117     27.5615     60.7475
  1281.6000      8.0005      2.8101      0.0939     -9.7001     27.9086     62.0008
  1281.7000      8.0005      2.8184      0.0396    -10.2075     28.9455     60.1869
  1281.8000      8.0013      2.8174     -0.0139    -10.1463     30.3876     57.6536
  1281.9000      8.0013      2.8252      0.0013    -10.6178     31.6935     59.6280
  1282.0000      8.0024      2.8368     -0.0084    -11.3237     32.5627     64.5161
  1282.1000      8.0024      2.8241      0.0563    -10.5505     32.8249     64.5989
  1282.2000      8.0024      2.7746     -0.0219     -7.5506     32.6373     59.3743
  1282.3000      8.0030      2.7312     -0.1338     -4.9228     32.3910     56.5676
  1282.4000      8.0030      2.7237     -0.0344     -4.4694     32.2900     59.3262
  1282.5000      8.0031      2.7170     -0.0739     -4.0585     32.3178     64.1638
  1282.6000      8.0031      2.6806     -0.0615     -1.8521     32.2331     68.2051
  1282.7000      8.0031      2.6162      0.0108      2.0475     31.7374     72.5100
  1282.8000      8.0028      2.5263     -0.0179      7.4986     30.7877     77.8497
  1282.9000      8.0028      2.4232     -0.1066     13.7483     29.6500     81.5447
  1283.0000      8.0016      2.3442     -0.1514     18.5331     28.5091     80.9702
  1283.1000      8.0016      2.3151     -0.0792     20.2977     27.2356     78.6400
  1283.2000      8.0016      2.3167      0.0247     20.2006     25.7374     80.7326
  1283.3000      7.9997      2.3200      0.0131     20.0016     24.3581     88.1602
  1283.4000      7.9997      2.3325     -0.0058     19.2410     23.3227     95.3312
  1283.5000      7.9983      2.3716      0.1186     16.8742     22.4707     98.3261
  1283.6000      7.9983      2.4199      0.2353     13.9477     21.8135     99.2084
  1283.7000      7.9983      2.4470      0.2334     12.3057     21.5978    101.3036
  1283.8000      8.0031      2.4437      0.1750     12.5028     22.0541    104.5885
  1283.9000      8.0031      2.4157      0.1180     14.2005     23.0759    107.0988
  1284.0000      8.0180      2.3735      0.0479     16.7546     24.1710    110.2056
  1284.1000      8.0180      2.3272      0.0571     19.5663     24.9600    116.5937
  1284.2000      8.0180      2.2847     -0.0071     22.1376     25.2709    122.7092
  1284.3000      8.0350      2.2604      0.0036     23.6127     24.9155    124.9150
  1284.4000      8.0350      2.2562      0.0104     23.8647     23.9710    124.2019
  1284.5000      8.0488      2.2613      0.0498     23.5588     22.9563    118.4231
  1284.6000      8.0488      2.2744      0.0803     22.7620     22.2719    109.7129
  1284.7000      8.0488      2.2971      0.1265     21.3890     21.9838    107.6936
  1284.8000      8.0542      2.3183      0.1536     20.1027     21.9192    115.7284
  1284.9000      8.0542      2.3264      0.1628     19.6120     21.6712    126.4074
  1285.0000      8.0542      2.3269      0.1084     19.5796     21.2299    131.8337
  1285.1000      8.0542      2.3354      0.0549     19.0655     21.0071    133.2837
  1285.2000      8.0542      2.3554      0.0497     17.8558     21.0129    135.5788
  1285.3000      8.0544      2.3797      0.0317     16.3808     21.0437    137.9459
  1285.4000      8.0544      2.4073      0.0117     14.7085     21.1696    136.7502
  1285.5000      8.0547      2.4430      0.0250     12.5464     21.5787    131.0485
  1285.6000      8.0547      2.4904      0.0571      9.6717     22.2809    123.4396
  1285.7000      8.0547      2.5400      0.1109      6.6686     22.8260    118.9219
  1285.8000      8.0544      2.5723      0.1423      4.7086     22.9808    120.0964
  1285.9000      8.0544      2.5880      0.1079      3.7577     23.2683    122.7573
  1286.0000      8.0526      2.6006      0.1374      2.9950     23.9351    123.5350
  1286.1000      8.0526      2.6066      0.1144      2.6299     24.6658    124.7735
  1286.2000      8.0526      2.5987      0.0903      3.1103     25.1694    126.3596
  1286.3000      8.0520      2.5764      0.0536      4.4603     25.2134    122.9422
  1286.4000      8.0520      2.5416      0.0719      6.5674     24.9911    115.1067
  1286.5000      8.0544      2.5108     -0.0329      8.4356     24.8597    111.5114
  1286.6000      8.0544      2.5080     -0.0352      8.6065     24.8766    115.2458
  1286.7000      8.0544      2.5269      0.0265      7.4613     25.2465    119.0331
  1286.8000      8.0549      2.5431      0.0494      6.4769     26.0222    118.1932
  1286.9000      8.0549      2.5492      0.0554      6.1080     26.6882    117.2509
  1287.0000      8.0535      2.5496      0.0593      6.0845     26.9198    116.3492
  1287.1000      8.0535      2.5507      0.0175      6.0204     26.7422    111.8920
  1287.2000      8.0535      2.5529      0.0415      5.8832     26.2899    108.7626
  1287.3000      8.0537      2.5510      0.0498      6.0012     25.8899    109.7501
  1287.4000      8.0537      2.5484      0.0447      6.1584     25.6739    110.7101
  1287.5000      8.0535      2.5508      0.0577      6.0095     25.4206    111.1340
  1287.6000      8.0535      2.5509      0.0501      6.0035     24.9939    112.0077
  1287.7000      8.0535      2.5379      0.0521      6.7940     24.4812    113.2011
  1287.8000      8.0538      2.5158      0.0033      8.1342     24.1957    116.0275
  1287.9000      8.0538      2.4975     -0.0154      9.2404     24.4892    118.7531
