~Version Information
VERS.                      2.0: CWLS Log ASCII Standard - VERSION 2.0
WRAP.                       NO: One line per depth step
~Well Information Block
STRT.FT               418.4000: 
STOP.FT              1170.0000: 
STEP.FT                 0.1000: 
NULL.                -999.2500: 
COMP.          Evergreen Operating Corporation: COMPANY
WELL.             Bernice 21-3: WELL
FLD.           Purgatoire River: FIELD
LOC.           201' FNL & 2575' FWL: LOCATION
PROV.                 Colorado: PROVINCE
CNTY.               Las Animas: COUNTRY
SRVC.                Patterson: SERVICE COMPANY
DATE.          Mon Jan 26 14:55:16 2004: LOG DATE
UWI.             05 071 07912 : UNIQUE WELL ID
~Curve Information Block
DEPT.FT            0 000 00 00: Depth
DCAL.in                       : CDL Caliper
RHOB.g/cc                     : CDL Bulk Density
RHOC.g/cc                     : CDL Density Correction
DPOR.pu                       : CDL Density Porosity
NPOR.pu                       : Neutron Porosity
GR.GAPI                       : Gamma Ray
~Parameter Information Block
~A  Depth       DCAL        RHOB        RHOC        DPOR        NPOR         GR     
# ...
   620.0000      8.3035      2.4403      0.0087     12.7112     26.9727    126.5244
   620.1000      8.3035      2.4198     -0.0128     13.9525     26.3021    132.5251
   620.2000      8.3035      2.4130     -0.0033     14.3634     25.7381    137.9618
   620.3000      8.3066      2.4168     -0.0189     14.1350     25.6934    143.0157
   620.4000      8.3066      2.4206      0.0115     13.9039     25.8670    146.9143
   620.5000      8.2983      2.4110      0.0095     14.4837     25.7624    145.5249
   620.6000      8.2983      2.3897      0.0296     15.7731     25.3400    137.4108
   620.7000      8.2983      2.3648      0.0158     17.2849     24.6736    130.7114
   620.8000      8.3074      2.3389      0.0070     18.8520     23.8808    133.5463
   620.9000      8.3074      2.3183     -0.0050     20.1013     23.1326    140.7332
   621.0000      8.3097      2.3088      0.0222     20.6777     22.4282    144.4582
   621.1000      8.3097      2.3089      0.0215     20.6704     21.7522    144.1390
   621.2000      8.3097      2.3182      0.0295     20.1105     21.2268    138.1765
   621.3000      8.3035      2.3391      0.0302     18.8396     20.9744    127.5326
   621.4000      8.3035      2.3704      0.0681     16.9458     20.9764    121.5690
   621.5000      8.2820      2.4073      0.0654     14.7073     21.1072    125.0979
   621.6000      8.2820      2.4465      0.1121     12.3360     21.2852    129.1947
   621.7000      8.2820      2.4779      0.1088     10.4316     21.6840    125.9113
   621.8000      8.2698      2.4972      0.0774      9.2618     22.2872    118.2995
   621.9000      8.2698      2.5139      0.0600      8.2481     22.7818    112.3772
   622.0000      8.2192      2.5287      0.0707      7.3491     23.1726    110.5271
   622.1000      8.2192      2.5381      0.0450      6.7808     23.6108    111.1534
   622.2000      8.2192      2.5506      0.0592      6.0233     24.2126    112.5381
   622.3000      8.1996      2.5664      0.0313      5.0665     25.2058    113.3318
   622.4000      8.1996      2.5695      0.0561      4.8787     26.4336    111.4699
   622.5000      8.1990      2.5519      0.0336      5.9458     27.2942    106.9994
   622.6000      8.1990      2.5236     -0.0094      7.6579     27.7254    103.8232
   622.7000      8.1990      2.5005     -0.0145      9.0588     28.1238    105.3073
   622.8000      8.2023      2.4907     -0.0152      9.6534     28.4232    108.4338
   622.9000      8.2023      2.4923     -0.0423      9.5547     28.4904    109.1946
   623.0000      8.1996      2.4930     -0.0212      9.5124     28.6311    107.7935
   623.1000      8.1996      2.4784     -0.0021     10.4017     28.8591    105.2657
   623.2000      8.1996      2.4564     -0.0404     11.7358     28.8777    104.0854
   623.3000      8.2023      2.4518     -0.0449     12.0133     28.6733    106.9060
   623.4000      8.2023      2.4653      0.0364     11.1932     28.3712    113.1947
   623.5000      8.1991      2.4748      0.0249     10.6209     27.8330    118.8948
   623.6000      8.1991      2.4676      0.0500     11.0536     27.1288    121.3323
   623.7000      8.1991      2.4439      0.0652     12.4897     26.6198    121.1032
   623.8000      8.1991      2.4176      0.0334     14.0868     26.3466    118.9790
   623.9000      8.1991      2.4063      0.0350     14.7684     26.3192    116.5155
   624.0000      8.2034      2.4082      0.0470     14.6550     26.6931    114.7257
   624.1000      8.2034      2.4122      0.0530     14.4120     27.1253    113.7180
   624.2000      8.2034      2.4162      0.0504     14.1669     26.9503    114.3708
   624.3000      8.2071      2.4219      0.0446     13.8256     26.2843    116.6107
   624.4000      8.2071      2.4296      0.0748     13.3603     25.8433    117.4094
   624.5000      8.1986      2.4377      0.0939     12.8668     25.7900    115.7233
   624.6000      8.1986      2.4450      0.0464     12.4244     25.8210    116.4398
   624.7000      8.1986      2.4532      0.0198     11.9267     25.8952    121.0728
   624.8000      8.1897      2.4629      0.0336     11.3422     26.1645    123.5341
   624.9000      8.1897      2.4713      0.0210     10.8297     26.5274    121.9998
   625.0000      8.1433      2.4785      0.0034     10.3937     26.7573    121.5901
   625.1000      8.1433      2.4846      0.0193     10.0257     27.1118    123.9655
   625.2000      8.1433      2.4881     -0.0049      9.8133     27.8276    129.2956
   625.3000      8.1349      2.4893      0.0081      9.7391     28.2874    135.9646
   625.4000      8.1349      2.4841      0.0374     10.0530     28.1179    137.5542
   625.5000      8.1245      2.4695      0.0378     10.9417     27.8807    134.9400
   625.6000      8.1245      2.4527      0.0167     11.9572     27.9724    135.6448
   625.7000      8.1245      2.4397      0.0115     12.7442     28.1768    139.8573
   625.8000      8.1234      2.4269      0.0183     13.5225     28.2670    141.7419
   625.9000      8.1234      2.4135      0.0098     14.3363     28.3340    140.6964
   626.0000      8.1242      2.4048     -0.0148     14.8583     28.1750    140.2015
   626.1000      8.1242      2.4011      0.0118     15.0842     27.4629    140.7051
   626.2000      8.1242      2.3975      0.0004     15.3000     26.5897    140.9190
   626.3000      8.1152      2.3941     -0.0087     15.5098     26.2245    139.1998
   626.4000      8.1152      2.3914      0.0289     15.6731     26.3634    137.0652
   626.5000      8.1175      2.3960      0.0212     15.3956     26.5345    139.0221
   626.6000      8.1175      2.4184      0.0524     14.0341     26.7434    142.3967
   626.7000      8.1175      2.4504      0.0740     12.0946     27.0135    142.5239
   626.8000      8.1006      2.4703      0.1038     10.8886     27.0485    142.1594
   626.9000      8.1006      2.4696      0.0726     10.9347     26.8450    141.7437
   627.0000      8.1219      2.4565      0.0747     11.7244     26.6854    138.2755
   627.1000      8.1219      2.4428      0.0066     12.5582     26.8963    132.9154
   627.2000      8.1219      2.4341      0.0250     13.0870     27.4008    128.6046
   627.3000      8.1149      2.4266      0.0339     13.5394     27.8210    125.8656
   627.4000      8.1149      2.4211      0.0370     13.8711     27.9097    122.6684
   627.5000      8.1165      2.4252      0.0168     13.6247     27.6185    118.0274
   627.6000      8.1165      2.4343      0.0275     13.0753     27.2429    115.3557
   627.7000      8.1165      2.4273      0.0257     13.4959     27.0609    117.0272
   627.8000      8.1137      2.3998     -0.0106     15.1660     26.8809    121.0572
   627.9000      8.1137      2.3724      0.0001     16.8251     26.4724    124.5029
   628.0000      8.1157      2.3532      0.0035     17.9902     25.8891    125.4266
   628.1000      8.1157      2.3344      0.0329     19.1256     25.2654    126.0396
   628.2000      8.1157      2.3215     -0.0109     19.9090     24.8175    126.0973
   628.3000      8.1218      2.3306      0.0098     19.3570     24.6406    123.3993
   628.4000      8.1218      2.3618      0.0483     17.4682     24.2903    121.6692
   628.5000      8.1733      2.3946      0.1072     15.4764     23.4891    123.1464
   628.6000      8.1733      2.4122      0.1060     14.4151     22.5000    123.4204
   628.7000      8.1733      2.4161      0.1323     14.1731     21.6812    120.2752
   628.8000      8.3747      2.4141      0.1094     14.2989     21.3291    115.7215
   628.9000      8.3747      2.4051      0.1468     14.8428     21.2387    110.9921
   629.0000      8.5097      2.3852      0.1227     16.0504     20.7066    106.7450
   629.1000      8.5097      2.3600      0.0864     17.5773     19.6593    106.2549
   629.2000      8.5097      2.3421      0.0558     18.6629     18.8897    113.6494
   629.3000      8.5411      2.3397      0.0226     18.8057     18.9036    124.5306
   629.4000      8.5411      2.3546     -0.0013     17.9013     19.3887    130.3481
   629.5000      8.5068      2.3781      0.0481     16.4817     19.8867    127.8609
