~Version Information
VERS.                      2.0: CWLS Log ASCII Standard - VERSION 2.0
WRAP.                       NO: One line per depth step
~Well Information Block
STRT.FT                -4.7500: 
STOP.FT              1784.7500: 
STEP.FT                 0.2500: 
NULL.                -999.2500: 
COMP.          Pioneer Natural Resources: COMPANY
WELL.          Buckeye 11-13 Tr: WELL
FLD.           Purgatorie River: FIELD
LOC.           211' FNL & 1054' FWL--: LOCATION
STAT.                       CO: State
CNTY.               Las Animas: COUNTY
CTRY. USA : Country
SECT. 13 : Section
TOWN. 33S : Township
RANG. 67W : range
SRVC.          Patterson Wireline: SERVICE COMPANY
DATE.          Wed Mar 16 09:19:21 2005: LOG DATE
API.           05 071 08317 00: UNIQUE WELL ID
~Curve Information Block
DEPT.FT            0 000 00 00: Depth
CCL.                          : Casing Collar Locator
TT3.usec                      : CBL 3' Travel Time
AMP3.mV                       : CBL 3' Amplitude
GR.GAPI                       : Gamma Ray
~Parameter Information Block
~A  Depth       CCL         TT3         AMP3         GR     
# ...
   464.2500      0.0000    835.5696      6.6136     98.0689
   464.5000      0.0000    835.4348      6.6796     93.5283
   464.7500      0.0000    834.7644      6.7587     89.3860
   465.0000      0.0000    833.2775      6.8389     85.7828
   465.2500      0.0000    830.8951      6.9213     83.0303
   465.5000      0.0000    827.8904      7.0141     81.4859
   465.7500      0.0000    824.4750      7.1178     81.5566
   466.0000      0.0000    820.1060      7.2160     83.4551
   466.2500      0.0000    813.5914      7.2789     86.9835
   466.5000      0.0000    804.3439      7.2833     91.8699
   466.7500      0.0000    793.6124      7.2337     98.1352
   467.0000      0.0000    784.4144      7.1630    105.6588
   467.2500      0.0000    779.8698      7.1100    113.3673
   467.5000      0.0000    780.9167      7.0918    119.1798
   467.7500      0.0000    785.5571      7.0951    120.8676
   468.0000      0.0000    790.6365      7.0922    117.2250
   468.2500      0.0000    794.1804      7.0703    109.0359
   468.5000      0.0000    795.9742      7.0436     99.1919
   468.7500      0.0000    796.5999      7.0367     91.3715
   469.0000      0.0000    796.4548      7.0611     88.0338
   469.2500      0.0000    795.3923      7.1092     89.3570
   469.5000      0.0000    792.8654      7.1641     93.6675
   469.7500      0.0000    788.5710      7.2083     98.4875
   470.0000      0.0000    783.3785      7.2289    101.5876
   470.2500      0.0000    779.4719      7.2249    102.1123
   470.5000      0.0000    778.9550      7.2097    101.0569
   470.7500      0.0000    782.0989      7.2015     99.9883
   471.0000      0.0000    787.3333      7.2077     99.1803
   471.2500      0.0000    792.8655      7.2181     97.7383
   471.5000      0.0000    797.7175      7.2130     95.3838
   471.7500      0.0000    801.2805      7.1791     93.0121
   472.0000      0.0000    802.8329      7.1186     91.4514
   472.2500      0.0000    802.0806      7.0447     90.5771
   472.5000      0.0000    799.6375      6.9760     89.6710
   472.7500      0.0000    796.3701      6.9320     87.9774
   473.0000      0.0000    792.3753      6.9231     85.0609
   473.2500      0.0000    787.1938      6.9379     81.1870
   473.5000      0.0000    781.3777      6.9446     77.1262
   473.7500      0.0000    777.4061      6.9145     73.1813
   474.0000      0.0000    777.5428      6.8478     68.8256
   474.2500      0.0000    779.9295      6.7767     63.6143
   474.5000      0.0000    778.3345      6.7419     57.9751
   474.7500      0.0000    767.6916      6.7648     52.8039
   475.0000      0.0000    749.4241      6.8384     48.6490
   475.2500      0.0000    730.1298      6.9402     45.6002
   475.5000      0.0000    715.7256      7.0491     43.8058
   475.7500      0.0000    707.9398      7.1541     43.7099
   476.0000      0.0000    705.5349      7.2467     45.5764
   476.2500      0.0000    707.2557      7.3122     48.9087
   476.5000      0.0000    713.2059      7.3321     52.5142
   476.7500      0.0000    724.0947      7.2948     55.1542
   477.0000      0.0000    739.7407      7.1996     56.2415
   477.2500      0.0000    758.6437      7.0531     56.1372
   477.5000      0.0000    778.6949      6.8695     55.8045
   477.7500      0.0000    797.5670      6.6755     56.0651
   478.0000      0.0000    812.5535      6.5007     57.0996
   478.2500      0.0000    821.2330      6.3621     58.4686
   478.5000      0.0000    822.8781      6.2612     59.4143
   478.7500      0.0000    819.0980      6.1940     59.3168
   479.0000      0.0000    813.2046      6.1550     58.2193
   479.2500      0.0000    808.7568      6.1280     56.9349
   479.5000      0.0000    807.7310      6.0801     56.3914
   479.7500      0.0000    808.9321      5.9755     56.7792
   480.0000      0.0000    807.9269      5.8061     57.4455
   480.2500      0.0000    799.7889      5.6063     57.5717
   480.5000      0.0000    783.7451      5.4349     56.6981
   480.7500      0.0000    765.6996      5.3394     54.5815
   481.0000      0.0000    754.9423      5.3305     51.0962
   481.2500      0.0000    757.0715      5.3842     46.8426
   481.5000      0.0000    769.6165      5.4609     43.5810
   481.7500      0.0000    784.0247      5.5235     43.2690
   482.0000      0.0000    791.5427      5.5442     46.4373
   482.2500      0.0000    788.1745      5.5063     51.8393
   482.5000      0.0000    775.8145      5.4075     57.6325
   482.7500      0.0000    759.6016      5.2606     62.5986
   483.0000      0.0000    744.0976      5.0880     66.3855
   483.2500      0.0000    731.2909      4.9120     69.0274
   483.5000      0.0000    721.1312      4.7476     70.4692
   483.7500      0.0000    713.0363      4.5983     70.5917
   484.0000      0.0000    706.7995      4.4599     69.5909
   484.2500      0.0000    702.5087      4.3296     68.1127
   484.5000      0.0000    700.1658      4.2128     67.0148
   484.7500      0.0000    699.7169      4.1189     67.1434
   485.0000      0.0000    701.3030      4.0490     69.0690
   485.2500      0.0000    705.1178      3.9908     72.6032
   485.5000      0.0000    710.9052      3.9279     76.7714
   485.7500      0.0000    717.7955      3.8529     80.7158
   486.0000      0.0000    724.7219      3.7720     84.4769
   486.2500      0.0000    730.8264      3.6983     88.6050
   486.5000      0.0000    735.5401      3.6424     93.2698
   486.7500      0.0000    738.6354      3.6081     98.0083
   487.0000      0.0000    740.3192      3.5911    101.9677
   487.2500      0.0000    741.0952      3.5813    104.0599
   487.5000      0.0000    741.4678      3.5683    103.2265
   487.7500      0.0000    741.7705      3.5470     99.2616
   488.0000      0.0000    742.1955      3.5171     93.6233
   488.2500      0.0000    742.9312      3.4814     88.8836
   488.5000      0.0000    744.3065      3.4445     86.7540
   488.7500      0.0000    746.7081      3.4134     86.8012
   489.0000      0.0000    750.0797      3.3935     87.3324
   489.2500      0.0000    753.4395      3.3855     87.0586
   489.5000      0.0000    755.3187      3.3896     85.5940
   489.7500      0.0000    755.1095      3.4093     83.0754
   490.0000      0.0000    753.8273      3.4474     79.9967
   490.2500      0.0000    753.1245      3.4989     77.1082
   490.5000      0.0000    753.3789      3.5541     74.9729
   490.7500      0.0000    752.7723      3.6036     73.6887
   491.0000      0.0000    748.5179      3.6398     73.1500
   491.2500      0.0000    739.4771      3.6554     73.3400
   491.5000      0.0000    727.5919      3.6481     74.2285
   491.7500      0.0000    716.4219      3.6233     75.5686
   492.0000      0.0000    708.4217      3.5876     77.1640
   492.2500      0.0000    703.9388      3.5439     79.4385
   492.5000      0.0000    702.5308      3.4982     83.2088
   492.7500      0.0000    704.7654      3.4679     88.4784
   493.0000      0.0000    712.7168      3.4719     93.9691
   493.2500      0.0000    728.2245      3.5131     98.3068
   493.5000      0.0000    749.7009      3.5786    101.1146
   493.7500      0.0000    770.8526      3.6615    102.5543
   494.0000      0.0000    784.2259      3.7725    102.4121
   494.2500      0.0000    786.9113      3.9222    100.1808
   494.5000      0.0000    782.2651      4.1010     95.8951
   494.7500      0.0000    776.2371      4.2800     90.6980
   495.0000     -2.0000    772.8010      4.4270     86.5507
   495.2500      0.0000    772.4244      4.5207     85.0749
   495.5000      0.0000    773.5690      4.5559     86.5000
   495.7500      0.0000    774.9302      4.5298     89.8482
   496.0000      0.0000    776.5023      4.4288     94.0059
   496.2500      0.0000    779.1014      4.2462     98.1657
   496.5000      0.0000    783.0851      4.0205    101.4006
   496.7500      0.0000    787.6200      3.8315    102.5937
   497.0000      0.0000    791.3898      3.7433    101.2249
   497.2500      0.0000    793.8539      3.7602     97.9343
   497.5000      0.0000    795.6935      3.8413     94.0736
