~Version Information
VERS.                      2.0: CWLS Log ASCII Standard - VERSION 2.0
WRAP.                       NO: One line per depth step
~Well Information Block
STRT.FT               -10.0000: 
STOP.FT              2297.5000: 
STEP.FT                 0.2500: 
NULL.                -999.2500: 
COMP.          Pioneer Natural Resources: COMPANY
WELL.              Bobsy 34-11: WELL
FLD.           Purgatorie River: FIELD
LOC.           1937' FEL & 451' FSL----------: LOCATION
PROV.                       CO: PROVINCE
CNTY.               Las Animas: COUNTRY
SRVC.          Patterson Wireline: SERVICE COMPANY
DATE.          Mon Apr 18 09:37:11 2005: LOG DATE
UWI.           05 071 08330 00: UNIQUE WELL ID
~Curve Information Block
DEPT.FT            0 000 00 00: Depth
CCL.                          : Casing Collar Locator
TT3.usec                      : CBL 3' Travel Time
AMP3.mV                       : CBL 3' Amplitude
GR.GAPI                       : Gamma Ray
~Parameter Information Block
~A  Depth       CCL         TT3         AMP3         GR     
# ...
   894.5000      0.0000    724.5150      4.4150    112.5252
   894.7500      0.0000    723.7969      4.3821    109.0297
   895.0000      0.0000    723.4283      4.3866    107.9760
   895.2500      0.0000    723.2182      4.4382    109.6520
   895.5000      0.0000    723.1808      4.5224    113.0425
   895.7500      0.0000    723.3432      4.6003    116.5133
   896.0000      0.0000    723.6929      4.6291    118.6885
   896.2500      0.0000    724.1039      4.5925    119.0129
   896.5000      0.0000    724.1686      4.5172    117.8482
   896.7500      0.0000    723.0956      4.4633    116.1529
   897.0000      0.0000    720.0114      4.4901    114.8203
   897.2500      0.0000    714.7177      4.6209    114.1055
   897.5000      0.0000    708.2413      4.8290    113.7952
   897.7500      0.0000    702.3879      5.0520    113.9273
   898.0000      0.0000    698.6129      5.2237    114.9988
   898.2500      0.0000    697.4459      5.3099    117.1539
   898.5000      0.0000    698.8245      5.3292    119.4084
   898.7500      0.0000    702.3876      5.3306    120.2737
   899.0000      0.0000    707.0529      5.3369    119.3049
   899.2500      0.0000    710.7059      5.3108    117.6903
   899.5000      0.0000    711.3134      5.1839    117.3007
   899.7500      0.0000    709.1877      4.9295    119.2194
   900.0000      0.0000    708.0859      4.6077    122.7585
   900.2500      0.0000    712.8346      4.3232    125.5035
   900.5000      0.0000    724.2075      4.1411    124.6294
   900.7500      0.0000    735.7121      4.0658    118.8747
   901.0000      0.0000    737.4365      4.0951    109.6317
   901.2500     -2.0000    725.6910      4.2411    100.1490
   901.5000     -2.0000    709.2033      4.4759     93.6646
   901.7500     -2.0000    703.8434      4.7033     92.0202
   902.0000      0.0000    719.3655      4.8306     95.3486
   902.2500      0.0000    750.4895      4.8680    102.3571
   902.5000      0.0000    780.5776      4.9250    110.8448
   902.7500      0.0000    794.1358      5.0903    118.4358
   903.0000      0.0000    787.1147      5.3282    123.4349
   903.2500      0.0000    767.7518      5.5153    125.3188
   903.5000      0.0000    749.2982      5.5692    124.4179
   903.7500      0.0000    740.8496      5.5144    121.1384
   904.0000      0.0000    743.2393      5.4320    115.7799
   904.2500      0.0000    753.0634      5.3706    109.0789
   904.5000      0.0000    769.0855      5.3123    102.1996
   904.7500      0.0000    792.2301      5.2143     95.8138
   905.0000      0.0000    820.4604      5.0732     89.9445
   905.2500      0.0000    847.4713      4.9324     85.1818
   905.5000      0.0000    866.9890      4.8297     83.2225
   905.7500      0.0000    876.2048      4.7508     85.4592
   906.0000      0.0000    875.2258      4.6493     91.4425
   906.2500      0.0000    865.1389      4.5136     99.1824
   906.5000      0.0000    847.2457      4.4044    106.6165
   906.7500      0.0000    823.9752      4.4105    112.4383
   907.0000      0.0000    799.9946      4.5633    116.1631
   907.2500      0.0000    780.8867      4.8072    118.3236
   907.5000      0.0000    769.9803      5.0441    120.4473
   907.7500      0.0000    767.1783      5.1889    123.8739
   908.0000      0.0000    770.6240      5.2025    128.2941
   908.2500      0.0000    778.2591      5.1112    131.8700
   908.5000      0.0000    788.1771      4.9958    132.9461
   908.7500      0.0000    799.0506      4.9244    131.5136
   909.0000      0.0000    810.5685      4.8923    129.0457
   909.2500      0.0000    822.7736      4.8589    126.9549
   909.5000      0.0000    834.5488      4.8294    125.3813
   909.7500      0.0000    843.0079      4.8574    123.7485
   910.0000      0.0000    844.6391      4.9586    122.1178
   910.2500      0.0000    837.2633      5.0639    121.1875
   910.5000      0.0000    821.2848      5.0739    121.0630
   910.7500      0.0000    799.6710      4.9484    120.8399
   911.0000      0.0000    777.2184      4.7350    119.6161
   911.2500      0.0000    759.4507      4.5246    117.4527
   911.5000      0.0000    751.2498      4.3981    115.0687
   911.7500      0.0000    755.7115      4.4002    112.8130
   912.0000      0.0000    773.2683      4.5294    110.2963
   912.2500      0.0000    800.4862      4.7326    107.0244
   912.5000      0.0000    829.4716      4.9266    102.9980
   912.7500      0.0000    849.9971      5.0453     98.6474
   913.0000      0.0000    854.1838      5.0820     94.5113
   913.2500      0.0000    840.6203      5.0849     91.0057
   913.5000      0.0000    814.8741      5.1024     88.3755
   913.7500      0.0000    786.0766      5.1265     86.8967
   914.0000      0.0000    761.8605      5.1006     87.0128
   914.2500      0.0000    745.2872      4.9890     89.0476
   914.5000      0.0000    735.9370      4.8237     92.8011
   914.7500      0.0000    733.3464      4.6691     97.4538
   915.0000      0.0000    738.2788      4.5589    101.7562
   915.2500      0.0000    750.1233      4.4884    104.5094
   915.5000      0.0000    764.3389      4.4415    105.1445
   915.7500      0.0000    774.4272      4.3922    103.6511
   916.0000      0.0000    776.6262      4.3019     99.8505
   916.2500      0.0000    771.9465      4.1582     93.3209
   916.5000      0.0000    764.3213      4.0126     84.4882
   916.7500      0.0000    757.6086      3.9519     75.4904
   917.0000      0.0000    753.5065      4.0278     69.3121
   917.2500      0.0000    751.3265      4.2202     67.8458
   917.5000      0.0000    749.5736      4.4529     70.8928
   917.7500      0.0000    747.2295      4.6354     76.7901
   918.0000      0.0000    743.2567      4.7149     83.6835
   918.2500      0.0000    736.1503      4.7135     90.3458
   918.5000      0.0000    725.4554      4.7031     96.2207
   918.7500      0.0000    713.2503      4.7233    101.0252
   919.0000      0.0000    702.9052      4.7397    104.5702
   919.2500      0.0000    696.0732      4.6991    106.9771
   919.5000      0.0000    690.7543      4.5971    108.7606
   919.7500      0.0000    682.0750      4.4668    110.6115
   920.0000      0.0000    665.6525      4.3315    113.3110
   920.2500      0.0000    641.0553      4.2047    117.6201
   920.5000      0.0000    611.6477      4.1149    123.6683
   920.7500      0.0000    581.9127      4.0861    130.3775
   921.0000      0.0000    557.3814      4.1019    135.8209
   921.2500      0.0000    546.9445      4.1246    138.2465
   921.5000      0.0000    561.2537      4.1486    136.8179
   921.7500      0.0000    605.5405      4.1949    131.8207
   922.0000      0.0000    672.5361      4.2569    124.5077
   922.2500      0.0000    742.3074      4.2998    116.5129
   922.5000      0.0000    791.5852      4.3168    109.1139
   922.7500      0.0000    807.6641      4.3424    102.9155
   923.0000      0.0000    795.7894      4.3967     98.0544
   923.2500      0.0000    772.6369      4.4488     94.5240
   923.5000      0.0000    752.6627      4.4509     92.1925
   923.7500      0.0000    741.5070      4.3906     90.4667
   924.0000      0.0000    739.8922      4.2953     88.2759
   924.2500      0.0000    748.6105      4.1973     84.9994
   924.5000      0.0000    767.9739      4.1156     81.4013
   924.7500      0.0000    795.2789      4.0704     79.1262
   925.0000      0.0000    825.0818      4.0864     79.3503
   925.2500      0.0000    851.0483      4.1641     82.1888
   925.5000      0.0000    866.5358      4.2598     86.9191
   925.7500      0.0000    866.0695      4.3080     92.1492
   926.0000      0.0000    849.6293      4.2699     96.2135
   926.2500      0.0000    824.6797      4.1635     98.1731
   926.5000      0.0000    800.7085      4.0506     98.4533
   926.7500      0.0000    782.6277      3.9974     98.3710
   927.0000      0.0000    772.1739      4.0390     99.1763
   927.2500      0.0000    772.4752      4.1607    101.3905
   927.5000      0.0000    785.5953      4.3040    104.7700
   927.7500      0.0000    806.7171      4.3992    108.8312
