~Version Information
VERS.                      2.0: CWLS Log ASCII Standard - VERSION 2.0
WRAP.                       NO: One line per depth step
~Well Information Block
STRT.FT               605.6000: 
STOP.FT              1938.0000: 
STEP.FT                 0.1000: 
NULL.                -999.2500: 
COMP.          Petrogulf Corporation: COMPANY
WELL.              Graff 9-31R: WELL
FLD.           Purgatorie River: FIELD
LOC.           707' FNL & 1713' FEL: LOCATION
CNTY.               Las Animas: COUNTY
SRVC.                         : SERVICE COMPANY
DATE.          Mon Oct 25 06:13:30 2004: LOG DATE
UWI.           05 071 08037 00: UNIQUE WELL ID
STAT.                 Colorado: STATE
~Curve Information Block
DEPT.FT            0 000 00 00: Depth
DCAL.in                       : CDL Caliper
RHOB.g/cc                     : CDL Bulk Density
RHOC.g/cc                     : CDL Density Correction
DPOR.pu                       : CDL Density Porosity
GR.GAPI                       : Gamma Ray
NPOR.pu                       : Neutron Porosity
~Parameter Information Block
~A  Depth       DCAL        RHOB        RHOC        DPOR         GR         NPOR    
# ...
  1748.0000      7.8553      2.5669      0.0718      5.0359    130.4962     27.2030
  1748.1000      7.8553      2.5655      0.0272      5.1183    128.9730     26.2734
  1748.2000      7.8553      2.5569      0.0275      5.6425    120.7512     25.6072
  1748.3000      7.8784      2.5482      0.0031      6.1700    111.1421     25.0490
  1748.4000      7.8784      2.5524      0.0372      5.9151    106.4208     24.4980
  1748.5000      7.8813      2.5678     -0.0001      4.9804    108.6662     24.0043
  1748.6000      7.8813      2.5812      0.0485      4.1720    112.4356     23.8440
  1748.7000      7.8813      2.5825      0.0401      4.0933    111.2788     24.2637
  1748.8000      7.8865      2.5721      0.0445      4.7227    106.0168     25.1285
  1748.9000      7.8865      2.5532      0.0162      5.8650    101.1452     26.3077
  1749.0000      7.8911      2.5375      0.0194      6.8175    100.1370     27.3724
  1749.1000      7.8911      2.5424      0.0013      6.5219    104.0056     27.6914
  1749.2000      7.8911      2.5599      0.0568      5.4618    107.1157     27.0508
  1749.3000      7.8882      2.5676      0.0302      4.9958    107.1895     25.7343
  1749.4000      7.8882      2.5718     -0.0172      4.7402    109.4950     24.5943
  1749.5000      7.8830      2.5887      0.0595      3.7182    114.9333     24.4620
  1749.6000      7.8830      2.6036      0.1138      2.8136    118.4789     24.8243
  1749.7000      7.8830      2.6020      0.0794      2.9121    118.6509     24.7985
  1749.8000      7.8788      2.5974      0.0714      3.1866    116.8784     24.5659
  1749.9000      7.8788      2.5994      0.0624      3.0692    112.6213     24.3165
  1750.0000      7.8799      2.6017      0.0134      2.9268    103.8084     24.0875
  1750.1000      7.8799      2.5987      0.0321      3.1078     91.2796     23.9929
  1750.2000      7.8799      2.5849      0.0138      3.9462     80.5489     23.8050
  1750.3000      7.8822      2.5628     -0.0074      5.2850     76.0848     23.4927
  1750.4000      7.8822      2.5483     -0.0012      6.1620     77.9008     23.4713
  1750.5000      7.8831      2.5535     -0.0229      5.8498     79.8228     24.2003
  1750.6000      7.8831      2.5770      0.0397      4.4226     77.5068     25.3634
  1750.7000      7.8831      2.6033      0.0872      2.8323     74.7413     25.8605
  1750.8000      7.8808      2.6168      0.0800      2.0094     74.2859     25.3916
  1750.9000      7.8808      2.6178      0.1013      1.9526     75.1297     24.9999
  1751.0000      7.8800      2.6127      0.0965      2.2598     77.8339     25.2788
  1751.1000      7.8800      2.6043      0.0506      2.7715     82.2758     25.5780
  1751.2000      7.8800      2.5948      0.0529      3.3475     84.2654     25.3948
  1751.3000      7.8767      2.5885      0.0214      3.7265     81.0380     25.1584
  1751.4000      7.8767      2.5813      0.0900      4.1628     76.0823     25.4227
  1751.5000      7.8764      2.5670      0.0116      5.0323     73.5161     25.6206
  1751.6000      7.8764      2.5611      0.0296      5.3900     73.1864     24.9142
  1751.7000      7.8764      2.5779      0.0297      4.3724     73.5628     24.0913
  1751.8000      7.8779      2.6061      0.0386      2.6591     75.4015     24.2319
  1751.9000      7.8779      2.6273      0.0492      1.3759     80.0787     25.1939
  1752.0000      7.8794      2.6315      0.0819      1.1209     84.3329     26.3366
  1752.1000      7.8794      2.6189      0.0772      1.8845     84.9159     26.7702
  1752.2000      7.8794      2.5989      0.0802      3.0967     84.5316     25.9280
  1752.3000      7.8849      2.5827      0.0361      4.0774     83.1284     24.4655
  1752.4000      7.8849      2.5747      0.0095      4.5657     79.1122     23.5414
  1752.5000      7.8833      2.5721      0.0742      4.7233     77.5749     23.3982
  1752.6000      7.8833      2.5727      0.0147      4.6845     80.4758     23.4045
  1752.7000      7.8833      2.5746      0.0733      4.5696     81.8914     23.3312
  1752.8000      7.8833      2.5717      0.0161      4.7468     81.2225     23.3469
  1752.9000      7.8833      2.5641      0.0331      5.2062     84.7268     23.4197
  1753.0000      7.8828      2.5469      0.0494      6.2482     91.3033     23.4109
  1753.1000      7.8828      2.5201      0.0175      7.8709     94.1239     23.0043
  1753.2000      7.8828      2.5101     -0.0298      8.4770     92.8353     22.1787
  1753.3000      7.8853      2.5340      0.0309      7.0314     89.8373     21.8014
  1753.4000      7.8853      2.5737      0.0639      4.6227     87.6381     22.3101
  1753.5000      7.8840      2.6051      0.0780      2.7191     87.8342     23.2653
  1753.6000      7.8840      2.6155      0.1034      2.0898     88.7895     24.0689
  1753.7000      7.8840      2.5999      0.0564      3.0346     88.0934     24.3976
  1753.8000      7.8843      2.5572      0.0814      5.6268     85.3734     24.5011
  1753.9000      7.8843      2.5073     -0.0150      8.6507     83.6855     24.3310
  1754.0000      7.8783      2.4915     -0.0173      9.6045     84.9001     23.7739
  1754.1000      7.8783      2.5156      0.0556      8.1437     84.6641     23.2403
  1754.2000      7.8783      2.5396      0.0676      6.6915     82.4428     22.9833
  1754.3000      7.8774      2.5344      0.0588      7.0076     83.5898     23.1489
  1754.4000      7.8774      2.5129      0.0241      8.3107     86.4467     23.5229
  1754.5000      7.8768      2.5016      0.0334      8.9961     86.9804     23.6453
  1754.6000      7.8768      2.5079      0.0206      8.6145     85.0069     23.5410
  1754.7000      7.8768      2.5208      0.0572      7.8290     83.4241     23.5745
  1754.8000      7.8728      2.5254      0.0514      7.5525     85.9421     23.8609
  1754.9000      7.8728      2.5189      0.0272      7.9434     90.1071     24.2421
  1755.0000      7.8775      2.5127      0.0155      8.3230     89.6806     24.5727
  1755.1000      7.8775      2.5136      0.0570      8.2666     84.6024     24.8202
  1755.2000      7.8775      2.5212      0.0489      7.8068     82.0008     25.0909
  1755.3000      7.8762      2.5388      0.0430      6.7393     85.4343     25.2430
  1755.4000      7.8762      2.5613      0.0654      5.3781     88.2805     24.8935
  1755.5000      7.8766      2.5718      0.0769      4.7367     85.7048     24.1775
  1755.6000      7.8766      2.5701      0.0261      4.8442     82.3264     23.5793
  1755.7000      7.8766      2.5632      0.0753      5.2616     82.8877     23.4808
  1755.8000      7.8651      2.5543      0.0404      5.7980     85.2732     24.0717
  1755.9000      7.8651      2.5497      0.0499      6.0798     87.1071     24.8716
  1756.0000      7.8671      2.5459      0.0679      6.3062     90.8975     25.1595
  1756.1000      7.8671      2.5427      0.0034      6.5018     95.4603     24.9683
  1756.2000      7.8671      2.5475      0.0627      6.2120     93.8465     24.3098
  1756.3000      7.8627      2.5494      0.0703      6.0941     86.2342     23.5067
  1756.4000      7.8627      2.5417      0.0344      6.5647     80.4313     23.6873
  1756.5000      7.8606      2.5306      0.0629      7.2370     79.7969     24.7857
  1756.6000      7.8606      2.5154      0.0378      8.1548     81.9474     25.6824
  1756.7000      7.8606      2.5062      0.0101      8.7162     83.5426     26.2688
  1756.8000      7.8574      2.5100      0.0837      8.4863     85.6072     26.5697
  1756.9000      7.8574      2.5114      0.0323      8.4002     92.0313     26.3405
  1757.0000      7.8588      2.5063      0.0636      8.7103     98.6354     25.9281
  1757.1000      7.8588      2.5034      0.0392      8.8824    100.9318     25.4860
  1757.2000      7.8588      2.5015      0.1109      9.0030    103.3961     25.1582
  1757.3000      7.8590      2.4993      0.0392      9.1337    108.3522     25.1036
  1757.4000      7.8590      2.5082      0.0654      8.5961    111.2597     25.1011
  1757.5000      7.8614      2.5366      0.0324      6.8725    107.5501     25.0942
