~Version Information
VERS.                      2.0: CWLS Log ASCII Standard - VERSION 2.0
WRAP.                       NO: One line per depth step
~Well Information Block
STRT.FT               583.0000: 
STOP.FT              1700.0000: 
STEP.FT                 0.1000: 
NULL.                -999.2500: 
COMP.          Pioneer Natural Resources: COMPANY
WELL.          Scott Canyon 11-18 Tr: WELL
FLD.           Purgatoire River: FIELD
LOC.           411' FNL & 580' FWL: LOCATION
PROV.                 Colorado: PROVINCE
CNTY.               Las Animas: COUNTRY
SRVC.                Patterson: SERVICE COMPANY
DATE.          Thu Feb 17 15:41:32 2005: LOG DATE
UWI.           05 071 08286 00: UNIQUE WELL ID
~Curve Information Block
DEPT.FT            0 000 00 00: Depth
DCAL.in                       : CDL Caliper
RHOB.g/cc                     : CDL Bulk Density
RHOC.g/cc                     : CDL Density Correction
DPOR.pu                       : CDL Density Porosity
GR.GAPI                       : Gamma Ray
NPOR.pu                       : Neutron Porosity
~Parameter Information Block
~A  Depth       DCAL        RHOB        RHOC        DPOR         GR         NPOR    
# ...
  1024.6000      8.1770      1.6379     -0.1373     61.3386     58.2384     30.3044
  1024.7000      8.1770      1.4875     -0.2414     70.4570     55.0159     30.5973
  1024.8000      8.2978      1.4070     -0.2434     75.3321     55.3039     31.2816
  1024.9000      8.2978      1.4377     -0.1156     73.4740     61.0714     31.9251
  1025.0000      8.5637      1.5554      0.0217     66.3410     69.8823     32.2601
  1025.1000      8.5637      1.7007      0.1380     57.5354     77.1070     32.6476
  1025.2000      8.5637      1.8192      0.1649     50.3503     80.0145     33.1763
  1025.3000      8.7818      1.8888      0.1731     46.1354     79.3015     33.4595
  1025.4000      8.7818      1.9194      0.1399     44.2800     81.7082     33.5407
  1025.5000      8.8269      1.9243      0.1622     43.9822     88.6791     33.6720
  1025.6000      8.8269      1.9009      0.1172     45.4030     93.8708     33.7350
  1025.7000      8.8269      1.8503     -0.0140     48.4642     94.8834     33.6380
  1025.8000      8.2997      1.7930     -0.0781     51.9399     92.2722     33.3796
  1025.9000      8.2997      1.7560     -0.1557     54.1791     88.3291     33.0552
  1026.0000      8.1472      1.7592     -0.1291     53.9902     85.0667     32.8790
  1026.1000      8.1472      1.8053     -0.0558     51.1959     82.1468     32.7321
  1026.2000      8.1472      1.8886      0.0276     46.1475     81.2243     32.6050
  1026.3000      8.1386      2.0029      0.1682     39.2160     83.8079     32.5685
  1026.4000      8.1386      2.1406      0.2083     30.8726     87.8447     32.3513
  1026.5000      8.1911      2.2868      0.2525     22.0103     90.4492     31.8824
  1026.6000      8.1911      2.4138      0.2118     14.3168     89.5011     31.2616
  1026.7000      8.1911      2.4911      0.1802      9.6283     88.2032     30.5536
  1026.8000      8.0709      2.5118      0.0842      8.3788     89.4435     29.8450
  1026.9000      8.0709      2.5027      0.0306      8.9249     89.3407     29.1236
  1027.0000      8.0027      2.5017      0.0137      8.9866     87.1603     28.4759
  1027.1000      8.0027      2.5251      0.0763      7.5702     86.1572     27.8369
  1027.2000      8.0027      2.5578      0.0623      5.5855     85.8980     26.9138
  1027.3000      7.9709      2.5789      0.0359      4.3112     84.0871     25.7611
  1027.4000      7.9709      2.5849      0.0240      3.9448     81.9000     24.9148
  1027.5000      7.9686      2.5876      0.0610      3.7841     81.4484     24.3760
  1027.6000      7.9686      2.5973      0.0375      3.1953     80.9248     23.5567
  1027.7000      7.9686      2.6153      0.0672      2.1017     78.9556     22.5003
  1027.8000      7.9731      2.6298      0.0562      1.2267     77.8923     21.7508
  1027.9000      7.9731      2.6212      0.0297      1.7456     80.4782     21.4610
  1028.0000      7.9810      2.5860      0.0526      3.8761     85.7676     21.7042
  1028.1000      7.9810      2.5510     -0.0537      5.9979     88.9048     22.5292
  1028.2000      7.9810      2.5433     -0.0040      6.4650     86.7912     23.3353
  1028.3000      7.9805      2.5608      0.0212      5.4072     82.5234     23.4999
  1028.4000      7.9805      2.5842      0.0977      3.9909     81.8772     23.3599
  1028.5000      7.9634      2.5889      0.0579      3.7022     85.8546     23.6162
  1028.6000      7.9634      2.5658      0.0710      5.1018     90.7419     24.4586
  1028.7000      7.9634      2.5327      0.0485      7.1079     94.2008     25.2530
  1028.8000      7.9541      2.5100      0.0429      8.4832     96.8913     25.7285
  1028.9000      7.9541      2.5020      0.0404      8.9674    101.1171     26.2558
  1029.0000      7.9517      2.5057      0.0425      8.7477    107.7517     26.9715
  1029.1000      7.9517      2.5195      0.0341      7.9088    112.8917     27.5943
  1029.2000      7.9517      2.5375      0.0661      6.8172    112.9512     27.5388
  1029.3000      7.9443      2.5491      0.0936      6.1170    110.3743     27.0861
  1029.4000      7.9443      2.5532      0.1022      5.8648    110.3352     26.8626
  1029.5000      7.9522      2.5620      0.0836      5.3344    113.0985     26.7587
  1029.6000      7.9522      2.5784      0.1551      4.3372    114.1236     26.5433
  1029.7000      7.9522      2.5828      0.0967      4.0740    111.4390     26.5456
  1029.8000      7.9653      2.5742     -0.0029      4.5968    108.1357     27.1100
  1029.9000      7.9653      2.5763      0.0221      4.4694    108.2751     27.6773
  1030.0000      7.9868      2.5879      0.0937      3.7620    112.0700     27.8820
  1030.1000      7.9868      2.5918      0.0703      3.5297    117.7186     27.8525
  1030.2000      7.9868      2.5869      0.0610      3.8262    125.2233     27.8036
  1030.3000      7.9931      2.5761      0.0446      4.4814    129.2654     27.9654
  1030.4000      7.9931      2.5595      0.0620      5.4868    123.1826     27.8322
  1030.5000      7.9871      2.5393      0.0500      6.7095    113.7575     27.1710
  1030.6000      7.9871      2.5209      0.0604      7.8268    110.0616     26.9577
  1030.7000      7.9871      2.5133      0.0020      8.2842    112.3759     27.5136
  1030.8000      7.9899      2.5195      0.0463      7.9119    117.7830     27.7765
  1030.9000      7.9899      2.5247      0.0655      7.5964    124.6982     27.5585
  1031.0000      7.9788      2.5228      0.0166      7.7098    130.9298     27.5744
  1031.1000      7.9788      2.5218      0.0684      7.7698    132.9277     27.6211
  1031.2000      7.9788      2.5171      0.0648      8.0539    132.0552     27.4722
  1031.3000      7.9756      2.5070      0.0400      8.6641    132.7102     27.3667
  1031.4000      7.9756      2.5037      0.0253      8.8646    132.9538     27.4786
  1031.5000      7.9817      2.5177      0.0119      8.0157    129.4580     27.6601
  1031.6000      7.9817      2.5439      0.1196      6.4323    125.2385     27.4564
  1031.7000      7.9817      2.5633      0.0945      5.2563    125.4769     26.7794
  1031.8000      7.9774      2.5651      0.0923      5.1427    130.5141     26.2571
  1031.9000      7.9774      2.5511      0.0544      5.9950    134.8644     26.3111
  1032.0000      7.9869      2.5397      0.0329      6.6828    133.1888     26.4217
  1032.1000      7.9869      2.5460      0.0818      6.3058    124.7520     26.3806
  1032.2000      7.9869      2.5491      0.1019      6.1156    112.3557     26.6096
  1032.3000      7.9907      2.5289      0.0618      7.3402    101.6111     26.5711
  1032.4000      7.9907      2.5046     -0.0163      8.8093     97.4357     25.4206
  1032.5000      7.9929      2.4998      0.0160      9.1054     99.2946     23.9679
  1032.6000      7.9929      2.5111     -0.0138      8.4173    101.1063     23.3586
  1032.7000      7.9929      2.5243      0.0286      7.6183     98.7183     23.2716
  1032.8000      7.9993      2.5323     -0.0086      7.1309     94.0864     23.1353
  1032.9000      7.9993      2.5435      0.0205      6.4549     89.6976     22.9059
  1033.0000      7.9795      2.5546      0.1035      5.7798     86.1255     22.6405
  1033.1000      7.9795      2.5586      0.0023      5.5411     82.7272     22.4852
  1033.2000      7.9795      2.5648      0.0584      5.1621     79.7830     22.2691
  1033.3000      7.9491      2.5740      0.0667      4.6044     77.1504     21.8376
  1033.4000      7.9491      2.5892      0.0427      3.6821     74.1305     21.2648
  1033.5000      7.8903      2.6280      0.0912      1.3305     71.5044     20.3858
  1033.6000      7.8903      2.6827      0.1517     -1.9824     69.3806     19.8159
  1033.7000      7.8903      2.7134      0.1941     -3.8415     66.3740     20.1876
  1033.8000      7.8867      2.6980      0.1667     -2.9068     63.6155     21.0943
  1033.9000      7.8867      2.6580      0.1498     -0.4836     66.5850     21.8270
  1034.0000      7.8870      2.6213      0.1273      1.7380     75.4126     22.2198
  1034.1000      7.8870      2.5901      0.1163      3.6281     82.9462     22.6330
