~Version Information
VERS.                      2.0: CWLS Log ASCII Standard - VERSION 2.0
WRAP.                       NO: One line per depth step
~Well Information Block
STRT.FT                -3.2500: 
STOP.FT              2202.2500: 
STEP.FT                 0.2500: 
NULL.                -999.2500: 
COMP.          Pioneer Natural Resources: COMPANY
WELL.           Parklane 43-34: WELL
FLD.           Purgatorie River: FIELD
LOC.           1704' FSL & 1119' FEL--: LOCATION
PROV.                       CO: PROVINCE
CNTY.               Las Animas: COUNTRY
SRVC.                         : SERVICE COMPANY
DATE.          Thu Oct 14 14:49:09 2004: LOG DATE
UWI.           005 071 08162  : UNIQUE WELL ID
~Curve Information Block
DEPT.FT            0 000 00 00: Depth
GR.GAPI                       : Gamma Ray
CCL.                          : Casing Collar Locator
TT3.usec                      : CBL 3' Travel Time
AMP3.mV                       : CBL 3' Amplitude
~Parameter Information Block
~A  Depth        GR         CCL         TT3         AMP3    
# ...
  1169.2500    156.2885      0.0000    744.7617      2.7271
  1169.5000    156.5018      0.0000    745.8887      2.6795
  1169.7500    155.7266      0.0000    745.6339      2.6446
  1170.0000    154.8988      0.0000    743.9497      2.6214
  1170.2500    155.4077      0.0000    740.9175      2.6172
  1170.5000    157.8318      0.0000    737.1891      2.6577
  1170.7500    161.3875      0.0000    734.1838      2.7764
  1171.0000    164.5735      0.0000    733.5722      2.9953
  1171.2500    165.8129      0.0000    736.4857      3.3188
  1171.5000    163.9073      0.0000    743.0866      3.7336
  1171.7500    158.6530      0.0000    752.5629      4.2023
  1172.0000    150.9181      0.0000    763.2114      4.6633
  1172.2500    141.6871      0.0000    772.7306      5.0576
  1172.5000    131.2154      0.0000    779.1923      5.3571
  1172.7500    119.4414      0.0000    782.2296      5.5647
  1173.0000    107.2356      0.0000    782.9031      5.6962
  1173.2500     96.9848      0.0000    782.0291      5.7698
  1173.5000     91.5899      0.0000    779.1543      5.8047
  1173.7500     92.7264      0.0000    773.7050      5.8174
  1174.0000     99.9879      0.0000    766.6899      5.8245
  1174.2500    111.2132      0.0000    760.5538      5.8510
  1174.5000    123.2968      0.0000    757.4052      5.9258
  1174.7500    133.3477      0.0000    757.6420      6.0683
  1175.0000    139.9951      0.0000    760.0779      6.2896
  1175.2500    143.6721      0.0000    763.1410      6.5972
  1175.5000    145.4692      0.0000    765.9276      6.9824
  1175.7500    145.9348      0.0000    768.0348      7.4074
  1176.0000    144.8596      0.0000    768.6404      7.8094
  1176.2500    141.8448      0.0000    766.6661      8.1142
  1176.5000    137.3210      0.0000    762.1143      8.2489
  1176.7500    133.2717      0.0000    756.4196      8.1600
  1177.0000    132.3327      0.0000    750.9610      7.8334
  1177.2500    135.5594      0.0000    745.6334      7.2991
  1177.5000    141.0798      0.0000    739.0978      6.6279
  1177.7500    145.1325      0.0000    729.9934      5.9218
  1178.0000    144.7990      0.0000    717.4228      5.2829
  1178.2500    140.2552      0.0000    700.5304      4.7685
  1178.5000    134.5925      0.0000    679.1917      4.3769
  1178.7500    131.3257      0.0000    656.7600      4.0781
  1179.0000    131.8313      0.0000    641.2357      3.8514
  1179.2500    134.8168      0.0000    640.6692      3.7019
  1179.5000    137.8730      0.0000    656.1528      3.6572
  1179.7500    139.4108      0.0000    680.6960      3.7449
  1180.0000    139.4081      0.0000    705.1893      3.9633
  1180.2500    138.8775      0.0000    724.1594      4.2750
  1180.5000    138.8935      0.0000    736.5488      4.6285
  1180.7500    139.7445      0.0000    743.6426      4.9800
  1181.0000    140.4526      0.0000    747.2787      5.2968
  1181.2500    139.1078      0.0000    748.9865      5.5569
  1181.5000    134.2717      0.0000    749.6998      5.7517
  1181.7500    126.6539      0.0000    749.8268      5.8750
  1182.0000    119.2711      0.0000    749.3914      5.9106
  1182.2500    115.3336      0.0000    748.0805      5.8434
  1182.5000    115.7292      0.0000    745.3975      5.6831
  1182.7500    118.5688      0.0000    741.1769      5.4622
  1183.0000    120.8804      0.0000    736.2882      5.2146
  1183.2500    120.7128      0.0000    732.6779      4.9696
  1183.5000    118.0925      0.0000    732.1418      4.7623
  1183.7500    114.3450      0.0000    734.7953      4.6317
  1184.0000    110.8085      0.0000    738.9882      4.6142
  1184.2500    108.3538      0.0000    742.6927      4.7493
  1184.5000    107.6369      0.0000    744.6132      5.0732
  1184.7500    108.9333      0.0000    744.0030      5.5861
  1185.0000    111.5474      0.0000    740.1174      6.2318
  1185.2500    114.1219      0.0000    732.6996      6.9245
  1185.5000    116.1545      0.0000    723.3267      7.5861
  1185.7500    118.8291      0.0000    715.4188      8.1553
  1186.0000    123.6642      0.0000    711.5978      8.5764
  1186.2500    130.5758      0.0000    711.0936      8.7978
  1186.5000    137.8849      0.0000    710.9532      8.7899
  1186.7500    143.8783      0.0000    709.6137      8.5678
  1187.0000    147.6408      0.0000    707.9870      8.1891
  1187.2500    148.8092      0.0000    707.2053      7.7146
  1187.5000    147.4648      0.0000    706.6072      7.1753
  1187.7500    144.0389      0.0000    704.1773      6.5893
  1188.0000    138.6403      0.0000    698.6138      5.9996
  1188.2500    130.9816      0.0000    691.0211      5.4771
  1188.5000    121.8045      0.0000    684.4760      5.0843
  1188.7500    113.6876      0.0000    681.6552      4.8383
  1189.0000    109.2659      0.0000    683.0336      4.7022
  1189.2500    108.9140      0.0000    687.2565      4.6059
  1189.5000    111.0077      0.0000    692.4905      4.4864
  1189.7500    114.0357      0.0000    697.2272      4.3225
  1190.0000    117.4480      0.0000    700.5690      4.1347
  1190.2500    120.8117      0.0000    702.3516      3.9571
  1190.5000    123.5598      0.0000    703.0102      3.8137
  1190.7500    125.8172      0.0000    703.2343      3.7144
  1191.0000    128.4031      0.0000    703.7293      3.6561
  1191.2500    131.7048      0.0000    705.1830      3.6210
  1191.5000    135.1380      0.0000    708.2150      3.5857
  1191.7500    137.6952      0.0000    712.9754      3.5370
  1192.0000    138.4529      0.0000    718.5864      3.4798
  1192.2500    136.7232      0.0000    723.3621      3.4289
  1192.5000    132.4613      0.0000    726.2643      3.3958
  1192.7500    126.6233      0.0000    728.1209      3.3844
  1193.0000    120.7454      0.0000    730.7400      3.3971
  1193.2500    116.2709      0.0000    734.7395      3.4351
  1193.5000    114.2671      0.0000    738.7588      3.4841
  1193.7500    115.0842      0.0000    740.8215      3.5084
  1194.0000    117.8836      0.0000    740.0209      3.4695
  1194.2500    120.9927      0.0000    736.9788      3.3598
  1194.5000    123.2938      0.0000    733.0977      3.2137
  1194.7500    125.2685      0.0000    729.4217      3.0858
  1195.0000    128.4181      0.0000    726.0229      3.0186
  1195.2500    133.6624      0.0000    722.4290      3.0266
  1195.5000    140.4475      0.0000    718.5633      3.1011
  1195.7500    147.2204      0.0000    715.0802      3.2257
  1196.0000    152.4482      0.0000    712.5860      3.3892
  1196.2500    155.3414      0.0000    710.5034      3.5822
  1196.5000    156.0349      0.0000    706.9496      3.7832
  1196.7500    155.2307      0.0000    700.2559      3.9547
  1197.0000    153.5084      0.0000    691.0946      4.0636
  1197.2500    151.0483      0.0000    683.0955      4.1031
  1197.5000    148.0426      0.0000    681.3361      4.1017
  1197.7500    144.9021      0.0000    689.8270      4.1178
  1198.0000    141.5645      0.0000    708.8710      4.2102
  1198.2500    136.9933      0.0000    733.5574      4.3867
  1198.5000    130.3256      0.0000    755.9033      4.5784
  1198.7500    122.6970      0.0000    770.2804      4.6904
  1199.0000    117.0015      0.0000    776.4763      4.6802
  1199.2500    115.3524      0.0000    777.5365      4.5746
  1199.5000    117.2727      0.0000    776.7139      4.4233
  1199.7500    120.4604      2.0000    776.7789      4.2544
  1200.0000    122.8328      0.0000    779.4204      4.0666
  1200.2500    123.8016      0.0000    783.6315      3.8428
  1200.5000    124.0379      0.0000    785.7568      3.5725
  1200.7500    124.5726      0.0000    781.9438      3.2769
  1201.0000    126.3754      0.0000    770.8771      3.0223
  1201.2500    130.3244      0.0000    755.1252      2.8929
  1201.5000    136.5520      0.0000    739.8525      2.9313
  1201.7500    143.4244      0.0000    729.1277      3.1008
  1202.0000    147.8995      0.0000    723.4598      3.3139
  1202.2500    147.7470      0.0000    720.7328      3.5030
  1202.5000    143.4140      0.0000    718.5302      3.6642
