~Version Information
VERS.                      2.0: CWLS Log ASCII Standard - VERSION 2.0
WRAP.                       NO: One line per depth step
~Well Information Block
STRT.FT               318.1000: 
STOP.FT              2688.0000: 
STEP.FT                 0.1000: 
NULL.                -999.2500: 
COMP.          Petrogulf Corporation: COMPANY
WELL.            Montoya 1-24V: WELL
FLD.           Purgatorie River: FIELD
LOC.           605' FSL & 2557' FWL: LOCATION
CNTY.               Las Animas: COUNTY
SRVC.                         : SERVICE COMPANY
DATE.          Wed Oct 20 14:56:37 2004: LOG DATE
UWI.           05 071 08194 00: UNIQUE WELL ID
STAT.                 Colorado: STATE
~Curve Information Block
DEPT.FT            0 000 00 00: Depth
DCAL.in                       : CDL Caliper
RHOB.g/cc                     : CDL Bulk Density
RHOC.g/cc                     : CDL Density Correction
DPOR.pu                       : CDL Density Porosity
GR.GAPI                       : Gamma Ray
NPOR.pu                       : Neutron Porosity
~Parameter Information Block
~A  Depth       DCAL        RHOB        RHOC        DPOR         GR         NPOR    
# ...
  2516.5000      7.9557      2.5984      0.1248      3.1301    106.9776     27.6251
  2516.6000      7.9557      2.6235      0.1533      1.6072    110.6462     28.4100
  2516.7000      7.9557      2.6407      0.2119      0.5646    115.8121     29.0215
  2516.8000      7.9602      2.6441      0.2233      0.3547    118.2768     29.3919
  2516.9000      7.9602      2.6329      0.1880      1.0393    118.1768     29.2814
  2517.0000      7.9903      2.6092      0.1607      2.4737    116.0869     28.7157
  2517.1000      7.9903      2.5777      0.1185      4.3793    114.1131     28.0132
  2517.2000      7.9903      2.5493      0.0602      6.1002    115.4416     27.5608
  2517.3000      7.9954      2.5426      0.0709      6.5118    119.0247     27.7190
  2517.4000      7.9954      2.5633      0.0597      5.2540    122.7582     28.2942
  2517.5000      7.9577      2.5937      0.1117      3.4093    125.2175     28.3607
  2517.6000      7.9577      2.6074      0.1480      2.5810    123.8916     27.3971
  2517.7000      7.9577      2.5979      0.1171      3.1561    120.5062     26.3390
  2517.8000      7.9684      2.5908      0.0574      3.5879    118.3803     26.0973
  2517.9000      7.9684      2.6074      0.1041      2.5844    113.7854     25.9599
  2518.0000      7.9445      2.6239      0.1531      1.5809    103.5928     25.4749
  2518.1000      7.9445      2.6095      0.0954      2.4532     94.3938     25.5136
  2518.2000      7.9445      2.5822      0.0504      4.1116     92.8066     26.0990
  2518.3000      7.9592      2.5798      0.0619      4.2515     97.7550     26.2591
  2518.4000      7.9592      2.6052      0.1045      2.7161    106.7198     26.1154
  2518.5000      7.9510      2.6303      0.1541      1.1928    118.2564     26.2670
  2518.6000      7.9510      2.6361      0.1383      0.8447    129.0595     26.4849
  2518.7000      7.9510      2.6192      0.1697      1.8665    133.5505     26.2397
  2518.8000      7.9534      2.5865      0.0799      3.8488    127.9148     25.7088
  2518.9000      7.9534      2.5613      0.0619      5.3770    118.0361     25.9530
  2519.0000      7.9503      2.5677      0.0235      4.9850    114.3435     27.0092
  2519.1000      7.9503      2.6002      0.0938      3.0158    117.0781     27.7170
  2519.2000      7.9503      2.6187      0.1354      1.8978    120.0027     27.5521
  2519.3000      7.9423      2.6045      0.0605      2.7585    118.7679     26.7685
  2519.4000      7.9423      2.5892      0.0340      3.6865    114.1903     25.6206
  2519.5000      7.9477      2.5955      0.0946      3.3058    109.0690     24.5384
  2519.6000      7.9477      2.6067      0.0818      2.6225    105.2877     23.9659
  2519.7000      7.9477      2.6098      0.0493      2.4360    104.5144     23.7542
  2519.8000      7.8907      2.6110      0.0724      2.3644    103.7764     23.5509
  2519.9000      7.8907      2.6195      0.0555      1.8498     99.6718     23.5606
  2520.0000      7.8703      2.6342      0.0987      0.9597     95.4029     23.8953
  2520.1000      7.8703      2.6341      0.1216      0.9661     95.4719     24.1645
  2520.2000      7.8703      2.6088      0.1076      2.4959     97.9633     24.0056
  2520.3000      7.9010      2.5818      0.0532      4.1325     99.2651     23.4212
  2520.4000      7.9010      2.5714      0.1042      4.7653    100.9568     23.2144
  2520.5000      7.9086      2.5702      0.0301      4.8381    104.0621     24.0502
  2520.6000      7.9086      2.5697      0.0784      4.8638    104.7833     25.1403
  2520.7000      7.9086      2.5694      0.0621      4.8848    102.3570     25.5450
  2520.8000      7.9267      2.5690      0.0772      4.9110     99.6864     25.8161
  2520.9000      7.9267      2.5686      0.0489      4.9356     96.8786     26.3969
  2521.0000      7.9010      2.5768      0.0468      4.4384     95.2583     26.6665
  2521.1000      7.9010      2.5949      0.1161      3.3388    100.8443     26.3379
  2521.2000      7.9010      2.6031      0.1294      2.8418    115.2737     26.0547
  2521.3000      7.9528      2.5846      0.1590      3.9607    129.6112     26.1677
  2521.4000      7.9528      2.5549      0.0434      5.7650    131.4716     26.3664
  2521.5000      7.9590      2.5516      0.0566      5.9621    122.4390     26.7427
  2521.6000      7.9590      2.5880      0.1065      3.7553    117.8679     27.5530
  2521.7000      7.9590      2.6376      0.1519      0.7492    124.7965     28.1111
  2521.8000      7.9203      2.6651      0.1846     -0.9124    136.4888     27.4157
  2521.9000      7.9203      2.6657      0.1382     -0.9511    145.7215     26.0497
  2522.0000      7.9600      2.6593      0.1673     -0.5609    147.9588     25.1001
  2522.1000      7.9600      2.6457      0.1267      0.2629    140.9267     24.5188
  2522.2000      7.9600      2.6149      0.1379      2.1289    129.4928     24.2698
  2522.3000      7.9421      2.5803      0.0979      4.2222    119.8455     24.7624
  2522.4000      7.9421      2.5614      0.0829      5.3702    112.2579     25.8155
  2522.5000      7.9446      2.5537      0.0835      5.8375    106.6761     26.8153
  2522.6000      7.9446      2.5463      0.0547      6.2824    103.8965     27.5435
  2522.7000      7.9446      2.5444      0.0310      6.3976    105.3811     28.2105
  2522.8000      7.9453      2.5541      0.0824      5.8126    111.7171     28.6147
  2522.9000      7.9453      2.5644      0.1085      5.1882    118.9472     28.1214
  2523.0000      7.9578      2.5637      0.0733      5.2286    123.6862     26.8069
  2523.1000      7.9578      2.5561      0.0542      5.6934    123.2402     25.7728
  2523.2000      7.9578      2.5511      0.0568      5.9963    119.7997     25.6465
  2523.3000      7.9294      2.5588      0.0809      5.5265    119.3113     25.7091
  2523.4000      7.9294      2.5878      0.1282      3.7715    117.6231     25.4871
  2523.5000      7.9144      2.6323      0.1249      1.0703    111.3849     25.4812
  2523.6000      7.9144      2.6687      0.1763     -1.1320    107.8151     25.7754
  2523.7000      7.9144      2.6694      0.1896     -1.1737    112.0596     25.7494
  2523.8000      7.9090      2.6358      0.1422      0.8585    119.6984     25.4279
  2523.9000      7.9090      2.6033      0.1069      2.8286    122.9993     25.3752
  2524.0000      7.9015      2.5981      0.0946      3.1457    121.0080     25.5186
  2524.1000      7.9015      2.6146      0.0652      2.1469    118.2494     25.5012
  2524.2000      7.9015      2.6234      0.1359      1.6139    115.9511     25.5243
  2524.3000      7.8839      2.6091      0.0640      2.4813    114.6122     25.8632
  2524.4000      7.8839      2.5967      0.0774      3.2324    114.6016     26.2412
  2524.5000      7.9060      2.6058      0.0496      2.6788    115.4235     26.5024
  2524.6000      7.9060      2.6224      0.1006      1.6755    117.9733     26.7832
  2524.7000      7.9060      2.6264      0.1202      1.4314    122.4607     27.0164
  2524.8000      7.8908      2.6149      0.1078      2.1279    125.4494     27.0238
  2524.9000      7.8908      2.5959      0.0745      3.2771    124.1225     26.7807
  2525.0000      7.8836      2.5800      0.0835      4.2436    119.9952     26.5807
  2525.1000      7.8836      2.5709      0.1056      4.7970    117.3148     26.5179
  2525.2000      7.8836      2.5672      0.0880      5.0208    116.2503     26.4081
  2525.3000      7.8855      2.5676      0.0948      4.9932    114.8624     26.2263
  2525.4000      7.8855      2.5687      0.0486      4.9269    114.8626     26.0198
  2525.5000      7.8784      2.5747      0.0389      4.5641    116.6511     25.6680
  2525.6000      7.8784      2.5966      0.0313      3.2348    119.7424     25.2154
  2525.7000      7.8784      2.6264      0.0812      1.4281    124.1830     24.9987
  2525.8000      7.9083      2.6413      0.0781      0.5270    128.9180     25.1408
  2525.9000      7.9083      2.6352      0.0593      0.8973    130.0885     25.2954
  2526.0000      7.8888      2.6197      0.0969      1.8366    127.3158     25.0315
