~Version Information
VERS.                      2.0: CWLS Log ASCII Standard - VERSION 2.0
WRAP.                       NO: One line per depth step
~Well Information Block
STRT.FT                 8.7500: 
STOP.FT              2723.0000: 
STEP.FT                 0.2500: 
NULL.                -999.2500: 
COMP.          Pioneer Natural Resources: COMPANY
WELL.           Desoto 13-7 Tr: WELL
FLD.           Purgatoire River: FIELD
LOC.           1404' FSL & 1115' FWL: LOCATION
PROV.                 Colorado: PROVINCE
CNTY.               Las Animas: COUNTRY
SRVC.                Patterson: SERVICE COMPANY
DATE.          Wed Mar 16 18:00:51 2005: LOG DATE
UWI.           05 071 08216 00: UNIQUE WELL ID
~Curve Information Block
DEPT.FT            0 000 00 00: Depth
GR.GAPI                       : Gamma Ray
CCL.                          : Casing Collar Locator
TT3.usec                      : CBL 3' Travel Time
AMP3.mV                       : CBL 3' Amplitude
AMP5.mV                       : CBL 5' Amplitude
~Parameter Information Block
~A  Depth        GR         CCL         TT3         AMP3        AMP5    
# ...
  1436.7500     70.1591      0.0000   1016.0535     23.4471      3.0409
  1437.0000     65.8710      0.0000    953.8557     22.9928      3.1790
  1437.2500     60.7561      0.0000    923.7307     22.1175      3.2573
  1437.5000     56.1040      0.0000    928.3046     21.0330      3.2488
  1437.7500     52.7250      0.0000    953.1031     19.8828      3.1491
  1438.0000     50.5340      0.0000    974.7394     18.7283      2.9847
  1438.2500     49.2714      0.0000    974.7721     17.5862      2.8005
  1438.5000     49.1264      0.0000    949.0096     16.4741      2.6372
  1438.7500     50.4133      0.0000    907.1567     15.4373      2.5192
  1439.0000     52.8262      0.0000    864.6685     14.5531      2.4572
  1439.2500     55.3644      0.0000    833.6107     13.9183      2.4595
  1439.5000     57.0861      0.0000    819.3025     13.6198      2.5359
  1439.7500     57.6876      0.0000    824.2418     13.6950      2.6935
  1440.0000     57.3375      0.0000    853.0275     14.1125      2.9281
  1440.2500     56.4510      0.0000    910.5907     14.8033      3.2194
  1440.5000     55.8324      0.0000    993.8331     15.7226      3.5327
  1440.7500     56.4693      0.0000   1086.5294     16.8906      3.8281
  1441.0000     58.6820      0.0000   1165.7900     18.3812      4.0740
  1441.2500     61.7536      0.0000   1214.8757     20.2736      4.2568
  1441.5000     64.8440      0.0000   1229.2314     22.5935      4.3789
  1441.7500     68.1944      0.0000   1211.1794     25.2666      4.4476
  1442.0000     73.0421      0.0000   1162.5828     28.0900      4.4670
  1442.2500     80.3401      0.0000   1086.8726     30.7292      4.4407
  1442.5000     89.8174      0.0000    997.0629     32.7718      4.3825
  1442.7500    100.1629      0.0000    914.5121     33.8484      4.3190
  1443.0000    109.7384      0.0000    855.8632     33.7694      4.2769
  1443.2500    117.3221      0.0000    823.6993     32.5876      4.2632
  1443.5000    122.7029      0.0000    810.4570     30.5482      4.2551
  1443.7500    126.6798      0.0000    808.2898     27.9729      4.2117
  1444.0000    130.1983      0.0000    815.0608     25.1597      4.1019
  1444.2500    133.2898      0.0000    834.6352     22.3432      3.9276
  1444.5000    134.8842      0.0000    872.9353     19.6909      3.7209
  1444.7500    133.8037      0.0000    931.5511     17.3201      3.5228
  1445.0000    130.0081      0.0000   1003.1575     15.3355      3.3640
  1445.2500    124.9726      0.0000   1073.2125     13.8652      3.2560
  1445.5000    120.8971      0.0000   1126.9443     13.0447      3.1915
  1445.7500    119.3920      0.0000   1156.6592     12.9586      3.1525
  1446.0000    120.5445      0.0000   1165.2771     13.5947      3.1211
  1446.2500    122.9587      0.0000   1164.3363     14.8419      3.0873
  1446.5000    124.8339      0.0000   1167.4897     16.5083      3.0478
  1446.7500    125.3036      0.0000   1183.5376     18.3468      3.0023
  1447.0000    124.7841      0.0000   1211.7169     20.0934      2.9501
  1447.2500    124.0851      0.0000   1240.6591     21.5318      2.8898
  1447.5000    123.4186      0.0000   1252.8997     22.5670      2.8200
  1447.7500    122.4324      0.0000   1233.5472     23.2411      2.7423
  1448.0000    121.0279      0.0000   1177.4766     23.6431      2.6596
  1448.2500    119.8704      0.0000   1092.0326     23.7755      2.5743
  1448.5000    119.8662      0.0000    995.4287     23.5139      2.4886
  1448.7500    121.2210      0.0000    909.5057     22.7071      2.4060
  1449.0000    123.2823      0.0000    849.1395     21.3133      2.3302
  1449.2500    125.2379      0.0000    817.5474     19.4444      2.2585
  1449.5000    126.6040      0.0000    811.6234     17.3090      2.1792
  1449.7500    127.1765      0.0000    829.4636     15.1322      2.0769
  1450.0000    126.9407      0.0000    871.2147     13.1083      1.9417
  1450.2500    125.9129      0.0000    933.7539     11.3820      1.7741
  1450.5000    123.6729      0.0000   1007.3338     10.0370      1.5830
  1450.7500    119.3431      0.0000   1079.8788      9.0823      1.3819
  1451.0000    112.7284      0.0000   1143.8284      8.4481      1.1855
  1451.2500    105.3974      0.0000   1195.7723      8.0154      1.0082
  1451.5000     99.7654      0.0000   1230.6079      7.6767      0.8606
  1451.7500     96.8143      0.0000   1241.7860      7.3812      0.7460
  1452.0000     95.3866      0.0000   1229.7986      7.1274      0.6604
  1452.2500     93.9613      0.0000   1207.1708      6.9244      0.5979
  1452.5000     92.3708      0.0000   1191.6646      6.7676      0.5566
  1452.7500     91.4865      0.0000   1194.1399      6.6430      0.5361
  1453.0000     91.8761      0.0000   1212.9854      6.5373      0.5338
  1453.2500     93.1150      0.0000   1239.2133      6.4390      0.5428
  1453.5000     94.1027      0.0000   1265.1494      6.3373      0.5554
  1453.7500     94.0186      0.0000   1286.4133      6.2276      0.5661
  1454.0000     93.0692      0.0000   1298.0879      6.1178      0.5709
  1454.2500     91.9669      0.0000   1294.3584      6.0294      0.5660
  1454.5000     90.6214      0.0000   1273.8099      5.9978      0.5487
  1454.7500     88.0512      0.0000   1243.1907      6.0693      0.5208
  1455.0000     83.8326      0.0000   1214.3589      6.2765      0.4889
  1455.2500     78.8969      0.0000   1194.8458      6.5972      0.4606
  1455.5000     74.5859      0.0000   1178.6941      6.9396      0.4406
  1455.7500     71.5426      0.0000   1148.4430      7.1806      0.4304
  1456.0000     69.8714      0.0000   1091.0471      7.2275      0.4292
  1456.2500     70.0174      0.0000   1011.9823      7.0539      0.4336
  1456.5000     72.9707      0.0000    931.9942      6.7003      0.4373
  1456.7500     79.2708      0.0000    872.7924      6.2452      0.4325
  1457.0000     87.9428      0.0000    847.7480      5.7622      0.4138
  1457.2500     96.8979      0.0000    859.7846      5.2855      0.3804
  1457.5000    104.4064      0.0000    899.4839      4.8100      0.3363
  1457.7500    109.6372      0.0000    945.2202      4.3201      0.2894
  1458.0000    111.8545      0.0000    973.6475      3.8169      0.2483
  1458.2500    110.1214      0.0000    975.3815      3.3249      0.2191
  1458.5000    104.3278      0.0000    958.7547      2.8807      0.2032
  1458.7500     96.0025      0.0000    937.4059      2.5198      0.1980
  1459.0000     87.5843      0.0000    917.8522      2.2652      0.1993
  1459.2500     80.8542      0.0000    899.3930      2.1154      0.2035
  1459.5000     76.1086      0.0000    881.3319      2.0395      0.2082
  1459.7500     72.6698      0.0000    867.9598      1.9888      0.2118
  1460.0000     69.8951      0.0000    866.9802      1.9216      0.2128
  1460.2500     67.6561      0.0000    882.6499      1.8254      0.2098
  1460.5000     66.2709      0.0000    910.5256      1.7193      0.2021
  1460.7500     66.2289      0.0000    939.2643      1.6350      0.1892
  1461.0000     67.5858      0.0000    957.2022      1.5923      0.1710
  1461.2500     69.3300      0.0000    958.0557      1.5862      0.1488
  1461.5000     69.7214      0.0000    942.9049      1.5909      0.1267
  1461.7500     67.7007      0.0000    917.6418      1.5751      0.1102
  1462.0000     63.9850      0.0000    887.4449      1.5188      0.1042
  1462.2500     60.6106      0.0000    854.3170      1.4234      0.1106
  1462.5000     59.3341      0.0000    821.1588      1.3075      0.1280
  1462.7500     60.4906      0.0000    794.5377      1.1941      0.1518
  1463.0000     63.2831      0.0000    779.8265      1.1027      0.1763
  1463.2500     66.7985      0.0000    776.8866      1.0459      0.1963
  1463.5000     70.4762      0.0000    785.2591      1.0252      0.2091
  1463.7500     73.8899      0.0000    811.5159      1.0323      0.2145
  1464.0000     76.4904      0.0000    863.6186      1.0581      0.2140
  1464.2500     77.6926      0.0000    933.9724      1.1071      0.2086
  1464.5000     77.2410      0.0000    993.6898      1.2043      0.1995
