~Version Information
VERS.                      2.0: CWLS Log ASCII Standard - VERSION 2.0
WRAP.                       NO: One line per depth step
~Well Information Block
STRT.FT               -12.0000: 
STOP.FT              2137.5000: 
STEP.FT                 0.2500: 
NULL.                -999.2500: 
COMP.          Pioneer Natural Resources: COMPANY
WELL.           Ogallela 44-12: WELL
FLD.           Purgatorie River: FIELD
LOC.           610' FSL & 671' FEL------------: LOCATION
PROV.                       CO: PROVINCE
CNTY.               Las Animas: COUNTRY
SRVC.          Patterson Wireline: SERVICE COMPANY
DATE.          Thu Apr 07 14:25:46 2005: LOG DATE
UWI.           05 071 08283 00: UNIQUE WELL ID
~Curve Information Block
DEPT.FT            0 000 00 00: Depth
CCL.                          : Casing Collar Locator
TT3.usec                      : CBL 3' Travel Time
AMP3.mV                       : CBL 3' Amplitude
ATT3.db/ft                    : CBL 3' Attenuation
GR.GAPI                       : Gamma Ray
~Parameter Information Block
~A  Depth       CCL         TT3         AMP3        ATT3         GR     
# ...
   128.0000      0.0000    294.9703     41.2766     -2.4077     79.1466
   128.2500      0.0000    302.5838     39.0547     -2.5679     74.4870
   128.5000      0.0000    307.7538     37.7947     -2.6628     70.3520
   128.7500      2.0000    310.4868     37.2694     -2.7034     67.9376
   129.0000      2.0000    311.4376     37.1642     -2.7115     68.1364
   129.2500      0.0000    311.0793     37.3038     -2.7007     71.2370
   129.5000      0.0000    309.3705     37.7014     -2.6700     76.7084
   129.7500      0.0000    306.0335     38.4903     -2.6100     83.5872
   130.0000      0.0000    301.0235     39.8660     -2.5084     90.8391
   130.2500      0.0000    294.6903     42.0651     -2.3529     96.9246
   130.5000      0.0000    287.6236     45.2392     -2.1423     99.6110
   130.7500      0.0000    280.5839     49.1616     -1.9015     97.4342
   131.0000      0.0000    274.4961     53.1131     -1.6777     91.4526
   131.2500      0.0000    270.1124     56.2743     -1.5103     84.8140
   131.5000      0.0000    267.5646     58.2722     -1.4093     80.5447
   131.7500      0.0000    266.3863     59.2848     -1.3594     80.0777
   132.0000      0.0000    265.9516     59.7102     -1.3387     83.1271
   132.2500      0.0000    265.8218     59.8536     -1.3318     87.8174
   132.5000      0.0000    265.7937     59.8596     -1.3315     91.1571
   132.7500      0.0000    265.7971     59.7893     -1.3349     90.5477
   133.0000      0.0000    265.8083     59.6870     -1.3398     85.3750
   133.2500      0.0000    265.8146     59.5930     -1.3444     77.1158
   133.5000      0.0000    265.8176     59.5252     -1.3477     67.9049
   133.7500      0.0000    265.8286     59.4764     -1.3501     59.1591
   134.0000      0.0000    265.8506     59.4425     -1.3517     51.5907
   134.2500      0.0000    265.8675     59.4449     -1.3516     45.9862
   134.5000      0.0000    265.8573     59.5150     -1.3482     43.1254
   134.7500      0.0000    265.8146     59.6566     -1.3413     42.7880
   135.0000      0.0000    265.7559     59.8312     -1.3329     43.4803
   135.2500      0.0000    265.7046     59.9816     -1.3256     43.7314
   135.5000      0.0000    265.6750     60.0679     -1.3214     43.4943
   135.7500      0.0000    265.6694     60.0828     -1.3207     43.7353
   136.0000      0.0000    265.6816     60.0384     -1.3228     44.6759
   136.2500      0.0000    265.7024     59.9405     -1.3276     45.1910
   136.5000      0.0000    265.7256     59.7742     -1.3356     44.2563
   136.7500      0.0000    265.7510     59.5241     -1.3478     42.3792
   137.0000      0.0000    265.7800     59.2107     -1.3630     41.1257
   137.2500      0.0000    265.8124     58.8916     -1.3787     41.6360
   137.5000      0.0000    265.8465     58.6137     -1.3924     43.9871
   137.7500      0.0000    265.8792     58.3765     -1.4041     47.7482
   138.0000      0.0000    265.9069     58.1496     -1.4154     52.6511
   138.2500      0.0000    265.9267     57.9158     -1.4271     58.5129
   138.5000      0.0000    265.9376     57.6909     -1.4383     64.6943
   138.7500      0.0000    265.9408     57.5080     -1.4475     70.1611
   139.0000      0.0000    265.9414     57.3831     -1.4538     74.4293
   139.2500      0.0000    265.9481     57.2957     -1.4582     78.1273
   139.5000      0.0000    265.9677     57.2082     -1.4626     82.1892
   139.7500      0.0000    266.0023     57.0929     -1.4685     86.6639
   140.0000      0.0000    266.0496     56.9374     -1.4764     90.4744
   140.2500      0.0000    266.1026     56.7364     -1.4866     92.0348
   140.5000      0.0000    266.1530     56.4893     -1.4993     90.1618
   140.7500      0.0000    266.1961     56.2042     -1.5139     85.0302
   141.0000      0.0000    266.2313     55.9054     -1.5293     78.4997
   141.2500      0.0000    266.2597     55.6306     -1.5436     73.2263
   141.5000      0.0000    266.2832     55.4119     -1.5550     71.2270
   141.7500      0.0000    266.3043     55.2618     -1.5629     73.0130
   142.0000      0.0000    266.3224     55.1804     -1.5671     77.4955
   142.2500      0.0000    266.3347     55.1667     -1.5679     82.5068
   142.5000      0.0000    266.3408     55.2153     -1.5653     86.0560
   142.7500      0.0000    266.3418     55.3085     -1.5604     87.6741
   143.0000      0.0000    266.3397     55.4154     -1.5548     88.5164
   143.2500      0.0000    266.3386     55.4998     -1.5504     90.0357
   143.5000      0.0000    266.3428     55.5401     -1.5483     92.7480
   143.7500      0.0000    266.3491     55.5503     -1.5478     96.2802
   144.0000      0.0000    266.3474     55.5682     -1.5469    100.0532
   144.2500      0.0000    266.3342     55.6135     -1.5445    103.3536
   144.5000      0.0000    266.3187     55.6634     -1.5419    104.8972
   144.7500      0.0000    266.3158     55.6745     -1.5413    103.0214
   145.0000      0.0000    266.3348     55.6203     -1.5442     97.0558
   145.2500      0.0000    266.3743     55.5090     -1.5499     88.6656
   145.5000      0.0000    266.4213     55.3804     -1.5567     81.1737
   145.7500      0.0000    266.4550     55.2843     -1.5617     76.9583
   146.0000      0.0000    266.4606     55.2460     -1.5637     75.7810
   146.2500      0.0000    266.4411     55.2447     -1.5638     75.9790
   146.5000      0.0000    266.4130     55.2352     -1.5643     76.8574
   146.7500      0.0000    266.3920     55.1904     -1.5666     79.3944
   147.0000      0.0000    266.3854     55.1165     -1.5705     84.6706
   147.2500      0.0000    266.3931     55.0402     -1.5745     91.9260
   147.5000      0.0000    266.4099     54.9890     -1.5772     98.5582
   147.7500      0.0000    266.4294     54.9744     -1.5780    102.3457
   148.0000      0.0000    266.4497     54.9789     -1.5777    103.5891
   148.2500      0.0000    266.4729     54.9688     -1.5783    104.5120
   148.5000      0.0000    266.4994     54.9249     -1.5806    106.4585
   148.7500      0.0000    266.5254     54.8583     -1.5841    108.4415
   149.0000      0.0000    266.5456     54.7976     -1.5873    108.6617
   149.2500      0.0000    266.5557     54.7673     -1.5889    106.5805
   149.5000      0.0000    266.5538     54.7671     -1.5889    103.1712
   149.7500      0.0000    266.5435     54.7651     -1.5890     99.8382
   150.0000      0.0000    266.5325     54.7251     -1.5911     97.4779
   150.2500      0.0000    266.5284     54.6434     -1.5955     96.3536
   150.5000      0.0000    266.5356     54.5522     -1.6003     96.5198
   150.7500      0.0000    266.5537     54.4882     -1.6037     97.8850
   151.0000      0.0000    266.5778     54.4646     -1.6049     99.5971
   151.2500      0.0000    266.6017     54.4650     -1.6049     99.9188
   151.5000      0.0000    266.6225     54.4600     -1.6052     97.5192
   151.7500      0.0000    266.6399     54.4355     -1.6065     92.9194
   152.0000      0.0000    266.6548     54.4014     -1.6083     88.3410
   152.2500      0.0000    266.6686     54.3732     -1.6098     85.9646
   152.5000      0.0000    266.6812     54.3558     -1.6107     86.3143
   152.7500      0.0000    266.6896     54.3509     -1.6110     88.1586
   153.0000      0.0000    266.6898     54.3653     -1.6102     89.5813
   153.2500      0.0000    266.6805     54.4064     -1.6080     89.0708
   153.5000      0.0000    266.6643     54.4795     -1.6041     86.1415
   153.7500      0.0000    266.6487     54.5849     -1.5986     81.4709
   154.0000      0.0000    266.6444     54.7059     -1.5921     76.3613
   154.2500      0.0000    266.6586     54.8099     -1.5866     71.8379
   154.5000      0.0000    266.6890     54.8744     -1.5832     68.2870
   154.7500      0.0000    266.7259     54.9033     -1.5817     65.7905
   155.0000      0.0000    266.7589     54.9159     -1.5811     64.3822
   155.2500      0.0000    266.7802     54.9323     -1.5802     63.8048
   155.5000      0.0000    266.7866     54.9644     -1.5785     63.2449
   155.7500      0.0000    266.7831     55.0098     -1.5761     61.5802
