~Version Information
VERS.                      2.0: CWLS Log ASCII Standard - VERSION 2.0
WRAP.                       NO: One line per depth step
~Well Information Block
STRT.FT               395.0000: 
STOP.FT              1998.0000: 
STEP.FT                 0.2500: 
NULL.                -999.2500: 
COMP.          Pioneer Natural Resources: COMPANY
WELL.          Easton 12-30 Tr: WELL
FLD.           Purgatoire River: FIELD
LOC.           549' FWL & 2416' FNL--: LOCATION
PROV.                 Colorado: PROVINCE
CNTY.               Las Animas: COUNTRY
SRVC.                Patterson: SERVICE COMPANY
DATE.          Wed Jun 01 17:36:02 2005: LOG DATE
UWI.           05 071 08379 00: UNIQUE WELL ID
~Curve Information Block
DEPT.FT            0 000 00 00: Depth
SN.Ohm-m                      : IEL Short Normal
SP.mV                         : IEL Spontaneous Potential
DIR.Ohm-m                     : IEL Induction Resistivity
GR.GAPI                       : Gamma Ray
~Parameter Information Block
~A  Depth        SN          SP         DIR          GR     
# ...
  1132.0000   2000.0000   -999.2500     22.4621    105.6513
  1132.2500   2000.0000   -999.2500     22.9604    105.9157
  1132.5000   2000.0000   -999.2500     23.5225    105.3170
  1132.7500   2000.0000   -999.2500     24.1439    104.0886
  1133.0000   2000.0000   -999.2500     24.8217    101.4029
  1133.2500   2000.0000   -999.2500     25.5421     99.5102
  1133.5000   2000.0000   -999.2500     26.2643     97.0761
  1133.7500   2000.0000   -999.2500     26.9163     95.7666
  1134.0000   2000.0000   -999.2500     27.4123     93.9467
  1134.2500   2000.0000   -999.2500     27.6808     92.4672
  1134.5000   2000.0000   -999.2500     27.6810     89.1438
  1134.7500   2000.0000   -999.2500     27.4037     85.9624
  1135.0000   2000.0000   -999.2500     26.8653     80.0053
  1135.2500   2000.0000   -999.2500     26.1074     75.7666
  1135.5000   2000.0000   -999.2500     25.1961     70.2569
  1135.7500   2000.0000   -999.2500     24.2125     67.9395
  1136.0000   2000.0000   -999.2500     23.2358     67.6206
  1136.2500   2000.0000   -999.2500     22.3262     69.8261
  1136.5000   2000.0000   -999.2500     21.5154     76.5483
  1136.7500   2000.0000   -999.2500     20.8081     82.8522
  1137.0000   2000.0000   -999.2500     20.1901     93.8777
  1137.2500   2000.0000   -999.2500     19.6395    101.3178
  1137.5000   2000.0000   -999.2500     19.1346    110.6182
  1137.7500   2000.0000   -999.2500     18.6571    114.6997
  1138.0000   2000.0000   -999.2500     18.1937    117.5959
  1138.2500   2000.0000   -999.2500     17.7381    118.0976
  1138.5000   2000.0000   -999.2500     17.2925    117.9588
  1138.7500   2000.0000   -999.2500     16.8662    117.4177
  1139.0000   2000.0000   -999.2500     16.4706    115.1705
  1139.2500   2000.0000   -999.2500     16.1164    112.1772
  1139.5000   2000.0000   -999.2500     15.8140    105.4506
  1139.7500   2000.0000   -999.2500     15.5759    100.2771
  1140.0000   2000.0000   -999.2500     15.4142     93.7438
  1140.2500   2000.0000   -999.2500     15.3350     91.4150
  1140.5000   2000.0000   -999.2500     15.3329     91.7803
  1140.7500   2000.0000   -999.2500     15.3903     94.2390
  1141.0000   2000.0000   -999.2500     15.4810     99.9377
  1141.2500   2000.0000   -999.2500     15.5760    104.3680
  1141.5000   2000.0000   -999.2500     15.6476    111.0437
  1141.7500   2000.0000   -999.2500     15.6731    114.9517
  1142.0000   2000.0000   -999.2500     15.6387    118.7795
  1142.2500   2000.0000   -999.2500     15.5446    119.4001
  1142.5000   2000.0000   -999.2500     15.4070    117.6139
  1142.7500   2000.0000   -999.2500     15.2562    115.5182
  1143.0000   2000.0000   -999.2500     15.1287    112.9953
  1143.2500   2000.0000   -999.2500     15.0575    112.5096
  1143.5000   2000.0000   -999.2500     15.0638    114.0062
  1143.7500   2000.0000   -999.2500     15.1518    116.3637
  1144.0000   2000.0000   -999.2500     15.3069    121.2037
  1144.2500   2000.0000   -999.2500     15.4988    124.5677
  1144.5000   2000.0000   -999.2500     15.6901    128.4373
  1144.7500   2000.0000   -999.2500     15.8479    129.8146
  1145.0000   2000.0000   -999.2500     15.9531    130.5892
  1145.2500   2000.0000   -999.2500     16.0004    130.9311
  1145.5000   2000.0000   -999.2500     15.9926    131.7263
  1145.7500   2000.0000   -999.2500     15.9339    132.1084
  1146.0000   2000.0000   -999.2500     15.8278    131.4885
  1146.2500   2000.0000   -999.2500     15.6787    129.9867
  1146.5000   2000.0000   -999.2500     15.4942    126.4355
  1146.7500   2000.0000   -999.2500     15.2854    123.8720
  1147.0000   2000.0000   -999.2500     15.0634    121.2424
  1147.2500   2000.0000   -999.2500     14.8356    120.8671
  1147.5000   2000.0000   -999.2500     14.6050    122.1433
  1147.7500   2000.0000   -999.2500     14.3718    123.6406
  1148.0000   2000.0000   -999.2500     14.1356    126.0598
  1148.2500   2000.0000   -999.2500     13.8977    127.5607
  1148.5000   2000.0000   -999.2500     13.6619    129.2031
  1148.7500   2000.0000   -999.2500     13.4328    129.5482
  1149.0000   2000.0000   -999.2500     13.2136    128.7042
  1149.2500   2000.0000   -999.2500     13.0038    127.5181
  1149.5000   2000.0000   -999.2500     12.8007    125.8079
  1149.7500   2000.0000   -999.2500     12.6021    125.2984
  1150.0000   2000.0000   -999.2500     12.4088    126.0001
  1150.2500   2000.0000   -999.2500     12.2258    127.2980
  1150.5000   2000.0000   -999.2500     12.0608    129.4713
  1150.7500   2000.0000   -999.2500     11.9217    130.3815
  1151.0000   2000.0000   -999.2500     11.8146    130.6194
  1151.2500   2000.0000   -999.2500     11.7434    130.4594
  1151.5000   2000.0000   -999.2500     11.7102    130.4722
  1151.7500   2000.0000   -999.2500     11.7156    130.5160
  1152.0000   2000.0000   -999.2500     11.7585    129.8769
  1152.2500   2000.0000   -999.2500     11.8332    128.8110
  1152.5000   2000.0000   -999.2500     11.9293    126.6073
  1152.7500   2000.0000   -999.2500     12.0332    124.9783
  1153.0000   2000.0000   -999.2500     12.1339    122.4836
  1153.2500   2000.0000   -999.2500     12.2267    120.9360
  1153.5000   2000.0000   -999.2500     12.3143    119.3402
  1153.7500   2000.0000   -999.2500     12.4030    119.0663
  1154.0000   2000.0000   -999.2500     12.4965    119.8084
  1154.2500   2000.0000   -999.2500     12.5920    120.6906
  1154.5000   2000.0000   -999.2500     12.6828    121.8718
  1154.7500   2000.0000   -999.2500     12.7628    122.4221
  1155.0000   2000.0000   -999.2500     12.8312    123.0944
  1155.2500   2000.0000   -999.2500     12.8916    123.5020
  1155.5000   2000.0000   -999.2500     12.9493    123.7160
  1155.7500   2000.0000   -999.2500     13.0083    123.3724
  1156.0000   2000.0000   -999.2500     13.0710    122.4644
  1156.2500   2000.0000   -999.2500     13.1392    122.2084
  1156.5000   2000.0000   -999.2500     13.2152    123.0313
  1156.7500   2000.0000   -999.2500     13.3027    124.0607
  1157.0000   2000.0000   -999.2500     13.4048    124.9972
  1157.2500   2000.0000   -999.2500     13.5217    124.7831
  1157.5000   2000.0000   -999.2500     13.6491    123.8239
  1157.7500   2000.0000   -999.2500     13.7807    123.5231
  1158.0000   2000.0000   -999.2500     13.9129    124.1108
  1158.2500   2000.0000   -999.2500     14.0505    124.6574
  1158.5000   2000.0000   -999.2500     14.2090    124.0520
  1158.7500   2000.0000   -999.2500     14.4106    122.0983
  1159.0000   2000.0000   -999.2500     14.6773    117.1999
  1159.2500   2000.0000   -999.2500     15.0221    113.4029
  1159.5000   2000.0000   -999.2500     15.4460    108.2757
  1159.7500   2000.0000   -999.2500     15.9392    105.7221
  1160.0000   2000.0000   -999.2500     16.4875    103.3780
  1160.2500   2000.0000   -999.2500     17.0776    102.6088
  1160.5000   2000.0000   -999.2500     17.6998    101.8623
  1160.7500   2000.0000   -999.2500     18.3469    101.0033
  1161.0000   2000.0000   -999.2500     19.0132     98.3745
  1161.2500   2000.0000   -999.2500     19.6928     95.8408
  1161.5000   2000.0000   -999.2500     20.3765     92.0785
  1161.7500   2000.0000   -999.2500     21.0505     90.4024
  1162.0000   2000.0000   -999.2500     21.6983     89.7068
  1162.2500   2000.0000   -999.2500     22.3082     90.1412
  1162.5000   2000.0000   -999.2500     22.8779     90.8072
  1162.7500   2000.0000   -999.2500     23.4132     90.3944
  1163.0000   2000.0000   -999.2500     23.9227     87.6710
  1163.2500   2000.0000   -999.2500     24.4148     84.6250
  1163.5000   2000.0000   -999.2500     24.8941     79.4572
  1163.7500   2000.0000   -999.2500     25.3549     76.5516
  1164.0000   2000.0000   -999.2500     25.7726     74.1474
  1164.2500   2000.0000   -999.2500     26.1088     73.8991
  1164.5000   2000.0000   -999.2500     26.3334     74.6463
  1164.7500   2000.0000   -999.2500     26.4504     75.2017
  1165.0000   2000.0000   -999.2500     26.5015     75.3936
  1165.2500   2000.0000   -999.2500     26.5438     74.9349
