~Version Information
VERS.                      2.0: CWLS Log ASCII Standard - VERSION 2.0
WRAP.                       NO: One line per depth step
~Well Information Block
STRT.FT               530.0000: 
STOP.FT              1825.0000: 
STEP.FT                 0.1000: 
NULL.                -999.2500: 
COMP.          Pioneer Natural Resources: COMPANY
WELL.          Vision 31-11 Tr: WELL
FLD.           Purgatoire River: FIELD
LOC.           742' FNL & 1593' FEL: LOCATION
STAT.                 Colorado: State
CNTY.               Las Animas: COUNTY
CTRY. USA : Country
SECT. 11 : Section
TOWN. 32S : Township
RANG. 66W : Range
SRVC.                Patterson: SERVICE COMPANY
DATE.          Mon Oct 10 07:17:32 2005: LOG DATE
API.           05 071 08305 00: UNIQUE WELL ID
~Curve Information Block
DEPT.FT            0 000 00 00: Depth
DCAL.in                       : CDL Caliper
RHOB.g/cc                     : CDL Bulk Density
RHOC.g/cc                     : CDL Density Correction
DPOR.pu                       : CDL Density Porosity
GR.GAPI                       : Gamma Ray
NPOR.pu                       : Neutron Porosity
~Parameter Information Block
~A  Depth       DCAL        RHOB        RHOC        DPOR         GR         NPOR    
# ...
   789.2000      8.0965      2.6557      0.1659     -0.3481     75.3948     27.8449
   789.3000      8.0607      2.6694      0.1616     -1.1755     83.7051     27.6029
   789.4000      8.0607      2.6617      0.1691     -0.7120     93.8109     27.0364
   789.5000      8.0490      2.6498      0.1501      0.0103    101.6141     26.6087
   789.6000      8.0490      2.6406      0.1517      0.5696    107.5935     26.4993
   789.7000      8.0490      2.6359      0.0971      0.8561    110.7700     26.6922
   789.8000      8.0215      2.6371      0.0898      0.7816    110.1068     27.0105
   789.9000      8.0215      2.6393      0.1064      0.6505    106.7236     26.9765
   790.0000      8.0031      2.6356      0.0766      0.8707    100.3717     26.1805
   790.1000      8.0031      2.6301      0.1138      1.2062     92.1065     25.0492
   790.2000      8.0031      2.6276      0.1345      1.3606     86.6655     24.1483
   790.3000      8.0753      2.6243      0.1150      1.5580     85.9010     23.3310
   790.4000      8.0753      2.6184      0.0847      1.9163     86.8839     22.4144
   790.5000      8.0651      2.6109      0.1023      2.3676     86.2380     21.7758
   790.6000      8.0651      2.6020      0.0811      2.9062     83.4541     21.7676
   790.7000      8.0651      2.5977      0.0937      3.1705     80.1281     22.2183
   790.8000      8.0315      2.6040      0.0899      2.7849     76.5366     22.8521
   790.9000      8.0315      2.6153      0.1191      2.1029     72.8795     23.5990
   791.0000      8.0550      2.6171      0.0962      1.9966     69.7208     24.4358
   791.1000      8.0550      2.6079      0.0705      2.5491     68.3880     25.1022
   791.2000      8.0550      2.6003      0.0902      3.0129     69.0486     25.3877
   791.3000      8.0684      2.5980      0.0562      3.1498     70.7276     25.5274
   791.4000      8.0684      2.6068     -0.0205      2.6166     74.8096     25.6913
   791.5000      8.1151      2.6360      0.0461      0.8511     80.4175     25.9206
   791.6000      8.1151      2.6663      0.1122     -0.9856     85.1054     26.2081
   791.7000      8.1151      2.6707      0.0660     -1.2568     90.5762     26.3648
   791.8000      8.1735      2.6561      0.0354     -0.3708     97.1950     26.3269
   791.9000      8.1735      2.6399      0.0453      0.6096    101.4039     26.1807
   792.0000      8.2019      2.6272     -0.0086      1.3803    101.8327     25.9399
   792.1000      8.2019      2.6212     -0.0036      1.7479    101.3351     25.6128
   792.2000      8.2019      2.6198      0.0332      1.8302    104.9896     25.3131
   792.3000      8.1937      2.6119      0.0794      2.3093    111.8211     25.0977
   792.4000      8.1937      2.5819      0.1345      4.1274    115.5967     24.9307
   792.5000      8.0874      2.5309      0.0431      7.2205    117.6294     24.9692
   792.6000      8.0874      2.4871     -0.0303      9.8745    122.2545     25.4611
   792.7000      8.0874      2.4693      0.0302     10.9535    126.6180     26.3711
   792.8000      8.0792      2.4755     -0.0540     10.5742    126.3690     27.3361
   792.9000      8.0792      2.4976      0.0627      9.2341    124.9829     27.7962
   793.0000      8.1922      2.5184      0.0514      7.9737    128.3072     27.7964
   793.1000      8.1922      2.5365      0.0383      6.8766    134.3117     27.8179
   793.2000      8.1922      2.5673      0.0456      5.0118    138.8489     27.9250
   793.3000      8.2098      2.6067      0.1155      2.6213    142.1203     27.9575
   793.4000      8.2098      2.6222      0.1623      1.6878    141.9199     27.7772
   793.5000      8.2083      2.5939      0.0683      3.4011    139.2039     27.4355
   793.6000      8.2083      2.5462      0.0521      6.2928    141.4841     27.3878
   793.7000      8.2083      2.5155      0.0078      8.1537    148.9613     27.7906
   793.8000      8.2021      2.5150      0.0409      8.1827    155.4887     28.0817
   793.9000      8.2021      2.5325      0.0152      7.1197    158.4912     27.9896
   794.0000      8.2083      2.5547      0.0434      5.7764    157.9986     27.8828
   794.1000      8.2083      2.5764      0.0690      4.4613    156.3848     28.0122
   794.2000      8.2083      2.5965      0.0534      3.2443    153.3681     28.2110
   794.3000      8.2091      2.6226      0.0531      1.6603    146.2245     28.2327
   794.4000      8.2091      2.6596      0.1113     -0.5832    141.3278     27.9492
   794.5000      8.1995      2.6943      0.1157     -2.6866    143.2963     27.2866
   794.6000      8.1995      2.7060      0.1583     -3.3917    143.9154     26.7125
   794.7000      8.1995      2.6946      0.1058     -2.7020    138.7503     26.5885
   794.8000      8.1841      2.6785      0.0974     -1.7299    133.1467     26.4654
   794.9000      8.1841      2.6606      0.0914     -0.6428    128.9008     26.0843
   795.0000      8.1721      2.6424     -0.0064      0.4580    125.4071     25.7897
   795.1000      8.1721      2.6345      0.0417      0.9416    123.2654     26.2608
   795.2000      8.1721      2.6249      0.0345      1.5242    119.4662     27.2669
   795.3000      8.1899      2.5983      0.0336      3.1326    114.3752     27.6341
   795.4000      8.1899      2.5593      0.0542      5.4973    114.8289     27.1376
   795.5000      8.2317      2.5243      0.0395      7.6172    121.0545     26.3900
   795.6000      8.2317      2.5212      0.0808      7.8041    125.7163     25.7305
   795.7000      8.2317      2.5613      0.1595      5.3777    125.3488     24.9603
   795.8000      8.1894      2.6189      0.1732      1.8859    122.0844     24.1331
   795.9000      8.1894      2.6659      0.2014     -0.9636    117.1075     23.8685
   796.0000      8.0254      2.6848      0.2166     -2.1099    111.5286     24.2394
   796.1000      8.0254      2.6693      0.1404     -1.1694    110.6234     24.8038
   796.2000      8.0254      2.6346      0.1435      0.9322    114.8424     25.2658
   796.3000      7.9971      2.5998      0.1395      3.0438    115.8098     25.3953
   796.4000      7.9971      2.5785      0.1032      4.3326    110.9325     25.1038
   796.5000      8.0209      2.5750      0.1430      4.5442    107.2320     24.6337
   796.6000      8.0209      2.5776      0.1042      4.3887    106.3516     24.2786
   796.7000      8.0209      2.5790      0.0825      4.3025    105.4017     24.0298
   796.8000      8.0477      2.5836      0.0707      4.0247    104.9200     23.6145
   796.9000      8.0477      2.5960      0.0949      3.2723    104.3185     23.2840
   797.0000      8.1082      2.6087      0.1083      2.5007    102.8532     23.6136
   797.1000      8.1082      2.6077      0.1276      2.5644    101.0684     24.0803
   797.2000      8.1082      2.5921      0.0712      3.5111     98.1713     23.8215
   797.3000      8.1467      2.5770      0.0886      4.4247     92.4784     23.1128
   797.4000      8.1467      2.5763      0.1133      4.4671     86.4332     22.3720
   797.5000      8.0933      2.5861      0.1102      3.8727     84.7857     21.5280
   797.6000      8.0933      2.5910      0.1247      3.5753     88.0349     20.7138
   797.7000      8.0933      2.5888      0.0675      3.7100     93.0150     20.1479
   797.8000      8.0697      2.5840      0.1233      3.9977     93.7006     19.7327
   797.9000      8.0697      2.5734      0.0578      4.6452     87.6020     19.4667
   798.0000      8.0803      2.5624      0.0418      5.3115     79.5661     19.4848
   798.1000      8.0803      2.5541      0.0674      5.8093     75.3360     19.7282
   798.2000      8.0803      2.5435      0.0143      6.4570     76.2471     20.1842
   798.3000      8.1091      2.5390     -0.0021      6.7300     79.3146     20.9910
   798.4000      8.1091      2.5488      0.0560      6.1336     82.2178     22.0947
   798.5000      8.1405      2.5687      0.0431      4.9285     84.8699     22.9824
   798.6000      8.1405      2.6009      0.0431      2.9728     87.3808     23.2907
   798.7000      8.1405      2.6450      0.1150      0.3018     88.1833     23.3965
