~Version Information
VERS.                      2.0: CWLS Log ASCII Standard - VERSION 2.0
WRAP.                       NO: One line per depth step
~Well Information Block
STRT.FT                -3.5000: 
STOP.FT              1841.0000: 
STEP.FT                 0.2500: 
NULL.                -999.2500: 
COMP.          Pioneer Natural Resources: COMPANY
WELL.          Corkscrew 33-12 Tr: WELL
FLD.           Purgatorie River: FIELD
LOC.           1870' FSL  & 1706' FEL--------: LOCATION
PROV.                       CO: PROVINCE
CNTY.               Las Animas: COUNTRY
SRVC.          Patterson Wireline: SERVICE COMPANY
DATE.          Mon Apr 04 10:07:45 2005: LOG DATE
UWI.           05 071 08295 00: UNIQUE WELL ID
~Curve Information Block
DEPT.FT            0 000 00 00: Depth
CCL.                          : Casing Collar Locator
TT3.usec                      : CBL 3' Travel Time
AMP3.mV                       : CBL 3' Amplitude
GR.GAPI                       : Gamma Ray
~Parameter Information Block
~A  Depth       CCL         TT3         AMP3         GR     
# ...
   968.0000      0.0000    774.2419      6.6969    100.0565
   968.2500      0.0000    768.7972      7.0141    104.6820
   968.5000      0.0000    763.0318      7.2417    107.2532
   968.7500      0.0000    756.7255      7.3560    107.1714
   969.0000      0.0000    751.0683      7.3649    104.9443
   969.2500      0.0000    747.4016      7.2870    101.5331
   969.5000      0.0000    745.7774      7.1498     97.6579
   969.7500      0.0000    744.5978      6.9812     93.7463
   970.0000      0.0000    741.4330      6.7791     90.1386
   970.2500      0.0000    734.8011      6.5191     87.3148
   970.5000      0.0000    726.0646      6.2160     85.9352
   970.7500      0.0000    719.2027      5.9429     86.2660
   971.0000      0.0000    717.4112      5.7760     87.5502
   971.2500      0.0000    719.4397      5.7494     88.4555
   971.5000      0.0000    720.2664      5.8521     88.2061
   971.7500      0.0000    716.5378      6.0203     87.0602
   972.0000      2.0000    710.8060      6.1413     85.9334
   972.2500      2.0000    708.8062      6.1272     85.8859
   972.5000      0.0000    712.7438      5.9992     87.6887
   972.7500      0.0000    718.8914      5.8831     91.3753
   973.0000      0.0000    721.6776      5.9251     96.1053
   973.2500      0.0000    718.3965      6.2040    100.5521
   973.5000      0.0000    709.7815      6.6708    103.4971
   973.7500      0.0000    698.2268      7.1497    104.2400
   974.0000      0.0000    687.3602      7.4404    102.8212
   974.2500      0.0000    682.2855      7.4582    100.1439
   974.5000      0.0000    687.1183      7.2769     97.7807
   974.7500      0.0000    700.9041      7.0516     97.1691
   975.0000      0.0000    717.5426      6.9103     98.5604
   975.2500      0.0000    730.7207      6.8962    100.7349
   975.5000      0.0000    738.1422      6.9704    101.8975
   975.7500      0.0000    741.2195      7.0465    100.9320
   976.0000      0.0000    742.4208      7.0423     98.0402
   976.2500      0.0000    743.5978      6.9370     94.5787
   976.5000      0.0000    745.5148      6.7819     92.3107
   976.7500      0.0000    747.3192      6.6492     92.3636
   977.0000      0.0000    745.7791      6.5754     94.5755
   977.2500      0.0000    736.4597      6.5481     97.6957
   977.5000      0.0000    718.5961      6.5220    100.0967
   977.7500      0.0000    699.6581      6.4487    100.4239
   978.0000      0.0000    691.6874      6.3019     98.0202
   978.2500      0.0000    700.1411      6.0862     93.1283
   978.5000      0.0000    717.9584      5.8390     86.8775
   978.7500      0.0000    732.0204      5.6282     81.0272
   979.0000      0.0000    732.4211      5.5240     77.4237
   979.2500      0.0000    714.1561      5.5646     77.2441
   979.5000      0.0000    675.0071      5.7475     80.4248
   979.7500      0.0000    617.9848      6.0291     85.8521
   980.0000      0.0000    556.0535      6.3342     92.1297
   980.2500      0.0000    509.6087      6.6030     98.0298
   980.5000      0.0000    495.4185      6.8275    102.4427
   980.7500      0.0000    517.1276      7.0241    104.5526
   981.0000      0.0000    565.1271      7.1962    104.4221
   981.2500      0.0000    623.6926      7.3438    103.1162
   981.5000      0.0000    678.6191      7.4743    101.9718
   981.7500      0.0000    721.2398      7.5842    101.8108
   982.0000      0.0000    748.9640      7.6450    102.6540
   982.2500      0.0000    764.0853      7.6111    103.6473
   982.5000      0.0000    771.4177      7.4478    103.4220
   982.7500      0.0000    775.1561      7.1759    101.1991
   983.0000      0.0000    776.7563      6.8791     97.7110
   983.2500      0.0000    775.3345      6.6446     94.8855
   983.5000      0.0000    769.7510      6.5045     94.7093
   983.7500      0.0000    760.3771      6.4321     98.2395
   984.0000      0.0000    749.1441      6.3649    104.9632
   984.2500      0.0000    738.1398      6.2458    112.7437
   984.5000      0.0000    728.5125      6.0782    118.9586
   984.7500      0.0000    720.6331      5.9401    122.3942
   985.0000      0.0000    714.3284      5.9272    124.0406
   985.2500      0.0000    709.0648      6.0826    125.7134
   985.5000      0.0000    705.4481      6.3691    127.9710
   985.7500      0.0000    706.5970      6.6835    129.6782
   986.0000      0.0000    716.1782      6.9028    129.3708
   986.2500      0.0000    734.2906      6.9452    126.5304
   986.5000      0.0000    756.1168      6.8102    121.6479
   986.7500      0.0000    775.1801      6.5790    115.7317
   987.0000      0.0000    787.6581      6.3731    110.0217
   987.2500      0.0000    793.5713      6.2939    105.7161
   987.5000      0.0000    794.9172      6.3800    103.4283
   987.7500      0.0000    793.7482      6.5965    102.8391
   988.0000      0.0000    791.6074      6.8510    103.1024
   988.2500      0.0000    789.4149      7.0304    103.7367
   988.5000      0.0000    787.1329      7.0589    105.1775
   988.7500      0.0000    783.5553      6.9402    108.5508
   989.0000      0.0000    776.5726      6.7531    114.8933
   989.2500      0.0000    764.1938      6.5991    124.3215
   989.5000      0.0000    746.1634      6.5399    135.6961
   989.7500      0.0000    724.9425      6.5653    147.0917
   990.0000      0.0000    704.7910      6.6057    156.6602
   990.2500      0.0000    690.0012      6.5836    163.2230
   990.5000      0.0000    683.9634      6.4772    166.5146
   990.7500      0.0000    688.6107      6.3409    167.0515
   991.0000      0.0000    703.4249      6.2534    165.6148
   991.2500      0.0000    725.3984      6.2464    162.9769
   991.5000      0.0000    750.6583      6.2835    160.2062
   991.7500      0.0000    775.7479      6.3036    158.6594
   992.0000      0.0000    797.5887      6.2833    159.0137
   992.2500      0.0000    813.5240      6.2521    160.3848
   992.5000      0.0000    821.5003      6.2467    160.8269
   992.7500      0.0000    819.5920      6.2613    158.8546
   993.0000      0.0000    806.4015      6.2508    154.6293
   993.2500      0.0000    783.7103      6.1824    149.8798
   993.5000      0.0000    758.8890      6.0840    146.5149
   993.7500      0.0000    743.0049      6.0294    144.9930
   994.0000      0.0000    744.5133      6.0621    143.9366
   994.2500      0.0000    763.4160      6.1438    141.3368
   994.5000      0.0000    790.9213      6.1929    136.3922
   994.7500      0.0000    815.3087      6.1736    130.5635
   995.0000      0.0000    829.1895      6.1323    126.7415
   995.2500      0.0000    832.1929      6.1408    126.8383
   995.5000      0.0000    827.9185      6.2159    130.1229
   995.7500      0.0000    819.7389      6.3030    134.2084
   996.0000      0.0000    809.8947      6.3387    137.4636
   996.2500      0.0000    801.2433      6.3213    140.0475
   996.5000      0.0000    797.4811      6.3089    142.7484
   996.7500      0.0000    800.4551      6.3458    145.4214
   997.0000      0.0000    808.3215      6.4054    147.0569
   997.2500      0.0000    817.4650      6.4183    147.1470
   997.5000      0.0000    825.6137      6.3575    146.1141
   997.7500      0.0000    832.5106      6.2774    144.2464
   998.0000      0.0000    838.4923      6.2545    141.2965
   998.2500      0.0000    843.2081      6.3026    137.5489
   998.5000      0.0000    845.1550      6.3643    134.1560
   998.7500      0.0000    842.1766      6.3841    131.7720
   999.0000      0.0000    833.4141      6.3714    129.6811
   999.2500      0.0000    821.5339      6.3781    126.8730
   999.5000      0.0000    812.0077      6.4294    123.6065
   999.7500      0.0000    808.8847      6.4942    121.5078
  1000.0000      0.0000    811.5297      6.5289    122.0925
  1000.2500      0.0000    816.1153      6.5340    125.2807
  1000.5000      0.0000    819.3566      6.5490    129.4545
  1000.7500      0.0000    819.9073      6.5931    132.8691
  1001.0000      0.0000    816.9381      6.6398    134.6893
  1001.2500      0.0000    808.6253      6.6598    134.7024
