~Version Information
VERS.                      2.0: CWLS Log ASCII Standard - VERSION 2.0
WRAP.                       NO: One line per depth step
~Well Information Block
STRT.FT               860.0000: 
STOP.FT              2733.7000: 
STEP.FT                 0.1000: 
NULL.                -999.2500: 
COMP.          Pioneer Natural Resources: COMPANY
WELL.          Beacon 11-18 Tr: WELL
FLD.           Purgatoire River: FIELD
LOC.           409' FNL & 203' FWL: LOCATION
PROV.                 Colorado: PROVINCE
CNTY.               Las Animas: COUNTRY
SRVC.                Patterson: SERVICE COMPANY
DATE.          Mon Jan 17 07:36:09 2005: LOG DATE
UWI.           05 071 08251 00: UNIQUE WELL ID
~Curve Information Block
DEPT.FT            0 000 00 00: Depth
DCAL.in                       : CDL Caliper
RHOB.g/cc                     : CDL Bulk Density
RHOC.g/cc                     : CDL Density Correction
DPOR.pu                       : CDL Density Porosity
NPOR.pu                       : Neutron Porosity
GR.GAPI                       : Gamma Ray
~Parameter Information Block
~A  Depth       DCAL        RHOB        RHOC        DPOR        NPOR         GR     
# ...
   984.8000      8.2397      2.3763      0.0750     16.5864     25.4749    129.1619
   984.9000      8.2397      2.4016      0.1039     15.0535     24.7792    127.8370
   985.0000      8.2411      2.4360      0.2225     12.9679     24.7403    124.2906
   985.1000      8.2411      2.4493      0.2317     12.1658     25.2038    120.8793
   985.2000      8.2411      2.4404      0.2034     12.7006     25.4785    116.4051
   985.3000      8.2403      2.4338      0.2593     13.1034     25.0584    110.8349
   985.4000      8.2403      2.4322      0.2443     13.2008     24.2819    107.8486
   985.5000      8.2390      2.4254      0.1879     13.6094     23.7707    108.2549
   985.6000      8.2390      2.4121      0.1328     14.4178     23.3857    109.3324
   985.7000      8.2390      2.3889      0.1311     15.8241     22.8941    110.0808
   985.8000      8.2397      2.3568      0.0521     17.7725     22.5571    113.4400
   985.9000      8.2397      2.3298      0.0849     19.4050     22.2648    119.3060
   986.0000      8.2456      2.3208      0.0446     19.9522     21.9291    121.5956
   986.1000      8.2456      2.3411      0.0852     18.7205     22.0742    118.5681
   986.2000      8.2456      2.3857      0.1960     16.0175     22.7540    114.1834
   986.3000      8.2554      2.4227      0.2707     13.7751     23.4450    110.3327
   986.4000      8.2554      2.4376      0.2417     12.8739     23.9982    106.4559
   986.5000      8.2614      2.4481      0.2895     12.2388     24.3779    102.9960
   986.6000      8.2614      2.4667      0.2658     11.1079     24.4883    102.9814
   986.7000      8.2614      2.4848      0.2617     10.0129     24.4621    108.2056
   986.8000      8.2639      2.4820      0.2360     10.1816     24.5178    114.5764
   986.9000      8.2639      2.4497      0.1844     12.1410     24.6233    118.5687
   987.0000      8.2638      2.4025      0.1933     14.9978     24.5552    120.8153
   987.1000      8.2638      2.3688      0.1820     17.0422     24.2450    121.8884
   987.2000      8.2638      2.3687      0.1898     17.0502     23.8519    120.3535
   987.3000      8.2626      2.3868      0.2077     15.9496     23.7082    116.2744
   987.4000      8.2626      2.3834      0.2131     16.1574     23.7920    113.1575
   987.5000      8.2597      2.3369      0.1868     18.9781     23.6950    113.1371
   987.6000      8.2597      2.2636      0.0898     23.4171     23.6111    114.5345
   987.7000      8.2597      2.2063      0.0364     26.8912     24.1104    116.5194
   987.8000      8.2547      2.2002      0.0875     27.2608     25.0074    118.7469
   987.9000      8.2547      2.2495      0.1708     24.2729     25.6658    121.4927
   988.0000      8.2499      2.3417      0.2532     18.6845     25.8489    124.9582
   988.1000      8.2499      2.4526      0.3398     11.9625     25.7166    126.0448
   988.2000      8.2499      2.5326      0.4374      7.1172     25.4747    123.3020
   988.3000      8.2543      2.5488      0.3926      6.1311     25.3502    118.2950
   988.4000      8.2543      2.5333      0.3162      7.0706     25.3751    114.7736
   988.5000      8.2708      2.5294      0.2924      7.3071     25.5408    116.6771
   988.6000      8.2708      2.5290      0.3513      7.3319     25.5712    120.8921
   988.7000      8.2708      2.5119      0.2411      8.3667     25.0766    122.3245
   988.8000      8.2902      2.4869      0.2623      9.8854     24.5874    123.2084
   988.9000      8.2902      2.4563      0.2657     11.7424     24.7035    125.2059
   989.0000      8.3219      2.4061      0.2113     14.7796     25.0660    125.1020
   989.1000      8.3219      2.3387      0.1337     18.8655     25.2296    123.4262
   989.2000      8.3219      2.2861      0.0314     22.0574     25.1211    123.8126
   989.3000      8.4066      2.2701      0.1306     23.0218     24.6237    125.5689
   989.4000      8.4066      2.2598      0.2182     23.6476     23.8757    124.2560
   989.5000      8.5507      2.2316      0.1165     25.3599     23.2650    119.2474
   989.6000      8.5507      2.2310      0.0777     25.3968     22.9657    115.3864
   989.7000      8.5507      2.3013      0.1511     21.1347     22.9733    113.4130
   989.8000      8.6795      2.4076      0.3267     14.6893     23.1361    108.8574
   989.9000      8.6795      2.4822      0.3630     10.1708     23.3112    104.4502
   990.0000      8.7558      2.5059      0.3398      8.7350     23.6080    104.8255
   990.1000      8.7558      2.5000      0.3269      9.0897     24.0967    109.3633
   990.2000      8.7558      2.4699      0.3745     10.9181     24.5127    115.1242
   990.3000      8.8514      2.4094      0.3250     14.5794     24.4019    120.0606
   990.4000      8.8514      2.3445      0.1737     18.5148     23.8516    124.1130
   990.5000      8.9837      2.3133      0.1275     20.4072     23.2176    125.1174
   990.6000      8.9837      2.3039      0.1953     20.9781     22.4732    121.2799
   990.7000      8.9837      2.2743      0.1786     22.7694     21.6917    115.6855
   990.8000      9.0600      2.2174      0.1694     26.2188     20.9192    112.4174
   990.9000      9.0600      2.1534      0.1671     30.0990     19.9916    113.3277
   991.0000      9.0595      2.0964      0.1944     33.5527     19.1531    117.2758
   991.1000      9.0595      2.0575      0.1748     35.9119     18.6718    120.6256
   991.2000      9.0595      2.0552      0.1508     36.0503     18.4369    121.3790
   991.3000      9.0414      2.0858      0.2478     34.1917     18.2743    120.5114
   991.4000      9.0414      2.1085      0.2936     32.8160     18.0085    120.9294
   991.5000      9.0493      2.1051      0.2200     33.0243     17.7592    122.3252
   991.6000      9.0493      2.1058      0.2535     32.9791     17.7184    121.1299
   991.7000      9.0493      2.1338      0.3792     31.2875     17.8501    117.8978
   991.8000      9.0683      2.1810      0.4418     28.4269     18.1495    116.0899
   991.9000      9.0683      2.2354      0.4438     25.1262     18.6419    116.6245
   992.0000      9.0556      2.2766      0.4785     22.6282     19.4049    120.3485
   992.1000      9.0556      2.2734      0.4463     22.8268     20.5312    128.2628
   992.2000      9.0556      2.2337      0.2927     25.2296     21.5700    135.1790
   992.3000      8.9443      2.2182      0.2294     26.1725     21.9297    136.8467
   992.4000      8.9443      2.2672      0.3299     23.1998     21.9356    135.6806
   992.5000      8.7365      2.3570      0.4376     17.7593     22.2823    131.7443
   992.6000      8.7365      2.4435      0.4607     12.5181     22.9475    127.1396
   992.7000      8.7365      2.5019      0.4948      8.9744     23.5649    126.2465
   992.8000      8.5334      2.5191      0.4837      7.9353     23.8532    126.1507
   992.9000      8.5334      2.4960      0.4128      9.3338     23.7020    125.6743
   993.0000      8.4637      2.4612      0.2489     11.4407     23.5159    128.1650
   993.1000      8.4637      2.4409      0.2476     12.6742     23.6313    131.4864
   993.2000      8.4637      2.4228      0.2622     13.7683     23.7299    131.4856
   993.3000      8.4921      2.3944      0.2054     15.4923     23.3927    128.3668
   993.4000      8.4921      2.3721      0.1875     16.8435     22.8014    126.4908
   993.5000      8.5259      2.3618      0.1986     17.4652     22.6341    129.2535
   993.6000      8.5259      2.3453      0.2203     18.4665     23.0802    133.5965
   993.7000      8.5259      2.3252      0.1180     19.6827     23.6262    133.9188
   993.8000      8.5826      2.3292      0.1676     19.4424     24.0191    129.6363
   993.9000      8.5826      2.3656      0.2424     17.2366     24.2474    126.4042
   994.0000      8.6974      2.4221      0.2752     13.8122     24.1802    128.8016
   994.1000      8.6974      2.4756      0.3317     10.5716     24.0448    133.7741
   994.2000      8.6974      2.4996      0.3043      9.1167     24.1208    136.2241
   994.3000      8.8056      2.4837      0.2653     10.0806     24.2685    135.8011
