~Version Information
VERS.                      2.0: CWLS Log ASCII Standard - VERSION 2.0
WRAP.                       NO: One line per depth step
~Well Information Block
STRT.FT               -14.0000: 
STOP.FT              2531.7500: 
STEP.FT                 0.2500: 
NULL.                -999.2500: 
COMP.          Petrogulf Corporation: COMPANY
WELL.            Lavedure 7-44: WELL
FLD.           Purgatorie River: FIELD
LOC.           969' FSL & 501' FEL--: LOCATION
PROV.                       CO: PROVINCE
CNTY.               Las Animas: COUNTRY
SRVC.          Patterson Wireline: SERVICE COMPANY
DATE.          Wed Dec 10 09:23:08 2003: LOG DATE
UWI.                          : UNIQUE WELL ID
~Curve Information Block
DEPT.FT            0 000 00 00: Depth
CCL.                          : Casing Collar Locator
TT3.usec                      : CBL 3' Travel Time
AMP3.mV                       : CBL 3' Amplitude
GR.GAPI                       : Gamma Ray
~Parameter Information Block
~A  Depth       CCL         TT3         AMP3         GR     
# ...
   488.5000      0.0000    265.8535     67.1588    113.2757
   488.7500      0.0000    265.8624     67.1808    107.8789
   489.0000      0.0000    265.8603     67.1884    102.2678
   489.2500      0.0000    265.8458     67.1740     96.8841
   489.5000      0.0000    265.8261     67.1493     92.3178
   489.7500      0.0000    265.8116     67.1443     89.5803
   490.0000      0.0000    265.8080     67.1839     89.8350
   490.2500      0.0000    265.8138     67.2614     93.6972
   490.5000      0.0000    265.8222     67.3378    100.6411
   490.7500      0.0000    265.8285     67.3725    108.9728
   491.0000      0.0000    265.8348     67.3605    116.5770
   491.2500      0.0000    265.8460     67.3348    122.0468
   491.5000      0.0000    265.8604     67.3344    125.2556
   491.7500      0.0000    265.8719     67.3711    126.9403
   492.0000      0.0000    265.8879     67.4044    128.0533
   492.2500      0.0000    265.9826     67.2996    129.4988
   492.5000      0.0000    266.3775     66.7679    131.7154
   492.7500      0.0000    267.5314     65.3473    134.0807
   493.0000      0.0000    270.0537     62.5775    135.2337
   493.2500      0.0000    274.2571     58.4122    134.3845
   493.5000      0.0000    279.5595     53.5093    131.9845
   493.7500      0.0000    284.4273     48.9280    129.1143
   494.0000      0.0000    287.1910     45.4430    126.6693
   494.2500      0.0000    287.0978     43.2187    124.9892
   494.5000      0.0000    284.7217     42.0314    123.6739
   494.7500      0.0000    281.4883     41.5681    121.7326
   495.0000      0.0000    278.7656     41.5328    118.3167
   495.2500     -2.0000    277.2509     41.7023    113.5503
   495.5000     -1.6196    277.0483     41.9905    108.6881
   495.7500      0.0000    278.0054     42.4862    105.3706
   496.0000      0.0000    279.6560     43.4551    104.4884
   496.2500      0.0000    280.9262     45.2493    105.6296
   496.5000      0.0000    280.4679     48.0530    107.8000
   496.7500      0.0000    277.7665     51.6558    110.7911
   497.0000      0.0000    273.7465     55.5478    115.5399
   497.2500      0.0000    269.9905     59.2095    122.8593
   497.5000      0.0000    267.4850     62.2633    131.9914
   497.7500      0.0000    266.2408     64.4973    140.6164
   498.0000      0.0000    265.7780     65.9109    146.2144
   498.2500      0.0000    265.6526     66.6963    147.5501
   498.5000      0.0000    265.6276     67.0933    145.1253
   498.7500      0.0000    265.6198     67.2588    140.4031
   499.0000      0.0000    265.6167     67.2586    134.7695
   499.2500      0.0000    265.6228     67.1399    129.1572
   499.5000      0.0000    265.6401     66.9762    124.0913
   499.7500      0.0000    265.6620     66.8568    119.6653
   500.0000      0.0000    265.6789     66.8368    115.7223
   500.2500      0.0000    265.6884     66.9059    112.5079
   500.5000      0.0000    265.6954     67.0055    111.0604
   500.7500      0.0000    265.7033     67.0796    112.5182
   501.0000      0.0000    265.7076     67.1099    116.8059
   501.2500      0.0000    265.7016     67.1090    122.0429
   501.5000      0.0000    265.6850     67.0910    125.5949
   501.7500      0.0000    265.6639     67.0571    125.9098
   502.0000      0.0000    265.6424     67.0068    123.2843
   502.2500      0.0000    265.6187     66.9559    119.1808
   502.5000      0.0000    265.5892     66.9337    115.2609
   502.7500      0.0000    265.5532     66.9592    112.5524
   503.0000      0.0000    265.5142     67.0230    110.7318
   503.2500      0.0000    265.4791     67.0949    108.6111
   503.5000      0.0000    265.4543     67.1479    105.8217
   503.7500      0.0000    265.4403     67.1768    103.3894
   504.0000      0.0000    265.4333     67.1990    102.3534
   504.2500      0.0000    265.4301     67.2399    102.5897
   504.5000      0.0000    265.4298     67.3090    103.1917
   504.7500      0.0000    265.4307     67.3856    103.3597
   505.0000      0.0000    265.4278     67.4348    102.8912
   505.2500      0.0000    265.4183     67.4465    102.3288
   505.5000      0.0000    265.4047     67.4488    102.7543
   505.7500      0.0000    265.3913     67.4714    105.1003
   506.0000      0.0000    265.3798     67.5097    109.3366
   506.2500      0.0000    265.3705     67.5429    114.2285
   506.5000      0.0000    265.3654     67.5720    118.1505
   506.7500      0.0000    265.3648     67.6112    120.3495
   507.0000      0.0000    265.3638     67.6495    121.1083
   507.2500      0.0000    265.3572     67.6492    120.5873
   507.5000      0.0000    265.3483     67.5869    118.3113
   507.7500      0.0000    265.3464     67.4815    114.2408
   508.0000      0.0000    265.3559     67.3787    109.5046
   508.2500      0.0000    265.3691     67.3158    105.4047
   508.5000      0.0000    265.3741     67.2980    102.2961
   508.7500      0.0000    265.3657     67.2999    100.0236
   509.0000      0.0000    265.3499     67.2950     98.8672
   509.2500      0.0000    265.3380     67.2880     99.2494
   509.5000      0.0000    265.3365     67.3107    100.8467
   509.7500      0.0000    265.3429     67.3900    102.7717
   510.0000      0.0000    265.3456     67.5261    104.5117
   510.2500      0.0000    265.3329     67.6825    106.0718
   510.5000      0.0000    265.3032     67.7959    107.2430
   510.7500      0.0000    265.2647     67.8207    107.2864
   511.0000      0.0000    265.2257     67.7687    105.6069
   511.2500      0.0000    265.1898     67.6908    102.5674
   511.5000      0.0000    265.1624     67.6208     99.3595
   511.7500      0.0000    265.1549     67.5500     97.0369
   512.0000      0.0000    265.1773     67.4573     95.8378
   512.2500      0.0000    265.2280     67.3556     95.2648
   512.5000      0.0000    265.2919     67.2938     94.4570
   512.7500      0.0000    265.3480     67.3056     92.6528
   513.0000      0.0000    265.3791     67.3686     89.7756
   513.2500      0.0000    265.3803     67.4237     86.6126
   513.5000      0.0000    265.3635     67.4305     84.0451
   513.7500      0.0000    265.3516     67.3972     82.1731
   514.0000      0.0000    265.3645     67.3525     80.7101
   514.2500      0.0000    265.4061     67.3098     80.0469
   514.5000      0.0000    265.4626     67.2823     81.0260
   514.7500      0.0000    265.5137     67.2975     83.6193
   515.0000      0.0000    265.5450     67.3585     86.6375
   515.2500      0.0000    265.5545     67.4161     88.8606
   515.5000      0.0000    265.5478     67.4162     89.7537
   515.7500      0.0000    265.5327     67.3507     89.0461
   516.0000      0.0000    265.5190     67.2075     86.4280
   516.2500      0.0000    265.5279     66.8667     82.0803
   516.5000      0.0000    265.6129     66.0686     77.1375
   516.7500      0.0000    265.9097     64.5312     73.1538
   517.0000      0.0000    266.6962     62.1597     70.9416
   517.2500      0.0000    268.3879     59.1348     70.0385
   517.5000      0.0000    271.3222     55.7506     69.3256
   517.7500      0.0000    275.2833     52.2420     68.0301
   518.0000      0.0000    279.1682     48.8896     66.0497
   518.2500      0.0000    281.4696     46.1406     63.6528
   518.5000      0.0000    281.4601     44.3735     61.2539
   518.7500      0.0000    279.8438     43.5605     59.3874
   519.0000      0.0000    278.1036     43.3159     58.6181
   519.2500     -2.0000    277.4441     43.2421     59.4246
   519.5000     -1.8643    278.3833     43.2003     61.9594
   519.7500      0.0000    280.8045     43.3688     65.6695
   520.0000      0.0000    283.9014     44.1408     69.3548
   520.2500      0.0000    286.2377     45.9140     72.0062
   520.5000      0.0000    286.3644     48.8728     73.4956
   520.7500      0.0000    283.7156     52.8609     74.1960
   521.0000      0.0000    279.0441     57.3287     74.2139
   521.2500      0.0000    273.9806     61.4466     73.4252
   521.5000      0.0000    269.9947     64.5003     72.0915
   521.7500      0.0000    267.6230     66.2943     71.0253
