~Version Information
VERS.                      2.0: CWLS Log ASCII Standard - VERSION 2.0
WRAP.                       NO: One line per depth step
~Well Information Block
STRT.FT                -4.5000: 
STOP.FT              1680.2500: 
STEP.FT                 0.2500: 
NULL.                -999.2500: 
COMP.          Pioneer Natural Resources: COMPANY
WELL.            Salty 42-6 Tr: WELL
FLD.           Purgatorie River: FIELD
LOC.           2409' FNL & 599' FEL--: LOCATION
PROV.                       CO: PROVINCE
CNTY.               Las Animas: COUNTRY
SRVC.                         : SERVICE COMPANY
DATE.          Mon Dec 20 13:36:48 2004: LOG DATE
UWI.           071-08238      : UNIQUE WELL ID
~Curve Information Block
DEPT.FT            0 000 00 00: Depth
HVOLTA.V                      : Head Voltage Apparent
GR.GAPI                       : Gamma Ray
CCL.                          : Casing Collar Locator
TT3.usec                      : CBL 3' Travel Time
AMP3.mV                       : CBL 3' Amplitude
~Parameter Information Block
~A  Depth      HVOLTA        GR         CCL         TT3         AMP3    
# ...
  1647.5000     97.1230    134.2536      0.0000    760.4069      7.6844
  1647.7500     96.9247    135.2731      0.0000    758.3342      7.6624
  1648.0000     96.8494    138.3283      0.0000    760.2281      7.6433
  1648.2500     96.8195    142.0076      0.0000    763.9250      7.6328
  1648.5000     97.3781    144.0280      0.0000    767.1789      7.6238
  1648.7500     96.1872    143.3352      0.0000    768.4124      7.6085
  1649.0000     96.7420    140.5843      0.0000    767.2386      7.5888
  1649.2500     96.7061    137.2172      0.0000    764.6287      7.5717
  1649.5000     96.7538    134.7023      0.0000    762.2318      7.5593
  1649.7500     97.0406    134.1510      0.0000    761.3935      7.5494
  1650.0000     96.8769    135.7595      0.0000    762.9022      7.5507
  1650.2500     97.0203    138.3179      0.0000    767.0577      7.5869
  1650.5000     96.9008    139.5510      0.0000    773.3302      7.6806
  1650.7500     96.8733    137.4377      0.0000    780.3942      7.8305
  1651.0000     97.1194    131.4423      0.0000    787.0676      8.0042
  1651.2500     96.9283    122.6349      0.0000    792.8329      8.1498
  1651.5000     96.9928    113.0919      0.0000    797.1733      8.2165
  1651.7500     96.8459    105.1792      0.0000    799.2398      8.1848
  1652.0000     96.9008    100.5543      0.0000    798.9894      8.0903
  1652.2500     96.9033     99.1638      0.0000    797.8630      8.0166
  1652.5000     96.8997     99.3150      0.0000    797.0459      8.0478
  1652.7500     96.9618     98.9713      0.0000    795.5436      8.2189
  1653.0000     96.8459     97.1785      0.0000    791.4516      8.5042
  1653.2500     96.7025     94.6432      0.0000    784.9111      8.8452
  1653.5000     96.9307     93.0773      0.0000    778.4078      9.1860
  1653.7500     96.8698     93.5741      0.0000    774.1243      9.4979
  1654.0000     96.8291     95.6155      0.0000    772.1283      9.7762
  1654.2500     96.8362     98.1117      0.0000    771.4459     10.0161
  1654.5000     96.8530    101.0282      0.0000    772.3688     10.1974
  1654.7500     96.8184    105.1872      0.0000    777.2874     10.2986
  1655.0000     96.9008    110.8018      0.0000    789.0164     10.3207
  1655.2500     96.9283    117.1597      0.0000    807.9088     10.2871
  1655.5000     96.7228    123.6050      0.0000    830.6532     10.2230
  1655.7500     96.8601    129.7906      0.0000    852.2484     10.1370
  1656.0000     96.7874    134.8737      0.0000    868.8541     10.0170
  1656.2500     97.1194    137.6233      0.0000    878.5831      9.8418
  1656.5000     96.8255    137.7766      0.0000    880.9765      9.6051
  1656.7500     97.0513    136.4177      0.0000    876.7457      9.3400
  1657.0000     96.7538    134.6442      0.0000    867.3566      9.1138
  1657.2500     96.7563    132.7331      0.0000    854.2050      8.9819
  1657.5000     96.8459    131.0040      0.0000    838.3534      8.9361
  1657.7500     97.0477    130.5324      0.0000    820.8015      8.9075
  1658.0000     96.8901    132.1480      0.0000    802.6015      8.8309
  1658.2500     96.9008    135.1100      0.0000    785.1318      8.7046
  1658.5000     96.8961    137.6711      0.0000    770.5343      8.5832
  1658.7500     96.8077    138.8116      0.0000    761.3444      8.5259
  1659.0000     96.9379    138.7302      0.0000    759.6046      8.5634
  1659.2500     96.7456    137.9417      0.0000    766.3736      8.6984
  1659.5000     96.9033    136.6796      0.0000    781.1420      8.9118
  1659.7500     96.9104    134.9818      0.0000    800.8332      9.1658
  1660.0000     96.9582    132.7080      0.0000    820.1954      9.4189
  1660.2500     96.7360    129.6614      0.0000    834.6853      9.6466
  1660.5000     96.8112    126.1945      0.0000    843.1899      9.8477
  1660.7500     96.7085    123.5314      0.0000    847.1349     10.0295
  1661.0000     96.8829    122.9282      0.0000    847.2374     10.1890
  1661.2500     96.8733    124.4471      0.0000    842.4349     10.3098
  1661.5000     96.7635    127.0364      0.0000    832.4036     10.3757
  1661.7500     96.6846    130.0370      0.0000    820.0899     10.3809
  1662.0000     96.8052    134.2861      0.0000    810.6384     10.3264
  1662.2500     96.7563    141.2692      0.0000    807.4249     10.2116
  1662.5000     96.7766    151.0495      0.0000    809.0761     10.0345
  1662.7500     96.6953    161.1821      0.0000    810.3563      9.7958
  1663.0000     96.7085    168.1218      0.0000    806.2679      9.5073
  1663.2500     96.6022    169.9468      0.0000    795.7881      9.1973
  1663.5000     96.8005    167.6144      0.0000    782.1808      8.9072
  1663.7500     96.8269    163.6816      0.0000    770.2181      8.6790
  1664.0000     96.9261    160.2531      0.0000    762.7768      8.5394
  1664.2500     96.7360    158.0708      0.0000    758.9389      8.4878
  1664.5000     96.6907    157.0747      0.0000    754.9056      8.4962
  1664.7500     96.9093    157.4587      0.0000    747.4897      8.5283
  1665.0000     96.9414    159.8051      0.0000    737.1707      8.5605
  1665.2500     96.7838    163.8851      0.0000    727.3781      8.5847
  1665.5000     96.6500    167.7560      0.0000    720.9901      8.5993
  1665.7500     96.9439    168.6776      0.0000    718.5911      8.6028
  1666.0000     96.8794    165.1692      0.0000    720.2802      8.5906
  1666.2500     96.7121    158.2260      0.0000    727.8039      8.5570
  1666.5000     96.7731    150.7079      0.0000    742.8955      8.4944
  1666.7500     96.8925    145.2519      0.0000    761.5335      8.3685
  1667.0000     96.7085    142.3182      0.0000    768.1505      8.0621
  1667.2500     96.6882    140.2469      0.0000    737.1230      7.3594
  1667.5000     96.8961    137.2164      0.0000    647.0023      6.0583
  1667.7500     96.7802    132.7586      0.0000    500.6505      4.1808
  1668.0000     96.9546    127.4017      0.0000    331.2888      2.0739
  1668.2500     96.8555    121.5547      0.0000    183.1121      0.2315
  1668.5000     96.9678    115.3752      0.0000     83.0636     -1.0254
  1668.7500     96.8448    109.4188      0.0000     30.5201     -1.6945
  1669.0000     96.7981    104.6811      0.0000      8.9930     -1.9723
  1669.2500     96.8494    101.9510      0.0000      2.1063     -2.0623
  1669.5000     96.8829    101.4735      0.0000      0.3851     -2.0850
  1669.7500     96.8794    102.9777      0.0000      0.0496     -2.0895
  1670.0000     96.7121    105.6069      0.0000   -999.2500   -999.2500
  1670.2500     96.8590    108.1239      0.0000   -999.2500   -999.2500
  1670.5000     96.9379    109.9517      0.0000   -999.2500   -999.2500
  1670.7500     96.8041    112.0736      0.0000   -999.2500   -999.2500
  1671.0000     97.0299    116.2392      0.0000   -999.2500   -999.2500
  1671.2500     96.9211    123.0515      0.0000   -999.2500   -999.2500
  1671.5000     97.0167    131.2726      0.0000   -999.2500   -999.2500
  1671.7500     96.8494    138.8839      0.0000   -999.2500   -999.2500
  1672.0000     96.9999    144.2238      0.0000   -999.2500   -999.2500
  1672.2500     96.7909    146.3540      0.0000   -999.2500   -999.2500
  1672.5000     96.8733    145.1668      0.0000   -999.2500   -999.2500
  1672.7500     96.9857    141.3371      0.0000   -999.2500   -999.2500
  1673.0000     96.7695    136.0666      0.0000   -999.2500   -999.2500
  1673.2500     96.9033    130.8259      0.0000   -999.2500   -999.2500
  1673.5000     96.8901    126.8561      0.0000   -999.2500   -999.2500
  1673.7500     96.8244    124.3886      0.0000   -999.2500   -999.2500
  1674.0000     96.7599    122.3474      0.0000   -999.2500   -999.2500
  1674.2500     96.6476    119.2235      0.0000   -999.2500   -999.2500
  1674.5000     97.0131    114.6461      0.0000   -999.2500   -999.2500
  1674.7500     96.8112    110.3034      0.0000   -999.2500   -999.2500
  1675.0000     96.6750    109.0147      0.0000   -999.2500   -999.2500
  1675.2500     96.7574    112.3035      0.0000   -999.2500   -999.2500
