~Version Information
VERS.                      2.0: CWLS Log ASCII Standard - VERSION 2.0
WRAP.                       NO: One line per depth step
~Well Information Block
STRT.FT               630.0000: 
STOP.FT              1155.5000: 
STEP.FT                 0.1000: 
NULL.                -999.2500: 
COMP.          Pioneer Natural Resources: COMPANY
WELL.          Drewmeister 34-34: WELL
FLD.           Purgatoire River: FIELD
LOC.           958' FSL & 1857' FEL: LOCATION
STAT.                 Colorado: State
CNTY.               Las Animas: COUNTY
CTRY. USA : Country
SECT. 34 : Section
TOWN. 32S : Township
RANG. 65W : Range
SRVC.                Patterson: SERVICE COMPANY
DATE.          Tue Oct 04 08:23:16 2005: LOG DATE
API.           05 071 08131 00: UNIQUE WELL ID
~Curve Information Block
DEPT.FT            0 000 00 00: Depth
DCAL.in                       : CDL Caliper
RHOB.g/cc                     : CDL Bulk Density
RHOC.g/cc                     : CDL Density Correction
DPOR.pu                       : CDL Density Porosity
GR.GAPI                       : Gamma Ray
NPOR.pu                       : Neutron Porosity
~Parameter Information Block
~A  Depth       DCAL        RHOB        RHOC        DPOR         GR         NPOR    
# ...
  1100.4000      7.8718      2.6428      0.1197      0.4358    114.2262     21.4142
  1100.5000      7.8706      2.6299      0.0871      1.2203    117.1961     21.0219
  1100.6000      7.8706      2.5988      0.0696      3.1015    118.3747     20.8630
  1100.7000      7.8706      2.5643     -0.0108      5.1967    119.8442     20.5488
  1100.8000      7.8696      2.5411     -0.0057      6.6018    121.4189     20.1395
  1100.9000      7.8696      2.5232      0.0339      7.6876    122.0604     20.0821
  1101.0000      7.8701      2.5057     -0.0372      8.7432    121.1215     20.6412
  1101.1000      7.8701      2.5057     -0.0114      8.7467    123.3293     21.4976
  1101.2000      7.8701      2.5215      0.0263      7.7849    132.9925     22.0982
  1101.3000      7.8707      2.5333      0.0057      7.0704    144.2558     22.4307
  1101.4000      7.8707      2.5421      0.0600      6.5423    149.9644     22.7968
  1101.5000      7.8713      2.5586      0.0647      5.5400    150.6169     22.9202
  1101.6000      7.8713      2.5754      0.1067      4.5182    148.1845     22.3097
  1101.7000      7.8713      2.5760      0.0963      4.4856    141.7219     21.5542
  1101.8000      7.8716      2.5551      0.0782      5.7500    132.1749     21.5641
  1101.9000      7.8716      2.5240      0.0150      7.6388    125.0471     22.1194
  1102.0000      7.8714      2.4961      0.0410      9.3285    122.5839     22.6147
  1102.1000      7.8714      2.4731      0.0268     10.7240    119.4442     22.7991
  1102.2000      7.8714      2.4614     -0.0475     11.4292    116.0656     22.6948
  1102.3000      7.8712      2.4732      0.0136     10.7171    118.7865     22.8693
  1102.4000      7.8712      2.4996      0.0329      9.1169    129.3646     23.4218
  1102.5000      7.8711      2.5267      0.0555      7.4755    140.1934     23.7570
  1102.6000      7.8711      2.5536      0.0956      5.8446    143.4680     23.7690
  1102.7000      7.8711      2.5776      0.0992      4.3896    143.5742     23.5331
  1102.8000      7.8715      2.5894      0.0840      3.6722    144.9316     23.2171
  1102.9000      7.8715      2.5878      0.1333      3.7693    144.4278     23.2339
  1103.0000      7.8721      2.5789      0.1069      4.3063    141.6103     23.2669
  1103.1000      7.8721      2.5677      0.1278      4.9878    139.4748     23.1253
  1103.2000      7.8721      2.5610      0.0680      5.3946    136.4860     23.3229
  1103.3000      7.8723      2.5659      0.1134      5.0974    130.0868     24.0425
  1103.4000      7.8723      2.5718      0.1071      4.7422    121.6904     24.6657
  1103.5000      7.8719      2.5611      0.0556      5.3857    114.1436     24.4961
  1103.6000      7.8719      2.5349      0.0277      6.9748    112.0816     23.9313
  1103.7000      7.8719      2.5122      0.0112      8.3527    118.6576     23.7438
  1103.8000      7.8715      2.5042      0.0168      8.8378    129.4248     23.9578
  1103.9000      7.8715      2.5019      0.0478      8.9752    137.6976     24.2188
  1104.0000      7.8714      2.4990      0.0021      9.1522    141.9487     24.1466
  1104.1000      7.8714      2.5003      0.0164      9.0736    139.6875     23.8314
  1104.2000      7.8714      2.5008      0.0747      9.0438    129.7321     23.8427
  1104.3000      7.8712      2.4923      0.0286      9.5587    117.6887     24.0616
  1104.4000      7.8712      2.4828      0.0533     10.1321    108.3036     23.8859
  1104.5000      7.8707      2.4827      0.0396     10.1378    101.0297     23.4810
  1104.6000      7.8707      2.4914      0.0573      9.6128     95.3095     23.1709
  1104.7000      7.8707      2.4978      0.0814      9.2234     94.7691     23.1717
  1104.8000      7.8708      2.5026      0.0035      8.9334    101.7925     23.7750
  1104.9000      7.8708      2.5196      0.0426      7.9020    109.6296     24.5728
  1105.0000      7.8720      2.5396      0.0875      6.6903    111.4956     24.7613
  1105.1000      7.8720      2.5460      0.0880      6.3014    112.5458     24.4705
  1105.2000      7.8720      2.5445      0.0482      6.3968    115.3723     24.3074
  1105.3000      7.8724      2.5398      0.0564      6.6771    115.1160     24.0443
  1105.4000      7.8724      2.5248      0.0580      7.5883    112.5664     23.5438
  1105.5000      7.8725      2.5062     -0.0364      8.7153    115.2874     23.4491
  1105.6000      7.8725      2.5052     -0.0129      8.7744    126.3171     24.0775
  1105.7000      7.8725      2.5210      0.0537      7.8182    139.9853     25.0020
  1105.8000      7.8728      2.5385      0.0356      6.7556    151.1323     25.6081
  1105.9000      7.8728      2.5573      0.0226      5.6153    156.4051     25.8035
  1106.0000      7.8726      2.5759      0.0802      4.4889    150.6203     25.8347
  1106.1000      7.8726      2.5882      0.0573      3.7484    136.4101     25.7061
  1106.2000      7.8726      2.5994      0.0677      3.0684    125.8538     25.4609
  1106.3000      7.8727      2.6106      0.1172      2.3854    126.8466     25.4874
  1106.4000      7.8727      2.6090      0.1238      2.4831    131.7429     25.9280
  1106.5000      7.8745      2.5871      0.0879      3.8098    129.4314     26.2008
  1106.6000      7.8745      2.5532      0.0605      5.8651    121.2758     25.8377
  1106.7000      7.8745      2.5237      0.0486      7.6556    112.2125     24.9645
  1106.8000      7.8756      2.5124      0.0372      8.3413    106.3650     23.8777
  1106.9000      7.8756      2.5141      0.0755      8.2388    107.3444     23.0912
  1107.0000      7.8747      2.5172      0.0201      8.0467    111.3388     22.8018
  1107.1000      7.8747      2.5229      0.0414      7.7037    112.2677     22.7535
  1107.2000      7.8747      2.5320      0.0366      7.1504    110.6158     22.9987
  1107.3000      7.8740      2.5465      0.0407      6.2725    110.7792     23.6495
  1107.4000      7.8740      2.5680      0.0609      4.9727    114.3623     24.6487
  1107.5000      7.8738      2.5884      0.0797      3.7328    123.6850     25.6392
  1107.6000      7.8738      2.5957      0.0581      3.2916    137.6469     25.9020
  1107.7000      7.8738      2.5820      0.0715      4.1226    145.3525     25.2733
  1107.8000      7.8733      2.5527      0.0461      5.8969    141.7469     24.6043
  1107.9000      7.8733      2.5281      0.0228      7.3882    135.2849     24.7478
  1108.0000      7.8722      2.5221      0.0079      7.7534    131.7911     25.8144
  1108.1000      7.8722      2.5285      0.0024      7.3654    131.6890     26.9939
  1108.2000      7.8722      2.5341      0.0011      7.0249    134.4819     27.4344
  1108.3000      7.8716      2.5351      0.0107      6.9637    139.9029     27.0941
  1108.4000      7.8716      2.5328      0.0176      7.1043    146.1122     26.6537
  1108.5000      7.8720      2.5213      0.0424      7.7998    147.9933     26.9283
  1108.6000      7.8720      2.4988      0.0277      9.1666    145.6289     27.7179
  1108.7000      7.8720      2.4784      0.0231     10.4004    142.0689     28.1801
  1108.8000      7.8728      2.4773      0.0151     10.4684    135.6987     28.2559
  1108.9000      7.8728      2.4990      0.0021      9.1485    124.9899     27.7257
  1109.0000      7.8728      2.5294      0.0652      7.3073    112.7389     26.3994
  1109.1000      7.8728      2.5528      0.0609      5.8916    103.3159     24.8752
  1109.2000      7.8728      2.5648      0.1324      5.1664     98.5594     23.3492
  1109.3000      7.8724      2.5646      0.1266      5.1784     95.1072     22.0774
  1109.4000      7.8724      2.5516      0.1501      5.9662     91.1568     21.8824
  1109.5000      7.8724      2.5268      0.1033      7.4691     89.8913     22.6465
  1109.6000      7.8724      2.4985      0.0823      9.1806     93.3138     23.3746
  1109.7000      7.8724      2.4768      0.0916     10.4984     99.9294     23.2804
  1109.8000      7.8726      2.4674      0.0325     11.0649    104.5232     22.3828
  1109.9000      7.8726      2.4730      0.0608     10.7258    103.3709     21.7380
