~Version Information
VERS.                      2.0: CWLS Log ASCII Standard - VERSION 2.0
WRAP.                       NO: One line per depth step
~Well Information Block
STRT.FT                -3.0000: 
STOP.FT              1828.0000: 
STEP.FT                 0.2500: 
NULL.                -999.2500: 
COMP.          Pioneer Natural Resources: COMPANY
WELL.           Guajardo 24-16: WELL
FLD.           Purgatorie River: FIELD
LOC.           883' FSL & 2147' FWL--: LOCATION
PROV.                       CO: PROVINCE
CNTY.               Las Animas: COUNTRY
SRVC.          Patterson Wireline: SERVICE COMPANY
DATE.          Wed Aug 10 11:02:25 2005: LOG DATE
UWI.           05 071 08377 00: UNIQUE WELL ID
~Curve Information Block
DEPT.FT            0 000 00 00: Depth
CCL.                          : Casing Collar Locator
TT3.usec                      : CBL 3' Travel Time
AMP3.mV                       : CBL 3' Amplitude
GR.GAPI                       : Gamma Ray
~Parameter Information Block
~A  Depth       CCL         TT3         AMP3         GR     
# ...
  1203.0000      0.0000    728.4022     10.0933    146.9854
  1203.2500      0.0000    728.9534      9.9496    146.1313
  1203.5000      0.0000    731.1166      9.8020    144.9987
  1203.7500      0.0000    733.1548      9.6582    144.6707
  1204.0000      0.0000    733.8680      9.5186    146.5247
  1204.2500      0.0000    732.6896      9.3810    150.3401
  1204.5000      0.0000    729.3678      9.2512    154.1202
  1204.7500      0.0000    723.9912      9.1471    156.3764
  1205.0000      0.0000    716.9451      9.0893    157.7999
  1205.2500      0.0000    708.5580      9.0837    160.0849
  1205.5000      0.0000    699.1445      9.1146    163.8325
  1205.7500      0.0000    689.4856      9.1564    168.0252
  1206.0000      0.0000    680.7413      9.1911    170.9521
  1206.2500      0.0000    673.7712      9.2148    171.2695
  1206.5000      0.0000    669.1542      9.2284    168.6037
  1206.7500      0.0000    668.0777      9.2317    163.7154
  1207.0000      0.0000    672.3870      9.2276    158.2445
  1207.2500      0.0000    682.9298      9.2267    153.9749
  1207.5000      0.0000    697.9764      9.2391    151.7148
  1207.7500      0.0000    713.7413      9.2622    150.7057
  1208.0000      0.0000    726.4766      9.2800    149.4150
  1208.2500      0.0000    734.2356      9.2746    147.0560
  1208.5000      0.0000    737.5798      9.2375    144.1542
  1208.7500      0.0000    739.3774      9.1746    141.7833
  1209.0000      0.0000    743.4516      9.1075    140.6228
  1209.2500      0.0000    752.1088      9.0679    140.5378
  1209.5000      0.0000    764.2931      9.0785    140.3811
  1209.7500      0.0000    776.4849      9.1374    138.2488
  1210.0000      0.0000    785.6063      9.2239    132.7231
  1210.2500      0.0000    790.8919      9.3192    124.2653
  1210.5000      0.0000    793.2899      9.4164    115.2185
  1210.7500      0.0000    793.8427      9.5149    108.3032
  1211.0000      0.0000    792.7781      9.6050    105.0348
  1211.2500      0.0000    789.7601      9.6615    105.3404
  1211.5000      0.0000    784.9290      9.6585    108.2453
  1211.7500      0.0000    779.7166      9.5918    112.6693
  1212.0000      0.0000    776.0701      9.4808    117.6147
  1212.2500      0.0000    774.3529      9.3522    121.9362
  1212.5000      0.0000    772.7679      9.2311    124.3187
  1212.7500      0.0000    769.8550      9.1418    123.7658
  1213.0000      0.0000    767.0242      9.0998    120.2338
  1213.2500      0.0000    767.4091      9.0961    114.7342
  1213.5000      0.0000    772.3101      9.0912    108.6454
  1213.7500      0.0000    779.7731      9.0256    102.9144
  1214.0000      0.0000    786.4819      8.8523     98.0818
  1214.2500      0.0000    790.0387      8.5828     94.8998
  1214.5000      0.0000    789.7079      8.3001     94.3299
  1214.7500      0.0000    786.5062      8.0920     96.4845
  1215.0000      0.0000    782.8913      7.9748     99.8229
  1215.2500      0.0000    781.2761      7.9110    101.9320
  1215.5000      0.0000    782.4731      7.8817    101.3547
  1215.7500      0.0000    785.8939      7.8978     98.7384
  1216.0000      0.0000    790.8337      7.9573     96.3135
  1216.2500      0.0000    796.7517      8.0374     96.4543
  1216.5000      0.0000    802.2638      8.1263    100.7327
  1216.7500      0.0000    803.6675      8.2532    109.6616
  1217.0000      0.0000    795.3105      8.4859    122.3055
  1217.2500      0.0000    774.0962      8.8659    135.8507
  1217.5000      0.0000    744.7915      9.3107    146.2708
  1217.7500      0.0000    718.6373      9.6305    150.4111
  1218.0000      0.0000    705.2104      9.7215    147.8981
  1218.2500      0.0000    706.8372      9.6940    141.0596
  1218.5000      0.0000    720.1933      9.7322    133.1137
  1218.7500      0.0000    739.9299      9.8850    126.3627
  1219.0000      0.0000    760.2943     10.0654    121.5799
  1219.2500      0.0000    776.5036     10.1907    118.4877
  1219.5000      0.0000    786.5044     10.2497    116.6306
  1219.7500      0.0000    790.9777     10.2646    116.0786
  1220.0000      0.0000    791.4385     10.2463    117.5708
  1220.2500      0.0000    788.5106     10.1940    121.8162
  1220.5000      0.0000    781.9402     10.1151    128.3347
  1220.7500      0.0000    771.7814     10.0299    135.1949
  1221.0000      0.0000    759.2070      9.9581    140.1922
  1221.2500      0.0000    746.1362      9.9062    142.0261
  1221.5000      0.0000    734.7084      9.8694    140.3844
  1221.7500      0.0000    727.3152      9.8415    135.8959
  1222.0000      0.0000    725.9370      9.8189    130.5993
  1222.2500      0.0000    730.3050      9.7974    127.5207
  1222.5000      0.0000    736.9488      9.7700    128.6740
  1222.7500      0.0000    740.7665      9.7347    133.5724
  1223.0000      0.0000    738.6808      9.7013    139.9460
  1223.2500      0.0000    733.0020      9.6842    145.5299
  1223.5000      0.0000    730.6362      9.6892    149.2192
  1223.7500      0.0000    737.2651      9.7097    151.1774
  1224.0000      0.0000    751.9894      9.7365    152.1052
  1224.2500      0.0000    768.1314      9.7668    152.4324
  1224.5000      0.0000    778.4947      9.8027    152.0877
  1224.7500      0.0000    779.1558      9.8438    150.6319
  1225.0000      0.0000    770.1382      9.8814    147.4748
  1225.2500      0.0000    755.2260      9.9012    142.3942
  1225.5000      0.0000    741.0769      9.8940    136.0876
  1225.7500      0.0000    734.1449      9.8628    130.0612
  1226.0000      0.0000    737.0927      9.8171    125.8897
  1226.2500      0.0000    748.0847      9.7612    124.5275
  1226.5000      0.0000    762.8022      9.6928    125.9769
  1226.7500      0.0000    776.7352      9.6109    129.1226
  1227.0000      0.0000    786.8683      9.5186    131.8510
  1227.2500      0.0000    792.5303      9.4197    132.0286
  1227.5000      0.0000    794.8799      9.3177    129.1348
  1227.7500      0.0000    795.5427      9.2184    124.9881
  1228.0000      0.0000    795.6330      9.1287    122.4492
  1228.2500      0.0000    795.6215      9.0528    123.6537
  1228.5000      0.0000    795.6169      8.9911    129.5626
  1228.7500      0.0000    795.6050      8.9446    139.9369
  1229.0000      0.0000    795.5548      8.9188    152.3762
  1229.2500      0.0000    795.4150      8.9207    162.0969
  1229.5000      0.0000    795.0605      8.9508    164.4607
  1229.7500      0.0000    794.1265      9.0003    158.2697
  1230.0000      0.0000    791.7351      9.0558    146.3506
  1230.2500      0.0000    786.4128      9.1068    133.3418
  1230.5000      0.0000    776.8189      9.1477    123.0797
  1230.7500      0.0000    763.3751      9.1744    117.2682
  1231.0000      0.0000    749.4570      9.1836    115.7377
  1231.2500      0.0000    740.2917      9.1776    117.3739
  1231.5000      0.0000    739.6944      9.1662    120.5295
  1231.7500      0.0000    747.1564      9.1606    123.3378
  1232.0000      0.0000    757.8645      9.1652    124.7316
  1232.2500      0.0000    765.9271      9.1767    125.0300
  1232.5000      0.0000    768.0516      9.1901    124.8073
  1232.7500      0.0000    764.3579      9.2054    123.5754
  1233.0000      0.0000    756.8391      9.2275    120.3248
  1233.2500      0.0000    748.9699      9.2578    115.1817
  1233.5000      0.0000    746.3094      9.2872    109.7962
  1233.7500      0.0000    753.9613      9.3016    105.9033
  1234.0000      0.0000    771.4237      9.2930    103.8897
  1234.2500      0.0000    791.3085      9.2638    103.0564
  1234.5000      0.0000    804.3266      9.2219    102.9459
  1234.7500      0.0000    805.3040      9.1751    103.8733
  1235.0000      0.0000    795.2805      9.1300    106.3005
  1235.2500      0.0000    779.6700      9.0909    110.2056
  1235.5000      0.0000    764.6609      9.0579    115.0770
  1235.7500      0.0000    754.0471      9.0247    120.0251
  1236.0000      0.0000    748.3256      8.9788    123.8336
  1236.2500      0.0000    746.0292      8.9088    125.4473
