~Version Information
VERS.                      2.0: CWLS Log ASCII Standard - VERSION 2.0
WRAP.                       NO: One line per depth step
~Well Information Block
STRT.FT               294.0000: 
STOP.FT              1958.0000: 
STEP.FT                 0.1000: 
NULL.                -999.2500: 
COMP.          Pioneer Natural Resources: COMPANY
WELL.          Commander 43-26 Tr: WELL
FLD.           Purgatoire River: FIELD
LOC.           2439' FSL & 446' FEL: LOCATION
PROV.                 Colorado: PROVINCE
CNTY.               Las Animas: COUNTRY
SRVC.                Patterson: SERVICE COMPANY
DATE.          Fri Apr 15 07:31:08 2005: LOG DATE
UWI.           05 071 08341 00: UNIQUE WELL ID
~Curve Information Block
DEPT.FT            0 000 00 00: Depth
DCAL.in                       : CDL Caliper
RHOB.g/cc                     : CDL Bulk Density
RHOC.g/cc                     : CDL Density Correction
DPOR.pu                       : CDL Density Porosity
GR.GAPI                       : Gamma Ray
NPOR.pu                       : Neutron Porosity
~Parameter Information Block
~A  Depth       DCAL        RHOB        RHOC        DPOR         GR         NPOR    
# ...
  1724.4000      7.9007      2.6335      0.0678      0.9974     94.3531     26.5399
  1724.5000      7.9436      2.6052      0.0492      2.7145     93.4805     27.2538
  1724.6000      7.9436      2.5680      0.0317      4.9700     89.5734     27.2102
  1724.7000      7.9436      2.5581      0.0150      5.5725     86.5035     26.3834
  1724.8000      7.9683      2.5767     -0.0052      4.4432     84.2524     25.3197
  1724.9000      7.9683      2.6003      0.0411      3.0134     81.1586     24.8884
  1725.0000      8.0124      2.6157      0.0458      2.0785     77.9293     25.1443
  1725.1000      8.0124      2.6317      0.0491      1.1120     75.2346     24.9665
  1725.2000      8.0124      2.6530      0.0509     -0.1799     72.8131     23.8508
  1725.3000      8.0109      2.6697      0.0546     -1.1944     72.0648     22.7896
  1725.4000      8.0109      2.6791      0.0658     -1.7643     73.3025     22.5517
  1725.5000      7.9043      2.6917      0.1262     -2.5293     75.2643     22.7711
  1725.6000      7.9043      2.7086      0.1187     -3.5538     77.9037     23.0267
  1725.7000      7.9043      2.7236      0.1422     -4.4584     79.8731     23.5715
  1725.8000      7.8963      2.7342      0.0821     -5.1040     80.6820     24.3836
  1725.9000      7.8963      2.7294      0.1128     -4.8121     84.2259     25.1735
  1726.0000      7.9066      2.6989      0.0618     -2.9651     92.8348     25.6115
  1726.1000      7.9066      2.6573      0.0448     -0.4426    102.5537     25.3241
  1726.2000      7.9066      2.6218      0.0456      1.7111    110.7072     24.8670
  1726.3000      7.9237      2.6041     -0.0077      2.7816    116.1136     25.1146
  1726.4000      7.9237      2.6109      0.0633      2.3675    116.5135     25.9209
  1726.5000      7.9579      2.6231      0.0875      1.6315    114.4811     26.7428
  1726.6000      7.9579      2.6132      0.0697      2.2324    114.5438     27.3941
  1726.7000      7.9579      2.5802      0.0438      4.2290    118.5825     27.3606
  1726.8000      7.9715      2.5533      0.0185      5.8588    126.5252     26.5004
  1726.9000      7.9715      2.5574      0.0489      5.6103    135.7592     25.6828
  1727.0000      8.0051      2.5848      0.0121      3.9513    140.3878     25.5262
  1727.1000      8.0051      2.6065      0.0789      2.6387    136.4187     26.1312
  1727.2000      8.0051      2.6089      0.0502      2.4897    128.5054     27.3523
  1727.3000      8.0050      2.6073      0.1190      2.5906    123.9559     28.3431
  1727.4000      8.0050      2.6118      0.0580      2.3170    124.4755     28.3314
  1727.5000      8.0105      2.6220      0.0326      1.6998    126.8619     27.8972
  1727.6000      8.0105      2.6361      0.0920      0.8395    128.5595     28.0093
  1727.7000      8.0105      2.6504      0.1129     -0.0231    129.9915     28.9908
  1727.8000      8.0099      2.6563      0.1214     -0.3837    134.5006     30.3439
  1727.9000      8.0099      2.6453      0.1101      0.2852    143.9027     30.9822
  1728.0000      8.0119      2.6193      0.0879      1.8595    154.4681     30.6763
  1728.1000      8.0119      2.5778      0.1001      4.3758    160.9436     30.3253
  1728.2000      8.0119      2.5244     -0.0128      7.6120    158.8231     30.5035
  1728.3000      8.0077      2.4907     -0.0710      9.6545    147.2820     30.6760
  1728.4000      8.0077      2.4983      0.0029      9.1916    135.4390     30.2751
  1728.5000      8.0087      2.5270      0.0387      7.4562    132.8150     29.7753
  1728.6000      8.0087      2.5531      0.0534      5.8698    136.4057     29.9489
  1728.7000      8.0087      2.5825      0.0804      4.0909    138.7608     30.2195
  1728.8000      8.0123      2.6228      0.1868      1.6472    138.6116     29.6587
  1728.9000      8.0123      2.6608      0.2096     -0.6521    137.4250     28.9337
  1729.0000      8.0261      2.6776      0.2376     -1.6717    136.9170     28.8798
  1729.1000      8.0261      2.6687      0.1834     -1.1313    137.4843     29.2971
  1729.2000      8.0261      2.6551      0.0871     -0.3113    138.3249     29.7710
  1729.3000      8.0217      2.6527      0.1819     -0.1631    140.5289     29.9126
  1729.4000      8.0217      2.6492      0.1051      0.0497    143.5573     29.4276
  1729.5000      8.0465      2.6389      0.1272      0.6727    143.0383     28.8126
  1729.6000      8.0465      2.6315      0.0857      1.1191    136.5699     28.7070
  1729.7000      8.0465      2.6248      0.0720      1.5285    129.5738     28.8975
  1729.8000      8.0357      2.6026      0.0742      2.8748    129.7335     28.7204
  1729.9000      8.0357      2.5667      0.0437      5.0471    134.5622     28.1035
  1730.0000      8.0253      2.5474      0.0083      6.2209    135.4216     27.1886
  1730.1000      8.0253      2.5627      0.0428      5.2903    132.3849     26.1091
  1730.2000      8.0253      2.5876      0.0657      3.7830    131.3297     25.3390
  1730.3000      7.9917      2.5903      0.0405      3.6193    134.1162     25.2955
  1730.4000      7.9917      2.5742     -0.0162      4.5914    136.5622     25.8927
  1730.5000      7.9724      2.5653      0.0416      5.1339    135.8155     26.6881
  1730.6000      7.9724      2.5729      0.0796      4.6756    135.8545     27.5373
  1730.7000      7.9724      2.5836      0.0699      4.0238    137.3151     28.3971
  1730.8000      7.9745      2.5890      0.0794      3.6944    139.1591     28.9502
  1730.9000      7.9745      2.5887      0.1121      3.7172    142.0740     28.8941
  1731.0000      7.9850      2.5905      0.0617      3.6078    141.9810     28.3258
  1731.1000      7.9850      2.6132      0.0543      2.2330    136.0378     27.8680
  1731.2000      7.9850      2.6526      0.1428     -0.1571    129.0211     27.8447
  1731.3000      7.9975      2.6768      0.1441     -1.6266    124.6003     27.9553
  1731.4000      7.9975      2.6690      0.1362     -1.1504    123.8720     27.9571
  1731.5000      8.0838      2.6376      0.1107      0.7523    129.5090     28.1057
  1731.6000      8.0838      2.5969      0.0311      3.2153    138.4469     28.4050
  1731.7000      8.0838      2.5596      0.0017      5.4792    143.0336     28.2815
  1731.8000      8.2291      2.5373     -0.0063      6.8313    142.5396     27.4723
  1731.9000      8.2291      2.5422     -0.0250      6.5340    140.7226     26.6565
  1732.0000      8.0912      2.5687      0.0193      4.9275    139.1046     26.7598
  1732.1000      8.0912      2.5845      0.0822      3.9669    138.0659     27.7134
  1732.2000      8.0912      2.5735     -0.0053      4.6371    135.6487     28.4330
  1732.3000      8.0199      2.5576      0.0063      5.6014    130.1889     28.7338
  1732.4000      8.0199      2.5583      0.0261      5.5605    126.7252     29.1840
  1732.5000      8.0137      2.5705      0.0799      4.8152    130.9552     29.3696
  1732.6000      8.0137      2.5692      0.0739      4.8998    138.0211     28.7955
  1732.7000      8.0137      2.5354      0.0252      6.9435    139.2724     28.0576
  1732.8000      8.0621      2.4844     -0.0108     10.0336    136.4666     28.0386
  1732.9000      8.0621      2.4508     -0.0338     12.0707    134.1825     28.7426
  1733.0000      7.9904      2.4451     -0.0072     12.4187    131.4854     29.4043
  1733.1000      7.9904      2.4465      0.0310     12.3318    130.7955     29.7455
  1733.2000      7.9904      2.4352      0.0159     13.0188    133.3499     30.0996
  1733.3000      7.9996      2.4033      0.0372     14.9512    132.3701     30.6890
  1733.4000      7.9996      2.3516      0.0208     18.0853    127.7560     31.0634
  1733.5000      8.0279      2.2878     -0.0037     21.9515    127.3667     30.9095
  1733.6000      8.0279      2.2283     -0.0152     25.5548    132.2041     30.3459
  1733.7000      8.0279      2.1887     -0.0022     27.9549    138.8109     29.4550
  1733.8000      8.0294      2.1694     -0.0040     29.1296    145.4187     28.7685
  1733.9000      8.0294      2.1691      0.0234     29.1433    150.7034     28.7098
