~Version Information
VERS.                      2.0: CWLS Log ASCII Standard - VERSION 2.0
WRAP.                       NO: One line per depth step
~Well Information Block
STRT.FT               920.0000: 
STOP.FT              3300.2000: 
STEP.FT                 0.1000: 
NULL.                -999.2500: 
COMP.          Pioneer Natural Resources: COMPANY
WELL.              Vespar 43-7: WELL
FLD.           Purgatoire River: FIELD
LOC.           2338' FSL & 1141' FEL: LOCATION
PROV.                 Colorado: PROVINCE
CNTY.               Las Animas: COUNTRY
SRVC.                Patterson: SERVICE COMPANY
DATE.          Wed Jan 26 13:38:02 2005: LOG DATE
UWI.           05 071 07955 00: UNIQUE WELL ID
~Curve Information Block
DEPT.FT            0 000 00 00: Depth
DCAL.in                       : CDL Caliper
RHOB.g/cc                     : CDL Bulk Density
RHOC.g/cc                     : CDL Density Correction
DPOR.pu                       : CDL Density Porosity
NPOR.pu                       : Neutron Porosity
GR.GAPI                       : Gamma Ray
~Parameter Information Block
~A  Depth       DCAL        RHOB        RHOC        DPOR        NPOR         GR     
# ...
  2014.4000      7.9966      2.6314      0.0980      1.1271     23.1943    105.8012
  2014.5000      8.0027      2.6290      0.0881      1.2708     23.6502     99.9738
  2014.6000      8.0027      2.5993      0.0736      3.0749     23.9542     93.9311
  2014.7000      8.0027      2.5540     -0.0056      5.8172     24.6821     91.5835
  2014.8000      8.0132      2.5159      0.0052      8.1254     25.3311     92.9976
  2014.9000      8.0132      2.4981     -0.0066      9.2078     25.5059     95.8512
  2015.0000      8.0180      2.4978      0.0460      9.2249     25.5347     97.4359
  2015.1000      8.0180      2.4967      0.0427      9.2889     25.5765     98.5905
  2015.2000      8.0180      2.4871      0.0283      9.8725     25.5252    100.1679
  2015.3000      8.0169      2.4921     -0.0525      9.5686     25.1302     98.9745
  2015.4000      8.0169      2.5215      0.0341      7.7896     24.3799     96.9050
  2015.5000      8.0158      2.5457      0.0716      6.3185     23.6952     96.4925
  2015.6000      8.0158      2.5491      0.0895      6.1164     23.2047     95.3837
  2015.7000      8.0158      2.5484      0.0622      6.1570     22.7525     94.9846
  2015.8000      8.0153      2.5565      0.1099      5.6677     22.5176     97.7373
  2015.9000      8.0153      2.5669      0.1022      5.0349     22.5192    100.7701
  2016.0000      8.0145      2.5757      0.0815      4.5020     22.4691    100.4365
  2016.1000      8.0145      2.5873      0.0598      3.7999     22.4555     97.3996
  2016.2000      8.0145      2.6023      0.0719      2.8937     22.6700     93.6088
  2016.3000      8.0124      2.6151      0.1438      2.1132     23.0612     88.1609
  2016.4000      8.0124      2.6259      0.0586      1.4596     23.6230     80.0167
  2016.5000      8.0056      2.6443      0.0534      0.3482     24.0357     71.8262
  2016.6000      8.0056      2.6678      0.1386     -1.0792     23.8660     67.4755
  2016.7000      8.0056      2.6839      0.0871     -2.0532     23.5083     69.0615
  2016.8000      7.9966      2.6932      0.0356     -2.6164     23.3848     75.4779
  2016.9000      7.9966      2.6968      0.0646     -2.8344     23.1526     80.9637
  2017.0000      7.9911      2.6889      0.0864     -2.3556     22.6042     81.1911
  2017.1000      7.9911      2.6684      0.0965     -1.1153     21.9310     77.9734
  2017.2000      7.9911      2.6414      0.0315      0.5197     21.3527     75.0024
  2017.3000      7.9885      2.6170      0.0568      1.9980     21.0551     76.5783
  2017.4000      7.9885      2.5981      0.0637      3.1428     21.0788     81.6842
  2017.5000      7.9885      2.5870      0.0338      3.8157     21.1812     85.1628
  2017.6000      7.9885      2.5887      0.0389      3.7172     21.3487     86.5632
  2017.7000      7.9885      2.5992      0.0551      3.0798     21.6717     87.4206
  2017.8000      7.9922      2.6063      0.0540      2.6510     22.0372     86.2010
  2017.9000      7.9922      2.6098      0.0093      2.4381     22.4482     81.2516
  2018.0000      7.9997      2.6242      0.0576      1.5654     22.7450     74.4191
  2018.1000      7.9997      2.6448      0.0718      0.3171     22.8916     70.2754
  2018.2000      7.9997      2.6557      0.0058     -0.3436     23.1681     71.9690
  2018.3000      8.0094      2.6627      0.0238     -0.7683     23.4318     76.3605
  2018.4000      8.0094      2.6732      0.0402     -1.4072     23.4661     77.4283
  2018.5000      8.0153      2.6785      0.0644     -1.7289     23.5010     75.2006
  2018.6000      8.0153      2.6741      0.0341     -1.4620     23.6583     73.6504
  2018.7000      8.0153      2.6682      0.0514     -1.1036     23.7358     74.5458
  2018.8000      8.0168      2.6658      0.0125     -0.9573     23.6861     75.2304
  2018.9000      8.0168      2.6705      0.0246     -1.2402     23.6904     72.0615
  2019.0000      8.0165      2.6839      0.0377     -2.0539     23.8082     67.9430
  2019.1000      8.0165      2.6971      0.0290     -2.8538     23.9476     66.5614
  2019.2000      8.0165      2.6972      0.0577     -2.8589     24.1622     66.0858
  2019.3000      8.0159      2.6821      0.0189     -1.9477     24.4244     65.1711
  2019.4000      8.0159      2.6778     -0.0338     -1.6852     24.5601     65.1474
  2019.5000      8.0159      2.7052      0.0443     -3.3474     24.6113     66.1526
  2019.6000      8.0159      2.7368      0.0928     -5.2632     24.7792     67.4038
  2019.7000      8.0159      2.7447      0.0734     -5.7422     25.1266     66.3766
  2019.8000      8.0159      2.7407      0.0366     -5.4996     25.4656     61.7888
  2019.9000      8.0159      2.7293      0.0446     -4.8085     25.5504     58.4435
  2020.0000      8.0156      2.6950      0.0150     -2.7253     25.4078     59.3626
  2020.1000      8.0156      2.6516     -0.0116     -0.0998     25.2247     63.0541
  2020.2000      8.0156      2.6342     -0.0462      0.9597     25.0967     67.0866
  2020.3000      8.0163      2.6438      0.0171      0.3740     24.9336     67.8247
  2020.4000      8.0163      2.6556     -0.0314     -0.3417     24.6886     65.5819
  2020.5000      8.0170      2.6644     -0.0085     -0.8756     24.4140     63.8728
  2020.6000      8.0170      2.6726      0.0301     -1.3673     24.1192     63.0092
  2020.7000      8.0170      2.6709      0.0328     -1.2649     23.5729     63.7186
  2020.8000      8.0178      2.6604      0.0446     -0.6297     22.5984     66.1624
  2020.9000      8.0178      2.6519      0.0174     -0.1134     21.5310     66.7031
  2021.0000      8.0169      2.6436      0.0748      0.3892     21.0877     65.2575
  2021.1000      8.0169      2.6241      0.0696      1.5695     21.4626     64.6845
  2021.2000      8.0169      2.6004     -0.0261      3.0068     22.0461     62.8955
  2021.3000      8.0144      2.5930     -0.0413      3.4563     22.4162     58.6882
  2021.4000      8.0144      2.6033      0.0244      2.8294     22.7868     56.1550
  2021.5000      8.0154      2.6193      0.0092      1.8631     23.1280     57.1876
  2021.6000      8.0154      2.6258      0.0870      1.4651     23.2156     60.4434
  2021.7000      8.0154      2.6124      0.0062      2.2800     23.1291     61.6257
  2021.8000      8.0188      2.5985     -0.0101      3.1191     22.7762     58.6620
  2021.9000      8.0188      2.6059      0.0194      2.6701     22.3684     57.6478
  2022.0000      8.0229      2.6209      0.0670      1.7655     22.3861     63.6136
  2022.1000      8.0229      2.6269     -0.0096      1.4007     22.7556     72.8761
  2022.2000      8.0229      2.6236      0.0420      1.6016     23.2042     79.4433
  2022.3000      8.0254      2.6093      0.0587      2.4693     23.7232     81.6427
  2022.4000      8.0254      2.6003     -0.0309      3.0134     24.4977     82.7309
  2022.5000      8.0225      2.6100      0.0775      2.4272     25.4997     85.6742
  2022.6000      8.0225      2.6160      0.0346      2.0603     26.3023     87.6838
  2022.7000      8.0225      2.6065      0.0145      2.6364     26.6986     85.0847
  2022.8000      8.0186      2.5897      0.0357      3.6546     27.0451     80.8822
  2022.9000      8.0186      2.5659     -0.0199      5.0990     27.7311     82.2494
  2023.0000      8.0186      2.5356     -0.0094      6.9349     28.6983     90.1073
  2023.1000      8.0186      2.5045     -0.0202      8.8200     29.6718     99.4716
  2023.2000      8.0186      2.4745     -0.0232     10.6383     30.4970    105.7534
  2023.3000      8.0206      2.4456     -0.0335     12.3849     30.8552    107.8817
  2023.4000      8.0206      2.4254     -0.0861     13.6122     30.4085    107.8340
  2023.5000      8.0217      2.4295     -0.0742     13.3665     29.3800    108.9373
  2023.6000      8.0217      2.4608     -0.0197     11.4666     28.2975    113.0097
  2023.7000      8.0217      2.4958     -0.0014      9.3425     27.5400    117.3028
  2023.8000      8.0255      2.5051      0.0646      8.7816     27.0809    119.1820
  2023.9000      8.0255      2.4878     -0.0038      9.8274     26.6833    120.8279
