~Version Information
 VERS.                                  2.0 : CWLS LAS VERSION
 WRAP.                                   NO : WRAPING MODE
 SWARE .                 MController 2.5.0H : SOFTWARE VERSION
~Well Information
 WELL.                        TAMI J. 23-18 : WELL
 COMP.            PIONEER NATURAL RESOURCES : COMPANY
 FLD.                      PURGATOIRE RIVER : FIELD
 LOC.                 NE/SW Sec18 T33S R65W : LOCATION
 DATE.                             12/12/04 : DATE(S) LOGGED
 SRVC.        BLANCO GEOLOGICAL SEVICES LLC : SERVICE COMPANY
 STAT.                                   CO : STATE
 CNTY.                           LAS ANIMAS : COUNTY
 CTRY.                                  USA : COUNTRY
 API.                          05-071-08073 : API NUMBER
 STRT.FT                             263.00 : START DEPTH
 STOP.FT                            1765.00 : STOP DEPTH
 STEP.FT                               1.00 : DEPTH INCREMENT
 NULL.                                -9999 : NULL VALUE
~Curve information
 DEPTH.FT                                   :
 ROP.MIN/FT                                 :
 GAS.UNITS                                  :
~ASCII Log data
# ...
     1663.00        0.333        144.7 
     1664.00        0.333        142.0 
     1665.00        0.367        140.7 
     1666.00        0.433        140.0 
     1667.00        0.367        138.3 
     1668.00        0.350        136.3 
     1669.00        0.367        135.9 
     1670.00        0.300        138.0 
     1671.00        0.300        143.3 
     1672.00        0.233        150.9 
     1673.00        0.333        156.8 
     1674.00        0.233        158.4 
     1675.00        0.267        154.9 
     1676.00        2.750        231.3 
     1677.00        0.400        314.8 
     1678.00        0.333        348.8 
     1679.00        0.333        362.4 
     1680.00        0.267        359.9 
     1681.00        0.200        343.4 
     1682.00        0.200        340.6 
     1683.00        0.217        314.4 
     1684.00        0.233        280.5 
     1685.00        0.300        278.2 
     1686.00        0.367        278.2 
     1687.00        0.333        279.8 
     1688.00        0.300        271.3 
     1689.00        0.300        267.6 
     1690.00        0.300        246.6 
     1691.00        0.267        223.2 
     1692.00        0.267        181.2 
     1693.00        0.300        178.9 
     1694.00        0.267        161.0 
     1695.00        0.350        143.1 
     1696.00        0.267        128.3 
     1697.00        0.267        118.6 
     1698.00        0.267        111.6 
     1699.00        0.300        108.1 
     1700.00        0.300        108.1 
     1701.00        0.300        105.4 
     1702.00        0.300        105.0 
     1703.00        0.367         97.5 
     1704.00        0.300         93.9 
     1705.00        0.300         92.5 
     1706.00        3.500        996.3 
     1707.00        0.700       1035.6 
     1708.00        0.500        913.5 
     1709.00        0.400        699.8 
     1710.00        0.467        564.5 
     1711.00        0.467        471.8 
     1712.00        0.467        297.8 
     1713.00        0.483        256.7 
     1714.00        0.500        239.0 
     1715.00        0.467        217.0 
     1716.00        0.433        186.7 
     1717.00        0.367        177.0 
     1718.00        0.367        161.9 
     1719.00        0.333        160.6 
     1720.00        0.367        154.8 
     1721.00        0.350        148.7 
     1722.00        0.300        146.9 
     1723.00        0.333        144.9 
     1724.00        0.333        144.7 
     1725.00        0.333        145.2 
     1726.00        0.267        145.1 
     1727.00        0.267        147.0 
     1728.00        0.333        152.3 
     1729.00        0.267        152.1 
     1730.00        0.267        151.2 
     1731.00        0.233        151.2 
     1732.00        0.350        149.5 
     1733.00        0.300        139.8 
     1734.00        0.267        139.1 
     1735.00        0.200        134.0 
     1736.00        2.783        291.4 
     1737.00        0.500        339.7 
     1738.00        0.367        352.5 
     1739.00        0.467        352.9 
     1740.00        0.233        316.1 
     1741.00        0.300        292.0 
     1742.00        0.333        268.1 
     1743.00        0.300        256.5 
     1744.00        0.400        253.8 
     1745.00        0.350        259.2 
     1746.00        0.267        263.3 
     1747.00        0.267        259.5 
     1748.00        0.267        258.7 
     1749.00        0.300        233.5 
     1750.00        0.267        209.6 
     1751.00        0.300        187.3 
     1752.00        0.267        165.3 
     1753.00        0.267        132.1 
     1754.00        0.300        130.1 
     1755.00        0.233        116.8 
     1756.00        0.267        106.0 
     1757.00        0.283        105.1 
     1758.00        0.267        106.3 
     1759.00        0.267        108.3 
     1760.00        0.233        111.3 
     1761.00        0.233        112.1 
     1762.00        0.233      -9999.0 
     1763.00        0.267      -9999.0 
     1764.00        0.267      -9999.0 
     1765.00        0.267      -9999.0 
