~Version Information
 VERS.                      2.0: CWLS Log ASCII Standard - VERSION 2.0
 WRAP.                       NO: One line per depth step
 ~Well Information Block
 STRT.FT               115.0000: 
 STOP.FT              1768.2500: 
 STEP.FT                 0.2500: 
 NULL.                -999.2500: 
 COMP.          Petrogulf Corporation: COMPANY
 WELL.           Parsons 23-15V: WELL
 FLD.           Purgatorie River: FIELD
 LOC.           2095' FSL & 1817' FWL--API 05 071 07556 00----: LOCATION
 CNTY.               Las Animas: COUNTY
 SRVC.                         : SERVICE COMPANY
 DATE.          Fri Apr 19 16:58:41 2002: LOG DATE
 UWI.                          : UNIQUE WELL ID
 STAT.                       CO: STATE
 PROV.                         :Province
 ~Curve Information Block
 DEPT.FT            0 000 00 00: Depth
 SP.mV                         : DIL Spontaneous Potential
 RILD.Ohm-m                    : DIL Deep Resistivity
 RILM.Ohm-m                    : DIL Medium Resistivity
 RLL3.Ohm-m                    : DIL Shallow Resistivity
 GR.GAPI                       : Gamma Ray
 ~Parameter Information Block
 ~A  Depth        SP         RILD        RILM        RLL3         GR     
# ...
   787.0000   -230.1263      9.5733      9.7250     11.4771    158.1548
   787.2500   -229.8743      9.5090      9.6189     11.6398    155.7841
   787.5000   -229.6519      9.5043      9.5456     11.7804    157.2570
   787.7500   -229.4720      9.5671      9.5165     11.8453    161.3457
   788.0000   -229.3424      9.7017      9.5431     11.8043    165.1549
   788.2500   -229.2728      9.9089      9.6383     11.6905    166.7882
   788.5000   -229.2733     10.1856      9.8168     11.6002    166.6646
   788.7500   -229.3469     10.5243     10.0951     11.6713    166.4062
   789.0000   -229.4814     10.9139     10.4908     12.0650    166.7103
   789.2500   -229.6520     11.3420     11.0191     12.9486    166.3471
   789.5000   -229.8328     11.7980     11.6898     14.4496    162.9932
   789.7500   -230.0061     12.2769     12.5025     16.5841    154.9225
   790.0000   -230.1628     12.7813     13.4448     19.2226    142.2796
   790.2500   -230.3002     13.3219     14.4929     22.1611    127.2790
   790.5000   -230.4169     13.9149     15.6163     25.2206    113.1741
   790.7500   -230.5122     14.5765     16.7857     28.1826    102.6191
   791.0000   -230.5865     15.3158     17.9818     30.6108     96.6115
   791.2500   -230.6439     16.1285     19.2020     31.9396     94.5564
   791.5000   -230.6915     16.9914     20.4617     31.9883     94.9335
   791.7500   -230.7387     17.8616     21.7863     31.3931     95.9328
   792.0000   -230.7939     18.6801     23.1903     31.3258     95.9485
   792.2500   -230.8610     19.3803     24.6477     32.6559     94.0117
   792.5000   -230.9371     19.9029     26.0624     35.4144     90.1419
   792.7500   -231.0150     20.2137     27.2585     39.0149     85.4271
   793.0000   -231.0877     20.3170     28.0124     42.7427     81.4881
   793.2500   -231.1481     20.2552     28.1350     45.8661     79.5506
   793.5000   -231.1846     20.0913     27.5693     47.4695     80.2294
   793.7500   -231.1814     19.8857     26.4355     46.5833     84.2522
   794.0000   -231.1266     19.6780     24.9825     42.7621     92.5486
   794.2500   -231.0195     19.4798     23.4841     36.5967    104.9039
   794.5000   -230.8696     19.2760     22.1534     29.5887    118.8858
   794.7500   -230.6895     19.0303     21.1118     23.4256    130.7779
   795.0000   -230.4882     18.6958     20.3954     19.2742    137.7495
   795.2500   -230.2693     18.2315     19.9708     17.6099    139.2481
   795.5000   -230.0306     17.6205     19.7433     18.4279    136.6720
   795.7500   -229.7681     16.8813     19.5647     21.3207    132.0480
   796.0000   -229.4835     16.0641     19.2593     25.3150    127.0877
   796.2500   -229.1913     15.2334     18.6805     28.8996    123.1786
   796.5000   -228.9130     14.4461     17.7794     30.5589    121.7008
   796.7500   -228.6666     13.7380     16.6287     29.5187    123.9715
   797.0000   -228.4638     13.1222     15.3765     26.1280    130.7351
   797.2500   -228.3162     12.5952     14.1687     21.6004    141.6295
   797.5000   -228.2385     12.1452     13.0991     17.3132    155.0390
   797.7500   -228.2409     11.7585     12.2029     14.1466    168.3624
   798.0000   -228.3169     11.4219     11.4743     12.2626    178.6524
   798.2500   -228.4431     11.1250     10.8884     11.3409    183.7083
   798.5000   -228.5903     10.8617     10.4170     10.9627    183.3468
   798.7500   -228.7364     10.6327     10.0379     10.8390    179.8647
   799.0000   -228.8692     10.4453      9.7383     10.8265    176.7939
   799.2500   -228.9843     10.3102      9.5151     10.8503    176.5219
   799.5000   -229.0820     10.2368      9.3736     10.8572    178.6732
   799.7500   -229.1647     10.2286      9.3253     10.8357    180.5148
   800.0000   -229.2361     10.2820      9.3855     10.8715    178.7966
   800.2500   -229.3015     10.3883      9.5678     11.1924    171.5289
   800.5000   -229.3687     10.5383      9.8780     12.1431    158.8158
   800.7500   -229.4424     10.7264     10.3078     14.0088    142.7749
   801.0000   -229.5188     10.9523     10.8300     16.6977    126.6862
   801.2500   -229.5847     11.2207     11.3997     19.5420    113.5540
   801.5000   -229.6270     11.5405     11.9643     21.5479    104.8754
   801.7500   -229.6460     11.9237     12.4820     22.0307    100.6283
   802.0000   -229.6587     12.3844     12.9392     21.0743    100.1687
   802.2500   -229.6855     12.9356     13.3579     19.3808    102.6974
   802.5000   -229.7322     13.5838     13.7874     17.7354    107.0169
   802.7500   -229.7848     14.3223     14.2898     16.6319    111.5723
   803.0000   -229.8198     15.1265     14.9267     16.2840    114.9812
   803.2500   -229.8192     15.9531     15.7496     16.8333    116.2166
   803.5000   -229.7743     16.7483     16.7936     18.4906    114.5090
   803.7500   -229.6833     17.4609     18.0705     21.5226    109.7704
   804.0000   -229.5487     18.0556     19.5621     26.1503    103.1733
   804.2500   -229.3793     18.5180     21.2163     32.4240     96.8302
   804.5000   -229.1927     18.8492     22.9463     40.0364     92.7199
   804.7500   -229.0122     19.0557     24.6309     48.1042     91.8887
   805.0000   -228.8599     19.1406     26.1134     55.1837     94.2315
   805.2500   -228.7510     19.1014     27.2083     59.7430     98.6405
   805.5000   -228.6929     18.9319     27.7267     60.8498    103.5674
   805.7500   -228.6846     18.6257     27.5281     58.5388    107.9299
   806.0000   -228.7202     18.1797     26.5789     53.6034    111.6765
   806.2500   -228.7935     17.5992     24.9825     47.0610    115.4654
   806.5000   -228.8998     16.9024     22.9555     39.7497    119.8633
   806.7500   -229.0323     16.1216     20.7574     32.3175    125.1068
   807.0000   -229.1787     15.2973     18.6139     25.4173    131.7505
   807.2500   -229.3253     14.4686     16.6725     19.7092    140.9001
   807.5000   -229.4631     13.6664     14.9997     15.5953    152.9341
   807.7500   -229.5883     12.9116     13.6036     13.0185    166.1579
   808.0000   -229.6977     12.2182     12.4602     11.5754    177.3875
   808.2500   -229.7871     11.5965     11.5343     10.8024    183.8282
   808.5000   -229.8528     11.0538     10.7902     10.3716    184.3643
   808.7500   -229.8933     10.5956     10.1979     10.1184    179.9169
   809.0000   -229.9099     10.2247      9.7337      9.9812    173.2050
   809.2500   -229.9059      9.9409      9.3802      9.9376    167.6130
   809.5000   -229.8832      9.7409      9.1252      9.9592    165.4042
   809.7500   -229.8409      9.6182      8.9611     10.0018    166.6842
   810.0000   -229.7778      9.5637      8.8841     10.0336    169.8183
   810.2500   -229.6995      9.5668      8.8945     10.0731    172.4119
   810.5000   -229.6205      9.6151      8.9951     10.1985    171.8769
   810.7500   -229.5601      9.6957      9.1891     10.5491    165.8883
   811.0000   -229.5319      9.7960      9.4750     11.3480    153.4584
   811.2500   -229.5348      9.9052      9.8394     12.8961    136.0556
   811.5000   -229.5512     10.0180     10.2510     15.4080    117.4332
   811.7500   -229.5544     10.1364     10.6586     18.6702    102.0551
   812.0000   -229.5205     10.2701     11.0014     21.8013     93.2665
   812.2500   -229.4373     10.4335     11.2311     23.5349     92.2178
   812.5000   -229.3043     10.6418     11.3359     23.0255     97.9031
   812.7500   -229.1279     10.9057     11.3496     20.5066    108.1040
   813.0000   -228.9147     11.2274     11.3378     17.1320    120.3057
   813.2500   -228.6704     11.5981     11.3725     14.1661    131.8738
   813.5000   -228.4047     11.9982     11.5124     12.3222    140.0613
   813.7500   -228.1338     12.4014     11.7932     11.7158    142.7492
   814.0000   -227.8770     12.7818     12.2267     12.1982    139.5201
   814.2500   -227.6492     13.1213     12.8030     13.6308    131.8978
   814.5000   -227.4549     13.4131     13.4930     15.9289    122.5015
   814.7500   -227.2932     13.6638     14.2543     18.9508    113.9163
