~Version Information
VERS.                      2.0: CWLS Log ASCII Standard - VERSION 2.0
WRAP.                       NO: One line per depth step
~Well Information Block
STRT.FT               245.0000: 
STOP.FT              1919.7000: 
STEP.FT                 0.1000: 
NULL.                -999.2500: 
COMP.          Pioneer Natural Resources: COMPANY
WELL.          Oink Oink 14-36 Tr: WELL
FLD.           Purgatoire River: FIELD
LOC.           236' FSL & 164' FWL--: LOCATION
PROV.                 Colorado: PROVINCE
CNTY.               Las Animas: COUNTRY
SRVC.                Patterson: SERVICE COMPANY
DATE.          Fri Jun 10 08:23:18 2005: LOG DATE
UWI.           05 071 08393 00: UNIQUE WELL ID
~Curve Information Block
DEPT.FT            0 000 00 00: Depth
DCAL.in                       : CDL Caliper
RHOB.g/cc                     : CDL Bulk Density
RHOC.g/cc                     : CDL Density Correction
DPOR.pu                       : CDL Density Porosity
NPOR.pu                       : Neutron Porosity
GR.GAPI                       : Gamma Ray
~Parameter Information Block
~A  Depth       DCAL        RHOB        RHOC        DPOR        NPOR         GR     
# ...
   465.8000      7.9823      2.5195      0.0446      7.9108     27.5905    141.3423
   465.9000      7.9823      2.5140      0.0120      8.2399     27.4554    133.5445
   466.0000      7.9785      2.5010      0.0417      9.0282     27.3715    131.7747
   466.1000      7.9785      2.4800      0.0113     10.3016     27.2082    134.4489
   466.2000      7.9785      2.4779     -0.0352     10.4278     27.0318    135.5916
   466.3000      7.9701      2.5085      0.0200      8.5752     27.3442    135.9646
   466.4000      7.9701      2.5474      0.0817      6.2170     28.2372    137.2586
   466.5000      7.9628      2.5733      0.0665      4.6478     28.8401    135.6337
   466.6000      7.9628      2.5890      0.1086      3.6973     29.0602    129.6543
   466.7000      7.9628      2.5971      0.1045      3.2055     29.4965    125.0595
   466.8000      7.9595      2.5962      0.1015      3.2618     29.8166    123.5339
   466.9000      7.9595      2.5909      0.0721      3.5814     29.7639    121.9872
   467.0000      7.9588      2.5911      0.0829      3.5712     29.6665    121.2866
   467.1000      7.9588      2.5997      0.0714      3.0494     29.6042    123.4801
   467.2000      7.9588      2.6040      0.0782      2.7865     29.4498    126.9258
   467.3000      7.9595      2.5872      0.0618      3.8051     28.9971    126.5075
   467.4000      7.9595      2.5635     -0.0111      5.2401     28.2407    121.5967
   467.5000      7.9592      2.5637      0.0370      5.2318     27.5783    119.3016
   467.6000      7.9592      2.5746      0.0981      4.5704     26.9996    124.2605
   467.7000      7.9592      2.5619      0.0509      5.3376     26.2311    134.0668
   467.8000      7.9603      2.5288      0.0194      7.3461     25.6171    141.3028
   467.9000      7.9603      2.4973      0.0328      9.2534     25.3548    140.9642
   468.0000      7.9642      2.4763      0.0315     10.5244     25.1523    135.8198
   468.1000      7.9642      2.4683      0.0505     11.0095     25.0850    132.3299
   468.2000      7.9642      2.4737      0.0276     10.6877     25.4532    134.6539
   468.3000      7.9687      2.4810      0.0638     10.2432     26.0391    137.9325
   468.4000      7.9687      2.4820      0.0041     10.1840     26.2380    135.5058
   468.5000      7.9720      2.4820      0.0253     10.1812     25.8867    133.4722
   468.6000      7.9720      2.4805      0.0550     10.2709     25.6731    137.4916
   468.7000      7.9720      2.4765      0.0394     10.5182     25.9413    140.7246
   468.8000      7.9698      2.4718      0.0707     10.8030     26.0967    137.6880
   468.9000      7.9698      2.4577      0.1105     11.6547     25.6627    132.9989
   469.0000      7.9619      2.4365      0.0551     12.9402     25.0585    132.1929
   469.1000      7.9619      2.4290      0.0718     13.3968     24.8750    133.0739
   469.2000      7.9619      2.4401      0.1119     12.7192     24.9753    131.7221
   469.3000      7.9565      2.4556      0.1196     11.7818     24.9695    128.6066
   469.4000      7.9565      2.4654      0.1252     11.1864     24.8736    126.0532
   469.5000      7.9565      2.4718      0.0823     10.7977     24.8877    124.9720
   469.6000      7.9565      2.4839      0.0989     10.0678     25.0936    125.9740
   469.7000      7.9565      2.5019      0.1377      8.9783     25.2915    126.8774
   469.8000      7.9588      2.5148      0.1682      8.1925     25.3402    127.1491
   469.9000      7.9588      2.5202      0.1340      7.8672     25.4062    129.5930
   470.0000      7.9595      2.5315      0.0998      7.1812     25.4770    131.6985
   470.1000      7.9595      2.5557      0.1375      5.7182     25.3755    129.4270
   470.2000      7.9595      2.5798      0.1547      4.2540     25.2897    125.1237
   470.3000      7.9589      2.5929      0.1472      3.4625     25.2792    123.7837
   470.4000      7.9589      2.5971      0.1354      3.2044     25.0169    127.4867
   470.5000      7.9592      2.5997      0.0977      3.0456     24.6116    134.4010
   470.6000      7.9592      2.6033      0.1018      2.8328     24.6519    140.5430
   470.7000      7.9592      2.6011      0.1325      2.9637     25.3791    139.9477
   470.8000      7.9611      2.5941      0.0852      3.3869     26.2330    132.0610
   470.9000      7.9611      2.5961      0.0774      3.2655     26.3886    124.2081
   471.0000      7.9634      2.6044      0.0923      2.7633     25.9661    120.3152
   471.1000      7.9634      2.6024      0.0583      2.8834     25.8798    118.4475
   471.2000      7.9634      2.5872      0.0627      3.8044     26.5260    115.8526
   471.3000      7.9648      2.5718      0.0305      4.7374     27.2928    112.5986
   471.4000      7.9648      2.5693      0.0302      4.8882     27.6757    110.2971
   471.5000      7.9653      2.5783      0.0270      4.3478     27.8164    108.8801
   471.6000      7.9653      2.5862      0.0569      3.8682     27.9293    106.3904
   471.7000      7.9653      2.5832      0.0499      4.0467     28.3044    102.4288
   471.8000      7.9655      2.5703      0.0311      4.8298     28.8232    101.2995
   471.9000      7.9655      2.5521      0.0334      5.9316     28.8151    105.2066
   472.0000      7.9654      2.5332      0.0442      7.0767     28.2542    111.1144
   472.1000      7.9654      2.5251      0.0303      7.5720     27.7131    115.6659
   472.2000      7.9654      2.5371      0.0000      6.8417     27.3505    116.3529
   472.3000      7.9638      2.5583      0.0171      5.5584     27.0762    113.5359
   472.4000      7.9638      2.5641      0.0488      5.2059     26.9635    111.8812
   472.5000      7.9636      2.5469      0.0513      6.2483     27.0741    114.4078
   472.6000      7.9636      2.5247      0.0330      7.5940     27.2343    118.2179
   472.7000      7.9636      2.5148      0.0303      8.1918     27.2768    117.9699
   472.8000      7.9663      2.5160      0.0169      8.1220     27.3891    113.8241
   472.9000      7.9663      2.5277     -0.0065      7.4106     27.5131    111.6516
   473.0000      7.9714      2.5534      0.0417      5.8517     27.1439    112.9772
   473.1000      7.9714      2.5800      0.1070      4.2408     26.4979    114.4194
   473.2000      7.9714      2.5926      0.0873      3.4788     26.3678    115.7888
   473.3000      7.9767      2.5934      0.0601      3.4327     26.6315    118.6003
   473.4000      7.9767      2.5884      0.0500      3.7321     26.7184    120.8313
   473.5000      7.9745      2.5781      0.0478      4.3552     26.5369    122.4025
   473.6000      7.9745      2.5621      0.0420      5.3299     26.4573    125.5575
   473.7000      7.9745      2.5462      0.0296      6.2884     26.6381    127.8907
   473.8000      7.9660      2.5403      0.0169      6.6456     26.5362    124.9851
   473.9000      7.9660      2.5466      0.0329      6.2640     26.0070    116.7573
   474.0000      7.9606      2.5549      0.0587      5.7618     25.6603    107.8140
   474.1000      7.9606      2.5540      0.0458      5.8170     25.5822    104.5162
   474.2000      7.9606      2.5487      0.0384      6.1400     25.3275    109.1393
   474.3000      7.9584      2.5555      0.0473      5.7301     25.0274    116.4134
   474.4000      7.9584      2.5730      0.0781      4.6677     25.2671    120.9724
   474.5000      7.9566      2.5774      0.1006      4.3988     26.0645    125.3175
   474.6000      7.9566      2.5631      0.0439      5.2687     26.8775    132.2252
   474.7000      7.9566      2.5493      0.0396      6.1031     27.2801    136.2692
   474.8000      7.9571      2.5434      0.0596      6.4617     27.2635    131.6131
   474.9000      7.9571      2.5366      0.0459      6.8721     27.0685    119.9247
   475.0000      7.9588      2.5292      0.0214      7.3205     27.0087    109.1853
   475.1000      7.9588      2.5287      0.0401      7.3519     27.1519    105.9835
   475.2000      7.9588      2.5304      0.0643      7.2490     27.3049    111.6212
   475.3000      7.9599      2.5296      0.0120      7.2950     27.1884    119.4270
