~Version Information
VERS.                      2.0: CWLS Log ASCII Standard - VERSION 2.0
WRAP.                       NO: One line per depth step
~Well Information Block
STRT.FT               675.0000: 
STOP.FT              2371.5000: 
STEP.FT                 0.1000: 
NULL.                -999.2500: 
COMP.          Pioneer Natural Resources: COMPANY
WELL.            Harrier 44-33: WELL
FLD.           Purgatoire River: FIELD
LOC.           456' FSL & 930' FEL: LOCATION
PROV.                 Colorado: PROVINCE
CNTY.               Las Animas: COUNTRY
SRVC.                Patterson: SERVICE COMPANY
DATE.          Mon Jun 20 10:36:59 2005: LOG DATE
UWI.           05 071 08398 00: UNIQUE WELL ID
~Curve Information Block
DEPT.FT            0 000 00 00: Depth
DCAL.in                       : CDL Caliper
RHOB.g/cc                     : CDL Bulk Density
RHOC.g/cc                     : CDL Density Correction
DPOR.pu                       : CDL Density Porosity
GR.GAPI                       : Gamma Ray
NPOR.pu                       : Neutron Porosity
~Parameter Information Block
~A  Depth       DCAL        RHOB        RHOC        DPOR         GR         NPOR    
# ...
  1683.0000      7.8924      2.6054      0.0628      2.7004     68.5885      9.9907
  1683.1000      7.8924      2.5926      0.1412      3.4778     67.9405      9.4677
  1683.2000      7.8924      2.5706      0.0575      4.8143     72.0338      9.6914
  1683.3000      7.9024      2.5591      0.0808      5.5108     76.7751     10.5905
  1683.4000      7.9024      2.5676      0.0705      4.9918     78.3360     11.3510
  1683.5000      7.9101      2.5877      0.0863      3.7784     78.9706     11.5111
  1683.6000      7.9101      2.6023      0.0940      2.8890     79.6175     11.6345
  1683.7000      7.9101      2.6000      0.0936      3.0289     79.0373     12.1543
  1683.8000      7.9401      2.5912      0.0892      3.5616     78.6221     12.6831
  1683.9000      7.9401      2.5940      0.0681      3.3952     80.4206     12.7152
  1684.0000      7.9662      2.6073      0.0963      2.5867     84.2415     12.3721
  1684.1000      7.9662      2.6183      0.0802      1.9214     86.9099     12.1096
  1684.2000      7.9662      2.6218      0.0438      1.7072     85.2973     12.5165
  1684.3000      7.9982      2.6191      0.0695      1.8738     83.8529     13.5936
  1684.4000      7.9982      2.6122      0.0604      2.2930     86.6925     14.6757
  1684.5000      7.9912      2.6037      0.0664      2.8052     91.4235     15.6868
  1684.6000      7.9912      2.5998      0.0612      3.0417     96.0168     17.1128
  1684.7000      7.9912      2.6009      0.0535      2.9772     97.3658     18.8772
  1684.8000      7.9627      2.5942      0.0450      3.3838     94.4617     20.0051
  1684.9000      7.9627      2.5740      0.0246      4.6082     90.7639     19.8736
  1685.0000      7.9495      2.5480      0.0229      6.1812     88.9830     19.0169
  1685.1000      7.9495      2.5275     -0.0108      7.4250     88.4399     18.7508
  1685.2000      7.9495      2.5184      0.0375      7.9744     86.5879     19.6183
  1685.3000      7.9466      2.5161      0.0071      8.1123     85.1627     20.7673
  1685.4000      7.9466      2.5183      0.0324      7.9811     87.6578     21.4181
  1685.5000      7.9476      2.5224      0.0218      7.7337     93.4544     21.5393
  1685.6000      7.9476      2.5116      0.0771      8.3883     99.1935     21.2174
  1685.7000      7.9476      2.4763      0.0395     10.5262    100.5484     20.3930
  1685.8000      7.9687      2.4447     -0.0297     12.4439     97.0406     19.5216
  1685.9000      7.9687      2.4509     -0.0132     12.0697     95.2433     19.2864
  1686.0000      7.9597      2.4842      0.0819     10.0463     98.1899     19.7733
  1686.1000      7.9597      2.5089      0.0818      8.5502    101.5684     20.2903
  1686.2000      7.9597      2.5119      0.0432      8.3671    102.8415     20.1681
  1686.3000      7.9639      2.4982      0.1061      9.1987    103.3565     19.4472
  1686.4000      7.9639      2.4706      0.0682     10.8757    102.7625     18.3818
  1686.5000      7.9716      2.4442      0.0377     12.4756     98.3853     17.6147
  1686.6000      7.9716      2.4427     -0.0000     12.5658     91.4690     17.4395
  1686.7000      7.9716      2.4621      0.0637     11.3896     86.7912     17.4024
  1686.8000      7.9640      2.4794      0.0341     10.3414     84.6812     17.4636
  1686.9000      7.9640      2.4893      0.0497      9.7368     80.4335     17.6827
  1687.0000      7.9736      2.4954      0.0566      9.3673     73.0609     18.0861
  1687.1000      7.9736      2.4930      0.1108      9.5144     67.8469     18.7808
  1687.2000      7.9736      2.4784      0.0368     10.4006     68.9116     19.1367
  1687.3000      7.9695      2.4587      0.0720     11.5950     75.2217     18.8300
  1687.4000      7.9695      2.4477     -0.0155     12.2621     82.1334     18.4261
  1687.5000      7.9646      2.4554      0.0788     11.7948     84.7332     17.8647
  1687.6000      7.9646      2.4731      0.0607     10.7188     81.4240     17.1505
  1687.7000      7.9646      2.4843      0.1042     10.0421     75.0017     16.8070
  1687.8000      7.9604      2.4835      0.0555     10.0905     68.9841     16.7129
  1687.9000      7.9604      2.4850      0.0565     10.0007     66.7336     16.5274
  1688.0000      7.9612      2.4984      0.0818      9.1859     70.2530     16.2977
  1688.1000      7.9612      2.5092      0.1208      8.5314     76.1080     15.8563
  1688.2000      7.9612      2.5084      0.0368      8.5809     80.0387     15.2336
  1688.3000      7.9656      2.5132      0.0544      8.2894     82.7693     14.9585
  1688.4000      7.9656      2.5338      0.0563      7.0395     85.3319     15.3384
  1688.5000      7.9744      2.5545      0.0826      5.7884     86.6196     16.1702
  1688.6000      7.9744      2.5579      0.0492      5.5809     87.1263     17.2561
  1688.7000      7.9744      2.5487      0.0801      6.1412     86.7428     18.5137
  1688.8000      7.9627      2.5410      0.1108      6.6065     86.3888     19.3161
  1688.9000      7.9627      2.5344      0.0592      7.0033     87.4974     19.2307
  1689.0000      7.9637      2.5271      0.0195      7.4514     88.3701     19.2626
  1689.1000      7.9637      2.5249      0.0444      7.5836     88.7452     20.4451
  1689.2000      7.9637      2.5295      0.0170      7.3038     89.4267     22.6156
  1689.3000      7.9614      2.5340      0.0325      7.0306     89.4579     24.5537
  1689.4000      7.9614      2.5375      0.0280      6.8192     89.8540     25.1564
  1689.5000      7.9607      2.5551     -0.0238      5.7542     93.3410     24.5284
  1689.6000      7.9607      2.5829      0.0898      4.0637    100.3006     23.5020
  1689.7000      7.9607      2.5951      0.0555      3.3299    110.1199     22.8119
  1689.8000      7.9603      2.5956      0.0573      3.2972    122.3059     22.9628
  1689.9000      7.9603      2.6029      0.1186      2.8535    133.8772     23.7026
  1690.0000      7.9688      2.6143      0.0880      2.1664    139.2959     23.9857
  1690.1000      7.9688      2.6147      0.1385      2.1377    139.2241     23.8464
  1690.2000      7.9688      2.5925      0.0655      3.4830    140.5011     24.0007
  1690.3000      7.9556      2.5578      0.0363      5.5889    144.6813     24.1847
  1690.4000      7.9556      2.5315      0.0407      7.1812    149.8453     23.9444
  1690.5000      7.9575      2.5147      0.0794      8.1988    152.1116     23.3324
  1690.6000      7.9575      2.4882      0.0557      9.8075    148.7012     22.6977
  1690.7000      7.9575      2.4542     -0.0227     11.8660    142.5859     22.1606
  1690.8000      7.9685      2.4389      0.0137     12.7945    133.6338     21.3108
  1690.9000      7.9685      2.4424      0.0235     12.5811    119.8784     20.0437
  1691.0000      7.9633      2.4404      0.0499     12.7036    105.1258     18.7991
  1691.1000      7.9633      2.4263      0.0267     13.5549     94.2561     18.1956
  1691.2000      7.9633      2.4206     -0.0320     13.9010     88.1665     18.2326
  1691.3000      7.9682      2.4337      0.0301     13.1064     82.8365     18.2666
  1691.4000      7.9682      2.4524      0.0435     11.9733     75.7822     18.0653
  1691.5000      7.9706      2.4667      0.0353     11.1097     70.3133     18.2114
  1691.6000      7.9706      2.4733      0.0890     10.7069     67.8121     18.7341
  1691.7000      7.9706      2.4682      0.0820     11.0170     66.8766     18.4790
  1691.8000      7.9728      2.4550      0.0319     11.8194     68.0242     17.3855
  1691.9000      7.9728      2.4439      0.0553     12.4896     70.3699     16.7328
  1692.0000      7.9738      2.4449      0.0375     12.4327     72.0063     16.9886
  1692.1000      7.9738      2.4599      0.0529     11.5205     73.9049     17.5344
  1692.2000      7.9738      2.4749      0.1067     10.6120     74.4799     17.4156
  1692.3000      7.9725      2.4703      0.0924     10.8900     70.8182     16.7161
  1692.4000      7.9725      2.4396      0.0859     12.7528     66.0638     16.7728
  1692.5000      7.9723      2.4009     -0.0000     15.0968     63.7766     17.8103
