~Version Information
VERS.                      2.0: CWLS Log ASCII Standard - VERSION 2.0
WRAP.                       NO: One line per depth step
~Well Information Block
STRT.FT               275.0000: 
STOP.FT              1682.2500: 
STEP.FT                 0.2500: 
NULL.                -999.2500: 
COMP.          Pioneer Natural Resources: COMPANY
WELL.               Elmo 14-21: WELL
FLD.           Purgatoire River: FIELD
LOC.           623' FSL & 450' FWL----: LOCATION
PROV.                 Colorado: PROVINCE
CNTY.               Las Animas: COUNTRY
SRVC.                Patterson: SERVICE COMPANY
DATE.          Tue May 17 16:07:31 2005: LOG DATE
UWI.           05 071 08360 00: UNIQUE WELL ID
~Curve Information Block
DEPT.FT            0 000 00 00: Depth
SN.Ohm-m                      : IEL Short Normal
SP.mV                         : IEL Spontaneous Potential
DIR.Ohm-m                     : IEL Induction Resistivity
GR.GAPI                       : Gamma Ray
~Parameter Information Block
~A  Depth        SN          SP         DIR          GR     
# ...
  1481.0000     28.3724      6.5716     25.7584     55.7371
  1481.2500     28.8055      6.0087     26.5567     56.4984
  1481.5000     29.1256      5.4783     27.2443     58.7282
  1481.7500     29.3836      4.9740     27.8334     60.3547
  1482.0000     29.5883      4.4866     28.3292     61.8385
  1482.2500     29.7276      4.0074     28.7233     61.8924
  1482.5000     29.8069      3.5312     29.0086     60.9213
  1482.7500     29.8736      3.0591     29.1926     59.9317
  1483.0000     30.0115      2.5985     29.2952     58.3226
  1483.2500     30.3042      2.1626     29.3354     57.3150
  1483.5000     30.7862      1.7671     29.3255     56.0770
  1483.7500     31.4118      1.4268     29.2778     55.4276
  1484.0000     32.0679      1.1518     29.2150     54.7068
  1484.2500     32.6188      0.9458     29.1681     54.5460
  1484.5000     32.9462      0.8071     29.1535     55.0558
  1484.7500     32.9628      0.7321     29.1418     55.7791
  1485.0000     32.6045      0.7201     29.0419     56.7918
  1485.2500     31.8205      0.7771     28.7208     57.1317
  1485.5000     30.5795      0.9175     28.0552     57.2363
  1485.7500     28.8977      1.1606     26.9869     57.3257
  1486.0000     26.8723      1.5245     25.5495     58.1258
  1486.2500     24.6840      2.0184     23.8530     59.6186
  1486.5000     22.5482      2.6374     22.0411     64.4514
  1486.7500     20.6369      3.3603     20.2461     69.8903
  1487.0000     19.0254      4.1522     18.5641     80.9454
  1487.2500     17.6965      4.9704     17.0509     89.1057
  1487.5000     16.5888      5.7720     15.7293     99.9635
  1487.7500     15.6462      6.5195     14.6005    105.3209
  1488.0000     14.8384      7.1845     13.6542    110.8153
  1488.2500     14.1561      7.7492     12.8773    113.6877
  1488.5000     13.6003      8.2038     12.2607    117.7775
  1488.7500     13.1742      8.5449     11.8007    119.9886
  1489.0000     12.8772      8.7726     11.4956    121.1563
  1489.2500     12.7017      8.8899     11.3418    120.1773
  1489.5000     12.6348      8.9023     11.3311    116.7729
  1489.7500     12.6624      8.8191     11.4514    113.9400
  1490.0000     12.7723      8.6545     11.6881    109.9397
  1490.2500     12.9535      8.4286     12.0258    107.7859
  1490.5000     13.1948      8.1661     12.4468    105.1596
  1490.7500     13.4830      7.8944     12.9272    103.4609
  1491.0000     13.8023      7.6403     13.4335    100.7902
  1491.2500     14.1377      7.4267     13.9216     99.1168
  1491.5000     14.4805      7.2692     14.3437     96.9427
  1491.7500     14.8317      7.1742     14.6611     95.5873
  1492.0000     15.1962      7.1380     14.8561     93.6889
  1492.2500     15.5705      7.1472     14.9356     92.9056
  1492.5000     15.9385      7.1799     14.9245     93.3889
  1492.7500     16.2820      7.2091     14.8569     95.0199
  1493.0000     16.5945      7.2065     14.7705     98.7738
  1493.2500     16.8804      7.1474     14.7041    101.4031
  1493.5000     17.1413      7.0168     14.6948    104.3722
  1493.7500     17.3640      6.8134     14.7725    105.2457
  1494.0000     17.5151      6.5529     14.9542    104.2048
  1494.2500     17.5412      6.2687     15.2396    101.4520
  1494.5000     17.3816      6.0087     15.6067     93.6812
  1494.7500     17.0017      5.8300     16.0091     86.3481
  1495.0000     16.4427      5.7906     16.3792     73.8012
  1495.2500     15.8519      5.9409     16.6419     65.7664
  1495.5000     15.4461      6.3148     16.7375     56.6217
  1495.7500     15.4056      6.9241     16.6423     53.8500
  1496.0000     15.7573      7.7555     16.3725     56.5860
  1496.2500     16.3452      8.7725     15.9679     63.1437
  1496.5000     16.9185      9.9205     15.4687     77.4750
  1496.7500     17.2787     11.1355     14.9031     87.2332
  1497.0000     17.3729     12.3525     14.2911     97.8411
  1497.2500     17.2783     13.5137     13.6568    101.2128
  1497.5000     17.1152     14.5735     13.0376    101.6686
  1497.7500     16.9715     15.5008     12.4797    100.2283
  1498.0000     16.8828     16.2782     12.0268     97.6525
  1498.2500     16.8527     16.9001     11.7099     96.5161
  1498.5000     16.8757     17.3699     11.5429     96.1971
  1498.7500     16.9487     17.6979     11.5247     96.7451
  1499.0000     17.0686     17.8997     11.6433     98.0079
  1499.2500     17.2284     17.9958     11.8792     98.6914
  1499.5000     17.4197     18.0104     12.2084     98.9405
  1499.7500     17.6364     17.9702     12.6036     98.4449
  1500.0000     17.8767     17.9010     13.0344     96.6847
  1500.2500     18.1413     17.8248     13.4684     94.9862
  1500.5000     18.4310     17.7558     13.8724     92.3947
  1500.7500     18.7469     17.6979     14.2145     91.2594
  1501.0000     19.0848     17.6436     14.4672     91.1504
  1501.2500     19.4264     17.5759     14.6115     91.9692
  1501.5000     19.7363     17.4722     14.6436     93.4070
  1501.7500     19.9774     17.3089     14.5803     93.9693
  1502.0000     20.1333     17.0671     14.4588     94.4974
  1502.2500     20.2169     16.7367     14.3289     95.2510
  1502.5000     20.2517     16.3183     14.2407     97.2399
  1502.7500     20.2393     15.8249     14.2315     98.3137
  1503.0000     20.1349     15.2805     14.3149     97.1352
  1503.2500     19.8499     14.7192     14.4739     93.2736
  1503.5000     19.2911     14.1823     14.6608     82.3444
  1503.7500     18.4318     13.7149     14.8065     72.7229
  1504.0000     17.3830     13.3605     14.8425     58.8141
  1504.2500     16.4011     13.1543     14.7274     52.4346
  1504.5000     15.7833     13.1177     14.4628     49.6166
  1504.7500     15.6878     13.2527     14.0866     52.2793
  1505.0000     16.0139     13.5409     13.6493     62.0034
  1505.2500     16.4582     13.9454     13.1909     71.4010
  1505.5000     16.7184     14.4162     12.7312     87.4674
  1505.7500     16.6778     14.8983     12.2759     97.5466
  1506.0000     16.4306     15.3384     11.8278    108.7189
  1506.2500     16.1609     15.6915     11.3960    112.8468
  1506.5000     15.9976     15.9247     10.9998    114.9119
  1506.7500     15.9520     16.0185     10.6667    114.5115
  1507.0000     15.9553     15.9670     10.4272    112.4027
  1507.2500     15.9435     15.7768     10.3096    110.2951
  1507.5000     15.9279     15.4643     10.3354    106.7072
  1507.7500     16.0123     15.0526     10.5197    104.5466
  1508.0000     16.3573     14.5674     10.8733    101.9444
  1508.2500     17.1191     14.0305     11.4062    100.0556
  1508.5000     18.3916     13.4541     12.1282     95.3397
  1508.7500     20.1826     12.8342     13.0446     90.4073
  1509.0000     22.4370     12.1480     14.1485     81.0120
  1509.2500     25.1043     11.3552     15.4144     74.5167
  1509.5000     28.2208     10.4057     16.8016     66.3579
  1509.7500     31.9549      9.2539     18.2695     62.5987
  1510.0000     36.5485      7.8744     19.7975     59.4261
  1510.2500     42.1270      6.2788     21.3928     58.5000
  1510.5000     48.4705      4.5255     23.0809     57.7968
  1510.7500     54.9311      2.7205     24.8741     57.0151
  1511.0000     60.5924      1.0087     26.7265     54.2313
  1511.2500     64.5547     -0.4455     28.4825     51.1913
  1511.5000     66.1531     -1.4812     29.8521     45.8574
  1511.7500     65.0612     -1.9661     30.4694     42.6396
  1512.0000     61.3720     -1.8174     30.0603     39.3599
  1512.2500     55.6675     -1.0141     28.6227     38.4987
  1512.5000     48.9383      0.3998     26.4543     39.5518
  1512.7500     42.2604      2.3230     23.9900     42.0590
  1513.0000     36.3902      4.6123     21.5986     48.8530
  1513.2500     31.5687      7.1029     19.4856     55.3176
  1513.5000     27.6461      9.6296     17.7059     66.8535
  1513.7500     24.3687     12.0442     16.2248     74.5761
  1514.0000     21.5865     14.2280     14.9757     83.9317
  1514.2500     19.2730     16.0979     13.8977     87.9276
