~Version Information
VERS.                      2.0: CWLS Log ASCII Standard - VERSION 2.0
WRAP.                       NO: One line per depth step
~Well Information Block
STRT.FT                -8.5000: 
STOP.FT              1597.7500: 
STEP.FT                 0.2500: 
NULL.                -999.2500: 
COMP.          Pioneer Natural Resources: COMPANY
WELL.          Dude Canyon 22-32 Tr: WELL
FLD.           Purgatorie River: FIELD
LOC.           1741' FnL & 2331' FWL--: LOCATION
PROV.                       CO: PROVINCE
CNTY.               Las Animas: COUNTRY
SRVC.          Patterson Wireline: SERVICE COMPANY
DATE.          Fri Jul 15 14:44:37 2005: LOG DATE
UWI.           05 071 08421 00: UNIQUE WELL ID
~Curve Information Block
DEPT.FT            0 000 00 00: Depth
CCL.                          : Casing Collar Locator
TT3.usec                      : CBL 3' Travel Time
AMP3.mV                       : CBL 3' Amplitude
GR.GAPI                       : Gamma Ray
~Parameter Information Block
~A  Depth       CCL         TT3         AMP3         GR     
# ...
  1030.0000      0.0000    384.4907      6.6970     63.8131
  1030.2500      0.0000    394.5267      6.7302     64.3138
  1030.5000      0.0000    410.7200      6.8080     67.5146
  1030.7500      0.0000    428.6431      6.9423     71.6631
  1031.0000      0.0000    438.6912      7.1076     74.3212
  1031.2500      0.0000    432.7229      7.2490     73.8586
  1031.5000      0.0000    411.8177      7.3195     70.4721
  1031.7500      0.0000    385.8829      7.3094     65.8758
  1032.0000      0.0000    365.3835      7.2463     61.9430
  1032.2500      0.0000    354.6844      7.1677     59.5380
  1032.5000      0.0000    352.4461      7.0934     58.5346
  1032.7500      0.0000    355.9536      7.0244     58.6310
  1033.0000      0.0000    364.9695      6.9596     59.7462
  1033.2500      0.0000    382.8298      6.9001     61.5721
  1033.5000      0.0000    412.6888      6.8377     63.1334
  1033.7500      0.0000    450.0712      6.7546     63.3069
  1034.0000      0.0000    480.2432      6.6430     61.8830
  1034.2500      0.0000    487.5784      6.5231     59.9096
  1034.5000      0.0000    469.1250      6.4348     58.8648
  1034.7500      0.0000    436.6514      6.4064     59.4846
  1035.0000      0.0000    405.3445      6.4289     61.3117
  1035.2500      0.0000    383.0490      6.4639     63.2465
  1035.5000      0.0000    369.4608      6.4764     64.4181
  1035.7500      0.0000    361.3468      6.4529     64.5690
  1036.0000      0.0000    356.9469      6.3847     63.9774
  1036.2500      0.0000    357.3961      6.2462     63.3172
  1036.5000      0.0000    365.9067      6.0132     63.3487
  1036.7500      0.0000    384.8957      5.7096     64.3535
  1037.0000      0.0000    411.7280      5.4184     65.9049
  1037.2500      0.0000    436.6959      5.2198     67.2507
  1037.5000      0.0000    447.9306      5.1164     67.7188
  1037.7500      0.0000    440.9949      5.0400     66.8377
  1038.0000      0.0000    423.0306      4.9244     64.6196
  1038.2500      0.0000    406.7946      4.7478     62.0964
  1038.5000      0.0000    402.7144      4.5168     61.3933
  1038.7500     -2.0000    416.7616      4.2416     64.8277
  1039.0000     -1.5707    450.8491      3.9318     73.3939
  1039.2500      0.0000    500.5912      3.6071     85.7459
  1039.5000      0.0000    554.3073      3.3052     98.7763
  1039.7500      0.0000    599.2747      3.0712    109.4370
  1040.0000      0.0000    630.7138      2.9274    115.9068
  1040.2500      0.0000    653.0229      2.8558    117.4063
  1040.5000      0.0000    672.5248      2.8235    114.1727
  1040.7500      0.0000    691.2335      2.8195    108.0839
  1041.0000      0.0000    707.6915      2.8570    102.2705
  1041.2500      0.0000    720.8001      2.9464     99.2866
  1041.5000      0.0000    730.3846      3.0772     99.7473
  1041.7500      0.0000    735.3218      3.2264    102.5784
  1042.0000      0.0000    734.5568      3.3789    105.8589
  1042.2500      0.0000    730.5291      3.5445    107.4042
  1042.5000      0.0000    728.6973      3.7567    105.7288
  1042.7500      0.0000    732.3734      4.0476    101.5035
  1043.0000      0.0000    739.7145      4.4097     97.7891
  1043.2500      0.0000    746.1122      4.7799     97.7817
  1043.5000      0.0000    748.0223      5.0709    101.8599
  1043.7500      0.0000    744.5101      5.2238    107.1902
  1044.0000      0.0000    736.5405      5.2263    110.1859
  1044.2500      0.0000    725.2849      5.0910    108.9083
  1044.5000      0.0000    711.4393      4.8381    103.5753
  1044.7500      0.0000    696.8713      4.5025     95.9616
  1045.0000      0.0000    685.9666      4.1375     88.4262
  1045.2500      0.0000    683.7670      3.7946     82.6561
  1045.5000      0.0000    692.6231      3.5018     79.1600
  1045.7500      0.0000    710.5812      3.2668     78.3491
  1046.0000      0.0000    732.1804      3.0939     81.5199
  1046.2500      0.0000    750.9484      2.9888     89.8309
  1046.5000      0.0000    761.8028      2.9512    102.4853
  1046.7500      0.0000    761.7138      2.9717    116.5695
  1047.0000      0.0000    749.9280      3.0378    128.5787
  1047.2500      0.0000    729.2813      3.1482    135.9762
  1047.5000      0.0000    705.7621      3.3263    138.0295
  1047.7500      0.0000    684.1349      3.6153    135.9490
  1048.0000      0.0000    663.8901      4.0449    132.1541
  1048.2500      0.0000    640.8375      4.5911    129.0215
  1048.5000      0.0000    612.8561      5.1682    128.0574
  1048.7500      0.0000    583.1804      5.6673    129.7021
  1049.0000      0.0000    558.0184      6.0115    133.2482
  1049.2500      0.0000    542.0104      6.1852    136.9268
  1049.5000      0.0000    535.9438      6.2272    138.7760
  1049.7500      0.0000    537.3237      6.2043    137.9841
  1050.0000      0.0000    541.9996      6.1864    135.3956
  1050.2500      0.0000    545.6374      6.2243    132.6154
  1050.5000      0.0000    544.4307      6.3319    130.7170
  1050.7500      0.0000    535.0670      6.4805    129.9090
  1051.0000      0.0000    515.1807      6.6146    130.0732
  1051.2500      0.0000    485.2419      6.6857    130.9631
  1051.5000      0.0000    449.8922      6.6798    131.9325
  1051.7500      0.0000    416.0277      6.6252    132.1997
  1052.0000      0.0000    388.8559      6.5780    131.6425
  1052.2500      0.0000    369.9334      6.5867    130.9714
  1052.5000      0.0000    358.2169      6.6570    131.0018
  1052.7500      0.0000    351.7659      6.7499    132.1174
  1053.0000      0.0000    348.6043      6.8229    134.3746
  1053.2500      0.0000    347.1374      6.8739    137.4888
  1053.5000      0.0000    346.5103      6.9402    140.6059
  1053.7500      0.0000    346.7389      7.0551    142.4987
  1054.0000      0.0000    348.4595      7.2056    142.0600
  1054.2500      0.0000    352.3318      7.3299    138.5505
  1054.5000      0.0000    358.3170      7.3606    131.9807
  1054.7500      0.0000    365.5767      7.2821    123.7381
  1055.0000      0.0000    373.5678      7.1539    116.1910
  1055.2500      0.0000    383.6310      7.0754    110.8810
  1055.5000      0.0000    399.1652      7.1189    107.4355
  1055.7500      0.0000    423.0423      7.2839    104.6204
  1056.0000      0.0000    453.6757      7.4984    101.8610
  1056.2500      0.0000    483.5548      7.6607     99.2541
  1056.5000      0.0000    502.9111      7.6970     96.6088
  1056.7500      0.0000    506.2807      7.6045     93.1545
  1057.0000      0.0000    496.1361      7.4511     88.3182
  1057.2500      0.0000    480.1606      7.3216     82.5748
  1057.5000      0.0000    465.6003      7.2510     77.2536
  1057.7500      0.0000    457.3708      7.2060     73.3675
  1058.0000      0.0000    460.1731      7.1363     70.7878
  1058.2500      0.0000    478.2934      7.0329     68.7234
  1058.5000      0.0000    511.9234      6.9272     66.8591
  1058.7500      0.0000    556.0369      6.8445     65.8142
  1059.0000      0.0000    603.6390      6.7860     66.6050
  1059.2500      0.0000    648.7211      6.7557     69.8702
  1059.5000      0.0000    686.1631      6.7747     75.5404
  1059.7500      0.0000    709.4995      6.8609     83.0028
  1060.0000      0.0000    709.7522      7.0069     91.4871
  1060.2500      0.0000    680.1212      7.1815    100.4561
  1060.5000      0.0000    626.2765      7.3404    109.6771
  1060.7500      0.0000    571.3160      7.4412    118.6790
  1061.0000      0.0000    544.8407      7.4615    126.2164
  1061.2500      0.0000    562.0484      7.4068    130.7804
  1061.5000      0.0000    611.7329      7.3017    131.8586
  1061.7500      0.0000    664.2866      7.1800    130.3522
  1062.0000      0.0000    691.3028      7.0786    127.5947
  1062.2500      0.0000    680.1362      7.0242    124.3745
  1062.5000      0.0000    635.9808      7.0138    121.3361
  1062.7500      0.0000    575.0670      7.0205    119.9148
  1063.0000      0.0000    515.1417      7.0241    121.7146
  1063.2500      0.0000    468.4264      7.0227    126.3277
