~Version Information
VERS.                      2.0: CWLS Log ASCII Standard - VERSION 2.0
WRAP.                       NO: One line per depth step
~Well Information Block
STRT.FT               750.3000: 
STOP.FT              1254.0000: 
STEP.FT                 0.1000: 
NULL.                -999.2500: 
COMP.          Petrogulf Corporation: COMPANY
WELL.           Montoya 13-41V: WELL
FLD.           Purgatorie River: FIELD
LOC.           449' FNL & 891' FEL: LOCATION
CNTY.               Las Animas: COUNTY
SRVC.                         : SERVICE COMPANY
DATE.          Tue Aug 17 15:47:43 2004: LOG DATE
UWI.           05 071 08021 00: UNIQUE WELL ID
STAT.                 Colorado: STATE
~Curve Information Block
DEPT.FT            0 000 00 00: Depth
DCAL.in                       : CDL Caliper
RHOB.g/cc                     : CDL Bulk Density
RHOC.g/cc                     : CDL Density Correction
DPOR.pu                       : CDL Density Porosity
GR.GAPI                       : Gamma Ray
NPOR.pu                       : Neutron Porosity
~Parameter Information Block
~A  Depth       DCAL        RHOB        RHOC        DPOR         GR         NPOR    
# ...
  1047.9000      8.2358      2.2577     -0.0627     23.7781     80.0337     27.4493
  1048.0000      8.2241      2.1396     -0.1051     30.9340     72.5489     27.6677
  1048.1000      8.2241      2.0230     -0.1408     37.9998     65.5894     27.7674
  1048.2000      8.2241      1.9114     -0.1527     44.7635     61.0776     27.2866
  1048.3000      8.2361      1.8261     -0.1184     49.9347     60.8401     26.5101
  1048.4000      8.2361      1.7938     -0.0490     51.8880     62.5621     26.4700
  1048.5000      8.3522      1.8097      0.1703     50.9273     64.0910     27.4719
  1048.6000      8.3522      1.8420      0.2486     48.9713     63.3333     28.7208
  1048.7000      8.3522      1.8824      0.2531     46.5205     59.6775     29.5109
  1048.8000      8.7757      1.9419      0.2814     42.9132     55.2822     30.1768
  1048.9000      8.7757      2.0172      0.3225     38.3496     52.7656     31.2706
  1049.0000      9.5812      2.0972      0.3333     33.5019     55.8811     32.4304
  1049.1000      9.5812      2.1730      0.3677     28.9108     64.9359     32.9170
  1049.2000      9.5812      2.2336      0.3878     25.2368     73.3080     32.5276
  1049.3000      9.9308      2.2635      0.4020     23.4244     75.5698     31.7330
  1049.4000      9.9308      2.2440      0.3723     24.6046     72.0055     31.3552
  1049.5000      9.8369      2.1662      0.3325     29.3230     66.9875     31.6439
  1049.6000      9.8369      2.0379      0.2476     37.0998     65.7060     32.1774
  1049.7000      9.8369      1.8802      0.1802     46.6552     68.8505     32.6763
  1049.8000      9.8969      1.7324      0.0696     55.6111     70.1162     32.9688
  1049.9000      9.8969      1.6489      0.0031     60.6753     64.8132     32.8792
  1050.0000     10.3251      1.6527      0.0589     60.4452     56.9596     32.8869
  1050.1000     10.3251      1.7082      0.1313     57.0797     53.4036     33.2939
  1050.2000     10.3251      1.7653      0.1556     53.6175     55.8272     33.5791
  1050.3000     11.2999      1.7943      0.1993     51.8600     59.5599     33.7898
  1050.4000     11.2999      1.7688      0.2642     53.4057     60.4377     34.4123
  1050.5000     12.2911      1.6692      0.2151     59.4413     60.2295     35.2131
  1050.6000     12.2911      1.5207      0.1368     68.4443     61.1873     35.5735
  1050.7000     12.2911      1.3862      0.0237     76.5926     60.2460     35.0623
  1050.8000     11.8899      1.3075     -0.0069     81.3656     55.6258     33.8616
  1050.9000     11.8899      1.2789     -0.0270     83.0966     52.2012     32.9102
  1051.0000     10.7711      1.2824     -0.0318     82.8844     52.2869     32.5794
  1051.1000     10.7711      1.3130      0.0076     81.0287     51.7850     32.1326
  1051.2000     10.7711      1.3668      0.0389     77.7727     49.4829     31.3487
  1051.3000      8.9075      1.4326      0.0404     73.7839     48.3469     30.6674
  1051.4000      8.9075      1.5053      0.0717     69.3739     48.9189     30.1774
  1051.5000      8.5733      1.5903      0.0775     64.2250     47.9040     29.9533
  1051.6000      8.5733      1.6853      0.1392     58.4664     44.8018     29.9536
  1051.7000      8.5733      1.7729      0.1873     53.1563     45.4721     29.8230
  1051.8000      8.3922      1.8449      0.1860     48.7930     54.0257     29.2546
  1051.9000      8.3922      1.9077      0.2207     44.9895     65.5177     28.3284
  1052.0000      8.1463      1.9518      0.2749     42.3148     72.6103     27.0491
  1052.1000      8.1463      1.9573      0.2588     41.9809     73.2086     25.5874
  1052.2000      8.1463      1.9315      0.2219     43.5443     68.5250     24.5271
  1052.3000      8.1127      1.9038      0.1726     45.2259     62.2399     23.7427
  1052.4000      8.1127      1.8862      0.1749     46.2884     57.2024     22.7149
  1052.5000      8.1126      1.8633      0.1660     47.6773     54.5627     21.6392
  1052.6000      8.1126      1.8230      0.0594     50.1226     53.5035     20.8695
  1052.7000      8.1126      1.7755      0.0159     53.0018     52.0713     20.2622
  1052.8000      8.1128      1.7369     -0.0380     55.3386     51.7532     19.6883
  1052.9000      8.1128      1.7106      0.0032     56.9310     54.0350     19.3487
  1053.0000      8.1115      1.6786      0.1027     58.8727     55.4305     19.0770
  1053.1000      8.1115      1.6303      0.0144     61.8004     53.2710     18.8861
  1053.2000      8.1115      1.5952     -0.0027     63.9246     50.8767     19.2712
  1053.3000      8.1153      1.6129      0.0100     62.8575     51.0482     19.7237
  1053.4000      8.1153      1.6924      0.1390     58.0366     49.5609     19.4500
  1053.5000      8.1180      1.8106      0.2203     50.8710     45.1644     18.9538
  1053.6000      8.1180      1.9367      0.2487     43.2323     44.4475     19.0176
  1053.7000      8.1180      2.0589      0.2911     35.8266     50.0608     19.3730
  1053.8000      8.1152      2.1768      0.3247     28.6801     54.6670     19.4629
  1053.9000      8.1152      2.2797      0.3494     22.4448     53.0653     19.2036
  1054.0000      8.1075      2.3561      0.3204     17.8113     48.0046     18.7037
  1054.1000      8.1075      2.4098      0.2724     14.5587     42.6092     18.2488
  1054.2000      8.1075      2.4476      0.2317     12.2655     38.7812     18.3341
  1054.3000      8.1034      2.4714      0.1627     10.8244     38.2898     18.7882
  1054.4000      8.1034      2.4867      0.0847      9.8967     41.0837     18.8451
  1054.5000      8.1012      2.4987      0.0694      9.1716     44.6477     18.5299
  1054.6000      8.1012      2.5037      0.1043      8.8694     46.2405     18.4585
  1054.7000      8.1012      2.5030      0.0611      8.9092     47.3286     18.7947
  1054.8000      8.0988      2.5027      0.1003      8.9246     48.4110     19.2790
  1054.9000      8.0988      2.4989      0.0828      9.1547     46.7096     19.3923
  1055.0000      8.0986      2.4914      0.0566      9.6098     44.0505     18.6586
  1055.1000      8.0986      2.4879      0.0636      9.8244     45.5984     17.4519
  1055.2000      8.0986      2.4829      0.0585     10.1265     49.7264     17.0956
  1055.3000      8.0993      2.4643      0.0429     11.2559     50.0434     18.0221
  1055.4000      8.0993      2.4408     -0.0277     12.6793     46.3327     18.9864
  1055.5000      8.0988      2.4336      0.0160     13.1171     43.9463     18.9423
  1055.6000      8.0988      2.4407      0.0365     12.6822     46.2273     18.2838
  1055.7000      8.0988      2.4455     -0.0227     12.3925     50.4779     17.9315
  1055.8000      8.0997      2.4438     -0.0043     12.4986     50.2861     17.9982
  1055.9000      8.0997      2.4399      0.0166     12.7323     44.8270     17.9026
  1056.0000      8.1015      2.4336      0.0220     13.1126     39.2590     17.5574
  1056.1000      8.1015      2.4286     -0.0097     13.4159     38.2136     17.3676
  1056.2000      8.1015      2.4384     -0.0024     12.8217     42.2830     17.8058
  1056.3000      8.1099      2.4636      0.0696     11.2957     48.1691     18.5169
  1056.4000      8.1099      2.4885      0.0424      9.7853     51.0397     18.4298
  1056.5000      8.0644      2.5069      0.0646      8.6720     49.1834     17.4827
  1056.6000      8.0644      2.5190      0.0651      7.9412     45.8543     16.5307
  1056.7000      8.0644      2.5260      0.0801      7.5177     43.6539     16.1486
  1056.8000      8.0518      2.5344      0.0859      7.0055     43.6455     16.6997
  1056.9000      8.0518      2.5430      0.0793      6.4833     45.1547     18.1202
  1057.0000      8.0378      2.5430      0.0895      6.4841     44.9036     19.2366
  1057.1000      8.0378      2.5407      0.0509      6.6260     42.9911     18.8643
  1057.2000      8.0378      2.5501      0.0626      6.0558     42.2328     17.5770
  1057.3000      8.0354      2.5634      0.0960      5.2506     42.0276     16.9702
  1057.4000      8.0354      2.5714      0.0671      4.7662     41.2070     17.4860
