~Version Information
VERS.                      2.0: CWLS Log ASCII Standard - VERSION 2.0
WRAP.                       NO: One line per depth step
~Well Information Block
STRT.FT               275.0000: 
STOP.FT              1682.2500: 
STEP.FT                 0.2500: 
NULL.                -999.2500: 
COMP.          Pioneer Natural Resources: COMPANY
WELL.               Elmo 14-21: WELL
FLD.           Purgatoire River: FIELD
LOC.           623' FSL & 450' FWL----: LOCATION
PROV.                 Colorado: PROVINCE
CNTY.               Las Animas: COUNTRY
SRVC.                Patterson: SERVICE COMPANY
DATE.          Tue May 17 16:07:31 2005: LOG DATE
UWI.           05 071 08360 00: UNIQUE WELL ID
~Curve Information Block
DEPT.FT            0 000 00 00: Depth
SN.Ohm-m                      : IEL Short Normal
SP.mV                         : IEL Spontaneous Potential
DIR.Ohm-m                     : IEL Induction Resistivity
GR.GAPI                       : Gamma Ray
~Parameter Information Block
~A  Depth        SN          SP         DIR          GR     
# ...
   643.5000   2000.0000   2000.0000     12.1079    119.3983
   643.7500   2000.0000   2000.0000     11.9844    119.5650
   644.0000   2000.0000   2000.0000     11.8336    118.9723
   644.2500   2000.0000   2000.0000     11.6814    118.6658
   644.5000   2000.0000   2000.0000     11.5475    118.8226
   644.7500   2000.0000   2000.0000     11.4409    119.4718
   645.0000   2000.0000   2000.0000     11.3602    121.5908
   645.2500   2000.0000   2000.0000     11.2974    123.6780
   645.5000   2000.0000   2000.0000     11.2431    126.6977
   645.7500   2000.0000   2000.0000     11.1909    127.8058
   646.0000   2000.0000   2000.0000     11.1408    127.5878
   646.2500   2000.0000   2000.0000     11.0985    126.6209
   646.5000   2000.0000   2000.0000     11.0712    125.2890
   646.7500   2000.0000   2000.0000     11.0623    125.1752
   647.0000   2000.0000   2000.0000     11.0676    126.6534
   647.2500   2000.0000   2000.0000     11.0773    128.4614
   647.5000   2000.0000   2000.0000     11.0813    131.1383
   647.7500   2000.0000   2000.0000     11.0746    132.1318
   648.0000   2000.0000   2000.0000     11.0576    132.0370
   648.2500   2000.0000   2000.0000     11.0318    131.3197
   648.5000   2000.0000   2000.0000     10.9967    130.2167
   648.7500   2000.0000   2000.0000     10.9500    129.6458
   649.0000   2000.0000   2000.0000     10.8912    128.6228
   649.2500   2000.0000   2000.0000     10.8263    127.6526
   649.5000   2000.0000   2000.0000     10.7679    126.4095
   649.7500   2000.0000   2000.0000     10.7319    126.5185
   650.0000   2000.0000   2000.0000     10.7318    128.9879
   650.2500   2000.0000   2000.0000     10.7757    131.9126
   650.5000   2000.0000   2000.0000     10.8667    136.5685
   650.7500   2000.0000   2000.0000     11.0067    138.6803
   651.0000   2000.0000   2000.0000     11.1985    138.9982
   651.2500   2000.0000   2000.0000     11.4461    137.1881
   651.5000   2000.0000   2000.0000     11.7502    132.1281
   651.7500   2000.0000   2000.0000     12.1062    127.7468
   652.0000   2000.0000   2000.0000     12.5048    120.5716
   652.2500   2000.0000   2000.0000     12.9377    115.9960
   652.5000   2000.0000   2000.0000     13.4024    110.5468
   652.7500   2000.0000   2000.0000     13.9021    108.1973
   653.0000   2000.0000   2000.0000     14.4380    106.2672
   653.2500   2000.0000   2000.0000     14.9999    105.5827
   653.5000   2000.0000   2000.0000     15.5617    104.9804
   653.7500   2000.0000   2000.0000     16.0845    104.8351
   654.0000   2000.0000   2000.0000     16.5259    104.9975
   654.2500   2000.0000   2000.0000     16.8500    105.3149
   654.5000   2000.0000   2000.0000     17.0365    106.2132
   654.7500   2000.0000   2000.0000     17.0885    107.3639
   655.0000   2000.0000   2000.0000     17.0367    110.4641
   655.2500   2000.0000   2000.0000     16.9348    113.4233
   655.5000   2000.0000   2000.0000     16.8440    118.0721
   655.7500   2000.0000   2000.0000     16.8146    120.2839
   656.0000   2000.0000   2000.0000     16.8723    121.1112
   656.2500   2000.0000   2000.0000     17.0156    120.0414
   656.5000   2000.0000   2000.0000     17.2236    116.7941
   656.7500   2000.0000   2000.0000     17.4699    113.9490
   657.0000   2000.0000   2000.0000     17.7375    109.0088
   657.2500   2000.0000   2000.0000     18.0265    105.3951
   657.5000   2000.0000   2000.0000     18.3512     99.8201
   657.7500   2000.0000   2000.0000     18.7298     96.2422
   658.0000   2000.0000   2000.0000     19.1716     91.4766
   658.2500   2000.0000   2000.0000     19.6699     88.9196
   658.5000   2000.0000   2000.0000     20.2021     86.4670
   658.7500   2000.0000   2000.0000     20.7356     86.0500
   659.0000   2000.0000   2000.0000     21.2350     87.5377
   659.2500   2000.0000   2000.0000     21.6672     89.7974
   659.5000   2000.0000   2000.0000     22.0056     94.2179
   659.7500   2000.0000   2000.0000     22.2353     97.0763
   660.0000   2000.0000   2000.0000     22.3572     99.8924
   660.2500   2000.0000   2000.0000     22.3890    100.3667
   660.5000   2000.0000   2000.0000     22.3598     99.2941
   660.7500   2000.0000   2000.0000     22.2992     97.9834
   661.0000   2000.0000   2000.0000     22.2270     95.9830
   661.2500   2000.0000   2000.0000     22.1494     94.7946
   661.5000   2000.0000   2000.0000     22.0607     93.0920
   661.7500   2000.0000   2000.0000     21.9492     91.7711
   662.0000   2000.0000   2000.0000     21.8027     88.8475
   662.2500   2000.0000   2000.0000     21.6150     85.8885
   662.5000   2000.0000   2000.0000     21.3910     79.9534
   662.7500   2000.0000   2000.0000     21.1477     75.6343
   663.0000   2000.0000   2000.0000     20.9108     70.2574
   663.2500   2000.0000   2000.0000     20.7057     68.0123
   663.5000   2000.0000   2000.0000     20.5522     66.2870
   663.7500   2000.0000   2000.0000     20.4620     65.4746
   664.0000   2000.0000   2000.0000     20.4395     63.7506
   664.2500   2000.0000   2000.0000     20.4828     62.1746
   664.5000   2000.0000   2000.0000     20.5838     59.5207
   664.7500   2000.0000   2000.0000     20.7315     57.7549
   665.0000   2000.0000   2000.0000     20.9161     55.3044
   665.2500   2000.0000   2000.0000     21.1330     53.9153
   665.5000   2000.0000   2000.0000     21.3867     52.4046
   665.7500   2000.0000   2000.0000     21.6916     51.8118
   666.0000   2000.0000   2000.0000     22.0697     51.3724
   666.2500   2000.0000   2000.0000     22.5407     51.2658
   666.5000   2000.0000   2000.0000     23.1103     51.4217
   666.7500   2000.0000   2000.0000     23.7603     51.8340
   667.0000   2000.0000   2000.0000     24.4494     52.9095
   667.2500   2000.0000   2000.0000     25.1249     53.7950
   667.5000   2000.0000   2000.0000     25.7440     55.0494
   667.7500   2000.0000   2000.0000     26.2928     55.6200
   668.0000   2000.0000   2000.0000     26.7906     55.7725
   668.2500   2000.0000   2000.0000     27.2777     55.4378
   668.5000   2000.0000   2000.0000     27.7938     54.8637
   668.7500   2000.0000   2000.0000     28.3596     54.8998
   669.0000   2000.0000   2000.0000     28.9713     56.0249
   669.2500   2000.0000   2000.0000     29.6087     57.3644
   669.5000   2000.0000   2000.0000     30.2495     59.5485
   669.7500   2000.0000   2000.0000     30.8734     60.6730
   670.0000   2000.0000   2000.0000     31.4501     61.4087
   670.2500   2000.0000   2000.0000     31.9255     61.2275
   670.5000   2000.0000   2000.0000     32.2385     60.1455
   670.7500   2000.0000   2000.0000     32.3656     59.0955
   671.0000   2000.0000   2000.0000     32.3528     57.5977
   671.2500   2000.0000   2000.0000     32.2952     57.0568
   671.5000   2000.0000   2000.0000     32.2790     57.2569
   671.7500   2000.0000   2000.0000     32.3346     57.7777
   672.0000   2000.0000   2000.0000     32.4346     58.1959
   672.2500   2000.0000   2000.0000     32.5281     57.9750
   672.5000   2000.0000   2000.0000     32.5812     57.4328
   672.7500   2000.0000   2000.0000     32.5934     57.4557
   673.0000   2000.0000   2000.0000     32.5814     58.3711
   673.2500   2000.0000   2000.0000     32.5549     59.3064
   673.5000   2000.0000   2000.0000     32.5104     60.6028
   673.7500   2000.0000   2000.0000     32.4417     61.2673
   674.0000   2000.0000   2000.0000     32.3470     62.1537
   674.2500   2000.0000   2000.0000     32.2185     62.8281
   674.5000   2000.0000   2000.0000     32.0241     63.9412
   674.7500   2000.0000   2000.0000     31.7093     64.5397
   675.0000   2000.0000   2000.0000     31.2292     64.8658
   675.2500   2000.0000   2000.0000     30.5914     64.6520
   675.5000   2000.0000   2000.0000     29.8711     63.7409
   675.7500   2000.0000   2000.0000     29.1777     62.7589
   676.0000   2000.0000   2000.0000     28.5999     60.9163
   676.2500   2000.0000   2000.0000     28.1715     59.7719
   676.5000   2000.0000   2000.0000     27.8703     58.8977
   676.7500   2000.0000   2000.0000     27.6413     59.1190
