~Version Information
VERS.                      2.0: CWLS Log ASCII Standard - VERSION 2.0
WRAP.                       NO: One line per depth step
~Well Information Block
STRT.FT               906.0000: 
STOP.FT              1960.5000: 
STEP.FT                 0.2500: 
NULL.                -999.2500: 
COMP.          Petrogulf Corporation: COMPANY
WELL.            Torcom 17-33R: WELL
FLD.           Purgatorie River: FIELD
LOC.           1483' FSL & 1804' FEL: LOCATION
PROV.                 Colorado: PROVINCE
CNTY.               Las Animas: COUNTRY
SRVC.                Patterson: SERVICE COMPANY
DATE.          Thu Aug 18 08:33:01 2005: LOG DATE
UWI.                071 08069 : UNIQUE WELL ID
~Curve Information Block
DEPT.FT            0 000 00 00: Depth
SP.mV                         : DIL Spontaneous Potential
RILD.Ohm-m                    : DIL Deep Resistivity
RILM.Ohm-m                    : DIL Medium Resistivity
RLL3.Ohm-m                    : DIL Shallow Resistivity
GR.GAPI                       : Gamma Ray
~Parameter Information Block
~A  Depth        SP         RILD        RILM        RLL3         GR     
# ...
  1662.0000     95.6705     29.3996     31.6268     45.9597     67.4337
  1662.2500     95.2876     28.0793     32.4648     46.7802     70.3760
  1662.5000     95.2481     28.0956     32.3099     47.3938     73.4436
  1662.7500     95.3988     28.0012     32.7195     47.6697     66.8617
  1663.0000     95.5918     28.0364     32.3177     48.7109     82.0621
  1663.2500     96.5726     27.8999     32.7535     50.2147     87.7249
  1663.5000     97.6051     28.4220     32.6189     50.4153     85.6812
  1663.7500     98.1054     28.3705     32.5765     49.4479     85.4786
  1664.0000     98.6326     28.0030     32.3800     47.9530     90.9838
  1664.2500     98.7187     27.7965     32.4554     46.9110     84.1713
  1664.5000     98.6625     28.1024     33.4477     46.2518     90.9671
  1664.7500     98.6526     28.4404     34.3643     47.2210     97.7458
  1665.0000     98.8321     28.3410     34.7572     50.0064     92.1049
  1665.2500     99.3446     28.0041     35.3901     53.6105     89.0242
  1665.5000    100.0671     27.9355     35.4102     56.2356    102.5655
  1665.7500    101.1659     27.5669     34.8159     56.2078     97.5455
  1666.0000    102.1181     26.6163     33.8323     53.1922    104.5720
  1666.2500    103.8560     26.2990     33.9423     49.8687    107.6243
  1666.5000    105.4835     25.2264     33.0073     47.4404    117.2361
  1666.7500    106.7917     24.5430     32.2895     45.8607    119.0161
  1667.0000    107.8214     24.1517     30.4913     48.4906    111.9974
  1667.2500    109.3531     23.1527     28.0449     53.9608    116.9366
  1667.5000    110.5057     22.5307     25.5317     53.5619    123.6279
  1667.7500    111.3145     21.9294     23.3248     42.3974    129.5814
  1668.0000    111.4577     22.0198     21.5231     31.1277    147.2660
  1668.2500    110.8696     22.1287     20.1110     26.0891    154.3611
  1668.5000    110.3185     22.5447     19.7265     25.2360    150.4686
  1668.7500    110.4513     22.4460     19.9073     25.2083    148.3952
  1669.0000    110.8826     22.5054     20.6127     25.7951    157.9989
  1669.2500    111.4252     22.8875     21.4438     27.9585    163.1659
  1669.5000    111.6445     22.9813     23.6726     32.7357    155.6909
  1669.7500    111.9732     22.5833     26.0310     39.1087    157.3914
  1670.0000    112.2534     22.6629     28.5262     44.3079    147.1665
  1670.2500    112.8365     21.6963     31.0498     50.3128    131.0774
  1670.5000    113.9036     21.2065     32.8430     56.7509    115.1946
  1670.7500    114.7993     20.6336     34.5212     73.4159    105.0803
  1671.0000    116.5151     19.6332     35.8632    105.4637     93.2238
  1671.2500    117.9907     18.3070     33.8353    129.2602     98.0009
  1671.5000    120.0700     17.1947     30.1000    128.7574    128.6751
  1671.7500    121.9794     16.1777     24.7968     92.3421    137.3231
  1672.0000    123.7245     15.0401     20.7195     49.6209    151.3360
  1672.2500    124.7570     14.1075     17.1439     27.1229    156.5751
  1672.5000    125.4149     13.3565     15.1346     20.0865    163.4568
  1672.7500    125.9573     12.4672     13.4235     18.3286    163.1780
  1673.0000    127.0866     11.5234     12.0430     17.3541    166.7820
  1673.2500    127.1905     10.8660     11.2230     16.5184    171.1954
  1673.5000    126.8401     10.2744     10.4516     15.6053    171.3968
  1673.7500    126.4719      9.6142      9.8198     15.3197    183.8873
  1674.0000    125.7742      9.0326      9.2070     14.9027    179.6027
  1674.2500    124.7773      8.6730      8.8104     14.6395    177.6686
  1674.5000    123.5669      8.3814      8.4993     14.4565    180.1708
  1674.7500    122.4342      8.1702      8.3484     14.6877    164.8020
  1675.0000    121.0721      7.8878      8.2981     15.0996    173.7011
  1675.2500    120.0620      7.7614      8.2632     15.9330    176.6393
  1675.5000    119.9129      7.7111      8.2627     16.3692    161.9448
  1675.7500    120.3121      7.7488      8.2826     16.3155    167.6200
  1676.0000    120.4861      7.7738      8.3414     16.0349    170.7902
  1676.2500    119.8147      7.8457      8.4278     16.1185    169.2804
  1676.5000    118.8496      7.8881      8.5441     16.5934    168.2180
  1676.7500    118.4290      7.9464      8.6768     16.9134    160.4005
  1677.0000    119.2290      8.0005      8.8460     17.3186    158.9065
  1677.2500    121.9641      8.0908      9.0480     17.8838    155.8128
  1677.5000    122.1873      8.1595      9.1562     18.3233    152.3342
  1677.7500    120.9737      8.3017      9.2472     18.1259    157.5292
  1678.0000    119.1907      8.3551      9.3086     17.7452    149.0367
  1678.2500    117.3610      8.4358      9.3702     16.8612    147.4213
  1678.5000    115.5247      8.5081      9.4154     16.0529    164.3941
  1678.7500    113.5826      8.5347      9.4772     16.2254    164.8645
  1679.0000    112.2217      8.6188      9.6446     16.0205    153.1225
  1679.2500    110.4345      8.4997      9.7314     16.2831    160.7270
  1679.5000    109.2486      8.5591      9.8147     16.7845    156.5580
  1679.7500    108.0924      8.4460      9.8533     17.6571    157.3056
  1680.0000    107.3753      8.3737      9.8493     18.8118    154.3447
  1680.2500    106.7757      8.3693      9.7700     19.2797    165.8778
  1680.5000    105.9174      8.4026      9.5470     18.1925    160.2299
  1680.7500    105.7042      8.4243      9.3951     16.8284    154.2180
  1681.0000    106.1746      8.4976      9.2349     15.8325    166.9335
  1681.2500    106.2212      8.5884      9.1953     15.2458    180.4696
  1681.5000    105.1294      8.7318      9.1453     15.0971    186.6082
  1681.7500    103.3693      8.9265      9.3004     15.1763    168.9280
  1682.0000    101.3745      9.1302      9.5079     15.4415    162.8307
  1682.2500     98.8709      9.3091      9.8353     15.8660    161.6134
  1682.5000     96.8378      9.5088     10.2009     16.7678    165.6452
  1682.7500     94.7691      9.8728     10.6205     17.0678    156.6678
  1683.0000     93.9181     10.2384     11.2888     17.4096    146.7826
  1683.2500     93.5243     10.6631     11.9548     18.4255    151.6001
  1683.5000     92.9906     11.1964     12.8726     20.6224    141.5070
  1683.7500     93.3333     11.8295     14.1536     24.1171    132.1005
  1684.0000     93.4653     12.4014     15.3988     30.5370    114.9961
  1684.2500     93.8275     13.1826     16.7782     39.3929    100.9694
  1684.5000     94.6364     13.9473     18.4566     51.9304    103.3901
  1684.7500     96.2289     14.9154     19.8055     66.6703    100.6485
  1685.0000     97.0091     15.8147     21.5015     78.2401     93.4252
  1685.2500     97.4025     16.9133     23.0470     77.0254     90.3567
  1685.5000     97.8002     18.2860     24.9163     68.0398    101.0987
  1685.7500     98.2221     19.4602     26.3315     63.3299    100.0450
  1686.0000     97.6270     20.4908     28.2150     63.0602     95.8144
  1686.2500     96.8858     21.4467     29.2410     62.3975     94.3580
  1686.5000     95.7578     22.6439     31.1003     58.1248     83.1929
  1686.7500     95.1938     23.6970     31.6006     53.8072     83.1264
  1687.0000     95.8185     24.1963     33.0978     52.4964     94.8375
  1687.2500     97.4241     24.7669     32.8465     51.5397     89.5823
  1687.5000     98.9220     25.1108     34.0956     49.8432     88.1566
  1687.7500     98.6782     25.2584     34.1666     48.8378     79.2144
  1688.0000     97.4433     26.0917     34.2971     48.9627     72.7916
  1688.2500     96.0481     26.2462     35.8737     50.1318     72.6329
  1688.5000     95.7851     26.3929     35.3166     49.3044     73.7050
  1688.7500     95.6385     26.6163     37.7081     48.2088     75.3693
  1689.0000     96.7579     26.4959     37.8538     48.0282     73.8091
  1689.2500     98.5949     27.0682     38.8866     50.2240     65.7955
  1689.5000    100.9695     26.7051     39.0098     53.4376     64.6939
  1689.7500    102.9922     25.7894     39.8852     57.7817     67.0115
