~Version Information
VERS.                      2.0: CWLS Log ASCII Standard - VERSION 2.0
WRAP.                       NO: One line per depth step
~Well Information Block
STRT.FT               671.6000: 
STOP.FT              1890.7000: 
STEP.FT                 0.1000: 
NULL.                -999.2500: 
COMP.          Petrogulf Corporation: COMPANY
WELL.             State 16-14R: WELL
FLD.           Purgatorie River: FIELD
LOC.           598' FSL & 682' FWL: LOCATION
CNTY.               Las Animas: COUNTY
SRVC.                         : SERVICE COMPANY
DATE.          Fri Nov 05 07:21:30 2004: LOG DATE
UWI.           05 071 08034 00: UNIQUE WELL ID
STAT.                 Colorado: STATE
~Curve Information Block
DEPT.FT            0 000 00 00: Depth
DCAL.in                       : CDL Caliper
RHOB.g/cc                     : CDL Bulk Density
RHOC.g/cc                     : CDL Density Correction
DPOR.pu                       : CDL Density Porosity
GR.GAPI                       : Gamma Ray
NPOR.pu                       : Neutron Porosity
~Parameter Information Block
~A  Depth       DCAL        RHOB        RHOC        DPOR         GR         NPOR    
# ...
  1631.6000      7.8937      2.5487      0.0420      6.1417    134.8445     28.4525
  1631.7000      7.8937      2.5743      0.0429      4.5899    129.8485     28.7967
  1631.8000      7.8814      2.5936      0.0500      3.4171    132.6773     28.3695
  1631.9000      7.8814      2.6004      0.0632      3.0035    137.0316     27.9332
  1632.0000      7.9245      2.5983      0.0484      3.1346    140.4985     27.8411
  1632.1000      7.9245      2.5987      0.0177      3.1099    146.3486     27.6689
  1632.2000      7.9245      2.6061      0.0675      2.6623    149.0070     27.2124
  1632.3000      7.8852      2.6163      0.0708      2.0432    141.3659     26.2516
  1632.4000      7.8852      2.6294      0.0389      1.2515    128.9484     24.6815
  1632.5000      7.8816      2.6354      0.0569      0.8842    121.4365     23.3434
  1632.6000      7.8816      2.6206      0.0328      1.7834    119.9332     22.9847
  1632.7000      7.8816      2.5965      0.0222      3.2450    120.1561     23.1425
  1632.8000      7.8831      2.5777      0.0443      4.3830    119.0887     23.0416
  1632.9000      7.8831      2.5586      0.0195      5.5388    117.1168     22.7488
  1633.0000      7.8595      2.5358      0.0645      6.9186    116.9961     22.4865
  1633.1000      7.8595      2.5185      0.0486      7.9700    118.5266     22.2708
  1633.2000      7.8595      2.5198      0.0379      7.8907    117.1073     22.1331
  1633.3000      7.8920      2.5383      0.0575      6.7684    111.1915     22.1242
  1633.4000      7.8920      2.5521      0.1047      5.9359    106.2983     22.1604
  1633.5000      7.8682      2.5445      0.0957      6.3953    108.4714     22.0790
  1633.6000      7.8682      2.5235      0.0470      7.6671    115.5053     22.2280
  1633.7000      7.8682      2.5092      0.0074      8.5351    122.2968     22.7743
  1633.8000      7.8809      2.5083      0.0409      8.5866    128.7559     23.2121
  1633.9000      7.8809      2.5124      0.0700      8.3420    135.1374     23.2366
  1634.0000      7.8839      2.5230      0.0756      7.6973    139.9309     22.8530
  1634.1000      7.8839      2.5476      0.0855      6.2034    142.9601     22.5695
  1634.2000      7.8839      2.5710      0.1754      4.7856    144.4193     23.1169
  1634.3000      7.9031      2.5712      0.1420      4.7783    147.4615     24.1838
  1634.4000      7.9031      2.5489      0.1052      6.1271    152.3710     24.8131
  1634.5000      7.8884      2.5217      0.0456      7.7745    155.0170     24.6001
  1634.6000      7.8884      2.5083      0.0452      8.5877    151.5922     23.8754
  1634.7000      7.8884      2.5060      0.0940      8.7254    140.7303     23.3156
  1634.8000      7.9203      2.4995      0.0919      9.1190    130.0737     23.0728
  1634.9000      7.9203      2.4899      0.0329      9.7007    127.8439     22.7600
  1635.0000      7.9156      2.4886      0.0589      9.7834    128.9310     22.4910
  1635.1000      7.9156      2.5017      0.0085      8.9906    125.7125     22.5680
  1635.2000      7.9156      2.5252      0.0507      7.5661    121.7944     22.8915
  1635.3000      7.8783      2.5453      0.0522      6.3441    123.6957     23.2882
  1635.4000      7.8783      2.5585      0.0457      5.5454    127.0437     23.7018
  1635.5000      7.9057      2.5690      0.1148      4.9120    124.6077     24.2329
  1635.6000      7.9057      2.5717      0.0942      4.7454    119.1623     24.9809
  1635.7000      7.9057      2.5621      0.1189      5.3280    117.0700     25.4088
  1635.8000      7.8848      2.5428      0.0844      6.4998    119.2813     24.9453
  1635.9000      7.8848      2.5159      0.1152      8.1272    125.9211     24.1197
  1636.0000      7.8988      2.4884      0.0859      9.7923    138.1012     23.8442
  1636.1000      7.8988      2.4731      0.0695     10.7212    151.4703     24.1970
  1636.2000      7.8988      2.4701      0.0907     10.9058    158.0145     24.4925
  1636.3000      7.8545      2.4698      0.0718     10.9190    154.8438     24.2950
  1636.4000      7.8545      2.4746      0.0546     10.6314    146.8897     23.9737
  1636.5000      7.8718      2.4894      0.1021      9.7325    144.1531     23.9851
  1636.6000      7.8718      2.5111      0.0612      8.4157    150.9049     24.0758
  1636.7000      7.8718      2.5286      0.1257      7.3574    159.8309     24.0899
  1636.8000      7.8520      2.5261      0.1370      7.5107    163.4169     24.7009
  1636.9000      7.8520      2.5131      0.0967      8.2975    160.9277     26.0249
  1637.0000      7.8498      2.5140      0.0934      8.2399    155.2638     27.0715
  1637.1000      7.8498      2.5284      0.1642      7.3682    150.1673     27.2021
  1637.2000      7.8498      2.5403      0.1375      6.6484    146.9346     26.8311
  1637.3000      7.8547      2.5360      0.1781      6.9092    143.7454     26.5551
  1637.4000      7.8547      2.5170      0.0911      8.0627    141.5669     26.5734
  1637.5000      7.8650      2.5070      0.0191      8.6642    142.3367     26.8464
  1637.6000      7.8650      2.5090      0.1094      8.5432    143.7837     27.1739
  1637.7000      7.8650      2.5002      0.0622      9.0770    144.1792     27.3132
  1637.8000      7.8527      2.4877      0.0093      9.8349    143.1000     27.1990
  1637.9000      7.8527      2.5022      0.0006      8.9599    140.5184     26.9942
  1638.0000      7.8479      2.5397      0.1016      6.6823    140.2795     27.1181
  1638.1000      7.8479      2.5641      0.0683      5.2063    145.2389     27.5233
  1638.2000      7.8479      2.5652      0.0553      5.1393    153.2551     27.4971
  1638.3000      7.8773      2.5576      0.0947      5.5993    160.4286     26.8502
  1638.4000      7.8773      2.5458      0.1024      6.3123    164.6646     26.2415
  1638.5000      7.8992      2.5330      0.0993      7.0928    164.4380     26.0219
  1638.6000      7.8992      2.5303      0.0751      7.2569    162.3635     26.0673
  1638.7000      7.8992      2.5407      0.0676      6.6219    162.7967     26.4357
  1638.8000      7.8761      2.5529      0.0553      5.8841    159.5550     27.0080
  1638.9000      7.8761      2.5543      0.1448      5.8025    147.9952     27.5594
  1639.0000      7.8661      2.5378      0.0929      6.7978    136.8667     27.9579
  1639.1000      7.8661      2.5103      0.0809      8.4654    131.6460     27.7204
  1639.2000      7.8661      2.4878      0.0995      9.8314    128.6739     26.7681
  1639.3000      7.8960      2.4809      0.0549     10.2515    126.0375     25.9548
  1639.4000      7.8960      2.4926      0.0791      9.5404    125.7964     25.8923
  1639.5000      7.8430      2.5163      0.1206      8.1016    131.4743     26.2475
  1639.6000      7.8430      2.5363      0.1525      6.8909    141.4575     26.4305
  1639.7000      7.8430      2.5464      0.1308      6.2759    148.4855     26.5190
  1639.8000      7.8337      2.5572      0.1649      5.6245    149.9294     26.7833
  1639.9000      7.8337      2.5720      0.1577      4.7269    148.4225     27.0439
  1640.0000      7.8616      2.5743      0.2000      4.5895    147.7027     26.9076
  1640.1000      7.8616      2.5473      0.1743      6.2243    150.6175     26.3529
  1640.2000      7.8616      2.4974      0.1545      9.2509    154.9173     26.0228
  1640.3000      7.8465      2.4517      0.0710     12.0198    153.3308     26.1904
  1640.4000      7.8465      2.4399      0.0865     12.7356    144.1656     26.6681
  1640.5000      7.8392      2.4586      0.1383     11.6023    136.4897     27.2132
  1640.6000      7.8392      2.4711      0.1492     10.8439    134.3996     27.2183
  1640.7000      7.8392      2.4638      0.0808     11.2853    133.7227     26.5597
  1640.8000      7.8598      2.4497      0.1543     12.1407    133.0830     26.0860
  1640.9000      7.8598      2.4299      0.1353     13.3385    135.9286     26.3145
  1641.0000      7.8421      2.4114      0.0897     14.4580    142.0230     26.9751
  1641.1000      7.8421      2.4102      0.1416     14.5362    144.6582     27.5655
