~Version Information
 VERS.                                  2.0 : CWLS LAS VERSION
 WRAP.                                   NO : WRAPING MODE
 SWARE .                 MController 2.5.0J : SOFTWARE VERSION
~Well Information
 WELL.                       Vision 31-11Tr : WELL
 COMP.    Pioneer Natural Resources USA Inc : COMPANY
 FLD.                      Purgatoire River : FIELD
 LOC.                 NW/NE SEC11 T32S R66W : LOCATION
 DATE.                             10/07/05 : DATE(S) LOGGED
 SRVC.       Blanco Geological Services LLC : SERVICE COMPANY
 STAT.                             Colorado : STATE
 CNTY.                           Las Animas : COUNTY
 CTRY.                                  USA : COUNTRY
 API.                       05-071-08305-00 : API NUMBER
 STRT.FT                             408.00 : START DEPTH
 STOP.FT                            1824.00 : STOP DEPTH
 STEP.FT                               1.00 : DEPTH INCREMENT
 NULL.                                -9999 : NULL VALUE
~Curve information
 DEPTH.FT                                   :
 ROP.MIN/FT                                 :
 GAS.UNITS                                  :
~ASCII Log data
# ...
       808.0         0.20        351.3 
       809.0         0.37        318.1 
       810.0         0.27        218.5 
       811.0         0.17        204.2 
       812.0         0.20        176.9 
       813.0         0.13        159.5 
       814.0         0.17        146.4 
       815.0         0.50        142.9 
       816.0         0.17        127.5 
       817.0         0.17        119.6 
       818.0         0.20        114.7 
       819.0         0.20        113.1 
       820.0         0.20        105.3 
       821.0         0.23        102.9 
       822.0         0.22         98.0 
       823.0         0.20         94.7 
       824.0         0.23         94.0 
       825.0         0.20         97.8 
       826.0         0.20         97.8 
       827.0         0.17         94.3 
       828.0         0.23         87.6 
       829.0         0.20         83.6 
       830.0         0.17         83.6 
       831.0         0.17         82.7 
       832.0         0.23         74.4 
       833.0         0.23         71.1 
       834.0         0.20         71.1 
       835.0         1.18        144.2 
       836.0         1.00        258.4 
       837.0         0.47        243.6 
       838.0         0.20        196.5 
       839.0         0.23        173.4 
       840.0         0.20        154.9 
       841.0         0.23        134.6 
       842.0         0.20        127.6 
       843.0         0.20        113.9 
       844.0         0.28        110.8 
       845.0         0.23        104.1 
       846.0         0.23        101.0 
       847.0         0.17         97.6 
       848.0         0.20         96.6 
       849.0         0.20         94.1 
       850.0         0.17         94.1 
       851.0         0.13         92.9 
       852.0         0.13         91.5 
       853.0         0.20         91.4 
       854.0         0.23         89.3 
       855.0         0.13         89.3 
       856.0         0.13         89.7 
       857.0         0.17         89.7 
       858.0         0.17         82.3 
       859.0         0.20         79.5 
       860.0         0.23         74.0 
       861.0         0.27         71.2 
       862.0         0.18         67.7 
       863.0         0.17         67.7 
       864.0         0.17         66.3 
       865.0         0.17         64.5 
       866.0         1.30        130.4 
       867.0         0.10        130.4 
       868.0         0.83        227.9 
       869.0         0.43        220.1 
       870.0         0.32        196.4 
       871.0         0.30        177.9 
       872.0         0.23        143.2 
       873.0         0.20        133.6 
       874.0         0.17        120.1 
       875.0         0.17        110.2 
       876.0         0.13        109.3 
       877.0         0.20        102.7 
       878.0         0.20         98.3 
       879.0         0.20         93.1 
       880.0         0.10         89.7 
       881.0         0.20         88.4 
       882.0         0.20         84.9 
       883.0         0.20         83.8 
       884.0         0.13         83.8 
       885.0         0.23         83.7 
       886.0         0.28         83.4 
       887.0         0.17         84.6 
       888.0         0.17         84.6 
       889.0         0.30         81.7 
       890.0         0.17         79.4 
       891.0         0.23         73.2 
       892.0         0.27         73.1 
       893.0         0.20         68.7 
       894.0         0.27         67.2 
       895.0         0.10         65.9 
       896.0         1.27        158.0 
       897.0         0.55        189.9 
       898.0         0.30        187.2 
       899.0         0.23        171.2 
       900.0         0.23        168.7 
       901.0         0.23        149.8 
       902.0         0.23        127.3 
       903.0         0.13        110.8 
       904.0         0.13        108.9 
       905.0         0.27         95.3 
       906.0         0.23         80.4 
       907.0         0.83         76.0 
       908.0         0.25         76.5 
       909.0         0.30         81.3 
       910.0         0.20         85.4 
       911.0         0.17         87.6 
       912.0         0.20         88.1 
       913.0         0.17         88.1 
       914.0         0.30         86.6 
       915.0         0.17         84.2 
       916.0         0.17         81.4 
       917.0         0.23         81.4 
       918.0         0.20         78.2 
       919.0         0.20         79.0 
       920.0         0.20         75.2 
       921.0         0.23         74.3 
       922.0         0.17         70.7 
       923.0         0.20         69.7 
       924.0         0.22         69.7 
       925.0         0.23         69.4 
       926.0         1.33        126.1 
       927.0         0.17        126.1 
       928.0         0.40        169.0 
       929.0         0.77        186.9 
       930.0         0.58        173.6 
       931.0         0.50        152.8 
       932.0         0.30        131.7 
       933.0         0.27        122.4 
       934.0         0.23        113.0 
       935.0         0.23        110.0 
       936.0         0.27        106.7 
       937.0         0.27        103.7 
       938.0         0.40         99.8 
       939.0         0.27         99.1 
       940.0         0.23         98.5 
       941.0         0.22         98.1 
       942.0         0.23         97.4 
       943.0         0.20         94.8 
       944.0         0.20         91.5 
       945.0         0.20         91.5 
       946.0         0.17         90.8 
       947.0         0.20         90.1 
       948.0         0.13         92.6 
       949.0         0.17         92.6 
       950.0         0.13         94.5 
       951.0         0.13         94.5 
       952.0         0.17         96.9 
       953.0         0.20         98.3 
       954.0         0.23        101.1 
       955.0         0.23        101.3 
       956.0         2.35        210.4 
       957.0         0.33        219.4 
       958.0         0.27        197.1 
       959.0         0.33        188.1 
       960.0         0.23        162.8 
       961.0         0.23        152.0 
       962.0         0.27        135.5 
       963.0         0.62        117.5 
       964.0         0.27         81.1 
       965.0         0.27         78.6 
       966.0         0.23         75.9 
       967.0         0.27         74.5 
       968.0         0.20         73.9 
       969.0         0.23         71.0 
       970.0         0.27         69.1 
       971.0         0.23         69.0 
       972.0         0.27         67.5 
       973.0         0.23         68.2 
       974.0         0.38         71.0 
       975.0         0.37         74.3 
       976.0         0.37         75.5 
       977.0         0.33         74.7 
       978.0         0.37         73.8 
       979.0         0.37         73.4 
       980.0         0.23         72.5 
       981.0         0.37         74.5 
       982.0         0.37         72.3 
       983.0         0.30         71.4 
       984.0         0.35         68.1 
       985.0         0.37         61.9 
       986.0         1.50        141.2 
       987.0         0.90        247.4 
       988.0         0.17        228.6 
       989.0         0.62        222.5 
       990.0         0.17        164.3 
       991.0         0.23        155.4 
       992.0         0.33        129.2 
       993.0         0.30        125.4 
       994.0         0.30        105.7 
       995.0         0.33         96.9 
       996.0         0.33         89.9 
       997.0         0.37         79.4 
       998.0         0.37         75.4 
       999.0         0.23         72.3 
      1000.0         0.28         70.1 
      1001.0         0.23         69.1 
      1002.0         0.27         68.7 
      1003.0         0.23         68.1 
      1004.0         0.27         68.3 
      1005.0         0.30         67.1 
      1006.0         0.30         66.4 
      1007.0         0.20         65.6 
