~Version Information
VERS.                      2.0: CWLS Log ASCII Standard - VERSION 2.0
WRAP.                       NO: One line per depth step
~Well Information Block
STRT.FT               430.0000: 
STOP.FT              2827.0000: 
STEP.FT                 0.1000: 
NULL.                -999.2500: 
COMP.          Pioneer Natural Resources: COMPANY
WELL.           Ei-ei-oh 31-24: WELL
FLD.           Purgatoire River: FIELD
LOC.           235' FNL & 2001' FEL--: LOCATION
PROV.                 Colorado: PROVINCE
CNTY.               Las Animas: COUNTRY
SRVC.                Patterson: SERVICE COMPANY
DATE.          Thu Jun 16 07:14:41 2005: LOG DATE
UWI.           05 071 08403 00: UNIQUE WELL ID
~Curve Information Block
DEPT.FT            0 000 00 00: Depth
DCAL.in                       : CDL Caliper
DPOR.pu                       : CDL Density Porosity
NPOR.pu                       : Neutron Porosity
RHOB.g/cc                     : CDL Bulk Density
RHOC.g/cc                     : CDL Density Correction
GR.GAPI                       : Gamma Ray
~Parameter Information Block
~A  Depth       DCAL        DPOR        NPOR        RHOB        RHOC         GR     
# ...
  1639.6000      7.9936      4.0698     29.5980      2.5828      0.0273    131.8390
  1639.7000      7.9936      4.8523     29.2548      2.5699      0.0387    129.8946
  1639.8000      7.9921      5.3167     28.7355      2.5623      0.0394    118.9574
  1639.9000      7.9921      5.1318     28.2548      2.5653      0.0648    112.1112
  1640.0000      7.9916      4.1109     27.6116      2.5822      0.0797    119.1803
  1640.1000      7.9916      2.4462     26.8675      2.6096      0.1253    132.1505
  1640.2000      7.9916      1.1355     26.2019      2.6313      0.1374    134.1640
  1640.3000      7.9913      1.1080     25.6284      2.6317      0.1011    122.4924
  1640.4000      7.9913      2.0926     25.4483      2.6155      0.0764    108.4359
  1640.5000      7.9901      2.8952     25.6751      2.6022      0.0283    100.8163
  1640.6000      7.9901      2.4550     25.7388      2.6095      0.0342     99.7701
  1640.7000      7.9901      0.9938     25.2598      2.6336      0.0866    100.9651
  1640.8000      7.9898     -0.3593     24.6572      2.6559      0.0831    102.1051
  1640.9000      7.9898     -1.1811     24.6048      2.6695      0.0664    104.0594
  1641.0000      7.9907     -1.5354     25.2297      2.6753      0.0756    105.4608
  1641.1000      7.9907     -1.0971     25.9265      2.6681      0.0546    104.6121
  1641.2000      7.9907      0.1983     25.8606      2.6467      0.0529    103.8609
  1641.3000      7.9923      1.8937     25.0803      2.6188      0.0412    103.3191
  1641.4000      7.9923      3.5906     24.3137      2.5908      0.0388    100.6330
  1641.5000      7.9929      5.1251     24.0553      2.5654      0.0334     97.4252
  1641.6000      7.9929      6.4632     24.5627      2.5434      0.0186     96.7476
  1641.7000      7.9929      7.4812     25.3712      2.5266      0.0118     98.7456
  1641.8000      7.9962      7.7255     25.4267      2.5225     -0.0261    102.1542
  1641.9000      7.9962      7.0754     24.9692      2.5333      0.0165    105.6277
  1642.0000      8.0065      6.2371     25.1005      2.5471      0.0444    106.8518
  1642.1000      8.0065      5.5026     25.5727      2.5592      0.0460    104.8303
  1642.2000      8.0065      4.9270     25.4685      2.5687      0.0847    101.2302
  1642.3000      8.0203      4.7597     24.9589      2.5715      0.0662     97.1840
  1642.4000      8.0203      4.8143     24.7143      2.5706      0.1092     94.4532
  1642.5000      8.0344      4.9078     24.9062      2.5690      0.0952     91.8365
  1642.6000      8.0344      5.0957     25.4755      2.5659      0.0704     89.2303
  1642.7000      8.0344      5.5389     26.2711      2.5586      0.0389     89.8938
  1642.8000      8.0454      6.5864     26.7963      2.5413      0.1178     91.4866
  1642.9000      8.0454      8.0491     26.8202      2.5172      0.0462     90.5021
  1643.0000      8.0530      8.8413     26.8069      2.5041      0.0710     90.7166
  1643.1000      8.0530      8.5804     27.1586      2.5084      0.0799     96.4777
  1643.2000      8.0530      7.5931     27.8101      2.5247      0.0907    103.7055
  1643.3000      8.0570      6.1170     28.5662      2.5491      0.0898    108.1027
  1643.4000      8.0570      4.6802     29.0498      2.5728      0.1419    110.9397
  1643.5000      8.0601      4.0112     28.9224      2.5838      0.1240    111.5315
  1643.6000      8.0601      4.0544     28.4484      2.5831      0.1058    108.8552
  1643.7000      8.0601      3.6842     28.3211      2.5892      0.0865    108.0990
  1643.8000      8.0651      2.2095     28.6038      2.6135      0.1202    112.5655
  1643.9000      8.0651      0.7046     28.5780      2.6384      0.1533    117.6358
  1644.0000      8.0691      0.5395     28.1049      2.6411      0.1195    117.5409
  1644.1000      8.0691      2.0168     28.0298      2.6167      0.0956    113.8288
  1644.2000      8.0691      4.8595     28.8513      2.5698      0.0344    112.0388
  1644.3000      8.0707      8.1842     29.9456      2.5150     -0.0233    111.8899
  1644.4000      8.0707     10.8815     30.5579      2.4705     -0.0082    108.1582
  1644.5000      8.0695     13.0550     30.6962      2.4346      0.0106    101.9702
  1644.6000      8.0695     15.6125     30.7684      2.3924      0.0208    100.0532
  1644.7000      8.0695     18.1069     30.9521      2.3512     -0.0390    104.2197
  1644.8000      8.0688     18.9565     31.0574      2.3372      0.0016    111.2778
  1644.9000      8.0688     17.8343     30.9525      2.3557      0.0543    116.9624
  1645.0000      8.0753     15.8016     30.7741      2.3893      0.1155    119.3726
  1645.1000      8.0753     13.7039     30.7385      2.4239      0.1242    121.5886
  1645.2000      8.0753     11.6513     30.7620      2.4578      0.1517    125.8071
  1645.3000      8.0977      9.5569     30.5992      2.4923      0.2090    128.0101
  1645.4000      8.0977      7.6565     30.2383      2.5237      0.2659    124.2248
  1645.5000      8.1376      6.5133     29.9851      2.5425      0.2430    119.5692
  1645.6000      8.1376      6.5196     30.0257      2.5424      0.2188    122.1111
  1645.7000      8.1376      7.5045     30.0426      2.5262      0.1777    132.3159
  1645.8000      8.1631      8.6083     29.4981      2.5080      0.1427    145.0408
  1645.9000      8.1631      9.0544     28.6114      2.5006      0.1271    152.3758
  1646.0000      8.1310      9.0431     28.3743      2.5008      0.1125    148.5391
  1646.1000      8.1310      8.7129     28.9477      2.5062      0.0902    141.7641
  1646.2000      8.1310      7.1636     29.3858      2.5318      0.0687    142.4479
  1646.3000      8.0725      3.8568     29.1787      2.5864      0.1089    146.6188
  1646.4000      8.0725     -0.2837     28.9689      2.6547      0.1458    144.2677
  1646.5000      8.0309     -3.8090     29.2967      2.7128      0.1731    133.2086
  1646.6000      8.0309     -6.0208     29.4479      2.7493      0.2019    119.5214
  1646.7000      8.0309     -7.2325     28.7097      2.7693      0.2027    110.2074
  1646.8000      8.0046     -8.3218     27.8254      2.7873      0.1787    105.5398
  1646.9000      8.0046     -9.9197     27.6689      2.8137      0.1480    102.9077
  1647.0000      7.9926    -11.4573     27.8330      2.8390      0.1471    102.4145
  1647.1000      7.9926    -11.9520     27.6871      2.8472      0.0973    103.8796
  1647.2000      7.9926    -11.4726     27.1436      2.8393      0.0681    105.6206
  1647.3000      7.9903    -10.1283     26.3206      2.8171      0.0380    103.6709
  1647.4000      7.9903     -7.4218     25.4076      2.7725     -0.0130     98.4173
  1647.5000      7.9916     -3.5800     24.6992      2.7091     -0.0589     98.1769
  1647.6000      7.9916      0.1218     24.3833      2.6480     -0.0208    103.4502
  1647.7000      7.9916      2.4195     24.6003      2.6101     -0.0082    105.6020
  1647.8000      7.9981      3.3709     25.4312      2.5944      0.0226    103.4571
  1647.9000      7.9981      4.4114     26.4322      2.5772      0.0584    102.2315
  1648.0000      8.0129      5.8899     26.8017      2.5528     -0.0101    103.4430
  1648.1000      8.0129      6.1395     26.4205      2.5487     -0.0259    107.3449
  1648.2000      8.0129      4.7496     26.0051      2.5716      0.0487    111.0058
  1648.3000      8.0317      3.4561     25.9322      2.5930      0.0698    110.5913
  1648.4000      8.0317      3.1498     26.1477      2.5980      0.0315    108.7647
  1648.5000      8.0407      3.2725     26.4134      2.5960      0.0608    108.9445
  1648.6000      8.0407      3.3672     26.0365      2.5944      0.0695    108.4559
  1648.7000      8.0407      3.5391     25.0597      2.5916      0.0812    105.2454
  1648.8000      8.0412      4.0289     24.5030      2.5835      0.0676    101.9895
  1648.9000      8.0412      4.6886     24.6222      2.5726      0.0409     98.0230
  1649.0000      8.0405      4.9678     24.6406      2.5680      0.0469     94.3287
  1649.1000      8.0405      4.6836     24.0028      2.5727      0.0676     96.2741
