~Version Information
VERS.                      2.0: CWLS Log ASCII Standard - VERSION 2.0
WRAP.                       NO: One line per depth step
~Well Information Block
STRT.FT               510.0000: 
STOP.FT              1848.7500: 
STEP.FT                 0.2500: 
NULL.                -999.2500: 
COMP.          Pioneer Natural Resources: COMPANY
WELL.           Stampede 42-18: WELL
FLD.           Purgatoire River: FIELD
LOC.           2479' FNL & 160' FEL--: LOCATION
CNTY.               Las Animas: COUNTY
SRVC.          Superior Well Services: SERVICE COMPANY
DATE.          Sat Jun 09 02:07:27 2007: LOG DATE
UWI.           05 071 08237 00: UNIQUE WELL ID
STAT.                 Colorado: STATE
~Curve Information Block
DEPT.FT            0 000 00 00: Depth
SN.Ohm-m                      : IEL Short Normal
SP.mV                         : IEL Spontaneous Potential
DIR.Ohm-m                     : IEL Induction Resistivity
GR.GAPI                       : Gamma Ray
~Parameter Information Block
~A  Depth        SN          SP         DIR          GR     
# ...
  1280.5000     36.1462    101.5169     24.9982    114.3691
  1280.7500     36.6800    101.7213     25.1765    117.1562
  1281.0000     36.7196    101.9122     25.1667    119.5694
  1281.2500     36.1829    102.1122     24.8622    119.2560
  1281.5000     34.9746    102.3540     24.2090    115.9213
  1281.7500     33.0353    102.6670     23.2109    112.6584
  1282.0000     30.4049    103.0598     21.9199    108.5689
  1282.2500     27.2891    103.5117     20.4280    107.6811
  1282.5000     24.0320    103.9815     18.8551    110.3665
  1282.7500     20.9907    104.4289     17.3200    114.9103
  1283.0000     18.4174    104.8306     15.9093    125.1475
  1283.2500     16.4023    105.1820     14.6638    133.4690
  1283.5000     14.9007    105.4888     13.5859    146.2636
  1283.7500     13.8092    105.7626     12.6586    153.7252
  1284.0000     13.0157    106.0190     11.8610    161.7126
  1284.2500     12.4221    106.2777     11.1757    164.6616
  1284.5000     11.9668    106.5590     10.5887    166.0867
  1284.7500     11.6245    106.8774     10.0867    165.4669
  1285.0000     11.3801    107.2309      9.6579    162.4907
  1285.2500     11.2166    107.5970      9.2944    159.1422
  1285.5000     11.1165    107.9430      8.9933    152.3580
  1285.7500     11.0646    108.2457      8.7544    147.1925
  1286.0000     11.0505    108.5061      8.5762    139.9162
  1286.2500     11.0612    108.7464      8.4535    136.2948
  1286.5000     11.0803    108.9951      8.3778    133.9422
  1286.7500     11.1118    109.2715      8.3395    134.7256
  1287.0000     11.1860    109.5813      8.3303    138.8824
  1287.2500     11.3117    109.9215      8.3453    142.7017
  1287.5000     11.4274    110.2866      8.3829    147.9748
  1287.7500     11.4449    110.6689      8.4435    150.5081
  1288.0000     11.3344    111.0530      8.5255    153.5955
  1288.2500     11.1331    111.4089      8.6232    156.3066
  1288.5000     10.8921    111.6943      8.7267    162.1943
  1288.7500     10.6399    111.8710      8.8258    166.5476
  1289.0000     10.3741    111.9234      8.9143    171.4938
  1289.2500     10.0835    111.8640      8.9905    173.0505
  1289.5000      9.7897    111.7225      9.0539    173.1297
  1289.7500      9.5443    111.5298      9.1017    172.1908
  1290.0000      9.3822    111.3049      9.1288    169.5862
  1290.2500      9.3194    111.0495      9.1315    166.9127
  1290.5000      9.3809    110.7535      9.1127    161.6535
  1290.7500      9.5934    110.4077      9.0826    157.9677
  1291.0000      9.9627    110.0155      9.0568    153.7901
  1291.2500     10.4695    109.5984      9.0510    152.6163
  1291.5000     11.0501    109.1942      9.0758    153.5681
  1291.7500     11.5682    108.8474      9.1335    155.6549
  1292.0000     11.8751    108.5951      9.2172    159.6369
  1292.2500     11.9349    108.4533      9.3142    161.9199
  1292.5000     11.8412    108.4151      9.4091    163.7288
  1292.7500     11.7108    108.4597      9.4874    163.8551
  1293.0000     11.6090    108.5627      9.5367    162.9944
  1293.2500     11.5603    108.7002      9.5486    161.9165
  1293.5000     11.5677    108.8493      9.5214    159.6289
  1293.7500     11.6046    108.9886      9.4613    157.9502
  1294.0000     11.6150    109.1042      9.3819    156.3051
  1294.2500     11.5508    109.1925      9.3003    156.3556
  1294.5000     11.4136    109.2544      9.2328    158.0991
  1294.7500     11.2572    109.2793      9.1927    159.6724
  1295.0000     11.1475    109.2350      9.1896    160.9182
  1295.2500     11.1149    109.0805      9.2290    160.2399
  1295.5000     11.1603    108.7991      9.3125    157.0189
  1295.7500     11.3041    108.4158      9.4381    154.3438
  1296.0000     11.5915    107.9746      9.6024    151.6498
  1296.2500     12.0459    107.4991      9.8043    151.3345
  1296.5000     12.6359    106.9741     10.0473    152.3429
  1296.7500     13.2936    106.3577     10.3382    152.9993
  1297.0000     13.9585    105.6059     10.6838    152.4025
  1297.2500     14.5984    104.6929     11.0877    150.3657
  1297.5000     15.2061    103.6219     11.5522    144.5018
  1297.7500     15.8091    102.4254     12.0844    139.0538
  1298.0000     16.4867    101.1598     12.6998    130.0673
  1298.2500     17.3554     99.8949     13.4191    124.6097
  1298.5000     18.5188     98.6956     14.2565    118.5374
  1298.7500     20.0353     97.6009     15.2078    116.0184
  1299.0000     21.8957     96.6142     16.2490    113.5669
  1299.2500     23.9704     95.7175     17.3499    111.9032
  1299.5000     26.0108     94.8963     18.4977    108.2582
  1299.7500     27.7997     94.1529     19.7130    105.1211
  1300.0000     29.2999     93.5006     21.0426    100.5694
  1300.2500     30.6056     92.9490     22.5283     98.5209
  1300.5000     31.7859     92.4940     24.1652     97.7679
  1300.7500     32.8330     92.1168     25.8735     98.7108
  1301.0000     33.7214     91.7944     27.5127    101.5237
  1301.2500     34.4432     91.5134     28.9422    103.8605
  1301.5000     34.9995     91.2767     30.0945    107.1673
  1301.7500     35.4149     91.0967     31.0012    108.4441
  1302.0000     35.7723     90.9847     31.7555    107.5686
  1302.2500     36.1850     90.9475     32.4482    104.9559
  1302.5000     36.7090     90.9851     33.1179     99.3243
  1302.7500     37.2986     91.0806     33.7379     95.6229
  1303.0000     37.8627     91.1929     34.2373     91.4917
  1303.2500     38.3552     91.2731     34.5379     89.7260
  1303.5000     38.7860     91.3009     34.5826     87.7894
  1303.7500     39.1701     91.2999     34.3414     86.5244
  1304.0000     39.5251     91.3120     33.8017     84.5399
  1304.2500     39.8812     91.3614     32.9584     83.3998
  1304.5000     40.2141     91.4463     31.8083     82.3122
  1304.7500     40.3686     91.5570     30.3563     81.9508
  1305.0000     40.0765     91.6930     28.6391     81.5529
  1305.2500     39.0535     91.8647     26.7507     81.2187
  1305.5000     37.1204     92.0835     24.8371     80.9962
  1305.7500     34.3099     92.3551     23.0462     81.8156
  1306.0000     30.8858     92.6813     21.4724     86.4393
  1306.2500     27.2296     93.0697     20.1343     92.7271
  1306.5000     23.6971     93.5394     18.9960    107.1906
  1306.7500     20.5819     94.1125     18.0062    119.2670
  1307.0000     18.1304     94.7950     17.1289    138.0778
  1307.2500     16.4695     95.5614     16.3512    149.1006
  1307.5000     15.5316     96.3571     15.6724    160.6897
  1307.7500     15.1068     97.1189     15.0941    164.4588
  1308.0000     14.9545     97.8003     14.6188    164.8552
  1308.2500     14.8711     98.3854     14.2553    162.7587
  1308.5000     14.7466     98.8816     14.0180    158.1730
  1308.7500     14.6452     99.3019     13.9206    154.8797
  1309.0000     14.8170     99.6539     13.9685    149.6824
  1309.2500     15.5675     99.9427     14.1576    145.7870
  1309.5000     17.0659    100.1774     14.4779    139.2199
  1309.7500     19.1795    100.3729     14.9184    134.6587
  1310.0000     21.4561    100.5459     15.4710    128.0221
  1310.2500     23.4011    100.7117     16.1292    123.6488
  1310.5000     24.8593    100.8822     16.8852    116.8158
  1310.7500     26.0612    101.0666     17.7223    112.3885
  1311.0000     27.2820    101.2750     18.6095    107.5832
  1311.2500     28.5134    101.5223     19.5018    106.4769
  1311.5000     29.4537    101.8258     20.3503    107.8886
  1311.7500     29.7596    102.1938     21.1152    110.0383
  1312.0000     29.3222    102.6194     21.7742    113.7058
  1312.2500     28.3632    103.0861     22.3244    116.1946
  1312.5000     27.2914    103.5778     22.7793    120.0795
  1312.7500     26.4456    104.0836     23.1615    122.6828
  1313.0000     25.9484    104.5954     23.4913    125.9230
  1313.2500     25.7500    105.1044     23.7749    126.9278
  1313.5000     25.7291    105.5999     23.9980    124.8911
  1313.7500     25.7557    106.0716     24.1279    120.1151
