~Version Information
VERS.                      2.0: CWLS Log ASCII Standard - VERSION 2.0
WRAP.                       NO: One line per depth step
~Well Information Block
STRT.FT               -12.3000: 
STOP.FT              1768.7000: 
STEP.FT                 0.1000: 
NULL.                -999.2500: 
COMP.          Petrogulf Corporation: COMPANY
WELL.          Alexander 9-43R: WELL
FLD.           Purgatorie River: FIELD
LOC.           1652' FSL & 1049' FEL--: LOCATION
CNTY.               Las Animas: COUNTY
SRVC.                         : SERVICE COMPANY
DATE.          Tue Sep 28 14:27:54 2004: LOG DATE
UWI.                          : UNIQUE WELL ID
STAT.                       CO: STATE
~Curve Information Block
DEPT.FT            0 000 00 00: Depth
GR.GAPI                       : Gamma Ray
CCL.                          : Casing Collar Locator
TT3.usec                      : CBL 3' Travel Time
AMP3.mV                       : CBL 3' Amplitude
~Parameter Information Block
~A  Depth        GR         CCL         TT3         AMP3    
   -12.3000   -999.2500   -999.2500   -999.2500   -999.2500
   -12.2000   -999.2500   -999.2500   -999.2500   -999.2500
   -12.1000   -999.2500   -999.2500   -999.2500   -999.2500
   -12.0000   -999.2500   -999.2500   -999.2500   -999.2500
   -11.9000   -999.2500   -999.2500   -999.2500   -999.2500
   -11.8000   -999.2500   -999.2500   -999.2500   -999.2500
   -11.7000   -999.2500   -999.2500    921.0000      1.1602
   -11.6000   -999.2500   -999.2500    921.0000      1.1602
   -11.5000   -999.2500   -999.2500    921.0000      1.1602
   -11.4000   -999.2500   -999.2500    921.0000      1.1672
   -11.3000   -999.2500   -999.2500    921.0000      1.1672
   -11.2000   -999.2500   -999.2500    921.0000      1.1531
   -11.1000   -999.2500   -999.2500    921.0000      1.1531
   -11.0000   -999.2500   -999.2500    921.0000      1.1531
   -10.9000   -999.2500   -999.2500    921.0000      1.1258
   -10.8000   -999.2500   -999.2500    921.0000      1.1258
   -10.7000   -999.2500   -999.2500    921.0000      1.0955
   -10.6000   -999.2500   -999.2500    921.0000      1.0955
   -10.5000   -999.2500   -999.2500    921.0000      1.0955
   -10.4000   -999.2500   -999.2500    921.0000      1.0748
   -10.3000   -999.2500   -999.2500    921.0000      1.0748
   -10.2000   -999.2500   -999.2500    921.0000      1.0730
   -10.1000   -999.2500   -999.2500    921.0000      1.0730
   -10.0000   -999.2500   -999.2500    921.0000      1.0730
    -9.9000   -999.2500   -999.2500    921.0000      1.0871
    -9.8000   -999.2500   -999.2500    921.0000      1.0871
    -9.7000   -999.2500   -999.2500    921.0000      1.1026
    -9.6000   -999.2500   -999.2500    921.0000      1.1026
    -9.5000   -999.2500   -999.2500    921.0000      1.1026
    -9.4000   -999.2500   -999.2500    921.0000      1.1090
    -9.3000   -999.2500   -999.2500    921.0000      1.1090
    -9.2000   -999.2500   -999.2500    921.0000      1.1096
    -9.1000   -999.2500   -999.2500    921.0000      1.1096
    -9.0000   -999.2500   -999.2500    921.0000      1.1096
    -8.9000   -999.2500   -999.2500    921.0000      1.1143
    -8.8000   -999.2500   -999.2500    921.0000      1.1143
    -8.7000   -999.2500   -999.2500    921.0000      1.1246
    -8.6000   -999.2500   -999.2500    921.0000      1.1246
    -8.5000   -999.2500   -999.2500    921.0000      1.1246
    -8.4000   -999.2500   -999.2500    921.0000      1.1304
    -8.3000   -999.2500   -999.2500    921.0000      1.1304
    -8.2000   -999.2500   -999.2500    921.0000      1.1199
    -8.1000   -999.2500   -999.2500    921.0000      1.1199
    -8.0000   -999.2500   -999.2500    921.0000      1.1199
    -7.9000   -999.2500   -999.2500    921.0000      1.0901
    -7.8000   -999.2500   -999.2500    921.0000      1.0901
    -7.7000   -999.2500   -999.2500    921.0000      1.0465
    -7.6000   -999.2500   -999.2500    921.0000      1.0465
    -7.5000   -999.2500   -999.2500    921.0000      1.0465
    -7.4000   -999.2500   -999.2500    921.0000      0.9950
    -7.3000   -999.2500   -999.2500    921.0000      0.9950
    -7.2000   -999.2500   -999.2500    921.0000      0.9359
    -7.1000   -999.2500   -999.2500    921.0000      0.9359
    -7.0000   -999.2500   -999.2500    921.0000      0.9359
    -6.9000   -999.2500   -999.2500    921.0000      0.8693
    -6.8000   -999.2500   -999.2500    921.0000      0.8693
    -6.7000   -999.2500   -999.2500    921.0000      0.8064
    -6.6000   -999.2500   -999.2500    921.0000      0.8064
    -6.5000   -999.2500   -999.2500    921.0000      0.8064
    -6.4000   -999.2500   -999.2500    921.0000      0.7753
    -6.3000   -999.2500   -999.2500    921.0000      0.7753
    -6.2000   -999.2500   -999.2500    921.0000      0.8053
    -6.1000   -999.2500      0.0000    921.0000      0.8053
    -6.0000   -999.2500      0.0000    921.0000      0.8053
    -5.9000   -999.2500      0.0000    921.0000      0.8980
    -5.8000   -999.2500      0.0000    921.0000      0.8980
    -5.7000   -999.2500      0.0000    921.0000      1.0177
    -5.6000   -999.2500      0.0000    921.0000      1.0177
    -5.5000   -999.2500      0.0000    921.0000      1.0177
    -5.4000   -999.2500      0.0000    921.0000      1.1183
    -5.3000   -999.2500      0.0000    921.0000      1.1183
    -5.2000   -999.2500      0.0000    921.0000      1.1792
    -5.1000   -999.2500      0.0000    921.0000      1.1792
    -5.0000   -999.2500      0.0000    921.0000      1.1792
    -4.9000   -999.2500      0.0000    921.0000      1.2105
    -4.8000   -999.2500      0.0000    921.0000      1.2105
    -4.7000   -999.2500      0.0000    921.0000      1.2300
    -4.6000   -999.2500      0.0000    921.0000      1.2300
    -4.5000   -999.2500      0.0000    921.0000      1.2300
    -4.4000   -999.2500      0.0000    921.0000      1.2438
    -4.3000   -999.2500      0.0000    921.0000      1.2438
    -4.2000   -999.2500      0.0000    921.0000      1.2470
    -4.1000   -999.2500      0.0000    921.0000      1.2470
    -4.0000   -999.2500      0.0000    921.0000      1.2470
    -3.9000   -999.2500      0.0000    921.0000      1.2374
    -3.8000   -999.2500      0.0000    921.0000      1.2374
    -3.7000   -999.2500      0.0000    921.0000      1.2225
    -3.6000   -999.2500      0.0000    921.0000      1.2225
    -3.5000   -999.2500      0.0000    921.0000      1.2225
    -3.4000   -999.2500      0.0000    921.0000      1.2105
    -3.3000   -999.2500     -2.0000    921.0000      1.2105
    -3.2000   -999.2500      0.0000    921.0000      1.2008
    -3.1000   -999.2500      2.0000    921.0000      1.2008
    -3.0000   -999.2500      0.0000    921.0000      1.2008
    -2.9000   -999.2500     -2.0000    921.0000      1.1884
    -2.8000   -999.2500      0.0000    921.0000      1.1884
    -2.7000   -999.2500      2.0000    921.0000      1.1745
    -2.6000   -999.2500      0.0000    921.0000      1.1745
    -2.5000   -999.2500      0.0000    921.0000      1.1745
    -2.4000   -999.2500      0.0000    921.0000      1.1713
    -2.3000   -999.2500      0.0000    921.0000      1.1713
    -2.2000   -999.2500      0.0000    921.0000      1.2024
    -2.1000   -999.2500      0.0000    921.0000      1.2024
    -2.0000   -999.2500      0.0000    921.0000      1.2024
    -1.9000   -999.2500      0.0000    921.0000      1.3027
    -1.8000   -999.2500      0.0000    921.0000      1.3027
    -1.7000   -999.2500      0.0000    920.9584      1.5224
    -1.6000   -999.2500      0.0000    920.9584      1.5224
    -1.5000   -999.2500      0.0000    920.9584      1.5224
    -1.4000   -999.2500      0.0000    920.6912      1.9494
    -1.3000   -999.2500      0.0000    920.6912      1.9494
    -1.2000     38.7330      0.0000    919.3783      2.7605
    -1.1000     38.7330      0.0000    919.3783      2.7605
    -1.0000     38.7330      0.0000    919.3783      2.7605
    -0.9000     42.0418      0.0000    914.3137      4.2792
    -0.8000     42.0418      0.0000    914.3137      4.2792
    -0.7000     46.5953      0.0000    899.2833      6.9549
    -0.6000     46.5953      0.0000    899.2833      6.9549
    -0.5000     46.5953      0.0000    899.2833      6.9549
    -0.4000     51.2516      0.0000    865.3601     11.1539
    -0.3000     51.2516      0.0000    865.3601     11.1539
    -0.2000     54.4664      0.0000    807.9171     16.7883
    -0.1000     54.4664      0.0000    807.9171     16.7883
     0.0000     54.4664      0.0000    807.9171     16.7883
     0.1000     54.4664      0.0000    807.9171     16.7883
     0.2000     54.4664      0.0000    807.9171     16.7883
     0.3000     53.3628      0.0000    736.6252     23.0987
     0.4000     53.3628      0.0000    736.6252     23.0987
     0.5000     50.4575      0.0000    673.6225     28.9473
     0.6000     50.4575      0.0000    673.6225     28.9473
     0.7000     50.4575      0.0000    673.6225     28.9473
     0.8000     48.1208      0.0000    632.4166     33.4992
     0.9000     48.1208      0.0000    632.4166     33.4992
     1.0000     47.5148      0.0000    599.7807     36.6826
