~Version Information
VERS.                      2.0: CWLS Log ASCII Standard - VERSION 2.0
WRAP.                       NO: One line per depth step
~Well Information Block
STRT.FT               521.0000: 
STOP.FT              2732.5000: 
STEP.FT                 0.2500: 
NULL.                -999.2500: 
COMP.          Petrogulf Corporation: COMPANY
WELL.              Silva 6-22V: WELL
FLD.           Purgatorie River: FIELD
LOC.           1936' FNL & 1798' FWL: LOCATION
CNTY.               Las Animas: COUNTY
SRVC.                         : SERVICE COMPANY
DATE.          Tue Nov 09 08:09:38 2004: LOG DATE
UWI.           05 071 08143 00: UNIQUE WELL ID
STAT.                 Colorado: STATE
~Curve Information Block
DEPT.FT            0 000 00 00: Depth
SP.mV                         : DIL Spontaneous Potential
RILD.Ohm-m                    : DIL Deep Resistivity
RILM.Ohm-m                    : DIL Medium Resistivity
RLL3.Ohm-m                    : DIL Shallow Resistivity
GR.GAPI                       : Gamma Ray
~Parameter Information Block
~A  Depth        SP         RILD        RILM        RLL3         GR     
# ...
  2705.0000      0.4956     17.1560     21.5735     36.2438     47.2505
  2705.2500      0.2164     17.7780     22.6944     37.7071     34.5571
  2705.5000     -0.0414     18.3472     23.7408     39.6156     17.3148
  2705.7500     -0.2673     18.8507     24.6728     41.8356      9.2914
  2706.0000     -0.4513     19.2822     25.4520     44.1114      2.8194
  2706.2500     -0.5867     19.6431     26.0496     46.1063      1.0641
  2706.5000     -0.6723     19.9417     26.4542     47.4699      0.1862
  2706.7500     -0.7143     20.1913     26.6767     47.9210      0.0472
  2707.0000     -0.7261     20.4070     26.7500     47.3274      0.0030
  2707.2500     -0.7270     20.6026     26.7232     45.7619   -999.2500
  2707.5000     -0.7380     20.7877     26.6534     43.5119   -999.2500
  2707.7500     -0.7782     20.9670     26.5956     41.0324   -999.2500
  2708.0000     -0.8604     21.1398     26.5967     38.8474   -999.2500
  2708.2500     -0.9887     21.3008     26.6900     37.4247   -999.2500
  2708.5000     -1.1567     21.4424     26.8941     37.0613   -999.2500
  2708.7500     -1.3494     21.5567     27.2122     37.8132   -999.2500
  2709.0000     -1.5454     21.6380     27.6334     39.4927   -999.2500
  2709.2500     -1.7209     21.6846     28.1339     41.7280   -999.2500
  2709.5000     -1.8533     21.6988     28.6805     44.0650   -999.2500
  2709.7500     -1.9248     21.6866     29.2341     46.0768   -999.2500
  2710.0000     -1.9248     21.6563     29.7545     47.4498   -999.2500
  2710.2500     -1.8496     21.6158     30.2053     48.0268   -999.2500
  2710.5000     -1.7024     21.5716     30.5578     47.8048   -999.2500
  2710.7500     -1.4914     21.5272     30.7933     46.8980   -999.2500
  2711.0000     -1.2270     21.4828     30.9035     45.4863   -999.2500
  2711.2500     -0.9204     21.4362     30.8893     43.7667   -999.2500
  2711.5000     -0.5811     21.3836     30.7588     41.9185   -999.2500
  2711.7500     -0.2170     21.3216     30.5247     40.0841   -999.2500
  2712.0000      0.1658     21.2480     30.2024     38.3628   -999.2500
  2712.2500      0.5615     21.1629     29.8086     36.8127   -999.2500
  2712.5000      0.9636     21.0684     29.3597     35.4566   -999.2500
  2712.7500      1.3639     20.9672     28.8714     34.2903   -999.2500
  2713.0000      1.7529     20.8625     28.3582     33.2920   -999.2500
  2713.2500      2.1218     20.7568     27.8332     32.4310   -999.2500
  2713.5000      2.4646     20.6525     27.3080     31.6741   -999.2500
  2713.7500      2.7794     20.5528     26.7929     30.9900   -999.2500
  2714.0000      3.0693     20.4638     26.2969     30.3514   -999.2500
  2714.2500      3.3401     20.3970     25.8275     29.7377   -999.2500
  2714.5000      3.5968     20.3710     25.3908     29.1356   -999.2500
  2714.7500      3.8395     20.2134     24.9916     28.5399   -999.2500
  2715.0000      4.0597     20.1599     24.6337     27.9524   -999.2500
  2715.2500      4.2399     20.4500     24.3193     27.3799   -999.2500
  2715.5000      4.3548     20.9410     24.0499     26.8322   -999.2500
  2715.7500      4.3768     21.6963     23.8256     26.3204   -999.2500
  2716.0000      4.2822     22.7890     23.6454     25.8565   -999.2500
  2716.2500      4.0589     24.3037     23.5073     25.4531   -999.2500
  2716.5000      3.7108     26.3360     23.4069     25.1247   -999.2500
  2716.7500      3.2598     28.9897     23.3385     24.8877   -999.2500
  2717.0000      2.7425     32.3668     23.2950     24.7608   -999.2500
  2717.2500      2.2036     36.5467     23.2690     24.7628   -999.2500
  2717.5000      1.6871     41.5514     23.2551     24.9078   -999.2500
  2717.7500      1.2282     47.3015     23.2514     25.1970   -999.2500
  2718.0000      0.8488     53.5808     23.2631     25.6084   -999.2500
  2718.2500      0.5563     60.0415     23.3049     26.0883   -999.2500
  2718.5000      0.3451     68.7995     23.4031     26.5527   -999.2500
  2718.7500      0.2025     74.8975     23.5965     26.8990   -999.2500
  2719.0000      0.1123     80.1804     23.9366     27.0300   -999.2500
  2719.2500      0.0588     84.6163     24.4877     26.8820   -999.2500
  2719.5000      0.0291     88.3213     25.3268     26.4492   -999.2500
  2719.7500      0.0135     91.4676     26.5445     25.7933   -999.2500
  2720.0000      0.0059     94.2081     28.2469     25.0336   -999.2500
  2720.2500      0.0024     96.6388     30.5573     24.3184   -999.2500
  2720.5000      0.0009     98.7972     33.6154     23.7857   -999.2500
  2720.7500      0.0002    100.6812     37.5689     23.5264   -999.2500
  2721.0000   -999.2500    102.2738     42.5526     23.5603   -999.2500
  2721.2500   -999.2500    103.5649     48.6447     23.8362   -999.2500
  2721.5000   -999.2500   1402.9706     55.8020     24.2528   -999.2500
  2721.7500   -999.2500   1542.2815     63.7857     24.6943   -999.2500
  2722.0000   -999.2500   1656.0280     72.1255     25.0650   -999.2500
  2722.2500   -999.2500   1740.5066     80.1773     25.3122   -999.2500
  2722.5000   -999.2500   1797.9521     86.6160     25.4283   -999.2500
  2722.7500   -999.2500   1834.0325     93.0266     25.4391   -999.2500
  2723.0000   -999.2500   1855.1514     97.2492     25.3809   -999.2500
  2723.2500   -999.2500   1866.7546    100.1160     25.2793   -999.2500
  2723.5000   -999.2500   1872.7727    101.9395     25.1334   -999.2500
  2723.7500   -999.2500   1875.7319    103.0599     24.9071   -999.2500
  2724.0000   -999.2500   1877.1130    103.7669     24.5274   -999.2500
  2724.2500   -999.2500   1877.7262    104.2740     23.8905   -999.2500
  2724.5000   -999.2500 100000.0000    104.7230     22.8786   -999.2500
  2724.7500   -999.2500 100000.0000    105.1992     21.3873   -999.2500
  2725.0000   -999.2500 100000.0000    105.7445     19.3597   -999.2500
  2725.2500   -999.2500 100000.0000   1543.6964     16.8184   -999.2500
  2725.5000   -999.2500 100000.0000   1702.4092     13.8793   -999.2500
  2725.7500   -999.2500 100000.0000   1908.8424     10.7394   -999.2500
  2726.0000   -999.2500 100000.0000   2171.1099      7.6382   -999.2500
  2726.2500   -999.2500 100000.0000   2494.8760      4.8048   -999.2500
  2726.5000   -999.2500 100000.0000   2879.7668      2.4094   -999.2500
  2726.7500   -999.2500 100000.0000   3314.9727      0.5352   -999.2500
  2727.0000   -999.2500 100000.0000   3776.3235     -0.8218   -999.2500
  2727.2500   -999.2500 100000.0000   4228.4028     -1.7309   -999.2500
  2727.5000   -999.2500 100000.0000   4633.4316     -2.2943   -999.2500
  2727.7500   -999.2500 100000.0000   4963.5850     -2.6172   -999.2500
  2728.0000   -999.2500   -999.2500   5208.6333     -2.7883   -999.2500
  2728.2500   -999.2500   -999.2500   5375.2744     -2.8721   -999.2500
  2728.5000   -999.2500   -999.2500   5480.0039     -2.9100   -999.2500
  2728.7500   -999.2500   -999.2500   5541.3633     -2.9259   -999.2500
  2729.0000   -999.2500   -999.2500   5575.1133     -2.9320   -999.2500
  2729.2500   -999.2500   -999.2500   5592.6406     -2.9341   -999.2500
  2729.5000   -999.2500   -999.2500   5601.2632   -999.2500   -999.2500
  2729.7500   -999.2500   -999.2500   5605.3174   -999.2500   -999.2500
  2730.0000   -999.2500   -999.2500   5607.1255   -999.2500   -999.2500
  2730.2500   -999.2500   -999.2500 100000.0000   -999.2500   -999.2500
  2730.5000   -999.2500   -999.2500 100000.0000   -999.2500   -999.2500
  2730.7500   -999.2500   -999.2500 100000.0000   -999.2500   -999.2500
  2731.0000   -999.2500   -999.2500 100000.0000   -999.2500   -999.2500
  2731.2500   -999.2500   -999.2500 100000.0000   -999.2500   -999.2500
  2731.5000   -999.2500   -999.2500 100000.0000   -999.2500   -999.2500
  2731.7500   -999.2500   -999.2500 100000.0000   -999.2500   -999.2500
  2732.0000   -999.2500   -999.2500 100000.0000   -999.2500   -999.2500
  2732.2500   -999.2500   -999.2500 100000.0000   -999.2500   -999.2500
  2732.5000   -999.2500   -999.2500 100000.0000   -999.2500   -999.2500
