~Version Information
VERS.                      2.0: CWLS Log ASCII Standard - VERSION 2.0
WRAP.                       NO: One line per depth step
~Well Information Block
STRT.FT                -7.7500: 
STOP.FT              2394.2500: 
STEP.FT                 0.2500: 
NULL.                -999.2500: 
COMP.      PIONEER NATURAL RESOURCES  : COMPANY
WELL.         NOMAD 32-10  : WELL
FLD.                          : FIELD
LOC.      SWNE 10 32S 66W 6PM : LOCATION
PROV.                         : PROVINCE
CNTY.                         : COUNTRY
SRVC.                         : SERVICE COMPANY
DATE.          Thu Aug 26 13:45:47 2004: LOG DATE
UWI.      005 071 08127  : UNIQUE WELL ID
~Curve Information Block
DEPT.FT            0 000 00 00: Depth
CCL.                          : Casing Collar Locator
TT3.usec                      : CBL 3' Travel Time
AMP3.mV                       : CBL 3' Amplitude
GR.GAPI                       : Gamma Ray
~Parameter Information Block
~A  Depth       CCL         TT3         AMP3         GR     
# ...
  2370.7500      0.0000    489.5412      5.8600     68.8817
  2371.0000      0.0000    489.8895      5.9272     69.7985
  2371.2500      0.0000    465.0211      5.9679     70.9861
  2371.5000      0.0000    434.7372      5.9642     71.1317
  2371.7500      0.0000    422.2745      5.9250     69.3128
  2372.0000      0.0000    438.9347      5.8844     66.2037
  2372.2500      0.0000    479.1736      5.8766     63.3254
  2372.5000      0.0000    527.1070      5.9129     61.6392
  2372.7500      0.0000    569.5447      5.9910     61.4386
  2373.0000      0.0000    604.3679      6.1112     63.2115
  2373.2500      0.0000    635.7682      6.2610     67.6700
  2373.5000      0.0000    664.3513      6.3947     74.5367
  2373.7500      0.0000    685.8511      6.4533     81.8678
  2374.0000      0.0000    697.3411      6.4145     87.1594
  2374.2500      0.0000    700.3588      6.3149     88.8766
  2374.5000      0.0000    698.1001      6.2220     86.7189
  2374.7500      0.0000    691.7977      6.1923     81.2056
  2375.0000      0.0000    680.6230      6.2447     73.7176
  2375.2500      0.0000    664.7171      6.3566     66.4769
  2375.5000      0.0000    647.3906      6.4878     61.8242
  2375.7500      0.0000    633.4680      6.6153     61.3321
  2376.0000      0.0000    625.6444      6.7380     65.1736
  2376.2500      0.0000    623.5090      6.8462     71.6870
  2376.5000      0.0000    625.1332      6.9044     77.9011
  2376.7500      0.0000    627.5983      6.8835     81.3648
  2377.0000      0.0000    626.8926      6.8060     81.5064
  2377.2500      0.0000    620.2557      6.7352     79.0913
  2377.5000      0.0000    609.2334      6.7254     75.0949
  2377.7500      0.0000    599.5314      6.7866     70.5814
  2378.0000      0.0000    597.7966      6.8766     66.9013
  2378.2500      0.0000    607.6204      6.9181     65.1625
  2378.5000      0.0000    626.8366      6.8493     65.5730
  2378.7500      0.0000    648.5568      6.6690     67.5182
  2379.0000      0.0000    665.6285      6.4353     70.0979
  2379.2500      0.0000    673.9392      6.2241     72.4118
  2379.5000      0.0000    671.2070      6.0808     73.4454
  2379.7500      0.0000    653.7207      6.0112     72.0525
  2380.0000      0.0000    616.6694      6.0163     67.3577
  2380.2500      0.0000    560.4549      6.1014     59.1829
  2380.5000      0.0000    496.7534      6.2375     48.1119
  2380.7500      0.0000    445.5708      6.3651     35.4098
  2381.0000      0.0000    423.9897      6.4552     22.9470
  2381.2500      0.0000    435.5484      6.5244     12.7129
  2381.5000      0.0000    466.5701      6.5911      5.8647
  2381.7500      0.0000    492.1453      6.6619      2.2064
  2382.0000      0.0000    491.7381      6.7473      0.6668
  2382.2500      0.0000    464.2012      6.8393      0.1600
  2382.5000      0.0000    427.3171      6.8965      0.0299
  2382.7500      0.0000    403.2717      6.9021      0.0042
  2383.0000      0.0000    406.3463      6.9059      0.0000
  2383.2500      0.0000    440.1611      6.9513   -999.2500
  2383.5000      0.0000    498.1113      6.9988   -999.2500
  2383.7500      0.0000    564.6688      6.9880   -999.2500
  2384.0000      0.0000    622.2356      6.9448   -999.2500
  2384.2500      0.0000    661.0132      6.9499   -999.2500
  2384.5000      0.0000    681.8268      7.0144   -999.2500
  2384.7500      0.0000    689.7486      7.0604   -999.2500
  2385.0000      0.0000    686.6268      7.0251   -999.2500
  2385.2500      0.0000    667.6190      6.9053   -999.2500
  2385.5000      0.0000    621.4606      6.6679   -999.2500
  2385.7500      0.0000    536.6248      6.1890   -999.2500
  2386.0000      0.0000    414.1797      5.3704   -999.2500
  2386.2500      0.0000    275.9189      4.3100   -999.2500
  2386.5000      0.0000    154.2221      3.2819   -999.2500
  2386.7500      0.0000     70.8222      2.5288   -999.2500
  2387.0000      0.0000     26.3238      2.1077   -999.2500
  2387.2500      0.0000      7.8345      1.9268   -999.2500
  2387.5000      0.0000      1.8507      1.8668   -999.2500
  2387.7500      0.0000      0.3418      1.8514   -999.2500
  2388.0000      0.0000      0.0450      1.8483   -999.2500
  2388.2500      0.0000   -999.2500   -999.2500   -999.2500
  2388.5000      0.0000   -999.2500   -999.2500   -999.2500
  2388.7500      0.0000   -999.2500   -999.2500   -999.2500
  2389.0000      0.0000   -999.2500   -999.2500   -999.2500
  2389.2500      0.0000   -999.2500   -999.2500   -999.2500
  2389.5000      0.0000   -999.2500   -999.2500   -999.2500
  2389.7500      0.0000   -999.2500   -999.2500   -999.2500
  2390.0000      0.0000   -999.2500   -999.2500   -999.2500
  2390.2500      0.0000   -999.2500   -999.2500   -999.2500
  2390.5000      0.0000   -999.2500   -999.2500   -999.2500
  2390.7500      0.0000   -999.2500   -999.2500   -999.2500
  2391.0000      0.0000   -999.2500   -999.2500   -999.2500
  2391.2500      0.0000   -999.2500   -999.2500   -999.2500
  2391.5000      0.0000   -999.2500   -999.2500   -999.2500
  2391.7500      0.0000   -999.2500   -999.2500   -999.2500
  2392.0000     -1.5558   -999.2500   -999.2500   -999.2500
  2392.2500      0.0000   -999.2500   -999.2500   -999.2500
  2392.5000      0.0000   -999.2500   -999.2500   -999.2500
  2392.7500      0.0000   -999.2500   -999.2500   -999.2500
  2393.0000      0.0000   -999.2500   -999.2500   -999.2500
  2393.2500      0.0000   -999.2500   -999.2500   -999.2500
  2393.5000      0.0000   -999.2500   -999.2500   -999.2500
  2393.7500      0.0000   -999.2500   -999.2500   -999.2500
  2394.0000   -999.2500   -999.2500   -999.2500   -999.2500
  2394.2500   -999.2500   -999.2500   -999.2500   -999.2500
