~Version Information
VERS.                      2.0: CWLS Log ASCII Standard - VERSION 2.0
WRAP.                       NO: One line per depth step
~Well Information Block
STRT.FT               650.0000: 
STOP.FT              2000.5000: 
STEP.FT                 0.1000: 
NULL.                -999.2500: 
COMP.          Pioneer Natural Resources: COMPANY
WELL.           Firehawk 34-26: WELL
FLD.           Purgatoire River: FIELD
LOC.           1196' FSL & 1595' FEL--: LOCATION
STAT.                 Colorado: State
CNTY.               Las Animas: COUNTY
CTRY. USA : Country
SECT. 26 : Section
TOWN. 32S : Township
RANG. 66W : Range
SRVC.                Patterson: SERVICE COMPANY
DATE.          Mon Oct 17 07:23:34 2005: LOG DATE
API.           05 071 08389 00: UNIQUE WELL ID
~Curve Information Block
DEPT.FT            0 000 00 00: Depth
DCAL.in                       : CDL Caliper
RHOB.g/cc                     : CDL Bulk Density
RHOC.g/cc                     : CDL Density Correction
DPOR.pu                       : CDL Density Porosity
NPOR.pu                       : Neutron Porosity
GR.GAPI                       : Gamma Ray
~Parameter Information Block
~A  Depth       DCAL        RHOB        RHOC        DPOR        NPOR         GR     
# ...
  1091.6000      8.8339      1.6304      0.1283     61.7951     34.5110     62.7317
  1091.7000      8.8339      1.7380      0.1406     55.2724     33.1054     57.4038
  1091.8000      8.7735      1.8660      0.2078     47.5130     32.3440     58.2374
  1091.9000      8.7735      1.9944      0.2713     39.7344     31.8148     65.0035
  1092.0000      8.4827      2.1065      0.2670     32.9372     30.7927     74.2976
  1092.1000      8.4827      2.2098      0.2516     26.6777     29.5044     80.7655
  1092.2000      8.4827      2.3039      0.2709     20.9755     28.4290     82.3667
  1092.3000      8.1873      2.3716      0.2026     16.8721     27.5306     83.4358
  1092.4000      8.1873      2.4158      0.0990     14.1919     26.7244     86.3749
  1092.5000      8.0360      2.4583      0.0578     11.6208     25.9394     87.3810
  1092.6000      8.0360      2.4988      0.0755      9.1611     24.9585     84.0702
  1092.7000      8.0360      2.5264      0.0256      7.4924     23.9880     79.1097
  1092.8000      7.9850      2.5521      0.0060      5.9337     23.3063     75.0537
  1092.9000      7.9850      2.5822      0.0439      4.1103     22.7586     72.0958
  1093.0000      7.9667      2.6011      0.0471      2.9620     22.3072     70.0479
  1093.1000      7.9667      2.6035      0.0413      2.8184     21.9177     67.5015
  1093.2000      7.9667      2.6030      0.0242      2.8473     21.5483     63.0327
  1093.3000      7.9616      2.6147      0.0145      2.1393     21.4325     57.9049
  1093.4000      7.9616      2.6363      0.0508      0.8287     21.6330     54.9931
  1093.5000      7.9607      2.6526      0.0461     -0.1587     21.9630     54.4646
  1093.6000      7.9607      2.6600      0.0426     -0.6037     22.2812     55.1717
  1093.7000      7.9607      2.6680      0.0309     -1.0904     22.3913     57.0935
  1093.8000      7.9597      2.6794      0.0440     -1.7802     22.2791     59.8449
  1093.9000      7.9597      2.6897      0.0467     -2.4051     22.1145     64.0409
  1094.0000      7.9599      2.6996      0.0360     -3.0033     22.0021     67.8084
  1094.1000      7.9599      2.7071      0.0783     -3.4619     22.0105     64.6644
  1094.2000      7.9599      2.7077      0.0525     -3.4991     22.0887     55.4653
  1094.3000      7.9610      2.7022      0.0693     -3.1655     22.0526     48.3106
  1094.4000      7.9610      2.6880      0.0606     -2.3016     21.9112     45.2716
  1094.5000      7.9607      2.6708      0.0132     -1.2606     21.7759     43.7856
  1094.6000      7.9607      2.6704      0.0010     -1.2341     21.6307     44.4753
  1094.7000      7.9607      2.6894      0.0062     -2.3880     21.4192     47.7618
  1094.8000      7.9601      2.7152      0.0107     -3.9498     21.1723     48.8788
  1094.9000      7.9601      2.7418      0.0331     -5.5657     20.9913     44.7501
  1095.0000      7.9596      2.7616      0.0521     -6.7658     20.8398     38.8081
  1095.1000      7.9596      2.7608      0.0629     -6.7145     20.6100     35.1534
  1095.2000      7.9596      2.7442     -0.0042     -5.7118     20.2909     34.9106
  1095.3000      7.9585      2.7326      0.0509     -5.0043     19.9840     37.5827
  1095.4000      7.9585      2.7274      0.0319     -4.6920     19.9607     40.9155
  1095.5000      7.9571      2.7207      0.0452     -4.2865     20.3356     42.7277
  1095.6000      7.9571      2.7150      0.0315     -3.9408     20.8786     42.7474
  1095.7000      7.9571      2.7116      0.0490     -3.7353     21.3797     41.5828
  1095.8000      7.9568      2.7045      0.0525     -3.3056     21.7753     40.4988
  1095.9000      7.9568      2.7000      0.0068     -3.0326     22.0149     40.4261
  1096.0000      7.9577      2.7038      0.0743     -3.2601     22.1933     40.7422
  1096.1000      7.9577      2.7017      0.0648     -3.1310     22.3999     41.6441
  1096.2000      7.9577      2.6883      0.0216     -2.3185     22.6183     44.5801
  1096.3000      7.9587      2.6708      0.0161     -1.2617     22.8597     49.0812
  1096.4000      7.9587      2.6466      0.0384      0.2065     23.0864     53.6822
  1096.5000      7.9600      2.6119      0.0257      2.3105     23.3742     57.5005
  1096.6000      7.9600      2.5839     -0.0208      4.0030     23.6959     59.3240
  1096.7000      7.9600      2.5873      0.0014      3.8010     23.6618     60.7803
  1096.8000      7.9606      2.6318     -0.0161      1.1001     23.3290     65.0912
  1096.9000      7.9606      2.7154      0.0496     -3.9613     23.4391     70.1831
  1097.0000      7.9606      2.8260      0.1061    -10.6645     24.1741     72.2120
  1097.1000      7.9606      2.9332      0.1939    -17.1645     24.9320     73.6237
  1097.2000      7.9606      2.9957      0.2154    -20.9507     25.4393     76.4436
  1097.3000      7.9636      2.9991      0.1642    -21.1602     26.0486     76.6856
  1097.4000      7.9636      2.9620      0.1268    -18.9106     26.9836     71.9722
  1097.5000      7.9722      2.9079      0.0602    -15.6306     28.1422     65.9180
  1097.6000      7.9722      2.8513     -0.0092    -12.1989     29.3438     62.7740
  1097.7000      7.9722      2.7903     -0.0690     -8.5015     30.5416     65.9869
  1097.8000      7.9908      2.7126     -0.0930     -3.7968     31.5890     74.9229
  1097.9000      7.9908      2.6210     -0.1499      1.7593     32.2536     83.0228
  1098.0000      8.0306      2.5431     -0.1889      6.4778     32.6920     87.5082
  1098.1000      8.0306      2.4951     -0.0669      9.3864     33.0273     91.1420
  1098.2000      8.0306      2.4564     -0.0248     11.7361     33.1599     93.9359
  1098.3000      8.0902      2.4052      0.0049     14.8393     33.3943     94.8556
  1098.4000      8.0902      2.3442      0.0030     18.5345     34.4391     96.0332
  1098.5000      8.1464      2.2866      0.0126     22.0226     36.5906     99.7491
  1098.6000      8.1464      2.2343      0.0364     25.1927     39.1647    102.8913
  1098.7000      8.1464      2.1725      0.0752     28.9366     41.2243    101.3052
  1098.8000      8.1899      2.0894      0.0679     33.9738     42.4799     95.8039
  1098.9000      8.1899      1.9859      0.0754     40.2485     43.1369     89.0377
  1099.0000      8.2296      1.8661      0.0940     47.5090     43.6382     82.5832
  1099.1000      8.2296      1.7362      0.0557     55.3845     44.5491     77.1137
  1099.2000      8.2296      1.6062     -0.0105     63.2605     46.0185     74.4442
  1099.3000      8.3309      1.4860     -0.0606     70.5425     47.6818     75.9806
  1099.4000      8.3309      1.3812     -0.0886     76.8992     48.8863     77.9461
  1099.5000      8.6131      1.2917     -0.0933     82.3202     49.2147     75.4692
  1099.6000      8.6131      1.2156     -0.0430     86.9325     49.1287     69.5592
  1099.7000      8.6131      1.1640     -0.0012     90.0634     49.3996     66.5555
  1099.8000      9.1665      1.1744      0.0202     89.4285     50.0937     68.8150
  1099.9000      9.1665      1.2884      0.0333     82.5208     50.6143     70.8902
  1100.0000     10.0793      1.5016      0.1301     69.5974     50.6369     67.9550
  1100.1000     10.0793      1.7510      0.2457     54.4863     49.9847     60.5903
  1100.2000     10.0793      1.9698      0.3179     41.2226     48.2309     53.9824
  1100.3000     11.3944      2.1325      0.3667     31.3661     46.1178     54.1484
  1100.4000     11.3944      2.2298      0.3940     25.4675     44.9420     59.9255
  1100.5000     12.8676      2.2587      0.2921     23.7124     44.5195     64.7627
  1100.6000     12.8676      2.2477      0.1652     24.3802     44.0471     67.4110
  1100.7000     12.8676      2.2314      0.0997     25.3697     43.2198     70.0777
  1100.8000     13.7919      2.2067      0.0442     26.8693     42.2468     71.4583
  1100.9000     13.7919      2.1595     -0.1043     29.7273     41.6278     69.6566
  1101.0000     13.3453      2.0983     -0.0437     33.4378     41.6964     65.0398
  1101.1000     13.3453      2.0525     -0.0360     36.2125     42.0640     60.7550
