~Version Information
VERS.                      2.0: CWLS Log ASCII Standard - VERSION 2.0
WRAP.                       NO: One line per depth step
~Well Information Block
STRT.FT               -10.8000: 
STOP.FT              2238.7000: 
STEP.FT                 0.1000: 
NULL.                -999.2500: 
COMP.          Petrogulf Corporation: COMPANY
WELL.             McLeod 9-42V: WELL
FLD.           Purgatorie River: FIELD
LOC.           1658' FNL & 415' FEL----: LOCATION
CNTY.               Las Animas: COUNTY
SRVC.                         : SERVICE COMPANY
DATE.          Wed Nov 17 12:01:16 2004: LOG DATE
UWI.                          : UNIQUE WELL ID
STAT.                       CO: STATE
~Curve Information Block
DEPT.FT            0 000 00 00: Depth
GR.GAPI                       : Gamma Ray
CCL.                          : Casing Collar Locator
TT3.usec                      : CBL 3' Travel Time
AMP3.mV                       : CBL 3' Amplitude
~Parameter Information Block
~A  Depth        GR         CCL         TT3         AMP3    
# ...
  1329.2000    126.5643      0.0000    738.7078      6.3163
  1329.3000    127.1824      0.0000    730.9655      6.4246
  1329.4000    127.1824      0.0000    730.9655      6.4246
  1329.5000    128.9570      0.0000    725.6876      6.5562
  1329.6000    128.9570      0.0000    725.6876      6.5562
  1329.7000    128.9570      0.0000    725.6876      6.5562
  1329.8000    131.5076      0.0000    726.1299      6.6719
  1329.9000    131.5076      0.0000    726.1299      6.6719
  1330.0000    134.5981      0.0000    732.2033      6.7370
  1330.1000    134.5981      0.0000    732.2033      6.7370
  1330.2000    134.5981      0.0000    732.2033      6.7370
  1330.3000    137.7000      0.0000    740.5309      6.7321
  1330.4000    137.7000      0.0000    740.5309      6.7321
  1330.5000    139.2901      0.0000    747.4694      6.6610
  1330.6000    139.2901      0.0000    747.4694      6.6610
  1330.7000    139.2901      0.0000    747.4694      6.6610
  1330.8000    137.7782      0.0000    751.5286      6.5499
  1330.9000    137.7782      0.0000    751.5286      6.5499
  1331.0000    133.5249      0.0000    753.2584      6.4357
  1331.1000    133.5249      0.0000    753.2584      6.4357
  1331.2000    133.5249      0.0000    753.2584      6.4357
  1331.3000    129.1913      0.0000    753.9781      6.3486
  1331.4000    129.1913      0.0000    753.9781      6.3486
  1331.5000    127.6167      0.0000    755.0476      6.3000
  1331.6000    127.6167      0.0000    755.0476      6.3000
  1331.7000    127.6167      0.0000    755.0476      6.3000
  1331.8000    129.6120      0.0000    757.7253      6.2831
  1331.9000    129.6120      0.0000    757.7253      6.2831
  1332.0000    133.9583      0.0000    762.7430      6.2848
  1332.1000    133.9583      0.0000    762.7430      6.2848
  1332.2000    133.9583      0.0000    762.7430      6.2848
  1332.3000    139.0342      0.0000    769.2806      6.2973
  1332.4000    139.0342      0.0000    769.2806      6.2973
  1332.5000    143.9146      0.0000    774.1564      6.3192
  1332.6000    143.9146      0.0000    774.1564      6.3192
  1332.7000    143.9146      0.0000    774.1564      6.3192
  1332.8000    147.9448      0.0000    772.6816      6.3473
  1332.9000    147.9448      0.0000    772.6816      6.3473
  1333.0000    149.8968      0.0000    761.8572      6.3713
  1333.1000    149.8968      0.0000    761.8572      6.3713
  1333.2000    149.8968      0.0000    761.8572      6.3713
  1333.3000    148.2237      0.0000    744.1380      6.3834
  1333.4000    148.2237      0.0000    744.1380      6.3834
  1333.5000    142.3191      0.0000    727.7022      6.3921
  1333.6000    142.3191      0.0000    727.7022      6.3921
  1333.7000    142.3191      0.0000    727.7022      6.3921
  1333.8000    133.2420      0.0000    721.0695      6.4264
  1333.9000    133.2420      0.0000    721.0695      6.4264
  1334.0000    123.1649      0.0000    726.5854      6.5263
  1334.1000    123.1649      0.0000    726.5854      6.5263
  1334.2000    123.1649      0.0000    726.5854      6.5263
  1334.3000    114.3821      0.0000    739.8695      6.7231
  1334.4000    114.3821      0.0000    739.8695      6.7231
  1334.5000    108.5486      0.0000    755.0723      7.0221
  1334.6000    108.5486      0.0000    755.0723      7.0221
  1334.7000    108.5486      0.0000    755.0723      7.0221
  1334.8000    106.0482      0.0000    768.9967      7.3985
  1334.9000    106.0482      0.0000    768.9967      7.3985
  1335.0000    105.8389      0.0000    780.6786      7.8102
  1335.1000    105.8389      0.0000    780.6786      7.8102
  1335.2000    105.8389      0.0000    780.6786      7.8102
  1335.3000    106.3631      0.0000    789.5831      8.2153
  1335.4000    106.3631      0.0000    789.5831      8.2153
  1335.5000    106.8079      0.0000    795.3848      8.5823
  1335.6000    106.8079      0.0000    795.3848      8.5823
  1335.7000    106.8079      0.0000    795.3848      8.5823
  1335.8000    107.2770      0.0000    798.5061      8.8870
  1335.9000    107.2770      0.0000    798.5061      8.8870
  1336.0000    107.8240      0.0000    799.9150      9.1053
  1336.1000    107.8240      0.0000    799.9150      9.1053
  1336.2000    107.8240      0.0000    799.9150      9.1053
  1336.3000    107.8937      0.0000    800.4109      9.2126
  1336.4000    107.8937      0.0000    800.4109      9.2126
  1336.5000    107.1648      0.0000    800.2294      9.1983
  1336.6000    107.1648      0.0000    800.2294      9.1983
  1336.7000    107.1648      0.0000    800.2294      9.1983
  1336.8000    106.6933      0.0000    799.0294      9.0816
  1336.9000    106.6933      0.0000    799.0294      9.0816
  1337.0000    108.6125      0.0000    796.0373      8.9076
  1337.1000    108.6125      0.0000    796.0373      8.9076
  1337.2000    108.6125      0.0000    796.0373      8.9076
  1337.3000    114.5015      0.0000    790.2848      8.7217
  1337.4000    114.5015      0.0000    790.2848      8.7217
  1337.5000    124.2104      0.0000    781.2435      8.5448
  1337.6000    124.2104      0.0000    781.2435      8.5448
  1337.7000    124.2104      0.0000    781.2435      8.5448
  1337.8000    136.1136      0.0000    769.8439      8.3709
  1337.9000    136.1136      0.0000    769.8439      8.3709
  1338.0000    148.1131      0.0000    758.9927      8.1839
  1338.1000    148.1131      0.0000    758.9927      8.1839
  1338.2000    148.1131      0.0000    758.9927      8.1839
  1338.3000    158.4290      0.0000    752.2535      7.9765
  1338.4000    158.4290      0.0000    752.2535      7.9765
  1338.5000    165.9547      0.0000    751.2249      7.7556
  1338.6000    165.9547      0.0000    751.2249      7.7556
  1338.7000    165.9547      0.0000    751.2249      7.7556
  1338.8000    170.4574      0.0000    754.4487      7.5380
  1338.9000    170.4574      0.0000    754.4487      7.5380
  1339.0000    172.7055      0.0000    759.0448      7.3461
  1339.1000    172.7055      0.0000    759.0448      7.3461
  1339.2000    172.7055      0.0000    759.0448      7.3461
  1339.3000    174.2656      0.0000    762.6855      7.2036
  1339.4000    174.2656      0.0000    762.6855      7.2036
  1339.5000    176.7221      0.0000    764.1088      7.1261
  1339.6000    176.7221      0.0000    764.1088      7.1261
  1339.7000    176.7221      0.0000    764.1088      7.1261
  1339.8000    180.5766      0.0000    763.1002      7.1104
  1339.9000    180.5766      0.0000    763.1002      7.1104
  1340.0000    184.7225      0.0000    760.5567      7.1351
  1340.1000    184.7225      0.0000    760.5567      7.1351
  1340.2000    184.7225      0.0000    760.5567      7.1351
  1340.3000    187.3093      0.0000    757.9781      7.1776
  1340.4000    187.3093      0.0000    757.9781      7.1776
  1340.5000    187.2348      0.0000    756.6073      7.2335
  1340.6000    187.2348      0.0000    756.6073      7.2335
  1340.7000    187.2348      0.0000    756.6073      7.2335
  1340.8000    184.5326      0.0000    756.9893      7.3205
  1340.9000    184.5326      0.0000    756.9893      7.3205
  1341.0000    179.4807      0.0000    758.8708      7.4561
  1341.1000    179.4807      0.0000    758.8708      7.4561
  1341.2000    179.4807      0.0000    758.8708      7.4561
  1341.3000    172.0971      0.0000    761.0871      7.6310
  1341.4000    172.0971      0.0000    761.0871      7.6310
  1341.5000    162.6908      0.0000    761.8920      7.8067
  1341.6000    162.6908      0.0000    761.8920      7.8067
  1341.7000    162.6908      0.0000    761.8920      7.8067
  1341.8000    152.1349      0.0000    759.9281      7.9422
  1341.9000    152.1349      0.0000    759.9281      7.9422
  1342.0000    141.1577      0.0000    754.8806      8.0214
  1342.1000    141.1577      0.0000    754.8806      8.0214
  1342.2000    141.1577      0.0000    754.8806      8.0214
  1342.3000    129.9700      0.0000    747.4081      8.0548
  1342.4000    129.9700      0.0000    747.4081      8.0548
  1342.5000    119.1074      0.0000    739.4270      8.0666
