~Version Information
VERS.                      2.0: CWLS Log ASCII Standard - VERSION 2.0
WRAP.                       NO: One line per depth step
~Well Information Block
STRT.FT               710.0000: 
STOP.FT              2921.0000: 
STEP.FT                 0.1000: 
NULL.                -999.2500: 
COMP.          Petrogulf Corporation: COMPANY
WELL.            Montoya 1-41V: WELL
FLD.           Purgatorie River: FIELD
LOC.           610' FNL & 1205' FEL: LOCATION
PROV.                 Colorado: PROVINCE
CNTY.               Las Animas: COUNTRY
SRVC.                Patterson: SERVICE COMPANY
DATE.          Mon Aug 22 07:54:27 2005: LOG DATE
UWI.                          : UNIQUE WELL ID
~Curve Information Block
DEPT.FT            0 000 00 00: Depth
DCAL.in                       : CDL Caliper
RHOB.g/cc                     : CDL Bulk Density
RHOC.g/cc                     : CDL Density Correction
DPOR.pu                       : CDL Density Porosity
GR.GAPI                       : Gamma Ray
NPOR.pu                       : Neutron Porosity
~Parameter Information Block
~A  Depth       DCAL        RHOB        RHOC        DPOR         GR         NPOR    
# ...
  2764.4000      8.0883      2.1277      0.0945     31.6524     93.3439     31.1268
  2764.5000      8.1148      2.1716      0.1261     28.9933     90.4802     30.9625
  2764.6000      8.1148      2.2327      0.1655     25.2890     85.9867     30.4885
  2764.7000      8.1148      2.2974      0.2001     21.3719     85.0197     29.7834
  2764.8000      8.0905      2.3424      0.1921     18.6433     87.9299     28.9082
  2764.9000      8.0905      2.3625      0.1434     17.4233     89.0964     28.1356
  2765.0000      8.0169      2.3745      0.1526     16.6944     86.4469     27.7157
  2765.1000      8.0169      2.3902      0.1561     15.7430     83.7069     27.6778
  2765.2000      8.0169      2.4113      0.1659     14.4674     84.4958     27.8033
  2765.3000      7.9748      2.4397      0.1532     12.7453     87.4087     27.6726
  2765.4000      7.9748      2.4679      0.1975     11.0354     89.8789     27.1929
  2765.5000      7.9448      2.4821      0.1658     10.1765     91.9664     26.7930
  2765.6000      7.9448      2.4882      0.1550      9.8044     92.4976     26.8638
  2765.7000      7.9448      2.5042      0.1730      8.8350     90.7746     27.4037
  2765.8000      7.9068      2.5311      0.1900      7.2038     88.9595     27.9734
  2765.9000      7.9068      2.5534      0.2122      5.8526     88.4987     27.9647
  2766.0000      7.9149      2.5619      0.1559      5.3368     88.4602     27.2806
  2766.1000      7.9149      2.5612      0.1531      5.3793     87.1566     26.4921
  2766.2000      7.9149      2.5542      0.1328      5.8079     84.8283     26.1112
  2766.3000      7.9234      2.5394      0.1246      6.7049     83.2490     26.0982
  2766.4000      7.9234      2.5215      0.0600      7.7873     81.2375     26.0919
  2766.5000      7.9157      2.5102      0.1050      8.4701     77.5657     25.8036
  2766.6000      7.9157      2.5093      0.0693      8.5297     74.1798     25.2260
  2766.7000      7.9157      2.5195      0.0844      7.9112     73.4997     24.7694
  2766.8000      7.9712      2.5424      0.0792      6.5230     75.7020     24.7563
  2766.9000      7.9712      2.5660      0.1345      5.0899     77.2879     24.7984
  2767.0000      7.9612      2.5709      0.1036      4.7956     75.3701     24.4643
  2767.1000      7.9612      2.5597      0.0713      5.4729     71.7184     24.1330
  2767.2000      7.9612      2.5481      0.1078      6.1729     70.0576     24.0720
  2767.3000      7.9553      2.5395      0.1025      6.6972     71.7918     23.6836
  2767.4000      7.9553      2.5334      0.0810      7.0685     73.2504     22.8345
  2767.5000      7.9189      2.5347      0.0858      6.9870     71.3317     22.3694
  2767.6000      7.9189      2.5378      0.1156      6.7980     68.8194     22.6169
  2767.7000      7.9189      2.5312      0.1005      7.2022     68.0023     22.9067
  2767.8000      7.9024      2.5207      0.0471      7.8344     67.8649     22.7806
  2767.9000      7.9024      2.5160      0.0946      8.1194     66.5000     22.5246
  2768.0000      7.8806      2.5208      0.0452      7.8278     63.4905     22.4484
  2768.1000      7.8806      2.5384      0.0759      6.7664     61.2276     22.5263
  2768.2000      7.8806      2.5589      0.0992      5.5198     61.3395     22.5956
  2768.3000      7.9305      2.5688      0.0912      4.9188     61.8415     22.4656
  2768.4000      7.9305      2.5648      0.1032      5.1637     61.2230     22.1751
  2768.5000      7.8928      2.5534      0.0547      5.8556     60.4501     21.9460
  2768.6000      7.8928      2.5452      0.0836      6.3540     59.9601     21.8403
  2768.7000      7.8928      2.5418      0.0506      6.5598     59.8507     21.7881
  2768.8000      7.9041      2.5399      0.0573      6.6756     59.4949     21.8597
  2768.9000      7.9041      2.5397      0.1032      6.6824     58.4087     22.0770
  2769.0000      7.8860      2.5417      0.1160      6.5624     58.1902     22.0737
  2769.1000      7.8860      2.5452      0.0897      6.3527     60.2366     21.6168
  2769.2000      7.8860      2.5510      0.1113      5.9977     63.6162     20.9607
  2769.3000      7.8250      2.5595      0.1092      5.4862     65.7398     20.5592
  2769.4000      7.8250      2.5670      0.1195      5.0283     65.8110     20.7231
  2769.5000      7.8078      2.5705      0.0979      4.8188     66.0454     21.2316
  2769.6000      7.8078      2.5718      0.1303      4.7373     65.9709     21.5416
  2769.7000      7.8078      2.5737      0.1387      4.6249     63.7734     21.3795
  2769.8000      7.8867      2.5741      0.1438      4.6008     62.1142     20.8495
  2769.9000      7.8867      2.5743      0.1086      4.5858     63.1331     20.2031
  2770.0000      7.8795      2.5809      0.1378      4.1896     64.0002     19.6740
  2770.1000      7.8795      2.5930      0.1432      3.4534     63.8312     19.3141
  2770.2000      7.8795      2.6020      0.1388      2.9100     64.9580     18.9874
  2770.3000      7.8543      2.5947      0.1633      3.3492     67.1104     18.7907
  2770.4000      7.8543      2.5723      0.0919      4.7086     67.7326     18.7752
  2770.5000      7.8417      2.5557      0.1074      5.7134     66.0524     18.6649
  2770.6000      7.8417      2.5532      0.1171      5.8643     63.4752     18.3010
  2770.7000      7.8417      2.5565      0.0825      5.6638     62.1098     17.9573
  2770.8000      7.8815      2.5609      0.0815      5.4028     62.7073     18.1398
  2770.9000      7.8815      2.5647      0.0628      5.1687     64.0002     18.9234
  2771.0000      7.8700      2.5612      0.1044      5.3838     64.7386     19.8562
  2771.1000      7.8700      2.5449      0.0727      6.3685     64.6373     20.4715
  2771.2000      7.8700      2.5270      0.0499      7.4567     64.8190     20.7645
  2771.3000      7.8861      2.5182      0.0566      7.9876     65.7179     20.9310
  2771.4000      7.8861      2.5148      0.0809      8.1957     67.4783     20.9919
  2771.5000      7.9023      2.5084      0.0961      8.5823     70.4436     21.1097
  2771.6000      7.9023      2.5020      0.0837      8.9681     73.4584     21.5601
  2771.7000      7.9023      2.5089      0.0663      8.5522     75.3933     22.2252
  2771.8000      7.8475      2.5283      0.1080      7.3745     75.3501     22.7103
  2771.9000      7.8475      2.5425      0.1291      6.5138     73.2880     23.0343
  2772.0000      7.8595      2.5399      0.0963      6.6700     70.1371     23.3827
  2772.1000      7.8595      2.5274      0.0851      7.4292     65.6630     23.5081
  2772.2000      7.8595      2.5177      0.0799      8.0154     60.8341     23.3282
  2772.3000      7.8769      2.5144      0.0513      8.2169     60.4190     23.0866
  2772.4000      7.8769      2.5102      0.0922      8.4710     66.3377     22.8175
  2772.5000      7.8978      2.5042      0.0421      8.8338     73.7124     22.5318
  2772.6000      7.8978      2.5114      0.0739      8.4004     77.3011     22.4235
  2772.7000      7.8978      2.5334      0.0827      7.0667     76.5261     22.5675
  2772.8000      7.9442      2.5471      0.1079      6.2334     73.5567     22.8170
  2772.9000      7.9442      2.5377      0.1064      6.8076     69.4989     23.1104
  2773.0000      7.9534      2.5214      0.0444      7.7938     65.6986     23.1470
  2773.1000      7.9534      2.5159      0.0791      8.1299     64.1674     22.6782
  2773.2000      7.9534      2.5178      0.0475      8.0131     64.2608     22.3222
  2773.3000      7.9792      2.5228      0.0556      7.7069     64.6163     22.5028
  2773.4000      7.9792      2.5266      0.0753      7.4759     64.9040     22.4696
  2773.5000      7.9968      2.5231      0.0663      7.6881     63.5486     21.6934
  2773.6000      7.9968      2.5115      0.0687      8.3924     60.5326     20.7053
  2773.7000      7.9968      2.4947      0.0812      9.4138     59.9599     20.1022
  2773.8000      7.9864      2.4776      0.0501     10.4495     63.8184     20.2258
  2773.9000      7.9864      2.4678      0.0524     11.0452     67.9211     20.9900
