~Version Information
VERS.                      2.0: CWLS Log ASCII Standard - VERSION 2.0
WRAP.                       NO: One line per depth step
~Well Information Block
STRT.FT               582.2500: 
STOP.FT              2642.5000: 
STEP.FT                 0.2500: 
NULL.                -999.2500: 
COMP.          Petrogulf Corporation: COMPANY
WELL.           Montoya 12-41V: WELL
FLD.           Purgatorie River: FIELD
LOC.           1081' FNL & 605' FEL: LOCATION
CNTY.               Las Animas: COUNTY
SRVC.                         : SERVICE COMPANY
DATE.          Tue Aug 10 10:59:28 2004: LOG DATE
UWI.           05 071 08094 00: UNIQUE WELL ID
STAT.                 Colorado: STATE
~Curve Information Block
DEPT.FT            0 000 00 00: Depth
SP.mV                         : DIL Spontaneous Potential
RILD.Ohm-m                    : DIL Deep Resistivity
RILM.Ohm-m                    : DIL Medium Resistivity
RLL3.Ohm-m                    : DIL Shallow Resistivity
GR.GAPI                       : Gamma Ray
~Parameter Information Block
~A  Depth        SP         RILD        RILM        RLL3         GR     
# ...
  1814.2500    -19.2747      9.2685     10.0451     11.9842    158.3157
  1814.5000    -19.9343      9.3169     10.1567     12.5888    154.1111
  1814.7500    -20.5758      9.3610     10.2772     13.2278    151.1141
  1815.0000    -21.0450      9.3894     10.3940     13.8373    147.3467
  1815.2500    -21.2108      9.3985     10.4975     14.3600    145.6395
  1815.5000    -21.0108      9.3909     10.5817     14.7571    143.5988
  1815.7500    -20.4733      9.3719     10.6446     15.0135    141.7149
  1816.0000    -19.7097      9.3456     10.6870     15.1311    137.5233
  1816.2500    -18.8736      9.3137     10.7111     15.1191    134.5393
  1816.5000    -18.1150      9.2748     10.7195     14.9857    131.6702
  1816.7500    -17.5425      9.2273     10.7146     14.7399    131.2506
  1817.0000    -17.2088      9.1708     10.6999     14.3972    132.0712
  1817.2500    -17.1207      9.1088     10.6801     13.9830    133.0398
  1817.5000    -17.2549      9.0491     10.6617     13.5309    135.1240
  1817.7500    -17.5659      9.0026     10.6537     13.0771    137.0376
  1818.0000    -17.9845      8.9821     10.6661     12.6558    139.7161
  1818.2500    -18.4117      9.0010     10.7094     12.2969    140.3472
  1818.5000    -18.7235      9.0709     10.7945     12.0285    138.9071
  1818.7500    -18.7942      9.1992     10.9315     11.8776    137.0488
  1819.0000    -18.5367      9.3851     11.1309     11.8742    134.6859
  1819.2500    -17.9377      9.6185     11.4037     12.0579    133.8567
  1819.5000    -17.0699      9.8819     11.7616     12.4855    133.2072
  1819.7500    -16.0706     10.1581     12.2175     13.2342    132.5729
  1820.0000    -15.1018     10.4390     12.7840     14.3906    130.6990
  1820.2500    -14.3056     10.7314     13.4726     16.0231    128.8487
  1820.5000    -13.7732     11.0547     14.2910     18.1489    125.5239
  1820.7500    -13.5334     11.4325     15.2419     20.7061    123.1319
  1821.0000    -13.5568     11.8848     16.3218     23.5521    119.4336
  1821.2500    -13.7694     12.4255     17.5223     26.4908    116.9507
  1821.5000    -14.0697     13.0662     18.8326     29.3266    113.2917
  1821.7500    -14.3489     13.8225     20.2446     31.9285    110.8556
  1822.0000    -14.5142     14.7154     21.7550     34.2794    107.0677
  1822.2500    -14.5067     15.7627     23.3669     36.4903    104.5591
  1822.5000    -14.3108     16.9615     25.0868     38.7718    101.2528
  1822.7500    -13.9496     18.2704     26.9209     41.3689     99.4102
  1823.0000    -13.4663     19.6061     28.8678     44.4768     96.8661
  1823.2500    -12.9022     20.8655     30.9192     48.1504     95.2787
  1823.5000    -12.2831     21.9675     33.0556     52.2304     93.5909
  1823.7500    -11.6143     22.8834     35.2454     56.3239     93.2288
  1824.0000    -10.8915     23.6314     37.4426     59.8745     93.6207
  1824.2500    -10.1211     24.2436     39.5833     62.3292     93.9842
  1824.5000     -9.3371     24.7369     41.5796     63.3418     93.8223
  1824.7500     -8.6079     25.1145     43.3237     62.9131     93.0970
  1825.0000     -8.0225     25.3874     44.6974     61.3881     91.4532
  1825.2500     -7.6646     25.5869     45.6007     59.3093     90.2762
  1825.5000     -7.5855     25.7566     45.9815     57.2133     88.6578
  1825.7500     -7.7856     25.9242     45.8573     55.4735     87.7573
  1826.0000     -8.2194     26.0781     45.3109     54.2574     86.7204
  1826.2500     -8.8140     26.1647     44.4552     53.5877     86.1745
  1826.5000     -9.4986     26.1084     43.3880     53.4512     85.5511
  1826.7500    -10.2287     25.8393     42.1536     53.8944     85.4785
  1827.0000    -10.9957     25.3156     40.7267     55.0564     86.2706
  1827.2500    -11.8201     24.5297     39.0283     57.1199     87.2182
  1827.5000    -12.7329     23.5065     36.9700     60.1814     88.1524
  1827.7500    -13.7545     22.2964     34.5157     64.0830     87.8384
  1828.0000    -14.8751     20.9699     31.7255     68.2856     85.9661
  1828.2500    -16.0439     19.6053     28.7541     71.8767     84.3562
  1828.5000    -17.1694     18.2790     25.8022     73.7594     82.4341
  1828.7500    -18.1326     17.0578     23.0507     72.9757     81.9546
  1829.0000    -18.8093     15.9945     20.6213     69.0415     83.6638
  1829.2500    -19.0988     15.1247     18.5695     62.1418     87.4390
  1829.5000    -18.9527     14.4640     16.8998     53.1062     98.0516
  1829.7500    -18.3898     14.0048     15.5869     43.1729    107.8444
  1830.0000    -17.4942     13.7162     14.5916     33.6458    123.9212
  1830.2500    -16.3909     13.5478     13.8720     25.5816    133.9512
  1830.5000    -15.2095     13.4394     13.3869     19.6145    146.6279
  1830.7500    -14.0474     13.3375     13.0969     15.9477    153.4870
  1831.0000    -12.9531     13.2103     12.9635     14.4601    161.3707
  1831.2500    -11.9305     13.0562     12.9474     14.8383    164.5172
  1831.5000    -10.9640     12.8981     13.0079     16.6557    164.6983
  1831.7500    -10.0473     12.7696     13.1042     19.3911    161.3035
  1832.0000     -9.2043     12.7026     13.1996     22.4288    151.7205
  1832.2500     -8.4915     12.7210     13.2670     25.1047    143.9047
  1832.5000     -7.9812     12.8412     13.2940     26.8261    133.7471
  1832.7500     -7.7363     13.0738     13.2857     27.2277    129.8554
  1833.0000     -7.7893     13.4241     13.2625     26.2830    129.5522
  1833.2500     -8.1280     13.8876     13.2551     24.3052    132.5214
  1833.5000     -8.6961     14.4451     13.2986     21.8312    139.7883
  1833.7500     -9.4043     15.0587     13.4273     19.4510    145.5078
  1834.0000    -10.1546     15.6777     13.6715     17.6679    154.2401
  1834.2500    -10.8667     16.2512     14.0566     16.8444    159.3897
  1834.5000    -11.4961     16.7462     14.6022     17.2235    164.1053
  1834.7500    -12.0435     17.1576     15.3218     18.9777    164.0364
  1835.0000    -12.5416     17.5089     16.2223     22.2328    158.0861
  1835.2500    -13.0367     17.8428     17.3019     27.0571    150.6299
  1835.5000    -13.5689     18.2111     18.5481     33.4392    136.6089
  1835.7500    -14.1606     18.6607     19.9352     41.2748    127.1056
  1836.0000    -14.8151     19.2177     21.4195     50.3541    114.2444
  1836.2500    -15.5264     19.8718     22.9335     60.3108    106.3850
  1836.5000    -16.2887     20.5668     24.3785     70.5193     94.8666
  1836.7500    -17.1017     21.2095     25.6232     79.9959     87.7017
  1837.0000    -17.9747     21.6991     26.5168     87.4247     79.6450
  1837.2500    -18.9181     21.9616     26.9242     91.4037     77.1113
  1837.5000    -19.9309     21.9713     26.7759     90.8815     78.3252
  1837.7500    -20.9824     21.7421     26.1025     85.5992     82.4935
  1838.0000    -22.0028     21.3088     25.0263     76.2952     93.4046
  1838.2500    -22.8846     20.7081     23.7167     64.5323    103.1425
  1838.5000    -23.5034     19.9713     22.3335     52.2135    119.4057
  1838.7500    -23.7490     19.1247     20.9951     41.0188    129.9282
  1839.0000    -23.5574     18.1972     19.7703     32.0133    143.1554
  1839.2500    -22.9285     17.2295     18.6881     25.5530    149.4263
  1839.5000    -21.9287     16.2765     17.7517     21.4407    154.3302
  1839.7500    -20.6739     15.3987     16.9514     19.1855    154.8671
  1840.0000    -19.3034     14.6485     16.2716     18.2222    153.2062
  1840.2500    -17.9489     14.0586     15.6959     18.0303    151.5467
  1840.5000    -16.7135     13.6379     15.2086     18.1706    149.2517
  1840.7500    -15.6601     13.3746     14.7956     18.2981    148.0760
  1841.0000    -14.8156     13.2423     14.4444     18.1849    147.6830
  1841.2500    -14.1836     13.2066     14.1437     17.7525    149.2414
  1841.5000    -13.7586     13.2313     13.8836     17.0768    155.4188
  1841.7500    -13.5386     13.2804     13.6545     16.3412    161.5991
  1842.0000    -13.5222     13.3201     13.4482     15.7452    170.4942
