~Version Information
VERS.                      2.0: CWLS Log ASCII Standard - VERSION 2.0
WRAP.                       NO: One line per depth step
~Well Information Block
STRT.FT               664.0000: 
STOP.FT              1113.5000: 
STEP.FT                 0.1000: 
NULL.                -999.2500: 
COMP.          Petrogulf Corporation: COMPANY
WELL.          Great Plains 22-21R: WELL
FLD.           Purgatorie River: FIELD
LOC.           73' FNL & 1992' FWL: LOCATION
PROV.                 Colorado: PROVINCE
CNTY.               Las Animas: COUNTRY
SRVC.                Patterson: SERVICE COMPANY
DATE.          Thu Sep 08 08:02:28 2005: LOG DATE
UWI.                          : UNIQUE WELL ID
~Curve Information Block
DEPT.FT            0 000 00 00: Depth
DCAL.in                       : CDL Caliper
RHOB.g/cc                     : CDL Bulk Density
RHOC.g/cc                     : CDL Density Correction
DPOR.pu                       : CDL Density Porosity
GR.GAPI                       : Gamma Ray
NPOR.pu                       : Neutron Porosity
~Parameter Information Block
~A  Depth       DCAL        RHOB        RHOC        DPOR         GR         NPOR    
# ...
   894.4000      7.9649      2.4834      0.0595     10.0952    139.6718     25.6505
   894.5000      7.9950      2.4754      0.0572     10.5827    139.5038     25.7717
   894.6000      7.9950      2.4844      0.0663     10.0354    142.0429     26.1105
   894.7000      7.9950      2.4934      0.0706      9.4926    147.3957     26.6380
   894.8000      8.0392      2.4894      0.0569      9.7330    153.2039     26.9035
   894.9000      8.0392      2.4802      0.0510     10.2887    156.0861     26.6119
   895.0000      8.0547      2.4795      0.0782     10.3306    155.3816     26.0582
   895.1000      8.0547      2.4815      0.1268     10.2151    152.2318     25.8482
   895.2000      8.0547      2.4747      0.0642     10.6269    147.9336     26.2777
   895.3000      8.0462      2.4559      0.0925     11.7638    145.1776     26.8660
   895.4000      8.0462      2.4249      0.0571     13.6441    144.6964     27.2451
   895.5000      8.0433      2.3920      0.0372     15.6346    145.1849     27.6819
   895.6000      8.0433      2.3658      0.0498     17.2218    149.2386     28.2343
   895.7000      8.0433      2.3444      0.0119     18.5183    158.7500     28.5909
   895.8000      8.0814      2.3256      0.0509     19.6599    165.6177     28.6564
   895.9000      8.0814      2.3068      0.0461     20.8025    163.7703     28.5426
   896.0000      8.1880      2.2898      0.0561     21.8294    158.5382     28.5095
   896.1000      8.1880      2.2796      0.0733     22.4495    156.0038     28.8291
   896.2000      8.1880      2.2793      0.0710     22.4679    154.9528     29.2856
   896.3000      8.2605      2.2920      0.0450     21.6979    152.1613     29.5007
   896.4000      8.2605      2.3110      0.0450     20.5477    148.0131     29.6518
   896.5000      8.2732      2.3210      0.0822     19.9386    145.1792     30.0121
   896.6000      8.2732      2.3212      0.0775     19.9302    146.3922     30.3356
   896.7000      8.2732      2.3276      0.1051     19.5380    149.2505     30.4171
   896.8000      8.2776      2.3485      0.1195     18.2738    150.8395     30.4012
   896.9000      8.2776      2.3699      0.1483     16.9781    154.0029     30.4746
   897.0000      8.2703      2.3829      0.1042     16.1891    160.7758     30.5528
   897.1000      8.2703      2.4032      0.0893     14.9561    166.5612     30.6907
   897.2000      8.2703      2.4378      0.1190     12.8614    165.5921     30.9081
   897.3000      8.2199      2.4671      0.1050     11.0852    161.0522     30.9369
   897.4000      8.2199      2.4807      0.1182     10.2633    160.1793     30.7076
   897.5000      8.1412      2.4916      0.0818      9.6004    163.5439     30.3121
   897.6000      8.1412      2.5064      0.1542      8.7037    166.9898     29.7520
   897.7000      8.1412      2.5129      0.1288      8.3080    169.7391     29.0609
   897.8000      8.0132      2.5074      0.0235      8.6448    175.5365     28.4460
   897.9000      8.0132      2.5025      0.0478      8.9392    185.6544     28.1647
   898.0000      7.9860      2.5047      0.0440      8.8056    192.8412     28.3368
   898.1000      7.9860      2.5093      0.0452      8.5263    191.1725     28.7651
   898.2000      7.9860      2.5156      0.0227      8.1447    186.0833     29.1913
   898.3000      7.9714      2.5286      0.0589      7.3554    184.4141     29.4960
   898.4000      7.9714      2.5466      0.0838      6.2685    183.6268     29.5641
   898.5000      7.9703      2.5630      0.0909      5.2728    181.6109     29.1808
   898.6000      7.9703      2.5800      0.0779      4.2403    183.4189     28.3353
   898.7000      7.9703      2.5986      0.0931      3.1156    189.8710     27.4327
   898.8000      7.9682      2.6047      0.1378      2.7453    194.0067     26.7984
   898.9000      7.9682      2.5934      0.0607      3.4319    194.0448     26.6800
   899.0000      7.9666      2.5800      0.0392      4.2444    194.4049     27.1116
   899.1000      7.9666      2.5772      0.0294      4.4107    194.5299     27.6283
   899.2000      7.9666      2.5853      0.0238      3.9237    192.0506     27.7360
   899.3000      7.9668      2.5910      0.0669      3.5740    187.4326     27.5108
   899.4000      7.9668      2.5795      0.0376      4.2726    184.1085     27.4030
   899.5000      7.9849      2.5531     -0.0087      5.8738    186.1403     27.4780
   899.6000      7.9849      2.5306     -0.0094      7.2365    190.5442     27.4622
   899.7000      7.9849      2.5267      0.0087      7.4750    190.8350     27.3506
   899.8000      7.9937      2.5302      0.0802      7.2631    189.0823     27.4283
   899.9000      7.9937      2.5230      0.0056      7.6988    191.2649     27.8072
   900.0000      7.9929      2.5107      0.0138      8.4404    195.7738     28.3365
   900.1000      7.9929      2.5022      0.0317      8.9572    198.9846     28.6881
   900.2000      7.9929      2.4943      0.0092      9.4356    202.3095     28.6154
   900.3000      7.9758      2.4831      0.0443     10.1138    204.4443     28.2527
   900.4000      7.9758      2.4652      0.0269     11.1978    199.5184     27.8107
   900.5000      7.9960      2.4428      0.0093     12.5567    189.9096     27.4897
   900.6000      7.9960      2.4248     -0.0134     13.6491    185.4381     27.4218
   900.7000      7.9960      2.4167     -0.0002     14.1408    189.3367     27.5903
   900.8000      8.0418      2.4143     -0.0047     14.2820    195.1723     27.8272
   900.9000      8.0418      2.4136     -0.0176     14.3267    198.2294     27.8299
   901.0000      8.0798      2.4169      0.0143     14.1285    198.2786     27.5393
   901.1000      8.0798      2.4264      0.0053     13.5526    195.0306     27.2172
   901.2000      8.0798      2.4359      0.0329     12.9762    191.0891     27.2556
   901.3000      8.1066      2.4351      0.0185     13.0239    188.4180     27.8531
   901.4000      8.1066      2.4275      0.0191     13.4843    187.4170     28.5919
   901.5000      8.1300      2.4237      0.0228     13.7159    190.9585     28.9144
   901.6000      8.1300      2.4200      0.0075     13.9396    197.4686     28.9147
   901.7000      8.1300      2.4058      0.0383     14.8019    200.1158     28.8637
   901.8000      8.1196      2.3756      0.0227     16.6318    196.3657     28.7399
   901.9000      8.1196      2.3287     -0.0088     19.4705    190.4618     28.4648
   902.0000      8.1256      2.2641      0.0135     23.3899    184.1110     28.0274
   902.1000      8.1256      2.1862     -0.0419     28.1092    177.2274     27.6499
   902.2000      8.1256      2.1238     -0.0869     31.8898    172.2522     27.4903
   902.3000      8.1326      2.1066     -0.0517     32.9350    169.6957     27.5399
   902.4000      8.1326      2.1291      0.0106     31.5682    168.5290     27.8602
   902.5000      8.1406      2.1749      0.0168     28.7928    168.8553     28.3352
   902.6000      8.1406      2.2417      0.0947     24.7462    171.0806     28.6739
   902.7000      8.1406      2.3148      0.2998     20.3124    174.2512     28.9132
   902.8000      8.1502      2.3644      0.3551     17.3105    175.7506     29.1829
   902.9000      8.1502      2.3831      0.3516     16.1732    174.9683     29.2849
   903.0000      8.1530      2.3903      0.2724     15.7365    173.7346     29.2584
   903.1000      8.1530      2.3999      0.2266     15.1597    173.6252     29.2177
   903.2000      8.1530      2.4118      0.1304     14.4334    175.1897     28.9524
   903.3000      8.1471      2.4252      0.0937     13.6243    176.8207     28.6746
   903.4000      8.1471      2.4323      0.1067     13.1947    179.0649     28.7682
   903.5000      8.1760      2.4302      0.0402     13.3224    182.0442     28.9884
   903.6000      8.1760      2.4297      0.0429     13.3521    184.2886     29.1246
   903.7000      8.1760      2.4283      0.0979     13.4359    188.3624     29.3876
   903.8000      8.1819      2.4180      0.0599     14.0599    193.3974     29.7689
   903.9000      8.1819      2.4070      0.0604     14.7280    193.7807     30.1237
