~Version Information
VERS.                      2.0: CWLS Log ASCII Standard - VERSION 2.0
WRAP.                       NO: One line per depth step
~Well Information Block
STRT.FT                -7.5000: 
STOP.FT              2226.0000: 
STEP.FT                 0.2500: 
NULL.                -999.2500: 
COMP.          Pioneer Natural Resources: COMPANY
WELL.              Tonto 42-23: WELL
FLD.           Purgatorie River: FIELD
LOC.           2217' FNL & 423' FEL----: LOCATION
PROV.                       CO: PROVINCE
CNTY.               Las Animas: COUNTRY
SRVC.          Patterson Wireline: SERVICE COMPANY
DATE.          Fri Apr 22 11:40:07 2005: LOG DATE
UWI.           05 071 08335 00: UNIQUE WELL ID
~Curve Information Block
DEPT.FT            0 000 00 00: Depth
CCL.                          : Casing Collar Locator
TT3.usec                      : CBL 3' Travel Time
AMP3.mV                       : CBL 3' Amplitude
GR.GAPI                       : Gamma Ray
~Parameter Information Block
~A  Depth       CCL         TT3         AMP3         GR     
# ...
   126.5000      0.0000    715.1117      9.7017     62.6990
   126.7500      0.0000    715.9686      9.6275     56.9471
   127.0000      0.0000    715.8072      9.5528     52.2368
   127.2500      0.0000    715.6417      9.4857     49.2534
   127.5000      0.0000    716.8960      9.4348     47.9275
   127.7500      0.0000    719.5905      9.4142     47.9368
   128.0000      0.0000    722.0355      9.4352     48.8121
   128.2500      0.0000    722.5894      9.4910     49.7454
   128.5000      0.0000    721.5781      9.5529     49.8412
   128.7500      0.0000    720.9730      9.5900     48.7577
   129.0000      0.0000    722.1223      9.5940     47.0364
   129.2500      0.0000    724.5227      9.5839     45.7497
   129.5000      0.0000    727.2628      9.5836     45.7020
   129.7500      0.0000    730.9524      9.5989     46.8187
   130.0000      0.0000    737.0623      9.6174     48.3832
   130.2500      0.0000    745.4685      9.6269     49.7974
   130.5000      0.0000    753.9668      9.6291     50.8473
   130.7500      0.0000    760.7845      9.6365     51.4243
   131.0000      0.0000    766.4861      9.6573     51.4497
   131.2500      0.0000    772.5641      9.6856     50.9489
   131.5000      0.0000    778.8317      9.7050     50.0291
   131.7500      0.0000    782.9664      9.7045     49.0358
   132.0000      0.0000    782.5374      9.6913     48.6787
   132.2500      0.0000    777.7986      9.6850     49.6271
   132.5000      0.0000    772.7296      9.6983     52.0280
   132.7500      0.0000    772.0601      9.7229     55.6134
   133.0000      0.0000    776.4464      9.7351     60.0566
   133.2500      0.0000    782.1357      9.7152     65.0412
   133.5000      0.0000    786.3566      9.6615     70.2400
   133.7500      0.0000    791.1654      9.5864     75.3277
   134.0000      0.0000    800.3984      9.5021     79.8932
   134.2500      0.0000    814.2528      9.4092     83.4439
   134.5000      0.0000    828.5828      9.2968     85.6714
   134.7500      0.0000    838.7069      9.1548     86.6985
   135.0000      0.0000    842.2688      8.9878     86.9653
   135.2500      0.0000    838.9961      8.8149     86.8064
   135.5000      0.0000    829.9761      8.6551     86.1936
   135.7500      0.0000    818.3540      8.5189     85.1095
   136.0000      0.0000    809.3057      8.4139     84.2007
   136.2500      0.0000    807.0629      8.3531     84.4677
   136.5000      0.0000    811.6085      8.3461     85.9425
   136.7500      0.0000    819.4500      8.3838     87.2607
   137.0000      0.0000    827.3859      8.4383     86.9534
   137.2500      0.0000    834.3115      8.4798     84.5964
   137.5000      0.0000    840.0486      8.4926     80.4700
   137.7500      0.0000    844.2844      8.4798     74.8142
   138.0000      0.0000    846.8513      8.4592     67.8747
   138.2500      0.0000    847.9160      8.4550     60.4005
   138.5000      0.0000    847.3449      8.4861     53.7666
   138.7500      0.0000    843.8713      8.5564     49.4752
   139.0000      0.0000    834.9481      8.6536     48.3340
   139.2500      0.0000    818.1161      8.7549     49.9533
   139.5000      0.0000    793.7339      8.8352     53.0241
   139.7500      0.0000    766.7017      8.8774     56.1440
   140.0000      0.0000    744.5377      8.8807     58.4253
   140.2500      0.0000    732.9388      8.8594     59.4158
   140.5000      0.0000    732.8929      8.8318     58.7380
   140.7500      0.0000    741.2342      8.8044     56.1384
   141.0000      0.0000    752.8914      8.7667     51.8579
   141.2500      0.0000    762.8637      8.7047     46.7263
   141.5000      0.0000    767.6951      8.6236     41.8407
   141.7500      0.0000    766.5691      8.5527     38.1700
   142.0000      0.0000    761.3413      8.5236     36.2805
   142.2500      0.0000    755.0704      8.5444     36.2612
   142.5000      0.0000    750.0892      8.5937     37.8274
   142.7500      0.0000    747.1266      8.6375     40.3710
   143.0000      0.0000    745.7764      8.6532     42.9418
   143.2500      0.0000    745.3529      8.6432     44.5961
   143.5000      0.0000    745.3306      8.6281     45.1566
   143.7500      0.0000    745.3817      8.6259     45.5777
   144.0000      0.0000    745.3298      8.6359     47.2648
   144.2500      0.0000    745.1473      8.6397     50.7626
   144.5000      0.0000    744.8847      8.6173     55.0573
   144.7500      0.0000    744.4870      8.5643     58.2994
   145.0000      0.0000    743.5676      8.4995     59.2937
   145.2500      0.0000    741.3844      8.4534     58.2521
   145.5000      0.0000    737.3106      8.4466     56.2598
   145.7500      0.0000    731.7200      8.4762     54.3199
   146.0000      0.0000    726.4172      8.5187     52.8911
   146.2500      0.0000    723.6617      8.5456     52.0031
   146.5000      0.0000    724.3597      8.5384     51.4688
   146.7500      0.0000    727.4136      8.4968     50.8973
   147.0000      0.0000    731.0668      8.4363     49.7884
   147.2500      0.0000    734.4770      8.3802     48.0872
   147.5000      0.0000    737.6001      8.3501     46.6794
   147.7500      0.0000    740.1247      8.3579     46.8475
   148.0000      0.0000    741.4615      8.3990     49.0247
   148.2500      0.0000    742.1514      8.4495     52.4331
   148.5000      0.0000    745.0692      8.4800     56.0938
   148.7500      0.0000    754.4116      8.4776     59.6439
   149.0000      0.0000    772.2277      8.4538     62.8932
   149.2500      0.0000    795.6291      8.4287     65.1035
   149.5000      0.0000    818.4012      8.4121     65.2077
   149.7500      0.0000    835.6722      8.4022     62.7209
   150.0000      0.0000    846.3349      8.3973     58.3019
   150.2500      0.0000    851.3311      8.4011     53.3937
   150.5000      0.0000    851.2960      8.4173     49.3718
   150.7500      0.0000    846.5313      8.4492     46.9638
   151.0000      0.0000    837.9005      8.5005     46.0868
   151.2500      0.0000    826.3925      8.5717     45.9548
   151.5000      0.0000    812.3899      8.6539     45.6162
   151.7500      0.0000    796.9098      8.7307     44.8265
   152.0000      0.0000    783.2814      8.7854     44.3935
   152.2500      0.0000    775.5798      8.8066     45.3904
   152.5000      0.0000    774.9701      8.7934     47.9787
   152.7500      0.0000    779.1350      8.7598     51.0720
   153.0000      0.0000    785.5369      8.7313     53.0768
   153.2500      0.0000    793.3240      8.7288     52.9564
   153.5000      0.0000    801.8163      8.7544     50.8175
   153.7500      0.0000    809.6651      8.7942     47.6952
   154.0000      0.0000    817.0795      8.8326     44.7783
   154.2500      0.0000    827.0590      8.8599     42.7285
   154.5000      0.0000    842.0251      8.8696     41.5243
   154.7500      0.0000    859.4847      8.8545     40.6908
   155.0000      0.0000    873.0417      8.8119     39.7385
   155.2500      0.0000    878.2646      8.7533     38.6944
   155.5000      0.0000    876.3517      8.7047     38.2048
   155.7500      0.0000    871.7369      8.6890     38.8944
   156.0000      0.0000    867.4807      8.7079     40.6516
   156.2500      0.0000    863.7179      8.7420     42.6350
   156.5000      0.0000    859.4035      8.7684     43.8523
   156.7500      0.0000    854.2457      8.7800     43.7435
   157.0000      0.0000    849.0656      8.7857     42.5211
   157.2500      0.0000    844.8730      8.7950     41.1134
   157.5000      0.0000    841.9312      8.8066     40.5646
   157.7500      0.0000    839.5605      8.8141     41.2059
   158.0000      0.0000    836.6829      8.8166     42.4675
   158.2500      0.0000    832.6281      8.8190     43.6839
   158.5000      0.0000    827.7682      8.8244     44.8596
   158.7500      0.0000    823.4455      8.8288     46.3201
   159.0000      0.0000    820.9135      8.8206     47.7621
   159.2500      0.0000    819.9413      8.7826     48.0645
   159.5000      0.0000    818.5591      8.6983     46.2623
   159.7500      0.0000    815.3177      8.5573     42.7080
