~Version Information
 VERS.                                  2.0 : CWLS LAS VERSION
 WRAP.                                   NO : WRAPING MODE
 SWARE .                  MController 2.6.3 : SOFTWARE VERSION
~Well Information
 WELL.                       Stampede 42-18 : WELL
 COMP.    Pioneer Natural Resources USA Inc : COMPANY
 FLD.                      Purgatoire River : FIELD
 LOC.                SE/NE Sec 18 T32S R65W : LOCATION
 DATE.                           6/8-9/2007 : DATE(S) LOGGED
 SRVC.       Blanco Geological Services LLC : SERVICE COMPANY
 STAT.                                   CO : STATE
 CNTY.                           Las Animas : COUNTY
 CTRY.                                  USA : COUNTRY
 API.                       05-071-08237-00 : API NUMBER
 STRT.FT                             561.00 : START DEPTH
 STOP.FT                            1934.00 : STOP DEPTH
 STEP.FT                               1.00 : DEPTH INCREMENT
 NULL.                                -9999 : NULL VALUE
~Curve information
 DEPTH.FT                                   :
 ROP.MIN/FT                                 :
 GAS.UNITS                                  :
~ASCII Log data
# ...
      961.00         0.25       3549.8 
      962.00         0.27       3517.6 
      963.00         0.23       3322.1 
      964.00         0.17       3186.9 
      965.00         0.17       3102.7 
      966.00         0.23       3031.0 
      967.00         0.27       2987.0 
      968.00         0.30       2973.1 
      969.00         0.30       3016.8 
      970.00         0.27       3105.5 
      971.00         0.33       3273.9 
      972.00         0.30       3332.9 
      973.00         0.33       3405.3 
      974.00         0.42       3515.5 
      975.00         0.33       3549.1 
      976.00         0.23       3531.1 
      977.00         0.27       3473.6 
      978.00         0.30       3415.7 
      979.00         0.17       3342.9 
      980.00         0.27       3306.2 
      981.00         0.37       3363.0 
      982.00         3.52       4050.1 
      983.00         0.27       5760.7 
      984.00         0.37       6350.9 
      985.00         0.38       5799.7 
      986.00         0.20       3292.4 
      987.00         0.33       2203.6 
      988.00         0.27       2177.8 
      989.00         0.27       2770.0 
      990.00         0.20       3111.9 
      991.00         0.20       3359.8 
      992.00         0.13       3462.4 
      993.00         0.20       3499.6 
      994.00         0.20       3464.9 
      995.00         0.23       3307.3 
      996.00         0.20       3072.9 
      997.00         0.20       2843.8 
      998.00         0.20       2616.3 
      999.00         0.20       2640.3 
     1000.00         0.27       2863.9 
     1001.00         0.28       3104.2 
     1002.00         0.27       3273.6 
     1003.00         0.23       3382.4 
     1004.00         0.23       3471.5 
     1005.00         0.23       3526.4 
     1006.00         0.23       3553.2 
     1007.00         0.33       3552.5 
     1008.00         0.37       3537.5 
     1009.00         0.50       3535.1 
     1010.00         0.37       3580.3 
     1011.00         0.38       3661.7 
     1012.00         3.88       4578.1 
     1013.00         0.43       6170.8 
     1014.00         0.40       5884.2 
     1015.00         0.33       3931.4 
     1016.00         0.37       2584.4 
     1017.00         0.30       3005.2 
     1018.00         0.33       3355.8 
     1019.00         0.32       3426.0 
     1020.00         0.27       3389.7 
     1021.00         0.17       3208.6 
     1022.00         0.20       2984.2 
     1023.00         0.27       2720.0 
     1024.00         0.20       2438.3 
     1025.00         0.13       2358.2 
     1026.00         0.17       2294.3 
     1027.00         0.13       2306.9 
     1028.00         0.13       2404.7 
     1029.00         0.07       2404.7 
     1030.00         0.17       2519.4 
     1031.00         0.17       2657.8 
     1032.00         0.17       2807.4 
     1033.00         0.10       2896.5 
     1034.00         0.13       3004.2 
     1035.00         0.17       3139.8 
     1036.00         0.20       3185.9 
     1037.00         0.27       3262.5 
     1038.00         0.32       3341.4 
     1039.00         0.23       3368.4 
     1040.00         0.33       3359.6 
     1041.00         0.30       3308.2 
     1042.00         3.82       5673.5 
     1043.00         0.13       6046.4 
     1044.00         0.20       6117.2 
     1045.00         0.17       5835.6 
     1046.00         0.30       5102.5 
     1047.00         0.40       3414.7 
     1048.00         0.40        688.1 
     1049.00         0.30        461.5 
     1050.00         0.32       1494.1 
     1051.00         0.27       2345.5 
     1052.00         0.23       2827.9 
     1053.00         0.27       3154.1 
     1054.00         0.27       3235.0 
     1055.00         0.27       3214.0 
     1056.00         0.30       3068.7 
     1057.00         0.33       2870.2 
     1058.00         0.33       2819.5 
     1059.00         0.30       2965.1 
     1060.00         0.37       3117.7 
     1061.00         0.32       3212.9 
     1062.00         0.37       3267.5 
     1063.00         0.37       3268.9 
     1064.00         0.37       3247.2 
     1065.00         0.33       3251.8 
     1066.00         0.33       3252.8 
     1067.00         0.37       3267.9 
     1068.00         0.33       3283.6 
     1069.00         0.37       3283.6 
     1070.00         0.45       3322.1 
     1071.00         0.40       3300.8 
     1072.00         4.28       3265.1 
     1073.00         0.27       4346.4 
     1074.00         0.23       5561.2 
     1075.00         0.33       6039.0 
     1076.00         0.43       5814.7 
     1077.00         0.40       4010.7 
     1078.00         0.35       2467.6 
     1079.00         0.33       2822.6 
     1080.00         0.30       3132.9 
     1081.00         0.27       3229.2 
     1082.00         0.33       3215.1 
     1083.00         0.27       3024.8 
     1084.00         0.37       2771.3 
     1085.00         0.17       2508.0 
     1086.00         0.10       2379.5 
     1087.00         0.23       2329.3 
     1088.00         0.23       2260.5 
     1089.00         0.27       2264.3 
     1090.00         0.25       2381.2 
     1091.00         0.27       2626.0 
     1092.00         0.27       2767.5 
     1093.00         0.37       2783.6 
     1094.00         0.33       2805.7 
     1095.00         0.30       2919.8 
     1096.00         0.30       3092.6 
     1097.00         0.37       3106.3 
     1098.00         0.33       2889.6 
     1099.00         0.37       2854.2 
     1100.00         0.37       3092.2 
     1101.00         0.38       3081.3 
     1102.00         5.18       2975.3 
     1103.00         0.40       3840.8 
     1104.00         0.40       4109.2 
     1105.00         0.37       3760.9 
     1106.00         0.45       3506.8 
     1107.00         0.37       3533.2 
     1108.00         0.33       3458.2 
     1109.00         0.37       3252.3 
     1110.00         0.30       2509.9 
     1111.00         0.30       2038.5 
     1112.00         0.30       1647.0 
     1113.00         0.33       1245.8 
     1114.00         0.30        996.7 
     1115.00         0.27       1092.3 
     1116.00         0.28       1316.1 
     1117.00         0.40       1896.1 
     1118.00         0.40       2202.3 
     1119.00         0.33       2517.8 
     1120.00         0.27       2848.6 
     1121.00         0.43       2885.0 
     1122.00         0.60       2524.6 
     1123.00         0.50       2196.9 
     1124.00         0.55       2084.5 
     1125.00         0.73       1922.1 
     1126.00         0.27       1077.7 
     1127.00         0.97       1057.4 
     1128.00         0.63        486.0 
     1129.00         0.62        376.5 
     1130.00         0.53        297.7 
     1131.00         0.53        252.0 
     1132.00         3.65        230.1 
     1133.00         0.57       1218.5 
     1134.00         0.43       2186.5 
     1135.00         0.42       2700.8 
     1136.00         0.30       2925.9 
     1137.00         0.27       2955.4 
     1138.00         0.20       2830.0 
     1139.00         0.17       2590.8 
     1140.00         0.33       2083.6 
     1141.00         0.47       1383.9 
     1142.00         0.43        440.0 
     1143.00         0.37        198.7 
     1144.00         0.33        112.0 
     1145.00         0.33         76.3 
     1146.00         5.10       2088.9 
     1147.00         0.47        440.0 
     1148.00         0.40         95.8 
     1149.00         0.43        421.5 
     1150.00         0.45       1291.5 
     1151.00         0.63       2280.8 
     1152.00         0.57       2759.2 
     1153.00         0.50       2817.5 
     1154.00         0.43       2813.9 
     1155.00         0.47       2567.2 
     1156.00         0.40       2184.7 
     1157.00         0.42       2218.4 
     1158.00         0.47       2182.6 
     1159.00         0.33       1954.8 
     1160.00         0.40       1533.6 
