~Version Information
VERS.                      2.0: CWLS Log ASCII Standard - VERSION 2.0
WRAP.                       NO: One line per depth step
~Well Information Block
STRT.FT                -9.7500: 
STOP.FT              2566.5000: 
STEP.FT                 0.2500: 
NULL.                -999.2500: 
COMP.          Petrogulf Corporation: COMPANY
WELL.             Valejo 8-12V: WELL
FLD.           Purgatorie River: FIELD
LOC.           1510' FNL & 1460' FWL: LOCATION
CNTY.               Las Animas: COUNTY
SRVC.                         : SERVICE COMPANY
DATE.          Tue Nov 18 14:36:15 2003: LOG DATE
UWI.                          : UNIQUE WELL ID
STAT.                 Colorado: STATE
~Curve Information Block
DEPT.FT            0 000 00 00: Depth
CCL.                          : Casing Collar Locator
TT3.usec                      : CBL 3' Travel Time
AMP3.mV                       : CBL 3' Amplitude
GR.GAPI                       : Gamma Ray
~Parameter Information Block
~A  Depth       CCL         TT3         AMP3         GR     
# ...
   660.2500      2.0000    851.5370      3.4952     81.1612
   660.5000     -2.0000    842.7341      3.5645     76.4788
   660.7500      0.0000    819.4810      3.5979     76.5080
   661.0000      0.0000    784.7486      3.6090     81.3437
   661.2500      0.0000    747.0878      3.6608     89.1445
   661.5000      0.0000    719.4712      3.7995     97.3132
   661.7500      0.0000    712.8276      3.9926    103.9142
   662.0000      0.0000    729.3584      4.1575    107.9711
   662.2500      0.0000    761.7181      4.2463    108.8318
   662.5000      0.0000    797.9756      4.2808    106.0859
   662.7500      0.0000    827.9868      4.3125    100.3507
   663.0000      0.0000    847.2891      4.3740     93.5870
   663.2500      0.0000    856.9504      4.4591     88.1515
   663.5000      0.0000    860.4728      4.5281     85.5574
   663.7500      0.0000    860.6476      4.5413     86.0744
   664.0000      0.0000    858.4567      4.5035     89.0731
   664.2500      0.0000    853.9894      4.4632     93.5264
   664.5000      0.0000    848.1462      4.4585     98.3360
   664.7500      0.0000    843.5691      4.4764    102.5305
   665.0000      0.0000    843.6566      4.4695    105.6263
   665.2500      0.0000    850.1223      4.4096    108.0308
   665.5000      0.0000    861.3458      4.3238    110.7029
   665.7500      0.0000    873.2111      4.2727    113.9348
   666.0000      0.0000    881.6629      4.2918    116.4844
   666.2500      0.0000    884.7521      4.3602    116.4346
   666.5000      0.0000    882.9471      4.4236    113.1315
   666.7500      0.0000    878.0852      4.4442    108.0530
   667.0000      0.0000    871.8363      4.4247    103.6315
   667.2500      0.0000    864.5552      4.3932    101.3683
   667.5000      0.0000    855.4738      4.3758    101.0537
   667.7500      0.0000    844.3212      4.3820    101.3116
   668.0000      0.0000    832.7275      4.3952    100.6700
   668.2500      0.0000    823.4857      4.3804     98.6119
   668.5000      0.0000    818.1722      4.3165     95.8912
   668.7500      0.0000    816.0754      4.2240     93.6040
   669.0000      0.0000    815.9476      4.1527     92.0924
   669.2500      0.0000    818.5580      4.1386     91.1098
   669.5000      0.0000    826.7744      4.1796     90.6369
   669.7500      0.0000    842.4005      4.2531     90.9518
   670.0000      0.0000    862.7782      4.3361     92.0709
   670.2500      0.0000    881.3730      4.4123     93.4806
   670.5000      0.0000    892.5770      4.4795     94.2961
   670.7500      0.0000    895.5778      4.5473     93.8754
   671.0000      0.0000    893.0692      4.6173     92.6768
   671.2500      0.0000    887.0783      4.6648     92.2596
   671.5000      0.0000    877.1312      4.6495     93.8543
   671.7500      0.0000    862.3024      4.5574     97.0562
   672.0000      0.0000    844.4679      4.4378    100.2912
   672.2500      0.0000    829.2077      4.3769    102.2451
   672.5000      0.0000    822.8442      4.4166    102.5305
   672.7500      0.0000    827.5901      4.5079    101.3677
   673.0000      0.0000    839.0580      4.5481     98.9575
   673.2500      0.0000    848.8480      4.4613     94.9900
   673.5000      0.0000    849.8743      4.2467     88.7697
   673.7500      0.0000    839.9086      3.9635     80.2166
   674.0000      0.0000    822.0598      3.6811     70.9494
   674.2500      0.0000    803.2627      3.4396     64.0225
   674.5000      0.0000    790.6567      3.2435     62.0197
   674.7500      0.0000    786.8271      3.0851     65.1888
   675.0000      0.0000    788.8562      2.9657     71.5414
   675.2500      0.0000    793.2206      2.8939     78.5971
   675.5000      0.0000    800.3046      2.8685     84.5900
   675.7500      0.0000    812.3286      2.8662     88.3676
   676.0000      0.0000    828.5111      2.8549     89.2831
   676.2500      0.0000    845.2974      2.8280     87.6026
   676.5000      0.0000    860.9669      2.8108     84.4566
   676.7500      0.0000    877.2050      2.8310     81.1120
   677.0000      0.0000    895.6127      2.8959     78.4894
   677.2500      0.0000    914.2223      2.9916     77.2508
   677.5000      0.0000    927.7548      3.0931     77.8983
   677.7500      0.0000    930.8785      3.1830     80.5176
   678.0000      0.0000    921.8104      3.2731     84.4733
   678.2500      0.0000    903.5310      3.3974     88.6839
   678.5000      0.0000    881.9699      3.5679     92.3740
   678.7500      0.0000    863.4203      3.7378     95.3820
   679.0000      0.0000    853.2571      3.8285     97.7222
   679.2500      0.0000    855.0136      3.8011     99.1969
   679.5000      0.0000    868.8807      3.6916     99.5316
   679.7500      0.0000    890.7802      3.5740     98.6170
   680.0000      0.0000    912.8786      3.5040     96.4893
   680.2500      0.0000    925.4446      3.5028     93.1632
   680.5000      0.0000    920.7245      3.5719     88.6419
   680.7500      0.0000    898.0310      3.6875     83.3934
   681.0000      0.0000    865.5390      3.7878     78.9252
   681.2500      0.0000    835.4327      3.8079     77.2482
   681.5000      0.0000    815.9279      3.7463     79.0977
   681.7500      0.0000    807.6166      3.6743     82.8977
   682.0000      0.0000    806.5652      3.6637     86.1487
   682.2500      0.0000    809.4758      3.7232     87.9525
   682.5000      0.0000    815.4418      3.8137     89.5606
   682.7500      0.0000    824.0156      3.8948     92.1681
   683.0000      0.0000    833.0504      3.9410     94.9245
   683.2500      0.0000    839.1550      3.9394     95.9555
   683.5000      0.0000    840.1855      3.8906     94.8337
   683.7500      0.0000    836.7099      3.8058     93.0353
   684.0000      0.0000    831.0402      3.6996     92.1810
   684.2500      0.0000    825.4653      3.5928     92.6721
   684.5000      0.0000    821.0114      3.5198     93.7512
   684.7500      0.0000    817.1030      3.5062     94.0992
   685.0000      0.0000    812.8171      3.5384     92.6793
   685.2500      0.0000    808.8857      3.5782     89.8366
   685.5000      0.0000    807.9088      3.6066     87.3489
   685.7500      0.0000    811.8813      3.6367     86.6087
   686.0000      0.0000    819.0400      3.6813     86.8465
   686.2500      0.0000    823.3205      3.7243     85.9441
   686.5000      0.0000    818.1824      3.7333     83.1506
   686.7500      0.0000    802.3655      3.6963     80.1550
   687.0000      0.0000    782.0308      3.6339     79.1189
   687.2500      0.0000    767.1569      3.5730     80.4024
   687.5000      0.0000    765.5876      3.5167     82.6943
   687.7500      0.0000    779.5439      3.4570     84.7130
   688.0000      0.0000    805.8025      3.4064     86.2490
   688.2500      0.0000    837.5616      3.4015     87.8285
   688.5000     -2.0000    866.8816      3.4707     89.6522
   688.7500     -2.0000    887.9986      3.6065     90.8138
   689.0000      0.0000    899.3678      3.7898     89.5448
   689.2500      0.0000    901.8103      4.0357     84.4744
   689.5000      0.0000    895.7220      4.3767     75.8851
   689.7500      0.0000    881.8805      4.7741     65.7942
   690.0000      0.0000    863.6938      5.0904     56.6694
   690.2500      0.0000    846.0898      5.2042     49.9399
   690.5000      0.0000    832.0977      5.1368     45.6362
   690.7500      0.0000    821.3945      5.0152     43.1911
   691.0000      0.0000    811.8475      4.9318     42.2998
   691.2500      0.0000    801.9734      4.8866     42.9479
   691.5000      0.0000    792.2622      4.8472     44.9211
   691.7500      0.0000    784.7296      4.8073     47.6524
   692.0000      0.0000    781.3241      4.7758     50.6715
   692.2500      0.0000    782.4614      4.7426     53.9940
   692.5000      0.0000    786.4359      4.6828     57.9398
   692.7500      0.0000    790.0977      4.5880     62.6825
   693.0000      0.0000    790.8002      4.4771     68.0201
   693.2500      0.0000    788.3262      4.3745     73.4901
   693.5000      0.0000    784.9302      4.2913     78.5994
