~Version Information
VERS.                      2.0: CWLS Log ASCII Standard - VERSION 2.0
WRAP.                       NO: One line per depth step
~Well Information Block
STRT.FT               545.0000: 
STOP.FT              1920.5000: 
STEP.FT                 0.1000: 
NULL.                -999.2500: 
COMP.          Pioneer Natural Resources: COMPANY
WELL.            Summers 21-19: WELL
FLD.           Purgatoire River: FIELD
LOC.           900' FNL & 1950' FWL: LOCATION
PROV.                 Colorado: PROVINCE
CNTY.               Las Animas: COUNTRY
SRVC.                Patterson: SERVICE COMPANY
DATE.          Mon Oct 17 07:05:22 2005: LOG DATE
UWI.           05 071 08315 00: UNIQUE WELL ID
~Curve Information Block
DEPT.FT            0 000 00 00: Depth
DCAL.in                       : CDL Caliper
RHOB.g/cc                     : CDL Bulk Density
RHOC.g/cc                     : CDL Density Correction
DPOR.pu                       : CDL Density Porosity
GR.GAPI                       : Gamma Ray
NPOR.pu                       : Neutron Porosity
~Parameter Information Block
~A  Depth       DCAL        RHOB        RHOC        DPOR         GR         NPOR    
# ...
   813.8000      8.1831      2.5773      0.0426      4.4033    123.3504     27.6498
   813.9000      8.1831      2.5643      0.0763      5.1958    111.3771     27.8777
   814.0000      8.1233      2.5360     -0.0128      6.9063    105.4914     27.3937
   814.1000      8.1233      2.5112      0.0169      8.4123    107.3228     25.7418
   814.2000      8.1233      2.4922     -0.0263      9.5663    112.0926     23.9794
   814.3000      8.0905      2.4725     -0.0525     10.7566    115.3504     23.1176
   814.4000      8.0905      2.4603     -0.0780     11.4975    116.0874     23.3230
   814.5000      8.0783      2.4592     -0.0267     11.5632    113.8183     24.1777
   814.6000      8.0783      2.4684     -0.0439     11.0071    109.0183     24.9857
   814.7000      8.0783      2.4935     -0.0165      9.4822    104.9347     25.5140
   814.8000      8.0982      2.5176      0.0481      8.0224    103.1588     25.8032
   814.9000      8.0982      2.5173      0.0022      8.0454    102.8805     25.8531
   815.0000      8.1081      2.5109     -0.0367      8.4297    105.5411     25.8317
   815.1000      8.1081      2.5190      0.0103      7.9384    110.9889     26.0606
   815.2000      8.1081      2.5272      0.0262      7.4433    115.9872     26.4253
   815.3000      8.1163      2.5301     -0.0170      7.2653    120.2624     26.4276
   815.4000      8.1163      2.5466     -0.0143      6.2655    124.2108     26.1507
   815.5000      8.1073      2.5850      0.0010      3.9370    126.0800     25.9048
   815.6000      8.1073      2.6301      0.0492      1.2085    125.6928     25.7496
   815.7000      8.1073      2.6561      0.0272     -0.3702    125.7025     25.8551
   815.8000      8.0759      2.6524      0.0294     -0.1485    129.0858     26.1115
   815.9000      8.0759      2.6361     -0.0169      0.8404    133.1665     25.8549
   816.0000      8.0473      2.6295      0.0062      1.2416    131.5522     25.3244
   816.1000      8.0473      2.6319      0.0069      1.0988    124.2545     25.6979
   816.2000      8.0473      2.6298      0.0215      1.2233    117.4852     26.5527
   816.3000      8.0449      2.6241      0.0020      1.5723    116.1529     26.3538
   816.4000      8.0449      2.6243      0.0196      1.5557    117.2971     25.8077
   816.5000      8.0314      2.6270     -0.0366      1.3954    115.8634     26.3313
   816.6000      8.0314      2.6245     -0.0325      1.5440    113.1174     27.1300
   816.7000      8.0314      2.6172      0.0159      1.9889    108.9455     26.9994
   816.8000      8.0221      2.6084      0.0155      2.5232    105.0488     26.0960
   816.9000      8.0221      2.5972      0.0227      3.1986    104.2570     25.0680
   817.0000      8.0494      2.5741     -0.0078      4.5991    102.1645     24.2024
   817.1000      8.0494      2.5350     -0.0344      6.9718     98.8521     23.4387
   817.2000      8.0494      2.4906     -0.0798      9.6604    101.0701     22.7111
   817.3000      8.0794      2.4528     -0.0922     11.9521    107.9319     22.4211
   817.4000      8.0794      2.4280     -0.1072     13.4546    111.5734     22.8887
   817.5000      8.0641      2.4195     -0.0609     13.9677    109.5458     23.7358
   817.6000      8.0641      2.4210      0.0582     13.8796    105.3820     24.6722
   817.7000      8.0641      2.4273      0.0349     13.4986    100.3552     25.2286
   817.8000      8.0631      2.4472      0.0368     12.2924     94.8333     25.0129
   817.9000      8.0631      2.4835      0.1197     10.0880     91.5489     24.5729
   818.0000      8.0106      2.5251      0.1401      7.5695     90.8626     24.6573
   818.1000      8.0106      2.5580      0.1744      5.5731     92.1819     25.1999
   818.2000      8.0106      2.5765      0.1981      4.4524     96.0784     25.8602
   818.3000      7.8901      2.5898      0.2024      3.6473    102.2407     26.4126
   818.4000      7.8901      2.6117      0.2013      2.3203    110.5566     26.4180
   818.5000      7.8510      2.6416      0.2511      0.5095    119.4337     25.9108
   818.6000      7.8510      2.6622      0.2260     -0.7418    125.3394     25.4154
   818.7000      7.8510      2.6642      0.1548     -0.8625    127.8175     25.0289
   818.8000      7.8538      2.6544      0.1521     -0.2686    128.2310     24.4953
   818.9000      7.8538      2.6368      0.1500      0.7991    127.9698     24.0215
   819.0000      7.9277      2.6155      0.0938      2.0906    126.7878     24.5014
   819.1000      7.9277      2.5989      0.0906      3.0983    124.1440     25.9723
   819.2000      7.9277      2.5828      0.0948      4.0754    126.5658     27.4368
   819.3000      7.9614      2.5613      0.0353      5.3754    136.7216     28.4273
   819.4000      7.9614      2.5478     -0.0107      6.1937    145.6822     28.5210
   819.5000      7.9987      2.5515      0.0299      5.9702    146.4370     27.5725
   819.6000      7.9987      2.5654     -0.0138      5.1254    138.7783     26.5981
   819.7000      7.9987      2.5826      0.0151      4.0868    130.0855     26.2365
   819.8000      8.0040      2.5906      0.0618      3.5988    131.5705     26.1238
   819.9000      8.0040      2.5881     -0.0008      3.7503    139.1596     26.1576
   820.0000      7.9969      2.5963      0.0203      3.2533    138.4414     26.1023
   820.1000      7.9969      2.6181      0.0400      1.9312    130.4408     25.5711
   820.2000      7.9969      2.6320      0.0443      1.0908    122.5343     25.2644
   820.3000      8.0236      2.6295      0.0200      1.2405    114.0423     25.5703
   820.4000      8.0236      2.6145      0.0507      2.1511    105.1827     25.7912
   820.5000      8.1238      2.5916      0.0195      3.5382    100.2676     25.8472
   820.6000      8.1238      2.5763     -0.0171      4.4644    102.5611     26.0439
   820.7000      8.1238      2.5756      0.0030      4.5067    108.2137     26.1936
   820.8000      8.0642      2.5752     -0.0293      4.5317    112.8794     26.4031
   820.9000      8.0642      2.5666     -0.0887      5.0529    118.9560     27.1421
   821.0000      8.0638      2.5535     -0.0248      5.8485    123.3833     28.2023
   821.1000      8.0638      2.5448     -0.0756      6.3760    117.9404     28.4770
   821.2000      8.0638      2.5531     -0.0298      5.8705    104.0419     27.8778
   821.3000      8.0801      2.5794      0.0048      4.2767     91.3521     27.7170
   821.4000      8.0801      2.6082      0.0118      2.5363     88.1336     28.0470
   821.5000      8.1145      2.6164     -0.0124      2.0358     95.3418     27.7690
   821.6000      8.1145      2.5948     -0.0437      3.3453    104.7365     27.1265
   821.7000      8.1145      2.5647     -0.0831      5.1683    106.7759     27.2239
   821.8000      8.1253      2.5541     -0.0550      5.8094    104.4985     27.8228
   821.9000      8.1253      2.5660     -0.0489      5.0883    105.3435     28.1284
   822.0000      8.0556      2.5808      0.0884      4.1956    107.6650     28.1125
   822.1000      8.0556      2.5805      0.0306      4.2135    109.5546     28.3298
   822.2000      8.0556      2.5729      0.0230      4.6733    114.9131     28.9195
   822.3000      8.0283      2.5729      0.0545      4.6734    123.9048     29.0529
   822.4000      8.0283      2.5789      0.0192      4.3082    130.9642     28.0009
   822.5000      8.0057      2.5842      0.0251      3.9872    133.8391     26.4664
   822.6000      8.0057      2.5850      0.0251      3.9372    133.2496     26.0431
   822.7000      8.0057      2.5823      0.0332      4.1057    129.9463     27.4133
   822.8000      8.0011      2.5818     -0.0073      4.1341    127.0856     29.0848
   822.9000      8.0011      2.5808      0.0312      4.1910    127.3909     28.8632
   823.0000      8.0239      2.5708      0.0330      4.7990    127.9768     27.5140
   823.1000      8.0239      2.5553      0.0178      5.7417    128.4930     27.6630
   823.2000      8.0239      2.5432      0.0001      6.4750    135.3167     29.5531
   823.3000      8.0282      2.5343     -0.0275      7.0124    145.8269     30.7921
