~Version Information
VERS.                      2.0: CWLS Log ASCII Standard - VERSION 2.0
WRAP.                       NO: One line per depth step
~Well Information Block
STRT.FT               294.0000: 
STOP.FT              1958.0000: 
STEP.FT                 0.1000: 
NULL.                -999.2500: 
COMP.          Pioneer Natural Resources: COMPANY
WELL.          Commander 43-26 Tr: WELL
FLD.           Purgatoire River: FIELD
LOC.           2439' FSL & 446' FEL: LOCATION
PROV.                 Colorado: PROVINCE
CNTY.               Las Animas: COUNTRY
SRVC.                Patterson: SERVICE COMPANY
DATE.          Fri Apr 15 07:31:08 2005: LOG DATE
UWI.           05 071 08341 00: UNIQUE WELL ID
~Curve Information Block
DEPT.FT            0 000 00 00: Depth
DCAL.in                       : CDL Caliper
RHOB.g/cc                     : CDL Bulk Density
RHOC.g/cc                     : CDL Density Correction
DPOR.pu                       : CDL Density Porosity
GR.GAPI                       : Gamma Ray
NPOR.pu                       : Neutron Porosity
~Parameter Information Block
~A  Depth       DCAL        RHOB        RHOC        DPOR         GR         NPOR    
# ...
   514.8000      8.1458      2.4792      0.0007     10.3503    100.4650     24.5931
   514.9000      8.1458      2.4873      0.0174      9.8631     97.3743     24.1546
   515.0000      8.1438      2.4737     -0.0217     10.6832     99.3643     24.1042
   515.1000      8.1438      2.4456     -0.0759     12.3882    103.0986     24.3630
   515.2000      8.1438      2.4288     -0.0352     13.4061    108.0093     24.3302
   515.3000      8.1478      2.4377     -0.0288     12.8654    113.5526     23.9178
   515.4000      8.1478      2.4604      0.0557     11.4933    116.1399     23.4605
   515.5000      8.1672      2.4770      0.0225     10.4837    115.2551     23.0830
   515.6000      8.1672      2.5027     -0.0593      8.9261    113.3961     22.8016
   515.7000      8.1672      2.5547      0.0600      5.7767    112.0461     22.5782
   515.8000      8.1605      2.5956      0.1017      3.2957    111.9572     22.3503
   515.9000      8.1605      2.5871      0.1381      3.8136    113.1683     22.2077
   516.0000      8.1395      2.5474      0.0499      6.2194    116.7929     22.2518
   516.1000      8.1395      2.5181     -0.0028      7.9952    121.4795     22.2639
   516.2000      8.1395      2.5093      0.0299      8.5253    120.3728     22.2826
   516.3000      8.1205      2.5078      0.0064      8.6208    111.6025     22.7282
   516.4000      8.1205      2.5117      0.0729      8.3791    105.8946     23.5295
   516.5000      8.1181      2.5263      0.0904      7.4982    111.0105     24.2219
   516.6000      8.1181      2.5502      0.0665      6.0497    119.7150     24.6538
   516.7000      8.1181      2.5744      0.1244      4.5820    121.3762     24.9292
   516.8000      8.0947      2.5803      0.1060      4.2265    115.8709     25.1332
   516.9000      8.0947      2.5589      0.1185      5.5202    111.5728     25.3105
   517.0000      8.0809      2.5290      0.0318      7.3318    114.9820     25.3630
   517.1000      8.0809      2.5150      0.0527      8.1802    126.1826     25.1034
   517.2000      8.0809      2.5149      0.0556      8.1875    140.0594     24.7564
   517.3000      8.0873      2.5166      0.0327      8.0856    147.9304     24.5464
   517.4000      8.0873      2.5210      0.0112      7.8155    147.0428     24.3715
   517.5000      8.0701      2.5302      0.0559      7.2584    145.1010     24.2623
   517.6000      8.0701      2.5401      0.0668      6.6618    148.4144     24.2623
   517.7000      8.0701      2.5481      0.0694      6.1783    154.0240     24.3041
   517.8000      8.0604      2.5502      0.0802      6.0498    157.9360     24.4990
   517.9000      8.0604      2.5460      0.0578      6.3024    157.8271     24.8949
   518.0000      8.0684      2.5401      0.0709      6.6608    154.2213     25.1507
   518.1000      8.0684      2.5317      0.0874      7.1726    153.7069     25.1159
   518.2000      8.0684      2.5193      0.0778      7.9191    156.3405     25.0687
   518.3000      8.0798      2.5032      0.0686      8.8944    153.3018     25.1558
   518.4000      8.0798      2.4902      0.0259      9.6871    142.7573     25.2924
   518.5000      8.0957      2.4917     -0.0045      9.5935    131.4616     25.4182
   518.6000      8.0957      2.4957      0.0731      9.3491    124.0455     25.6107
   518.7000      8.0957      2.4814      0.0613     10.2176    121.6262     25.9261
   518.8000      8.1060      2.4637     -0.0159     11.2919    121.3705     26.4016
   518.9000      8.1060      2.4647      0.0454     11.2280    121.6167     26.9592
   519.0000      8.1081      2.4746      0.0446     10.6280    124.4158     27.2728
   519.1000      8.1081      2.4831      0.0241     10.1163    128.2005     27.2721
   519.2000      8.1081      2.4951      0.0355      9.3875    128.5048     27.1367
   519.3000      8.1117      2.5043      0.0584      8.8328    122.4143     27.0256
   519.4000      8.1117      2.4992      0.0171      9.1399    112.8425     27.0102
   519.5000      8.1123      2.4857     -0.0024      9.9570    105.2587     26.9804
   519.6000      8.1123      2.4786      0.0282     10.3892    103.0687     26.8049
   519.7000      8.1123      2.4808     -0.0246     10.2536    106.3592     26.4594
   519.8000      8.1007      2.4832      0.0539     10.1108    110.6432     26.2181
   519.9000      8.1007      2.4854     -0.0245      9.9775    114.5242     26.3178
   520.0000      8.1072      2.5002      0.0137      9.0788    119.3030     26.5207
   520.1000      8.1072      2.5172      0.0767      8.0482    121.0559     26.4896
   520.2000      8.1072      2.5123      0.0705      8.3438    118.4211     26.0468
   520.3000      8.1234      2.4934      0.0454      9.4902    115.9708     25.1808
   520.4000      8.1234      2.4820      0.0812     10.1790    113.8185     24.1998
   520.5000      8.0954      2.4732      0.0669     10.7147    110.7018     23.4655
   520.6000      8.0954      2.4547      0.0347     11.8391    111.1847     23.1535
   520.7000      8.0954      2.4406     -0.0286     12.6910    113.5526     23.1715
   520.8000      8.0939      2.4505      0.0364     12.0887    109.7267     23.1268
   520.9000      8.0939      2.4719      0.0291     10.7951    102.8802     23.0229
   521.0000      8.0776      2.4800      0.0741     10.3060    100.9267     23.2805
   521.1000      8.0776      2.4731      0.1154     10.7199    101.6220     23.8033
   521.2000      8.0776      2.4552      0.1205     11.8090    100.4700     24.0143
   521.3000      8.0738      2.4218      0.1251     13.8300     97.1993     23.6190
   521.4000      8.0738      2.3823      0.0517     16.2270     91.1990     23.0625
   521.5000      8.0448      2.3595      0.0495     17.6069     85.1203     22.8626
   521.6000      8.0448      2.3633      0.0499     17.3768     83.3903     22.8992
   521.7000      8.0448      2.3916      0.0496     15.6618     83.6628     22.9125
   521.8000      8.0619      2.4437      0.1024     12.5010     80.1126     22.8221
   521.9000      8.0619      2.5134      0.1665      8.2800     73.0667     22.6865
   522.0000      8.0835      2.5805      0.2544      4.2096     67.4552     22.4460
   522.1000      8.0835      2.6189      0.2899      1.8847     67.2374     22.0006
   522.2000      8.0835      2.6165      0.2708      2.0308     74.5614     21.6139
   522.3000      8.0819      2.5842      0.2144      3.9851     84.5784     21.4759
   522.4000      8.0819      2.5494      0.1906      6.0942     88.1189     21.3576
   522.5000      8.0858      2.5365      0.1543      6.8781     83.6924     21.0703
   522.6000      8.0858      2.5545      0.1165      5.7880     77.1398     20.6344
   522.7000      8.0858      2.5903      0.1394      3.6179     71.9305     20.2949
   522.8000      8.0999      2.6137      0.1803      2.2003     68.3033     20.3537
   522.9000      8.0999      2.6061      0.1704      2.6602     69.5313     20.5575
   523.0000      8.1362      2.5772      0.0639      4.4107     76.0099     20.3440
   523.1000      8.1362      2.5414      0.1261      6.5828     81.1503     19.7396
   523.2000      8.1362      2.4972      0.0534      9.2576     81.7992     19.2356
   523.3000      8.1402      2.4503      0.0273     12.1003     81.0168     19.3246
   523.4000      8.1402      2.4216     -0.0090     13.8404     81.3897     20.0596
   523.5000      8.1412      2.4238     -0.0290     13.7099     80.8164     20.7476
   523.6000      8.1412      2.4432      0.0560     12.5341     77.4427     21.0529
   523.7000      8.1412      2.4590      0.0642     11.5752     74.2841     21.2985
   523.8000      8.1432      2.4771      0.0374     10.4774     74.5623     21.5281
   523.9000      8.1432      2.5043      0.0861      8.8312     77.2098     21.5220
   524.0000      8.1422      2.5216      0.1149      7.7812     78.0997     21.0832
   524.1000      8.1422      2.5166      0.1219      8.0833     76.1310     20.3350
   524.2000      8.1422      2.5010      0.0691      9.0305     75.1276     19.9177
   524.3000      8.1356      2.4948      0.0663      9.4047     75.6754     20.0592
