~Version Information
 VERS.                                  2.0 : CWLS LAS VERSION
 WRAP.                                   NO : WRAPING MODE
 SWARE .                 MController 2.5.0N : SOFTWARE VERSION
~Well Information
 WELL.                     Commander 43-25Tr : WELL
 COMP.    Pioneer Natural Resources USA Inc : COMPANY
 FLD.                      Purgatoire River : FIELD
 LOC.                NE/SE Sec 26 T32S R67W : LOCATION
 DATE.                              4/14/05 : DATE(S) LOGGED
 SRVC.       Blanco Geological Services LLC : SERVICE COMPANY
 STAT.                                   CO : STATE
 CNTY.                           Las Animas : COUNTY
 CTRY.                                  USA : COUNTRY
 API.                       05-071-08341-00 : API NUMBER
 STRT.FT                             275.00 : START DEPTH
 STOP.FT                            1979.00 : STOP DEPTH
 STEP.FT                               1.00 : DEPTH INCREMENT
 NULL.                                -9999 : NULL VALUE
~Curve information
 DEPTH.FT                                   :
 ROP.MIN/FT                                 :
 GAS.UNITS                                  :
~ASCII Log data
       275.0     -9999.00          0.6 
       276.0        10.78          2.7 
       277.0         0.17          1.8 
       278.0         0.20          1.8 
       279.0         0.17          2.3 
       280.0         0.20          1.8 
       281.0         0.17          1.5 
       282.0         0.23          1.8 
       283.0         0.17          1.8 
       284.0         0.17          1.0 
       285.0         0.17          1.6 
       286.0         0.10          1.3 
       287.0         0.17          1.5 
       288.0         0.17          2.0 
       289.0         0.17          1.8 
       290.0         0.13          2.0 
       291.0         0.18          1.8 
       292.0         0.13          1.9 
       293.0         0.13          1.2 
       294.0         0.17          1.6 
       295.0         0.20          1.9 
       296.0         2.00          2.1 
       297.0         0.17          2.6 
       298.0         0.20          2.4 
       299.0         0.18          2.7 
       300.0         0.13          2.2 
       301.0         0.13          2.2 
       302.0         0.13          2.8 
       303.0         0.13          2.3 
       304.0         0.17          2.2 
       305.0         0.13          1.6 
       306.0         0.13          1.4 
       307.0         0.17          1.4 
       308.0         0.13          1.3 
       309.0         0.17          1.4 
       310.0         0.13          1.8 
       311.0         0.17          2.5 
       312.0         0.10          2.1 
       313.0         0.13          2.2 
       314.0         0.10          2.1 
       315.0         0.10          1.5 
       316.0         0.10          1.8 
       317.0         0.13          1.4 
       318.0         0.10          1.4 
       319.0         0.10          1.6 
       320.0         0.10          1.8 
       321.0         0.10          2.1 
       322.0         0.10          1.9 
       323.0         0.10          2.0 
       324.0         0.13          2.3 
       325.0         0.18          2.3 
       326.0         1.77          2.9 
       327.0         0.23          1.8 
       328.0         0.20          2.7 
       329.0         0.20          2.3 
       330.0         0.13          2.5 
       331.0         0.13          2.0 
       332.0         0.20          2.3 
       333.0         0.17          2.2 
       334.0         0.17          2.0 
       335.0         0.15          2.0 
       336.0         0.17          2.1 
       337.0         0.17          2.3 
       338.0         0.17          2.4 
       339.0         0.13          2.1 
       340.0         0.17          1.8 
       341.0         0.13          2.0 
       342.0         0.17          1.8 
       343.0         0.13          1.8 
       344.0         0.17          1.9 
       345.0         0.17          2.3 
       346.0         0.17          2.6 
       347.0         0.17          2.3 
       348.0         0.13          2.1 
       349.0         0.20          2.0 
       350.0         0.20          1.8 
       351.0         0.20          2.2 
       352.0         0.17          2.8 
       353.0         0.13          2.6 
       354.0         0.23          2.7 
       355.0         0.18          2.6 
       356.0        13.43          3.3 
       357.0         1.23          3.2 
       358.0         0.30          3.1 
       359.0         0.23          3.2 
       360.0         0.23          3.2 
       361.0         0.20          3.5 
       362.0         0.23          2.6 
       363.0         0.23          2.7 
       364.0         0.23          3.0 
       365.0         0.20          2.6 
       366.0         0.25          2.4 
       367.0         0.20          2.4 
       368.0         0.23          2.7 
       369.0         0.20          3.0 
       370.0         0.20          3.4 
       371.0         0.17          3.7 
       372.0         0.20          3.2 
       373.0         0.17          3.2 
       374.0         0.17         27.9 
       375.0         0.13         64.6 
       376.0         0.17         88.3 
       377.0         0.17         87.9 
       378.0         0.20         75.5 
       379.0         0.17         52.5 
       380.0         0.20         36.4 
       381.0         0.20         24.0 
       382.0         0.17         14.7 
       383.0         0.17          9.8 
       384.0         0.18          7.1 
       385.0         0.17          5.0 
       386.0         2.63          3.6 
       387.0         0.27          3.0 
       388.0         0.25          3.0 
       389.0         0.23          2.8 
       390.0         0.17          2.7 
       391.0         0.20          3.2 
       392.0         0.17          2.7 
       393.0         0.17          3.0 
       394.0         0.20          2.8 
       395.0         0.27          2.4 
       396.0         0.23          2.4 
       397.0         0.20          2.7 
       398.0         0.17          2.3 
       399.0         0.20          2.3 
       400.0         0.17          2.5 
       401.0         0.20          2.5 
       402.0         0.20          2.6 
       403.0         0.23          2.5 
       404.0         0.23          2.4 
       405.0         0.22          2.6 
       406.0         0.20          3.3 
       407.0         0.23          2.3 
       408.0         0.20          2.4 
       409.0         0.20          2.5 
       410.0         0.20          2.8 
       411.0         0.23          2.7 
       412.0         0.20          2.8 
       413.0         0.23          2.7 
       414.0         0.23          3.3 
       415.0         0.17          2.9 
       416.0         2.85          3.2 
       417.0         0.23          1.6 
       418.0         0.20          1.2 
       419.0         0.23          0.7 
       420.0         0.23          0.9 
       421.0         0.20          1.5 
       422.0         0.20          1.7 
       423.0         0.20          1.2 
       424.0         0.18          1.3 
       425.0         0.17          0.9 
       426.0         0.17          0.9 
       427.0         0.13          1.8 
       428.0         0.17          2.0 
       429.0         0.17          2.2 
       430.0         0.20          2.8 
       431.0         0.17          2.6 
       432.0         0.20          2.9 
       433.0         0.17          1.8 
       434.0         0.17          1.3 
       435.0         0.17          1.3 
       436.0         0.17          1.5 
       437.0         0.23          1.4 
       438.0         0.17          1.7 
       439.0         0.20          2.0 
       440.0         0.17          2.1 
       441.0         0.23          2.3 
       442.0         0.18          1.9 
       443.0         0.17          2.1 
       444.0         0.17          2.3 
       445.0         0.37          2.3 
       446.0         2.33          3.4 
       447.0         0.28          2.4 
       448.0         0.27          2.5 
       449.0         3.88          3.0 
       450.0         0.23          2.6 
       451.0         0.27          2.5 
       452.0         0.23          2.3 
       453.0         0.20          3.0 
       454.0         0.23          3.4 
       455.0         0.20          3.2 
       456.0         0.20          2.1 
       457.0         0.27          2.1 
       458.0         0.20          2.4 
       459.0         0.20          2.2 
       460.0         0.20          3.3 
       461.0         0.22          2.2 
       462.0         0.17          1.9 
       463.0         0.17          2.1 
       464.0         0.20          2.9 
       465.0         0.17          2.7 
       466.0         0.17          2.7 
       467.0         0.17          2.9 
       468.0         0.13          2.5 
       469.0         0.23          2.6 
       470.0         0.20          2.1 
       471.0         0.23          2.4 
       472.0         0.20          2.2 
       473.0         0.17          2.4 
       474.0         0.20          2.2 
