~Version Information
VERS.                      2.0: CWLS Log ASCII Standard - VERSION 2.0
WRAP.                       NO: One line per depth step
~Well Information Block
STRT.FT               582.2500: 
STOP.FT              2642.5000: 
STEP.FT                 0.2500: 
NULL.                -999.2500: 
COMP.          Petrogulf Corporation: COMPANY
WELL.           Montoya 12-41V: WELL
FLD.           Purgatorie River: FIELD
LOC.           1081' FNL & 605' FEL: LOCATION
CNTY.               Las Animas: COUNTY
SRVC.                         : SERVICE COMPANY
DATE.          Tue Aug 10 10:59:28 2004: LOG DATE
UWI.           05 071 08094 00: UNIQUE WELL ID
STAT.                 Colorado: STATE
~Curve Information Block
DEPT.FT            0 000 00 00: Depth
SP.mV                         : DIL Spontaneous Potential
RILD.Ohm-m                    : DIL Deep Resistivity
RILM.Ohm-m                    : DIL Medium Resistivity
RLL3.Ohm-m                    : DIL Shallow Resistivity
GR.GAPI                       : Gamma Ray
~Parameter Information Block
~A  Depth        SP         RILD        RILM        RLL3         GR     
# ...
  1562.2500    -50.1791     23.1254     23.1200     44.5401    121.0565
  1562.5000    -51.2113     21.9740     22.0311     38.5289    126.2808
  1562.7500    -51.8769     20.6134     20.9354     33.8659    127.5808
  1563.0000    -52.1874     19.1813     19.8471     30.5154    128.2791
  1563.2500    -52.2046     17.8183     18.7788     28.1080    129.5206
  1563.5000    -52.0245     16.6226     17.7458     26.1983    134.1144
  1563.7500    -51.7599     15.6394     16.7664     24.4443    138.9529
  1564.0000    -51.5258     14.8707     15.8583     22.6700    148.0299
  1564.2500    -51.4219     14.2881     15.0362     20.8480    154.7518
  1564.5000    -51.5087     13.8438     14.3090     19.0511    164.7473
  1564.7500    -51.7896     13.4820     13.6801     17.4008    170.4877
  1565.0000    -52.2018     13.1513     13.1477     16.0190    176.1583
  1565.2500    -52.6318     12.8180     12.7065     14.9864    177.5353
  1565.5000    -52.9497     12.4717     12.3490     14.3158    176.8916
  1565.7500    -53.0548     12.1225     12.0666     13.9513    175.9283
  1566.0000    -52.9238     11.7913     11.8507     13.7920    175.5939
  1566.2500    -52.6235     11.5014     11.6932     13.7264    176.4744
  1566.5000    -52.2942     11.2729     11.5872     13.6649    179.0079
  1566.7500    -52.0911     11.1192     11.5271     13.5586    180.9992
  1567.0000    -52.1212     11.0436     11.5085     13.4064    183.5294
  1567.2500    -52.3994     11.0379     11.5279     13.2498    184.4263
  1567.5000    -52.8477     11.0849     11.5817     13.1579    183.9029
  1567.7500    -53.3421     11.1642     11.6653     13.2045    182.0731
  1568.0000    -53.7764     11.2604     11.7723     13.4385    177.3061
  1568.2500    -54.1164     11.3666     11.8940     13.8584    173.3446
  1568.5000    -54.4131     11.4834     12.0202     14.4003    167.6919
  1568.7500    -54.7723     11.6136     12.1400     14.9491    164.9297
  1569.0000    -55.2908     11.7570     12.2440     15.3763    162.9755
  1569.2500    -55.9983     11.9079     12.3258     15.5897    163.0474
  1569.5000    -56.8214     12.0552     12.3833     15.5710    164.6862
  1569.7500    -57.5906     12.1853     12.4187     15.3795    166.4235
  1570.0000    -58.0875     12.2846     12.4375     15.1169    169.0758
  1570.2500    -58.1166     12.3433     12.4468     14.8732    170.1522
  1570.5000    -57.5791     12.3573     12.4531     14.6890    169.6824
  1570.7500    -56.5192     12.3290     12.4610     14.5538    167.8573
  1571.0000    -55.1313     12.2650     12.4719     14.4386    163.7952
  1571.2500    -53.7151     12.1717     12.4838     14.3344    161.0802
  1571.5000    -52.5965     12.0528     12.4928     14.2705    157.6023
  1571.7500    -52.0413     11.9102     12.4943     14.2975    155.1107
  1572.0000    -52.1824     11.7481     12.4847     14.4527    149.7991
  1572.2500    -52.9914     11.5787     12.4628     14.7275    145.2435
  1572.5000    -54.2940     11.4202     12.4296     15.0613    138.5855
  1572.7500    -55.8308     11.2908     12.3873     15.3621    135.5575
  1573.0000    -57.3373     11.1993     12.3386     15.5429    134.8264
  1573.2500    -58.6133     11.1404     12.2851     15.5535    137.2558
  1573.5000    -59.5731     11.0979     12.2273     15.3930    144.4357
  1573.7500    -60.2426     11.0531     12.1649     15.1030    150.2351
  1574.0000    -60.7215     10.9936     12.0980     14.7467    157.6082
  1574.2500    -61.1225     10.9186     12.0268     14.3891    160.3510
  1574.5000    -61.5103     10.8367     11.9530     14.0822    160.5120
  1574.7500    -61.8688     10.7594     11.8792     13.8596    158.5546
  1575.0000    -62.1070     10.6947     11.8086     13.7360    154.5972
  1575.2500    -62.0945     10.6408     11.7442     13.7102    152.5494
  1575.5000    -61.7195     10.5848     11.6879     13.7691    151.5707
  1575.7500    -60.9418     10.5054     11.6397     13.8957    152.1994
  1576.0000    -59.8185     10.3812     11.5973     14.0775    153.9634
  1576.2500    -58.5025     10.2028     11.5570     14.3105    155.1287
  1576.5000    -57.1985      9.9805     11.5138     14.5949    156.6583
  1576.7500    -56.1101      9.7434     11.4639     14.9234    157.5623
  1577.0000    -55.3756      9.5282     11.4046     15.2701    158.4632
  1577.2500    -55.0317      9.3655     11.3350     15.5885    158.6245
  1577.5000    -55.0066      9.2706     11.2552     15.8219    158.6052
  1577.7500    -55.1484      9.2406     11.1655     15.9188    158.7724
  1578.0000    -55.2727      9.2574     11.0655     15.8477    159.2962
  1578.2500    -55.2139      9.2949     10.9549     15.6044    159.5577
  1578.5000    -54.8656      9.3273     10.8343     15.2114    159.8560
  1578.7500    -54.1955      9.3362     10.7076     14.7121    160.5153
  1579.0000    -53.2424      9.3150     10.5822     14.1613    163.0423
  1579.2500    -52.1005      9.2701     10.4686     13.6136    165.6396
  1579.5000    -50.8988      9.2187     10.3798     13.1161    169.8249
  1579.7500    -49.7837      9.1852     10.3285     12.7080    172.2152
  1580.0000    -48.8996      9.1948     10.3265     12.4274    174.8245
  1580.2500    -48.3687      9.2677     10.3835     12.3186    175.9717
  1580.5000    -48.2616      9.4132     10.5077     12.4326    176.8533
  1580.7500    -48.5654      9.6287     10.7053     12.8160    176.6093
  1581.0000    -49.1672      9.9004     10.9812     13.4954    173.9774
  1581.2500    -49.8654     10.2076     11.3382     14.4630    170.0842
  1581.5000    -50.4127     10.5290     11.7758     15.6735    160.5196
  1581.7500    -50.5859     10.8461     12.2886     17.0519    151.9950
  1582.0000    -50.2513     11.1472     12.8650     18.5073    137.9772
  1582.2500    -49.4003     11.4282     13.4869     19.9452    129.4416
  1582.5000    -48.1508     11.6922     14.1300     21.2725    120.0176
  1582.7500    -46.7082     11.9473     14.7658     22.4007    116.4454
  1583.0000    -45.3112     12.2018     15.3647     23.2536    114.9629
  1583.2500    -44.1819     12.4590     15.8981     23.7833    116.2153
  1583.5000    -43.4772     12.7155     16.3402     23.9848    120.7481
  1583.7500    -43.2640     12.9609     16.6701     23.8979    125.2062
  1584.0000    -43.5086     13.1798     16.8745     23.5886    133.6049
  1584.2500    -44.0944     13.3516     16.9503     23.1238    139.7487
  1584.5000    -44.8590     13.4521     16.9079     22.5517    147.6909
  1584.7500    -45.6428     13.4594     16.7699     21.9017    150.9570
  1585.0000    -46.3328     13.3654     16.5691     21.1977    152.9026
  1585.2500    -46.8767     13.1869     16.3423     20.4745    153.5761
  1585.5000    -47.2730     12.9678     16.1254     19.7813    155.8371
  1585.7500    -47.5441     12.7660     15.9496     19.1719    158.3391
  1586.0000    -47.7225     12.6359     15.8398     18.6883    162.5297
  1586.2500    -47.8473     12.6138     15.8153     18.3520    165.1526
  1586.5000    -47.9686     12.7124     15.8900     18.1712    168.7967
  1586.7500    -48.1463     12.9233     16.0748     18.1641    171.0665
  1587.0000    -48.4390     13.2248     16.3784     18.3823    173.6418
  1587.2500    -48.8892     13.5924     16.8079     18.9240    174.1205
  1587.5000    -49.5174     14.0087     17.3708     19.9243    171.8904
  1587.7500    -50.3314     14.4692     18.0745     21.5291    168.1045
  1588.0000    -51.3309     14.9802     18.9277     23.8634    158.9397
  1588.2500    -52.4988     15.5497     19.9412     27.0034    150.8448
  1588.5000    -53.7730     16.1755     21.1280     30.9510    137.0793
  1588.7500    -55.0221     16.8367     22.5022     35.6126    127.7315
  1589.0000    -56.0481     17.4948     24.0769     40.7810    114.2292
  1589.2500    -56.6301     18.1107     25.8577     46.1387    105.5995
  1589.5000    -56.6062     18.6697     27.8352     51.2940     93.6058
  1589.7500    -55.9460     19.1983     29.9747     55.8542     86.9145
  1590.0000    -54.7810     19.7606     32.2131     59.5143     79.8321
