~Version Information
 VERS.                                  2.0 : CWLS LAS VERSION
 WRAP.                                   NO : WRAPING MODE
 SWARE .                 MController 2.5.0J : SOFTWARE VERSION
~Well Information
 WELL.                        Montoya 7-12R : WELL
 COMP.                       Petrogulf Corp : COMPANY
 FLD.                      Purgatorie River : FIELD
 LOC.                 SW/NW Sec 7 T33S R67W : LOCATION
 DATE.                    11/18/04 11/19/04 : DATE(S) LOGGED
 SRVC.       Blanco Geological Services LLC : SERVICE COMPANY
 STAT.                                   CO : STATE
 CNTY.                           Las Animas : COUNTY
 CTRY.                                  USA : COUNTRY
 API.                       05-071-08240-00 : API NUMBER
 STRT.FT                              30.00 : START DEPTH
 STOP.FT                            2040.00 : STOP DEPTH
 STEP.FT                               1.00 : DEPTH INCREMENT
 NULL.                                -9999 : NULL VALUE
~Curve information
 DEPTH.FT                                   :
 ROP.MIN/FT                                 :
 GAS.UNITS                                  :
~ASCII Log data
        30.0         0.27          2.1 
        31.0         0.23          2.5 
        32.0         0.27          3.2 
        33.0         0.30          3.7 
        34.0         0.23          3.3 
        35.0         0.27          2.2 
        36.0         0.23          1.5 
        37.0         0.23          1.9 
        38.0         0.23          2.0 
        39.0         0.23          2.9 
        40.0         0.23          3.5 
        41.0         0.23          2.2 
        42.0         0.25          3.2 
        43.0         0.23          3.0 
        44.0         0.23          2.3 
        45.0         0.23          2.5 
        46.0         0.23          3.2 
        47.0         0.23          3.8 
        48.0         0.27          3.8 
        49.0         0.27          2.9 
        50.0         0.30          2.0 
        51.0         0.27          3.1 
        52.0         0.17          4.5 
        53.0         0.13          3.9 
        54.0         0.17          3.2 
        55.0         0.10          2.0 
        56.0         0.20          1.6 
        57.0         0.13          1.6 
        58.0         0.25          1.9 
        59.0         0.23          2.5 
        60.0         0.23          2.8 
        61.0         0.20          2.8 
        62.0         0.23          3.1 
        63.0         0.20          3.0 
        64.0         0.23          2.9 
        65.0         0.20          2.1 
        66.0         0.23          1.9 
        67.0         0.23          3.8 
        68.0         0.23          3.5 
        69.0         0.23          2.9 
        70.0         0.20          2.6 
        71.0         0.23          2.0 
        72.0         0.25          2.1 
        73.0         0.23          2.3 
        74.0         0.23          1.9 
        75.0         0.20          1.5 
        76.0         0.23          0.8 
        77.0         0.20          1.3 
        78.0         0.23          2.3 
        79.0         0.20          2.9 
        80.0         0.20          2.7 
        81.0         0.23          2.1 
        82.0         0.23          2.9 
        83.0         0.23          3.4 
        84.0         0.27          3.1 
        85.0         0.20          2.8 
        86.0         0.17          2.2 
        87.0         0.28          0.8 
        88.0         0.17          2.0 
        89.0         0.30          3.3 
        90.0         0.20          3.1 
        91.0         0.27          3.8 
        92.0         0.23          3.0 
        93.0         0.23          2.6 
        94.0         0.27          2.3 
        95.0         0.23          2.7 
        96.0         0.27          1.8 
        97.0         0.23          2.6 
        98.0         0.25          2.4 
        99.0         0.27          2.2 
       100.0         0.27          2.4 
       101.0         0.27          3.0 
       102.0         0.23          3.2 
       103.0         0.23          2.7 
       104.0         0.30          1.9 
       105.0         0.27          1.4 
       106.0         0.23          1.5 
       107.0         0.23          1.1 
       108.0         0.23          0.8 
       109.0         0.23          0.6 
       110.0         0.23          1.1 
       111.0         0.25          3.5 
       112.0         0.27          3.8 
       113.0         0.23          3.0 
       114.0         0.27          3.1 
       115.0         0.23          2.9 
       116.0         0.20          3.0 
       117.0         0.23          2.5 
       118.0         0.23          1.9 
       119.0         0.13          2.9 
       120.0         0.13          2.5 
       121.0         0.27          1.6 
       122.0         0.27          1.5 
       123.0         0.30          0.7 
       124.0         0.13          0.7 
       125.0         0.17          0.4 
       126.0         0.18          0.5 
       127.0         0.30          1.7 
       128.0         0.27          1.6 
       129.0         0.30          1.1 
       130.0         0.20          1.3 
       131.0         0.27          1.1 
       132.0         0.23          0.6 
       133.0         0.23          0.2 
       134.0         0.23         -0.3 
       135.0         0.23          0.0 
       136.0         0.27          1.2 
       137.0         0.23          0.4 
       138.0         0.23          0.3 
       139.0         0.23          1.0 
       140.0         0.22          2.1 
       141.0         0.27          2.3 
       142.0         0.23          1.8 
       143.0         0.23          1.0 
       144.0         0.20          0.7 
       145.0         0.20          0.7 
       146.0         0.23          0.6 
       147.0         0.20          0.6 
       148.0         0.20          1.0 
       149.0         0.20          1.0 
       150.0         0.20          1.2 
       151.0         0.23          1.0 
       152.0         0.20          1.2 
       153.0         0.20          0.2 
       154.0         0.23          0.5 
       155.0         0.10          1.1 
       156.0         0.32          1.2 
       157.0         0.27          1.5 
       158.0         0.27          1.6 
       159.0         0.23          0.6 
       160.0         0.17          1.3 
       161.0         0.10          2.1 
       162.0         0.13          1.6 
       163.0         0.27          1.2 
       164.0         0.23          1.1 
       165.0         0.23          0.6 
       166.0         0.17         -0.6 
       167.0         0.23         -0.7 
       168.0         0.20         -0.5 
       169.0         0.23          0.0 
       170.0         0.20          0.6 
       171.0         0.22          0.8 
       172.0         0.20          0.9 
       173.0         0.20          1.5 
       174.0         0.17          0.7 
       175.0         0.20          0.0 
       176.0         0.20          0.1 
       177.0         0.20          0.4 
       178.0         0.20          0.9 
       179.0         0.20          1.0 
       180.0         0.20          0.8 
       181.0         0.20          0.6 
       182.0         0.20          1.1 
       183.0         0.20          1.1 
       184.0         0.20          1.4 
       185.0         0.23          1.4 
       186.0         0.23          1.2 
       187.0         0.20          1.2 
       188.0         0.18          1.2 
       189.0         0.20          0.7 
       190.0         0.20         -0.1 
       191.0         0.13         -0.1 
       192.0         0.27          0.6 
       193.0         0.27          0.9 
       194.0         0.27          1.0 
       195.0         0.27          0.4 
       196.0         0.10          0.8 
       197.0         0.13          0.6 
       198.0         0.20          1.3 
       199.0         0.23          0.7 
       200.0         0.20          0.2 
       201.0         0.20         -0.1 
       202.0         0.20         -0.1 
       203.0         0.17         -0.1 
       204.0         0.22         -0.9 
       205.0         0.20         -0.1 
       206.0         0.20         -0.6 
       207.0         0.20         -0.5 
       208.0         0.23         -0.3 
       209.0         0.20          0.4 
       210.0         0.20          0.3 
       211.0         0.20          0.3 
       212.0         0.20          0.4 
       213.0         0.20          0.7 
       214.0         0.20         -0.1 
       215.0         0.20         -2.4 
       216.0         0.20         -1.4 
       217.0         0.20          0.1 
       218.0         0.20          1.3 
       219.0         0.17         -0.2 
       220.0         0.20          0.2 
       221.0         0.18          1.2 
       222.0         0.20          1.2 
       223.0         0.20          1.7 
       224.0         0.20          1.8 
       225.0         0.23          0.9 
       226.0         0.23         -0.1 
       227.0         0.13         -0.6 
       228.0         0.10          0.0 
       229.0         0.33         -1.3 
