~Version Information
VERS.                      2.0: CWLS Log ASCII Standard - VERSION 2.0
WRAP.                       NO: One line per depth step
~Well Information Block
STRT.FT                -7.7500: 
STOP.FT              2394.2500: 
STEP.FT                 0.2500: 
NULL.                -999.2500: 
COMP.      PIONEER NATURAL RESOURCES  : COMPANY
WELL.         NOMAD 32-10  : WELL
FLD.                          : FIELD
LOC.      SWNE 10 32S 66W 6PM : LOCATION
PROV.                         : PROVINCE
CNTY.                         : COUNTRY
SRVC.                         : SERVICE COMPANY
DATE.          Thu Aug 26 13:45:47 2004: LOG DATE
UWI.      005 071 08127  : UNIQUE WELL ID
~Curve Information Block
DEPT.FT            0 000 00 00: Depth
CCL.                          : Casing Collar Locator
TT3.usec                      : CBL 3' Travel Time
AMP3.mV                       : CBL 3' Amplitude
GR.GAPI                       : Gamma Ray
~Parameter Information Block
~A  Depth       CCL         TT3         AMP3         GR     
# ...
   796.2500      0.0000    743.0804      5.4986     55.6979
   796.5000      0.0000    743.0150      5.5329     58.5295
   796.7500      0.0000    744.3794      5.6318     61.3015
   797.0000      0.0000    746.8992      5.7765     65.2569
   797.2500      0.0000    749.5449      5.8849     71.9147
   797.5000      0.0000    750.9058      5.9027     81.4672
   797.7500      0.0000    750.3090      5.8413     92.2063
   798.0000      0.0000    748.3520      5.7487    101.7746
   798.2500      0.0000    746.1368      5.6756    108.7221
   798.5000      0.0000    744.2653      5.6533    112.6693
   798.7500      0.0000    742.7401      5.6693    113.5050
   799.0000      0.0000    741.4663      5.6741    111.0080
   799.2500      0.0000    740.5099      5.6402    105.3183
   799.5000      0.0000    739.9798      5.6026     97.5851
   799.7500      0.0000    739.8654      5.6109     89.9587
   800.0000      0.0000    740.0040      5.6536     84.6637
   800.2500      0.0000    740.1572      5.6600     82.7425
   800.5000      0.0000    740.1522      5.5744     83.4794
   800.7500      0.0000    739.9832      5.4074     85.1350
   801.0000      0.0000    739.7930      5.2188     86.4964
   801.2500      0.0000    739.7635      5.0770     87.7348
   801.5000      0.0000    740.0500      5.0386     89.6550
   801.7500      0.0000    740.8047      5.1408     92.3415
   802.0000      0.0000    742.2427      5.3837     94.7552
   802.2500      0.0000    744.6030      5.7109     95.5205
   802.5000      0.0000    747.8561      6.0206     94.1153
   802.7500      0.0000    751.4038      6.2040     91.6223
   803.0000      0.0000    754.3469      6.1900     90.4031
   803.2500      0.0000    756.2379      5.9805     92.5465
   803.5000      0.0000    757.3821      5.6546     98.1559
   803.7500      0.0000    758.4268      5.3217    105.1896
   804.0000      0.0000    759.8770      5.0585    111.1186
   804.2500      0.0000    761.6260      4.8936    114.4813
   804.5000      0.0000    762.5558      4.8397    114.9427
   804.7500      0.0000    761.1885      4.9117    112.7346
   805.0000      0.0000    757.2612      5.1046    108.7371
   805.2500      0.0000    752.2838      5.3806    104.8663
   805.5000      0.0000    748.3856      5.6890    103.7887
   805.7500      0.0000    747.0894      5.9956    107.6469
   806.0000      0.0000    749.1539      6.2890    116.5726
   806.2500      0.0000    754.6881      6.5699    128.3408
   806.5000      0.0000    762.7216      6.8372    139.7436
   806.7500      0.0000    770.9161      7.0775    148.5489
   807.0000      0.0000    776.4102      7.2599    154.3983
   807.2500      0.0000    777.3243      7.3462    158.1343
   807.5000      0.0000    773.5718      7.3272    160.6640
   807.7500      0.0000    766.6894      7.2532    162.6163
   808.0000      0.0000    759.3231      7.2177    164.5538
   808.2500      0.0000    754.4474      7.2989    166.5912
   808.5000      0.0000    754.1118      7.5142    167.8618
   808.7500      0.0000    758.3233      7.8209    167.1816
   809.0000      0.0000    765.0544      8.1471    164.3649
   809.2500      0.0000    771.4679      8.4177    160.3533
   809.5000      0.0000    775.2532      8.5658    156.2880
   809.7500      0.0000    774.9019      8.5460    152.9777
   810.0000      0.0000    769.1663      8.3601    150.7934
   810.2500      0.0000    757.2839      8.0598    149.4543
   810.5000      0.0000    740.2751      7.7018    148.2275
   810.7500      0.0000    721.2414      7.2968    146.8706
   811.0000      0.0000    703.1309      6.8318    146.1096
   811.2500      0.0000    686.7919      6.3491    146.7637
   811.5000      0.0000    672.8929      5.9721    148.6588
   811.7500      0.0000    664.5076      5.8279    150.6726
   812.0000      0.0000    664.3632      5.9408    151.4286
   812.2500      0.0000    669.1535      6.2067    149.5387
   812.5000      0.0000    670.5156      6.4660    143.9377
   812.7500      2.0000    663.0828      6.6017    135.1862
   813.0000      2.0000    649.3467      6.5801    126.3507
   813.2500      0.0000    636.3631      6.4309    121.5121
   813.5000      0.0000    630.3832      6.2186    122.8672
   813.7500      0.0000    634.9034      6.0354    129.2202
   814.0000      0.0000    651.0590      5.9909    136.9332
   814.2500      0.0000    677.4899      6.1611    142.0389
   814.5000      0.0000    709.4340      6.5160    142.0728
   814.7500      0.0000    739.4904      6.9009    137.2250
   815.0000      0.0000    761.1868      7.1238    130.4782
   815.2500      0.0000    772.2413      7.0914    126.1251
   815.5000      0.0000    774.1287      6.8683    126.8969
   815.7500      0.0000    769.3105      6.6156    131.9438
   816.0000      0.0000    759.4417      6.4726    137.9198
   816.2500      0.0000    745.0160      6.4744    142.0023
   816.5000      0.0000    726.0317      6.5580    143.6561
   816.7500      0.0000    703.8845      6.6419    144.0692
   817.0000      0.0000    683.5822      6.7003    144.5277
   817.2500      0.0000    672.9461      6.7578    145.0677
   817.5000      0.0000    677.8088      6.8248    144.3809
   817.7500      0.0000    696.9305      6.8674    141.2994
   818.0000      0.0000    721.8154      6.8418    136.3557
   818.2500      0.0000    742.3333      6.7363    131.4749
   818.5000      0.0000    753.3676      6.5723    128.4143
   818.7500      0.0000    756.7723      6.3861    128.0154
   819.0000      0.0000    757.6453      6.2200    130.2906
   819.2500      0.0000    758.8345      6.1148    134.1855
   819.5000      0.0000    758.2678      6.0925    137.6946
   819.7500      0.0000    750.9796      6.1464    139.2352
   820.0000      0.0000    734.4591      6.2604    138.8576
   820.2500      0.0000    713.0698      6.4272    137.7120
   820.5000      0.0000    696.6624      6.6306    136.6924
   820.7500      0.0000    693.1705      6.8243    135.8261
   821.0000      0.0000    702.2103      6.9484    134.6640
   821.2500      0.0000    716.4637      6.9612    133.1208
   821.5000      0.0000    728.5704      6.8406    131.8932
   821.7500      0.0000    735.7683      6.5739    131.9375
   822.0000      0.0000    739.2635      6.1804    133.6979
   822.2500      0.0000    741.3356      5.7451    137.0323
   822.5000      0.0000    743.0797      5.3950    141.5108
   822.7500      0.0000    743.2482      5.2097    146.4000
   823.0000      0.0000    738.2098      5.1590    150.6813
   823.2500      0.0000    723.7085      5.1507    153.5300
   823.5000      0.0000    698.5106      5.1359    154.7264
   823.7500      0.0000    667.4638      5.1445    154.4948
   824.0000      0.0000    639.6625      5.2250    153.1682
   824.2500      0.0000    621.6845      5.3745    151.0893
   824.5000      0.0000    613.6237      5.5343    148.4792
   824.7500      0.0000    612.7092      5.6436    145.0931
   825.0000      0.0000    617.1375      5.6871    140.5309
   825.2500      0.0000    623.6730      5.6903    135.4383
   825.5000      0.0000    626.1184      5.6839    132.0619
   825.7500      0.0000    621.1783      5.6925    133.0727
   826.0000      0.0000    613.5245      5.7390    139.6117
   826.2500      0.0000    611.4114      5.8170    150.0113
   826.5000      0.0000    619.2723      5.8527    160.0762
   826.7500      0.0000    636.6008      5.7360    165.1745
   827.0000      0.0000    660.4890      5.4106    162.9676
   827.2500      0.0000    686.3325      4.9161    154.5275
   827.5000      0.0000    708.4458      4.3551    142.9527
   827.7500      0.0000    722.6699      3.8443    130.8240
   828.0000      0.0000    728.2531      3.4781    118.5375
   828.2500      0.0000    727.0690      3.2961    104.8837
   828.5000      0.0000    722.1218      3.2733     89.6349
   828.7500      0.0000    716.8523      3.3484     75.4831
   829.0000      0.0000    714.5010      3.4554     66.5419
   829.2500      0.0000    717.0665      3.5306     64.7688
   829.5000      0.0000    724.6335      3.5213     68.8483
