~Version Information
VERS.                      2.0: CWLS Log ASCII Standard - VERSION 2.0
WRAP.                       NO: One line per depth step
~Well Information Block
STRT.FT               845.0000: 
STOP.FT              2308.2500: 
STEP.FT                 0.2500: 
NULL.                -999.2500: 
COMP.          Pioneer Natural Resources: COMPANY
WELL.             Vector 33-23: WELL
FLD.           Purgatoire River: FIELD
LOC.           1560' FEL & 1988' FSL----: LOCATION
PROV.                 Colorado: PROVINCE
CNTY.               Las Animas: COUNTRY
SRVC.                Patterson: SERVICE COMPANY
DATE.          Sat Mar 26 12:39:07 2005: LOG DATE
UWI.           05 071 08336 00: UNIQUE WELL ID
~Curve Information Block
DEPT.FT            0 000 00 00: Depth
SN.Ohm-m                      : IEL Short Normal
SP.mV                         : IEL Spontaneous Potential
DIR.Ohm-m                     : IEL Induction Resistivity
GR.GAPI                       : Gamma Ray
~Parameter Information Block
~A  Depth        SN          SP         DIR          GR     
# ...
  2084.5000     16.0922    -31.8836     11.1734    131.6150
  2084.7500     16.4313    -32.6776     11.3039    132.1601
  2085.0000     16.8133    -33.4045     11.4726    133.9305
  2085.2500     17.1806    -33.9746     11.6924    135.4583
  2085.5000     17.4642    -34.3032     11.9728    137.5334
  2085.7500     17.5900    -34.3159     12.3143    137.9613
  2086.0000     17.4948    -33.9545     12.7000    136.1528
  2086.2500     17.1502    -33.1818     13.0930    133.7905
  2086.5000     16.5863    -31.9854     13.4434    131.0299
  2086.7500     15.9021    -30.3815     13.7052    131.1049
  2087.0000     15.2472    -28.4164     13.8530    134.6826
  2087.2500     14.7750    -26.1674     13.8908    138.5721
  2087.5000     14.5848    -23.7404     13.8463    144.0561
  2087.7500     14.6842    -21.2632     13.7568    145.8466
  2088.0000     14.9962    -18.8757     13.6555    144.1905
  2088.2500     15.4103    -16.7151     13.5627    140.5898
  2088.5000     15.8404    -14.9019     13.4841    133.8229
  2088.7500     16.2517    -13.5265     13.4157    129.7425
  2089.0000     16.6460    -12.6411     13.3517    125.0519
  2089.2500     17.0310    -12.2561     13.2938    122.5525
  2089.5000     17.4048    -12.3434     13.2563    118.7967
  2089.7500     17.7625    -12.8433     13.2640    115.8481
  2090.0000     18.1053    -13.6737     13.3439    110.5800
  2090.2500     18.4374    -14.7409     13.5147    106.9598
  2090.5000     18.7551    -15.9502     13.7789    102.8687
  2090.7500     19.0405    -17.2141     14.1186    101.6954
  2091.0000     19.2652    -18.4598     14.4923    102.0317
  2091.2500     19.4007    -19.6338     14.8384    102.8789
  2091.5000     19.4303    -20.7040     15.0866    103.8735
  2091.7500     19.3578    -21.6583     15.1780    104.1731
  2092.0000     19.2101    -22.5015     15.0893    104.5627
  2092.2500     19.0299    -23.2476     14.8458    105.1780
  2092.5000     18.8611    -23.9119     14.5157    106.8842
  2092.7500     18.7333    -24.5020     14.1855    108.3238
  2093.0000     18.6506    -25.0099     13.9313    110.1587
  2093.2500     18.5823    -25.4075     13.7996    110.6896
  2093.5000     18.4631    -25.6463     13.8013    109.6234
  2093.7500     18.2115    -25.6619     13.9152    107.0154
  2094.0000     17.7665    -25.3834     14.0969     99.0796
  2094.2500     17.1333    -24.7445     14.2907     91.0860
  2094.5000     16.4196    -23.6966     14.4456     77.2071
  2094.7500     15.8281    -22.2201     14.5317     68.8149
  2095.0000     15.5777    -20.3311     14.5503     60.6888
  2095.2500     15.7756    -18.0850     14.5275     59.2252
  2095.5000     16.3303    -15.5725     14.4949     63.1687
  2095.7500     16.9882    -12.9111     14.4659     69.2376
  2096.0000     17.4808    -10.2318     14.4216     81.2530
  2096.2500     17.6682     -7.6636     14.3161     89.6773
  2096.5000     17.5732     -5.3184     14.0995    100.8786
  2096.7500     17.3105     -3.2796     13.7497    106.6063
  2097.0000     16.9919     -1.5954     13.2887    111.7588
  2097.2500     16.6786     -0.2781     12.7749    112.8456
  2097.5000     16.3879      0.6916     12.2777    111.9800
  2097.7500     16.1197      1.3558     11.8518    110.7783
  2098.0000     15.8714      1.7700     11.5226    109.5125
  2098.2500     15.6366      1.9948     11.2844    109.2806
  2098.5000     15.4051      2.0891     11.1075    109.4225
  2098.7500     15.1680      2.1068     10.9520    109.5289
  2099.0000     14.9238      2.0951     10.7840    109.5832
  2099.2500     14.6797      2.0945     10.5883    109.6132
  2099.5000     14.4461      2.1382     10.3712    109.6465
  2099.7500     14.2241      2.2514     10.1541    109.6783
  2100.0000     13.9946      2.4501      9.9625    110.0986
  2100.2500     13.7198      2.7407      9.8160    110.8747
  2100.5000     13.3616      3.1200      9.7236    112.6313
  2100.7500     12.9046      3.5784      9.6835    113.7149
  2101.0000     12.3682      4.1032      9.6848    114.1941
  2101.2500     11.7998      4.6828      9.7123    113.2852
  2101.5000     11.2568      5.3082      9.7514    109.8172
  2101.7500     10.7928      5.9739      9.7932    106.5042
  2102.0000     10.4552      6.6741      9.8374    101.8515
  2102.2500     10.2848      7.3991      9.8910    100.2813
  2102.5000     10.3085      8.1298      9.9634    101.5561
  2102.7500     10.5254      8.8347     10.0601    104.5396
  2103.0000     10.8970      9.4688     10.1779    110.1351
  2103.2500     11.3534      9.9776     10.3049    113.2299
  2103.5000     11.8171     10.3031     10.4254    115.6855
  2103.7500     12.2354     10.3938     10.5266    116.0480
  2104.0000     12.5993     10.2143     10.6058    116.1016
  2104.2500     12.9386      9.7536     10.6722    116.8073
  2104.5000     13.2995      9.0287     10.7445    119.6702
  2104.7500     13.7167      8.0831     10.8452    122.2104
  2105.0000     14.1917      6.9794     10.9937    124.7040
  2105.2500     14.6862      5.7877     11.2023    124.4893
  2105.5000     15.1327      4.5733     11.4747    121.8328
  2105.7500     15.4609      3.3882     11.8050    119.9229
  2106.0000     15.6263      2.2669     12.1784    119.2435
  2106.2500     15.6264      1.2286     12.5726    120.5323
  2106.5000     15.5031      0.2849     12.9637    123.2495
  2106.7500     15.3387     -0.5515     13.3359    124.0023
  2107.0000     15.2469     -1.2602     13.6881    122.1512
  2107.2500     15.3466     -1.8121     14.0317    119.3790
  2107.5000     15.7165     -2.1757     14.3788    114.7174
  2107.7500     16.3515     -2.3289     14.7288    112.0123
  2108.0000     17.1555     -2.2731     15.0641    108.8371
  2108.2500     17.9827     -2.0434     15.3579    107.2795
  2108.5000     18.7030     -1.7099     15.5886    105.8978
  2108.7500     19.2477     -1.3686     15.7494    105.7163
  2109.0000     19.6059     -1.1233     15.8456    106.7529
  2109.2500     19.7894     -1.0628     15.8829    108.4188
  2109.5000     19.8036     -1.2429     15.8585    112.0166
  2109.7500     19.6448     -1.6772     15.7624    114.3631
  2110.0000     19.3153     -2.3405     15.5851    116.0195
  2110.2500     18.8374     -3.1811     15.3267    115.2938
  2110.5000     18.2560     -4.1385     14.9982    111.9616
  2110.7500     17.6276     -5.1593     14.6194    109.1792
  2111.0000     17.0028     -6.2075     14.2129    105.7923
  2111.2500     16.4133     -7.2671     13.8005    104.5865
  2111.5000     15.8704     -8.3399     13.4001    104.5660
  2111.7500     15.3718     -9.4389     13.0229    105.7862
  2112.0000     14.9098    -10.5817     12.6719    109.4384
  2112.2500     14.4776    -11.7848     12.3436    112.5572
  2112.5000     14.0756    -13.0598     12.0321    116.3857
  2112.7500     13.7136    -14.4121     11.7352    117.6441
  2113.0000     13.4073    -15.8414     11.4583    118.5061
  2113.2500     13.1689    -17.3442     11.2133    119.6244
  2113.5000     13.0011    -18.9162     11.0142    122.9086
  2113.7500     12.8979    -20.5562     10.8708    125.4078
  2114.0000     12.8529    -22.2684     10.7853    127.7387
  2114.2500     12.8643    -24.0635     10.7512    127.8664
  2114.5000     12.9327    -25.9580     10.7556    126.3196
  2114.7500     13.0548    -27.9730     10.7824    124.5760
  2115.0000     13.2199    -30.1331     10.8162    121.5120
  2115.2500     13.4137    -32.4640     10.8455    119.5396
  2115.5000     13.6244    -34.9912     10.8677    117.3249
  2115.7500     13.8423    -37.7373     10.8919    116.5246
  2116.0000     14.0520    -40.7155     10.9384    116.1258
  2116.2500     14.2291    -43.9200     11.0342    115.9213
  2116.5000     14.3437    -47.3097     11.2062    114.3235
  2116.7500     14.3693    -50.7908     11.4749    111.6336
  2117.0000     14.2896    -54.2017     11.8494    104.8944
  2117.2500     14.1015    -57.3089     12.3217     99.0564
  2117.5000     13.8229    -59.8206     12.8631     89.2399
  2117.7500     13.5043    -61.4218     13.4271     82.4301
