~Version Information
VERS.                      2.0: CWLS Log ASCII Standard - VERSION 2.0
WRAP.                       NO: One line per depth step
~Well Information Block
STRT.FT               823.7000: 
STOP.FT              2444.0000: 
STEP.FT                 0.1000: 
NULL.                -999.2500: 
COMP.          Petrogulf Corporation: COMPANY
WELL.            Kraft 17-23 V: WELL
FLD.           Purgatorie River: FIELD
LOC.           1500' FSL & 1773' FWL: LOCATION
CNTY.               Las Animas: COUNTY
SRVC.                         : SERVICE COMPANY
DATE.          Thu Nov 20 07:09:00 2003: LOG DATE
UWI.                          : UNIQUE WELL ID
STAT.                 Colorado: STATE
~Curve Information Block
DEPT.FT            0 000 00 00: Depth
DCAL.in                       : CDL Caliper
RHOB.g/cc                     : CDL Bulk Density
RHOC.g/cc                     : CDL Density Correction
DPOR.pu                       : CDL Density Porosity
GR.GAPI                       : Gamma Ray
NPOR.pu                       : Neutron Porosity
~Parameter Information Block
~A  Depth       DCAL        RHOB        RHOC        DPOR         GR         NPOR    
# ...
  2004.5000      7.9436      2.5490      0.1003      6.1219     89.7702     22.9572
  2004.6000      7.9436      2.5294      0.0698      7.3113     89.2275     23.1025
  2004.7000      7.9436      2.5074      0.0203      8.6397     91.1030     23.2371
  2004.8000      7.8803      2.4909      0.0075      9.6401     94.5471     22.9969
  2004.9000      7.8803      2.4792      0.0425     10.3524     93.1508     22.8554
  2005.0000      7.9607      2.4655      0.0310     11.1808     87.6475     23.0185
  2005.1000      7.9607      2.4522      0.0045     11.9884     84.8608     23.4475
  2005.2000      7.9607      2.4464      0.0387     12.3407     85.1781     24.1891
  2005.3000      8.0379      2.4527      0.0079     11.9562     84.8730     24.7092
  2005.4000      8.0379      2.4670      0.0170     11.0924     83.3071     24.3393
  2005.5000      8.0818      2.4785      0.0331     10.3957     84.1314     23.0851
  2005.6000      8.0818      2.4870      0.0464      9.8818     86.0672     21.6095
  2005.7000      8.0818      2.5040      0.0449      8.8514     81.6693     20.3824
  2005.8000      8.1495      2.5318      0.0629      7.1657     74.3640     19.5986
  2005.9000      8.1495      2.5474      0.1145      6.2197     75.0141     19.4960
  2006.0000      8.1782      2.5318      0.0619      7.1629     81.1009     19.8262
  2006.1000      8.1782      2.5049      0.0364      8.7939     84.3942     19.9421
  2006.2000      8.1782      2.5010      0.0393      9.0289     84.2527     19.4670
  2006.3000      8.1776      2.5346      0.0415      6.9924     79.7324     18.5871
  2006.4000      8.1776      2.5867      0.0994      3.8375     72.6489     17.9062
  2006.5000      8.1188      2.6179      0.1171      1.9480     71.2405     17.7509
  2006.6000      8.1188      2.6121      0.0852      2.2944     78.1120     17.7404
  2006.7000      8.1188      2.5901      0.1016      3.6333     84.0493     17.6706
  2006.8000      8.0633      2.5757      0.0691      4.5045     79.6246     17.9736
  2006.9000      8.0633      2.5728      0.0602      4.6782     69.1503     18.8890
  2007.0000      8.0397      2.5684      0.0596      4.9451     62.2408     20.0723
  2007.1000      8.0397      2.5573      0.0177      5.6169     62.6828     21.1435
  2007.2000      8.0397      2.5525      0.0135      5.9116     67.0920     21.8226
  2007.3000      8.0472      2.5552      0.0714      5.7465     70.1969     21.7988
  2007.4000      8.0472      2.5396      0.1042      6.6923     67.5877     21.3292
  2007.5000      8.0760      2.4940      0.0277      9.4547     61.5479     21.0004
  2007.6000      8.0760      2.4576     -0.0258     11.6583     62.1865     20.8834
  2007.7000      8.0760      2.4714      0.0630     10.8245     70.0779     20.7587
  2007.8000      8.0858      2.5193      0.0844      7.9213     76.1338     20.6012
  2007.9000      8.0858      2.5622      0.1213      5.3183     75.9957     20.6818
  2008.0000      8.0544      2.5877      0.0972      3.7760     70.4300     20.9203
  2008.1000      8.0544      2.6014      0.1361      2.9444     61.4698     21.3466
  2008.2000      8.0544      2.5967      0.1989      3.2282     55.4411     22.2251
  2008.3000      7.9997      2.5612      0.1556      5.3842     58.4701     23.2444
  2008.4000      7.9997      2.5083      0.0845      8.5869     66.1862     24.3639
  2008.5000      7.9139      2.4759      0.0185     10.5513     70.2593     25.8337
  2008.6000      7.9139      2.4753      0.0999     10.5897     71.6465     27.4803
  2008.7000      7.9139      2.4737      0.1132     10.6872     74.4762     28.8695
  2008.8000      7.8653      2.4500      0.0379     12.1239     77.9603     29.5890
  2008.9000      7.8653      2.4068      0.0407     14.7396     80.6686     29.8610
  2009.0000      7.9419      2.3359      0.0675     19.0377     84.6605     30.2635
  2009.1000      7.9419      2.2446      0.0152     24.5681     91.4445     30.6152
  2009.2000      7.9419      2.1853      0.0123     28.1619     98.8402     30.6250
  2009.3000      8.0389      2.1930      0.1523     27.6998    102.1003     30.6452
  2009.4000      8.0389      2.2297      0.2670     25.4740     99.8718     30.5945
  2009.5000      8.0768      2.2386      0.2814     24.9361     99.4309     29.9891
  2009.6000      8.0768      2.2154      0.1708     26.3411    105.4833     29.0142
  2009.7000      8.0768      2.1986      0.1219     27.3572    111.0918     28.2314
  2009.8000      8.0725      2.2140      0.2287     26.4266    110.9548     27.5697
  2009.9000      8.0725      2.2649      0.1667     23.3371    109.4273     26.7898
  2010.0000      8.0681      2.3467      0.2238     18.3803    109.9472     26.3259
  2010.1000      8.0681      2.4319      0.2329     13.2153    111.6349     26.2140
  2010.2000      8.0681      2.4855      0.1590      9.9695    115.6392     25.8885
  2010.3000      8.1040      2.4987      0.0978      9.1727    122.0685     25.5336
  2010.4000      8.1040      2.4947      0.0351      9.4147    123.6926     25.5855
  2010.5000      8.1153      2.5049      0.0405      8.7917    116.7737     25.8288
  2010.6000      8.1153      2.5308      0.0597      7.2213    108.8840     25.8415
  2010.7000      8.1153      2.5442      0.1029      6.4105    108.5235     25.6570
  2010.8000      8.0989      2.5339      0.0509      7.0354    113.9709     25.7096
  2010.9000      8.0989      2.5139      0.0967      8.2490    117.2587     26.1525
  2011.0000      8.0936      2.4903      0.0535      9.6766    115.9182     26.5366
  2011.1000      8.0936      2.4652     -0.0186     11.1981    114.7499     26.6265
  2011.2000      8.0936      2.4471      0.0063     12.2952    118.5686     26.7284
  2011.3000      8.0960      2.4417      0.0043     12.6250    123.1762     26.9584
  2011.4000      8.0960      2.4543     -0.0208     11.8619    121.3099     27.0826
  2011.5000      8.0984      2.4812      0.0470     10.2279    113.1894     26.9787
  2011.6000      8.0984      2.5039      0.0463      8.8557    109.3766     26.8442
  2011.7000      8.0984      2.5165      0.0136      8.0895    116.8311     27.0249
  2011.8000      8.0987      2.5264      0.0557      7.4911    125.9420     27.4719
  2011.9000      8.0987      2.5368      0.0373      6.8602    126.2709     27.8084
  2012.0000      8.0944      2.5406      0.1084      6.6313    120.8144     28.0521
  2012.1000      8.0944      2.5242      0.0769      7.6239    117.9418     28.4911
  2012.2000      8.0944      2.4940      0.0227      9.4539    121.1088     28.8446
  2012.3000      8.0886      2.4682      0.0534     11.0181    124.3372     28.4297
  2012.4000      8.0886      2.4519      0.0310     12.0065    121.5850     27.3658
  2012.5000      8.0794      2.4429      0.0779     12.5540    119.2278     26.6356
  2012.6000      8.0794      2.4421      0.0407     12.6014    119.2912     27.0468
  2012.7000      8.0794      2.4475      0.1186     12.2755    117.4280     28.3018
  2012.8000      8.0580      2.4536      0.0992     11.9029    116.1757     29.2660
  2012.9000      8.0580      2.4673      0.1066     11.0706    119.6387     29.3376
  2013.0000      8.0187      2.4960      0.1543      9.3355    124.4907     28.8088
  2013.1000      8.0187      2.5337      0.1656      7.0495    124.2037     28.2886
  2013.2000      8.0187      2.5598      0.2033      5.4660    120.7824     28.2577
  2013.3000      7.9918      2.5443      0.1889      6.4062    115.6220     28.7862
  2013.4000      7.9918      2.4928      0.0609      9.5288    107.2578     29.3129
  2013.5000      8.0490      2.4575     -0.0058     11.6675     98.7547     29.3050
  2013.6000      8.0490      2.4635      0.0509     11.3048     95.1724     29.1421
  2013.7000      8.0490      2.4819      0.0808     10.1853     99.0915     29.2893
  2013.8000      8.1273      2.4852      0.0884      9.9887    107.2777     29.4644
  2013.9000      8.1273      2.4759      0.0604     10.5490    114.7525     29.4366
  2014.0000      8.1009      2.4753      0.0508     10.5877    121.9055     29.1949
