~Version Information
VERS.                      2.0: CWLS Log ASCII Standard - VERSION 2.0
WRAP.                       NO: One line per depth step
~Well Information Block
STRT.FT              1882.7500: 
STOP.FT              2400.5000: 
STEP.FT                 0.2500: 
NULL.                -999.2500: 
COMP.          Pioneer Natural Resources: COMPANY
WELL.          Flying Horse 12-11: WELL
FLD.           Purgatoire River: FIELD
LOC.           2,428' FNL & 308' FWL------: LOCATION
PROV.                 Colorado: PROVINCE
CNTY.               Las Animas: COUNTRY
SRVC.                         : SERVICE COMPANY
DATE.          Fri Jun 10 06:52:30 2005: LOG DATE
UWI.                          : UNIQUE WELL ID
~Curve Information Block
DEPT.FT            0 000 00 00: Depth
CCL.                          : Casing Collar Locator
TT3.usec                      : CBL 3' Travel Time
AMP3.mV                       : CBL 3' Amplitude
AMP5.mV                       : CBL 5' Amplitude
GR.GAPI                       : Gamma Ray
~Parameter Information Block
~A  Depth       CCL         TT3         AMP3        AMP5         GR     
# ...
  2218.7500      0.0000    640.2560      7.1394      0.7352     82.6464
  2219.0000      0.0000    653.3019      7.4782      0.9093     78.8887
  2219.2500      0.0000    660.3956      7.8476      0.7352     74.8803
  2219.5000      0.0000    665.1062      8.2062      0.5611     71.4343
  2219.7500      0.0000    667.8044      8.5215      1.1705     69.0871
  2220.0000      0.0000    665.0093      8.7822      0.8223     67.9223
  2220.2500      0.0000    648.7820      9.0005      1.0834     67.7200
  2220.5000      0.0000    610.8021      9.1990      1.0834     68.0654
  2220.7500      0.0000    550.8984      9.3904      1.2575     68.1824
  2221.0000      0.0000    481.2713      9.5681      1.3446     67.1222
  2221.2500      0.0000    420.1440      9.7136      1.3446     64.6089
  2221.5000      0.0000    380.8931      9.8099      1.1705     61.5023
  2221.7500      0.0000    368.1755      9.8481      1.2575     59.0688
  2222.0000      0.0000    382.4608      9.8222      1.4316     57.9626
  2222.2500      0.0000    423.3244      9.7244      1.1705     58.0607
  2222.5000      0.0000    485.7108      9.5513      1.2575     58.9106
  2222.7500      0.0000    555.8384      9.3181      1.3446     60.0168
  2223.0000      0.0000    615.8151      9.0620      0.7352     60.9260
  2223.2500      0.0000    653.8575      8.8249      1.0834     61.3913
  2223.5000      0.0000    668.6083      8.6328      1.1705     61.5591
  2223.7500      0.0000    664.1772      8.4902      1.2575     61.8794
  2224.0000      0.0000    643.9913      8.3888      1.1705     62.6327
  2224.2500      0.0000    611.3950      8.3138      1.1705     63.4110
  2224.5000      0.0000    575.3713      8.2431      0.6482     63.3452
  2224.7500      0.0000    551.9770      8.1424      1.0834     62.1910
  2225.0000      0.0000    555.3634      7.9656      0.5611     61.0308
  2225.2500      0.0000    585.8845      7.6687      0.5611     61.5313
  2225.5000      0.0000    629.0998      7.2330      0.4741     64.6899
  2225.7500      0.0000    667.3528      6.6868      0.3870     70.4810
  2226.0000      0.0000    691.3594      6.1124      0.4741     78.2193
  2226.2500      0.0000    702.0155      5.6270      0.7352     86.6040
  2226.5000      0.0000    704.8759      5.3416      0.5611     93.4992
  2226.7500      0.0000    704.7891      5.3145      0.6482     96.4851
  2227.0000      0.0000    704.2210      5.5223      0.4741     94.3450
  2227.2500      0.0000    704.0335      5.8661      0.4741     88.1300
  2227.5000      0.0000    704.5758      6.2192      0.9964     80.5508
  2227.7500      0.0000    706.1183      6.4864      0.6482     74.3195
  2228.0000      0.0000    708.6873      6.6362      0.9093     71.1936
  2228.2500      0.0000    711.8376      6.6923      0.7352     72.0920
  2228.5000      0.0000    714.8209      6.7049      0.6482     77.0977
  2228.7500      0.0000    716.6710      6.7253      0.7352     84.9744
  2229.0000      0.0000    715.0662      6.8002      0.8223     93.3140
  2229.2500      0.0000    704.5881      6.9819      0.8223     99.7444
  2229.5000      0.0000    677.5108      7.3255      1.0834    103.0431
  2229.7500      0.0000    629.1182      7.8450      1.1705    103.1168
  2230.0000      0.0000    564.3040      8.4653      0.9964    100.3427
  2230.2500      0.0000    498.8499      9.0462      1.2575     95.2341
  2230.5000      0.0000    452.3888      9.4704      1.1705     88.5744
  2230.7500      0.0000    438.3342      9.7076      1.0834     81.5784
  2231.0000      0.0000    458.7360      9.8046      1.4316     75.7033
  2231.2500      0.0000    505.7498      9.8352      1.7798     72.0702
  2231.5000      0.0000    565.7468      9.8601      1.6057     70.8706
  2231.7500      0.0000    623.7871      9.9078      1.8668     71.2835
  2232.0000      0.0000    668.6913      9.9746      1.5186     71.9914
  2232.2500      0.0000    696.4588     10.0385      1.7798     71.8689
  2232.5000      0.0000    708.6456     10.0799      1.6057     70.5075
  2232.7500      0.0000    707.3185     10.0904      1.7798     68.4625
  2233.0000      0.0000    692.4067     10.0685      1.5186     67.0591
  2233.2500      0.0000    664.7424     10.0036      1.6927     67.5546
  2233.5000      0.0000    631.7011      9.8619      1.2575     69.9382
  2233.7500      0.0000    607.8036      9.5916      1.3446     72.4588
  2234.0000      0.0000    605.9134      9.1599      1.1705     72.8238
  2234.2500      0.0000    626.4705      8.5959      0.9964     70.2319
  2234.5000      0.0000    657.2122      7.9937      1.2575     66.1368
  2234.7500      0.0000    683.8640      7.4681      1.1705     62.8985
  2235.0000      0.0000    699.7037      7.1072      1.2575     61.7102
  2235.2500      0.0000    706.2042      6.9516      1.3446     61.7106
  2235.5000      0.0000    708.1801      6.9829      1.0834     60.9399
  2235.7500      0.0000    709.8685      7.1014      0.5611     58.2386
  2236.0000      0.0000    713.8308      7.1267      2.1280     54.4434
  2236.2500      0.0000    720.8373      6.8700      0.4741     51.9317
  2236.5000      0.0000    729.4063      6.2634      0.7352     52.9284
  2236.7500      0.0000    736.0248      5.4315      0.4741     57.7628
  2237.0000      0.0000    737.3343      4.6112      0.5611     64.2954
  2237.2500      0.0000    732.8820      3.9911      0.2129     69.1062
  2237.5000      0.0000    725.5771      3.6229      0.3000     69.7846
  2237.7500      2.0000    719.4272      3.4492      0.3870     66.5111
  2238.0000      0.0000    716.9256      3.3772      0.1259     61.5873
  2238.2500      0.0000    718.2840      3.3213      0.1259     57.4956
  2238.5000      0.0000    722.4769      3.2127     -0.2223     55.2477
  2238.7500      0.0000    728.5854      3.0116      0.0389     54.1677
  2239.0000      0.0000    736.0665      2.7373      0.1259     52.8820
  2239.2500      0.0000    743.8314      2.4674     -0.1352     50.5082
  2239.5000      0.0000    749.5146      2.2768      0.0389     47.1971
  2239.7500      0.0000    750.5865      2.1682      0.0389     43.7659
  2240.0000      0.0000    746.9503      2.0898     -0.1352     40.9211
  2240.2500      0.0000    741.8516      2.0247      0.0389     39.0482
  2240.5000      0.0000    739.2396      2.0385     -0.0482     38.6701
  2240.7500      0.0000    740.3641      2.2303      0.4741     40.5864
  2241.0000      0.0000    743.2729      2.6611      0.3000     45.2362
  2241.2500      0.0000    744.8641      3.3406      0.5611     52.1591
  2241.5000      0.0000    742.8961      4.2618      0.4741     60.3695
  2241.7500      0.0000    736.5635      5.4220      0.8223     69.0920
  2242.0000      0.0000    725.4139      6.8199      1.0834     77.7765
  2242.2500      0.0000    707.2582      8.4698      1.6057     85.6331
  2242.5000      0.0000    677.1536     10.4579      1.6927     91.7029
  2242.7500      0.0000    629.6019     12.9821      2.5632     95.4627
  2243.0000      0.0000    563.6767     16.2634      2.8243     97.0224
  2243.2500      0.0000    487.1998     20.3175      3.7819     96.7123
  2243.5000      0.0000    414.7583     24.7826      4.3912     94.6727
  2243.7500      0.0000    359.4691     29.0150      5.3487     90.8707
  2244.0000      0.0000    325.7557     32.4014      5.5228     85.5053
  2244.2500      0.0000    309.4346     34.6227      7.4378     79.3991
  2244.5000      0.0000    303.2029     35.7057     10.2233     73.9279
  2244.7500      0.0000    301.3433     35.9073     12.1383     70.4499
  2245.0000      0.0000    300.9162     35.5577     13.7922     69.6372
  2245.2500      0.0000    300.8456     34.9357     14.1404     71.2878
  2245.5000      0.0000    300.8519     34.2061     13.7052     74.8055
  2245.7500      0.0000    300.8948     33.4267     13.8793     79.6642
  2246.0000      0.0000    300.9834     32.6127     13.5311     85.2155
  2246.2500      0.0000    301.1202     31.8070     13.7922     90.4624
  2246.5000      0.0000    301.2789     31.1029     13.6181     94.5061
