~Version Information
VERS.                      2.0: CWLS Log ASCII Standard - VERSION 2.0
WRAP.                       NO: One line per depth step
~Well Information Block
STRT.FT               866.0000: 
STOP.FT              2029.0000: 
STEP.FT                 0.2500: 
NULL.                -999.2500: 
COMP.          Petrogulf Corporation: COMPANY
WELL.             State 16-21R: WELL
FLD.           Purgatorie River: FIELD
LOC.           203' FNL & 1560' FWL: LOCATION
PROV.                 Colorado: PROVINCE
CNTY.               Las Animas: COUNTRY
SRVC.                Patterson: SERVICE COMPANY
DATE.          Tue Aug 16 12:55:36 2005: LOG DATE
UWI.                071 08313 : UNIQUE WELL ID
~Curve Information Block
DEPT.FT            0 000 00 00: Depth
SP.mV                         : DIL Spontaneous Potential
RILD.Ohm-m                    : DIL Deep Resistivity
RILM.Ohm-m                    : DIL Medium Resistivity
RLL3.Ohm-m                    : DIL Shallow Resistivity
GR.GAPI                       : Gamma Ray
~Parameter Information Block
~A  Depth        SP         RILD        RILM        RLL3         GR     
# ...
  1314.0000     81.2602     24.0562     26.4729     49.5962    105.0491
  1314.2500     83.2445     23.7506     25.2259     37.6581    113.2351
  1314.5000     85.0344     22.4871     23.7236     31.0148    115.7913
  1314.7500     86.5810     22.1113     21.9528     25.8118    119.4181
  1315.0000     88.3129     21.8319     20.7301     22.6420    121.9026
  1315.2500     89.2035     21.0143     19.1573     20.9758    126.3056
  1315.5000     89.6298     19.7790     18.0127     20.4210    125.0779
  1315.7500     89.7129     18.8154     17.6491     19.7949    127.9026
  1316.0000     89.8498     18.2248     16.9848     19.6744    121.1708
  1316.2500     89.8068     17.4781     16.4305     20.5134    119.7214
  1316.5000     89.2997     16.6198     16.0829     19.9061    135.2401
  1316.7500     88.8166     15.9395     15.3999     19.1530    125.3156
  1317.0000     88.6607     15.4556     14.9342     18.9121    113.6319
  1317.2500     88.3659     14.8064     14.7122     18.7102    111.6940
  1317.5000     87.9726     14.4083     14.6525     18.7643    123.0695
  1317.7500     87.7446     13.8803     14.5615     20.0386    120.9131
  1318.0000     87.7121     13.6582     14.5563     20.8694    114.5720
  1318.2500     87.6790     13.5020     14.1023     21.7760    107.1975
  1318.5000     87.8055     13.0889     14.0551     22.2119    111.9787
  1318.7500     87.4683     12.7924     13.6789     21.8384    118.3742
  1319.0000     87.3070     12.2809     13.3557     21.7583    118.9209
  1319.2500     86.7200     12.1477     12.9197     21.0312    116.5575
  1319.5000     85.7985     11.9356     12.6174     18.9955    121.3494
  1319.7500     84.7584     11.6761     12.1596     18.1787    121.4292
  1320.0000     83.9411     11.3576     11.8079     17.8169    114.5672
  1320.2500     82.6984     11.2288     11.5016     17.7856    121.9430
  1320.5000     81.5779     10.9854     11.0503     17.0011    123.1037
  1320.7500     80.2152     10.7240     10.7384     14.9982    123.5517
  1321.0000     79.5192     10.5112     10.4203     13.3832    132.5577
  1321.2500     78.7781     10.2975     10.3083     14.0016    133.7275
  1321.5000     78.1731     10.1203     10.0624     15.3947    127.1677
  1321.7500     77.7731     10.0738     10.0588     16.0412    130.0221
  1322.0000     77.4491     10.0210     10.0613     16.7600    131.9616
  1322.2500     76.7940      9.9795     10.0752     17.0301    132.1093
  1322.5000     76.4916     10.1237     10.0685     17.4308    125.5197
  1322.7500     76.6245     10.1367     10.1545     17.3988    123.9893
  1323.0000     76.8913     10.2489     10.3341     16.9045    128.0764
  1323.2500     77.0699     10.3886     10.6411     15.8791    126.3394
  1323.5000     77.1777     10.6032     11.1132     18.8704    124.6636
  1323.7500     77.1296     10.8336     11.3999     21.2903    133.3104
  1324.0000     76.9815     10.9536     11.7861     23.2835    124.6179
  1324.2500     76.5687     11.1143     12.0686     22.6701    113.5673
  1324.5000     76.0227     11.2329     12.2958     21.9471    126.1392
  1324.7500     75.6755     11.2584     12.5181     22.2807    123.0196
  1325.0000     75.1143     11.4342     12.5348     24.1496    121.5427
  1325.2500     74.4983     11.8976     12.6237     26.8542    115.9055
  1325.5000     74.1699     12.4560     12.4017     27.1245    133.2345
  1325.7500     74.1078     12.7384     12.4397     21.5876    134.9673
  1326.0000     73.8156     13.1882     12.5120     15.3608    132.7556
  1326.2500     73.6413     13.2085     12.9750     14.0173    121.4445
  1326.5000     74.0732     13.2186     13.8769     17.7203     96.0275
  1326.7500     75.2052     13.1353     15.1815     34.0536     90.0931
  1327.0000     76.4248     13.1117     15.9420     70.3547     80.7473
  1327.2500     77.8216     13.0438     16.4874    104.8594     87.8750
  1327.5000     79.4158     13.2837     16.2638     89.0920    104.6114
  1327.7500     80.9960     13.5412     15.3718     51.5844    114.8449
  1328.0000     83.0474     13.9490     14.6629     29.9540    121.6378
  1328.2500     84.6402     15.0663     14.4875     21.5264    119.6498
  1328.5000     86.1359     16.0051     14.7958     18.5868    108.8095
  1328.7500     88.1494     17.1771     15.8313     18.8515    102.5577
  1329.0000     89.4405     18.2075     18.0998     25.6813     83.7090
  1329.2500     91.1137     18.4568     20.7849     44.5251     68.6770
  1329.5000     92.6477     18.2392     23.4887     95.2852     66.4266
  1329.7500     94.5339     17.9322     26.7414    233.2781     61.2176
  1330.0000     96.1511     17.3305     27.9910    453.5699     62.3982
  1330.2500     97.2279     16.9157     28.2340    566.3243     63.6294
  1330.5000     98.6632     16.7077     26.1659    463.2938     72.3272
  1330.7500    100.1373     16.7727     23.9831    291.3098     80.3658
  1331.0000    101.7809     17.2121     21.7068    147.3705     85.6316
  1331.2500    103.3700     17.6391     20.1087     54.5870     89.7479
  1331.5000    105.6177     18.4930     18.7492     26.3100    101.2191
  1331.7500    106.8918     19.4724     18.2036     21.9881    104.9063
  1332.0000    107.2366     21.1409     18.2747     19.9853    114.3872
  1332.2500    107.7657     22.1514     18.8645     19.6004    107.6992
  1332.5000    107.9851     22.4162     20.4305     21.9012     90.0519
  1332.7500    108.0918     22.2045     22.2453     32.9423     76.1172
  1333.0000    108.3465     21.4143     24.4558     76.9970     44.6444
  1333.2500    109.2074     20.9875     26.8607    202.0604     32.3585
  1333.5000    110.0778     20.4660     29.9827    423.2424     26.6544
  1333.7500    110.8865     20.1477     32.9814    627.4108     26.9672
  1334.0000    111.5519     19.9391     33.6504    736.1666     35.4730
  1334.2500    111.9695     19.9039     32.8647    629.9377     40.9340
  1334.5000    112.4350     19.8785     30.9240    375.0875     60.0626
  1334.7500    113.1211     20.3916     28.7101    174.9611     70.6985
  1335.0000    113.6826     21.0625     26.0835     65.1330     89.4878
  1335.2500    114.4086     21.2610     23.6156     32.1158     96.1309
  1335.5000    114.6892     21.0539     22.0525     23.0125    104.2946
  1335.7500    115.0705     20.0112     20.6819     20.6657    104.5972
  1336.0000    115.1068     18.9899     20.0457     20.3134    104.6585
  1336.2500    114.6365     17.8422     20.0367     22.2080     96.3541
  1336.5000    114.2470     16.6655     19.5125     26.7931     97.3016
  1336.7500    113.5630     15.6704     17.9855     31.4124    108.5388
  1337.0000    112.4103     14.9797     16.4754     29.0903    119.1699
  1337.2500    111.3203     14.2138     15.4015     20.8857    115.7274
  1337.5000    110.7296     13.3649     14.6021     16.3041    112.0792
  1337.7500    110.2385     12.8378     14.0196     15.5611    116.6723
  1338.0000    109.4037     12.4142     13.8892     17.4293    115.7180
  1338.2500    108.7190     12.0043     13.7717     18.1741    120.6560
  1338.5000    107.9738     11.5857     13.5271     17.3308    116.2195
  1338.7500    107.1837     11.0880     13.0963     16.5949    116.9739
  1339.0000    107.3356     10.3974     12.7876     17.8936    120.6757
  1339.2500    107.6771      9.8532     12.2209     20.2128    117.4535
  1339.5000    107.1951      9.4213     11.4594     21.1202    114.6034
  1339.7500    106.4190      8.9948     10.6770     20.4928    121.0702
  1340.0000    105.9270      8.7464      9.8407     18.2796    125.9664
  1340.2500    105.1971      8.4600      9.2223     15.1499    127.4882
  1340.5000    103.8915      8.2244      8.6441     11.6698    133.2871
  1340.7500    101.9887      7.9902      8.2188     10.9066    129.3790
  1341.0000    100.1754      7.9323      7.8766     10.1837    126.6494
  1341.2500     98.3462      7.7702      7.7308      9.4853    126.5091
  1341.5000     96.7505      7.7138      7.7339      9.3932    130.7279
  1341.7500     96.0513      7.6004      7.7446     10.1070    123.0765
