~Version Information
VERS.                      2.0: CWLS Log ASCII Standard - VERSION 2.0
WRAP.                       NO: One line per depth step
~Well Information Block
STRT.FT               528.0000: 
STOP.FT              2251.5000: 
STEP.FT                 0.2500: 
NULL.                -999.2500: 
COMP.          Pioneer Natural Resources: COMPANY
WELL.           Parklane 43-34: WELL
FLD.           Purgatorie River: FIELD
LOC.           1704' FSL & 1119' FEL: LOCATION
PROV.                 Colorado: PROVINCE
CNTY.               Las Animas: COUNTRY
SRVC.                         : SERVICE COMPANY
DATE.          Thu Oct 07 01:37:17 2004: LOG DATE
UWI.           05 071 08162 00: UNIQUE WELL ID
~Curve Information Block
DEPT.FT            0 000 00 00: Depth
LTEN.lb                       : Surface Line Tension
SN.Ohm-m                      : IEL Short Normal
SP.mV                         : IEL Spontaneous Potential
DIR.Ohm-m                     : IEL Induction Resistivity
GR.GAPI                       : Gamma Ray
~Parameter Information Block
~A  Depth       LTEN         SN          SP         DIR          GR     
# ...
  2012.0000    968.1653     16.4364    -45.2694     12.3090     73.3817
  2012.2500    966.7167     16.2575    -47.5029     12.0686     72.5443
  2012.5000    968.0084     16.0580    -50.3527     11.8184     72.1509
  2012.7500    970.7689     15.8678    -53.4824     11.5910     72.3889
  2013.0000    973.1724     15.7121    -56.4974     11.4185     73.3313
  2013.2500    974.6721     15.6093    -59.0261     11.3242     74.2340
  2013.5000    976.8210     15.5673    -60.7903     11.3133     75.7859
  2013.7500    981.3510     15.5832    -61.6562     11.3687     76.8948
  2014.0000    987.3342     15.6432    -61.6431     11.4555     78.5673
  2014.2500    991.3972     15.7216    -60.9034     11.5360     79.4805
  2014.5000    991.1223     15.7820    -59.6729     11.5900     80.1225
  2014.7500    987.2767     15.7909    -58.2144     11.6268     80.1042
  2015.0000    982.3995     15.7389    -56.7702     11.6803     80.0362
  2015.2500    978.2849     15.6525    -55.5263     11.7902     80.2582
  2015.5000    975.4045     15.5831    -54.5961     11.9828     80.8101
  2015.7500    973.7223     15.5797    -54.0185     12.2603     81.0186
  2016.0000    973.1410     15.6725    -53.7647     12.6009     80.9984
  2016.2500    973.5747     15.8793    -53.7542     12.9690     80.9908
  2016.5000    975.2621     16.2298    -53.8820     13.3364     81.0714
  2016.7500    978.6591     16.7863    -54.0505     13.7011     80.8051
  2017.0000    983.4108     17.6510    -54.1886     14.0852     79.1158
  2017.2500    987.6121     18.9576    -54.2631     14.5114     76.9184
  2017.5000    988.8867     20.8520    -54.2696     14.9784     71.8287
  2017.7500    986.4263     23.4542    -54.2180     15.4656     67.0369
  2018.0000    981.6945     26.7900    -54.1143     15.9636     57.8321
  2018.2500    977.2204     30.6999    -53.9575     16.5028     51.0645
  2018.5000    974.9933     34.7781    -53.7448     17.1426     42.0527
  2018.7500    975.6080     38.4122    -53.4857     17.9224     37.9092
  2019.0000    978.1667     40.9550    -53.2172     18.8139     35.4292
  2019.2500    980.8107     41.9659    -52.9993     19.7155     36.3524
  2019.5000    981.8300     41.3920    -52.9026     20.5002     41.6903
  2019.7500    980.7971     39.5824    -52.9810     21.0810     48.1317
  2020.0000    978.8729     37.1295    -53.2464     21.4283     62.3945
  2020.2500    977.8920     34.6315    -53.6642     21.5303     74.3661
  2020.5000    978.8994     32.5036    -54.1539     21.3586     92.8990
  2020.7500    981.3671     30.9109    -54.6188     20.8815    103.1701
  2021.0000    983.7932     29.8159    -54.9753     20.1116    112.6279
  2021.2500    985.1158     29.0782    -55.1835     19.1404    115.0686
  2021.5000    985.5664     28.5402    -55.2591     18.1258    115.3064
  2021.7500    986.1120     28.0718    -55.2695     17.2369    114.6860
  2022.0000    987.1003     27.5828    -55.3074     16.6011    114.0076
  2022.2500    987.5648     27.0240    -55.4624     16.2823    113.9573
  2022.5000    986.1700     26.3872    -55.7807     16.2834    114.6685
  2022.7500    982.7922     25.7043    -56.2495     16.5491    115.8885
  2023.0000    978.7788     25.0397    -56.7889     16.9600    118.8787
  2023.2500    975.7355     24.4727    -57.2675     17.3395    120.9471
  2023.5000    974.5617     24.0764    -57.5299     17.5104    121.7321
  2023.7500    975.4583     23.9029    -57.4293     17.3882    119.3249
  2024.0000    978.1281     23.9771    -56.8561     17.0287    110.4234
  2024.2500    981.8018     24.2900    -55.7636     16.5682    101.5045
  2024.5000    985.4669     24.7812    -54.1738     16.1296     86.0773
  2024.7500    988.2872     25.3241    -52.1789     15.7815     76.4227
  2025.0000    989.8218     25.7410    -49.9280     15.5506     66.3105
  2025.2500    989.8998     25.8649    -47.6183     15.4431     63.7867
  2025.5000    988.4631     25.6193    -45.4752     15.4489     66.6885
  2025.7500    985.6800     25.0628    -43.7213     15.5336     72.2935
  2026.0000    982.0937     24.3607    -42.5464     15.6439     83.7508
  2026.2500    978.4059     23.7021    -42.0663     15.7300     91.7542
  2026.5000    975.1705     23.2166    -42.2932     15.7736    102.0876
  2026.7500    972.9199     22.9343    -43.1296     15.7945    107.4081
  2027.0000    972.3496     22.8002    -44.3854     15.8344    113.5541
  2027.2500    973.9650     22.7198    -45.8258     15.9334    116.8399
  2027.5000    977.5030     22.6113    -47.2349     16.1164    120.4156
  2027.7500    981.8575     22.4431    -48.4659     16.3888    121.4585
  2028.0000    985.6561     22.2434    -49.4619     16.7360    120.7060
  2028.2500    988.0655     22.0817    -50.2456     17.1224    119.0587
  2028.5000    989.3077     22.0367    -50.8789     17.4932    116.1199
  2028.7500    990.4628     22.1668    -51.4194     17.7859    114.4015
  2029.0000    992.4188     22.4980    -51.8831     17.9514    112.0109
  2029.2500    994.7136     23.0233    -52.2382     17.9743    109.7362
  2029.5000    995.6876     23.7074    -52.4167     17.8742    103.7972
  2029.7500    994.2563     24.4854    -52.3459     17.6837     98.1037
  2030.0000    991.4358     25.2574    -51.9813     17.4214     88.8912
  2030.2500    989.5345     25.8885    -51.3292     17.0844     83.8649
  2030.5000    989.7095     26.2231    -50.4512     16.6645     79.4246
  2030.7500    990.7453     26.1180    -49.4556     16.1667     78.2630
  2031.0000    990.4557     25.4849    -48.4696     15.6092     77.9493
  2031.2500    988.0534     24.3255    -47.6126     15.0081     78.2700
  2031.5000    984.8828     22.7444    -46.9650     14.3684     80.0008
  2031.7500    982.9367     20.9302    -46.5635     13.6940     82.7457
  2032.0000    982.8923     19.1048    -46.3974     13.0057     90.2800
  2032.2500    983.5393     17.4572    -46.4255     12.3442     97.3128
  2032.5000    982.9194     16.0940    -46.5948     11.7524    108.4972
  2032.7500    980.0840     15.0328    -46.8628     11.2511    114.5795
  2033.0000    975.9691     14.2333    -47.2068     10.8303    120.0243
  2033.2500    972.6862     13.6355    -47.6297     10.4603    121.5932
  2033.5000    971.9226     13.1830    -48.1489     10.1135    122.5231
  2033.7500    973.8373     12.8267    -48.7864      9.7790    122.7353
  2034.0000    977.2012     12.5272    -49.5596      9.4618    122.1640
  2034.2500    980.3908     12.2621    -50.4666      9.1723    120.8067
  2034.5000    982.4910     12.0337    -51.4798      8.9190    117.2457
  2034.7500    983.8802     11.8653    -52.5423      8.7097    114.3792
  2035.0000    985.7759     11.7843    -53.5651      8.5559    110.8941
  2035.2500    988.8919     11.8007    -54.4363      8.4743    109.9721
  2035.5000    992.4783     11.8977    -55.0343      8.4814    111.2011
  2035.7500    994.8353     12.0392    -55.2488      8.5839    113.2500
  2036.0000    994.9186     12.1862    -55.0016      8.7696    116.4020
  2036.2500    993.3508     12.3130    -54.2676      9.0048    117.7462
  2036.5000    991.7080     12.4133    -53.0759      9.2421    118.6150
  2036.7500    990.9613     12.4977    -51.5024      9.4401    118.9182
  2037.0000    991.0097     12.5830    -49.6545      9.5813    119.1440
  2037.2500    991.7036     12.6821    -47.6557      9.6752    118.5274
  2037.5000    993.5030     12.8020    -45.6305      9.7476    115.1010
  2037.7500    996.4656     12.9513    -43.7102      9.8304    110.9412
  2038.0000    999.0989     13.1505    -42.0226      9.9553    103.1052
  2038.2500    999.2376     13.4267    -40.6909     10.1507     98.2028
  2038.5000    996.2017     13.7916    -39.8210     10.4346     93.7381
  2038.7500    991.5591     14.2170    -39.4832     10.8092     93.3323
  2039.0000    987.8047     14.6339    -39.7004     11.2614     95.6367
  2039.2500    986.7233     14.9642    -40.4434     11.7690     97.7612
  2039.5000    988.8024     15.1704    -41.6438     12.3045     99.7240
  2039.7500    993.2444     15.2870    -43.2129     12.8323     99.6681
