~Version Information
VERS.                      2.0: CWLS Log ASCII Standard - VERSION 2.0
WRAP.                       NO: One line per depth step
~Well Information Block
STRT.FT                -8.5000: 
STOP.FT              1597.7500: 
STEP.FT                 0.2500: 
NULL.                -999.2500: 
COMP.          Pioneer Natural Resources: COMPANY
WELL.          Dude Canyon 22-32 Tr: WELL
FLD.           Purgatorie River: FIELD
LOC.           1741' FnL & 2331' FWL--: LOCATION
PROV.                       CO: PROVINCE
CNTY.               Las Animas: COUNTRY
SRVC.          Patterson Wireline: SERVICE COMPANY
DATE.          Fri Jul 15 14:44:37 2005: LOG DATE
UWI.           05 071 08421 00: UNIQUE WELL ID
~Curve Information Block
DEPT.FT            0 000 00 00: Depth
CCL.                          : Casing Collar Locator
TT3.usec                      : CBL 3' Travel Time
AMP3.mV                       : CBL 3' Amplitude
GR.GAPI                       : Gamma Ray
~Parameter Information Block
~A  Depth       CCL         TT3         AMP3         GR     
# ...
  1365.0000      0.0000    687.8427      7.3519     75.9573
  1365.2500      0.0000    687.5336      7.3241     91.4326
  1365.5000      0.0000    677.7846      7.2506    108.5714
  1365.7500      0.0000    654.5274      7.1638    125.4746
  1366.0000      0.0000    621.0016      7.1059    139.7585
  1366.2500      0.0000    588.1645      7.1006    149.2679
  1366.5000      0.0000    567.5723      7.1372    153.1933
  1366.7500      0.0000    563.3598      7.1764    152.5528
  1367.0000      0.0000    570.7316      7.1768    149.3807
  1367.2500      0.0000    581.1832      7.1202    145.4915
  1367.5000      0.0000    589.4701      7.0222    142.0785
  1367.7500      0.0000    597.0485      6.9223    139.7729
  1368.0000      0.0000    609.1312      6.8628    138.1705
  1368.2500      0.0000    627.6873      6.8617    135.8149
  1368.5000      0.0000    647.3561      6.8957    131.9201
  1368.7500      0.0000    659.2576      6.9187    127.9516
  1369.0000      0.0000    658.8616      6.9034    126.4332
  1369.2500      0.0000    649.3330      6.8590    128.2865
  1369.5000      0.0000    637.8037      6.8075    132.1228
  1369.7500      0.0000    630.3262      6.7572    135.8599
  1370.0000      0.0000    630.3837      6.7107    138.1596
  1370.2500      0.0000    639.4812      6.6868    138.4373
  1370.5000      0.0000    656.5891      6.7165    136.4579
  1370.7500      0.0000    676.7888      6.8125    132.3472
  1371.0000      0.0000    692.0728      6.9465    126.7053
  1371.2500      0.0000    696.1752      7.0603    120.5624
  1371.5000      0.0000    690.7206      7.1036    115.1576
  1371.7500      0.0000    685.1962      7.0640    111.3966
  1372.0000      0.0000    687.2472      6.9732    109.2903
  1372.2500      0.0000    693.0848      6.8903    107.9930
  1372.5000      0.0000    690.8248      6.8746    106.3046
  1372.7500      0.0000    673.3704      6.9519    103.1910
  1373.0000      0.0000    644.9131      7.0965     98.4841
  1373.2500      0.0000    615.5116      7.2514     93.5920
  1373.5000      0.0000    593.5526      7.3692     91.0171
  1373.7500      0.0000    584.3238      7.4303     92.4126
  1374.0000      0.0000    591.9103      7.4279     97.0666
  1374.2500      0.0000    618.4283      7.3564    102.5392
  1374.5000      0.0000    659.9198      7.2258    106.7395
  1374.7500      0.0000    704.0583      7.0696    109.2926
  1375.0000      0.0000    734.9070      6.9202    111.2048
  1375.2500      0.0000    742.7394      6.7839    113.5716
  1375.5000      0.0000    730.5172      6.6605    116.5617
  1375.7500      0.0000    711.3635      6.5764    119.2531
  1376.0000      0.0000    699.6323      6.5750    120.3290
  1376.2500      0.0000    702.6429      6.6669    119.2396
  1376.5000      0.0000    718.0432      6.8038    116.8509
  1376.7500      0.0000    736.5715      6.9099    114.8342
  1377.0000      0.0000    747.6147      6.9411    114.5456
  1377.2500      0.0000    745.7233      6.9157    116.6861
  1377.5000      0.0000    734.7396      6.8849    121.4521
  1377.7500      0.0000    724.5720      6.8729    128.1372
  1378.0000      0.0000    721.7495      6.8519    134.6316
  1378.2500      0.0000    723.6678      6.7832    138.1542
  1378.5000      0.0000    722.8978      6.6736    137.0321
  1378.7500      0.0000    715.6816      6.5714    131.8891
  1379.0000      0.0000    705.1292      6.5106    125.1315
  1379.2500      0.0000    697.6060      6.4820    119.2617
  1379.5000      0.0000    697.7021      6.4660    115.4069
  1379.7500      0.0000    705.9946      6.4757    112.8587
  1380.0000      0.0000    719.5521      6.5478    109.7611
  1380.2500      0.0000    733.9233      6.6902    104.6533
  1380.5000      0.0000    745.7769      6.8550     97.7847
  1380.7500      0.0000    754.0246      6.9703     90.9987
  1381.0000      0.0000    757.9626      6.9978     86.4428
  1381.2500      0.0000    755.4467      6.9536     85.5619
  1381.5000      0.0000    745.2389      6.8749     88.9502
  1381.7500      0.0000    731.1039      6.7803     96.3140
  1382.0000      0.0000    720.4184      6.6717    106.2335
  1382.2500      0.0000    716.9318      6.5546    116.4045
  1382.5000      0.0000    716.4006      6.4356    124.4991
  1382.7500      0.0000    710.3681      6.3123    129.0268
  1383.0000      0.0000    693.1203      6.1891    129.9663
  1383.2500      0.0000    665.3271      6.0964    128.8932
  1383.5000      0.0000    633.1056      6.0684    127.9620
  1383.7500      0.0000    604.2869      6.1035    128.2854
  1384.0000      0.0000    584.8544      6.1652    129.2804
  1384.2500      0.0000    578.3265      6.2215    129.3903
  1384.5000      0.0000    586.8267      6.2675    127.3138
  1384.7500      0.0000    610.4097      6.3080    123.0421
  1385.0000      0.0000    645.3206      6.3362    118.1029
  1385.2500      0.0000    684.8959      6.3330    114.4604
  1385.5000      0.0000    722.7710      6.2835    112.9366
  1385.7500      0.0000    754.8883      6.1894    112.9285
  1386.0000      0.0000    779.3677      6.0618    113.5308
  1386.2500      0.0000    795.7017      5.9038    114.4702
  1386.5000      0.0000    803.9399      5.7125    115.9322
  1386.7500      0.0000    804.4624      5.5076    117.9506
  1387.0000      0.0000    799.0269      5.3434    120.3055
  1387.2500      0.0000    791.9154      5.2710    122.6853
  1387.5000      0.0000    788.4980      5.2879    124.5271
  1387.7500      0.0000    791.2819      5.3391    125.0052
  1388.0000      0.0000    797.8224      5.3695    123.8107
  1388.2500      0.0000    803.2998      5.3634    121.8477
  1388.5000      0.0000    804.6421      5.3333    120.5825
  1388.7500      0.0000    801.6365      5.2946    120.7017
  1389.0000      0.0000    795.0222      5.2613    121.7384
  1389.2500      0.0000    784.9406      5.2455    122.9834
  1389.5000      0.0000    771.5717      5.2404    124.4257
  1389.7500      0.0000    756.2285      5.2094    126.4677
  1390.0000      0.0000    740.9459      5.1023    128.6992
  1390.2500      0.0000    727.8414      4.8832    129.5005
  1390.5000      0.0000    719.5608      4.5486    127.3471
  1390.7500      0.0000    718.9480      4.1297    122.0807
  1391.0000      0.0000    727.0438      3.6783    114.4103
  1391.2500      0.0000    742.1324      3.2414    104.7301
  1391.5000      0.0000    760.6435      2.8486     93.1784
  1391.7500      0.0000    777.4224      2.5187     80.5254
  1392.0000      0.0000    785.6503      2.2647     68.2173
  1392.2500      0.0000    779.5087      2.0841     57.4884
  1392.5000      0.0000    758.8314      1.9524     48.9457
  1392.7500      0.0000    730.6815      1.8345     42.9898
  1393.0000      0.0000    705.2791      1.7055     39.9535
  1393.2500      0.0000    689.5538      1.5603     39.5811
  1393.5000      0.0000    683.8663      1.4104     40.8450
  1393.7500      0.0000    684.0793      1.2769     42.6856
  1394.0000      0.0000    686.3047      1.1806     44.8022
  1394.2500      0.0000    690.0537      1.1338     47.5487
  1394.5000      0.0000    697.7896      1.1381     51.3812
  1394.7500      0.0000    711.9048      1.1898     56.6591
  1395.0000      0.0000    731.7592      1.2811     63.7124
  1395.2500      0.0000    753.1777      1.4007     72.8495
  1395.5000      0.0000    770.5380      1.5450     84.3197
  1395.7500      0.0000    779.3331      1.7311     97.9871
  1396.0000      0.0000    778.0676      1.9941    112.5835
  1396.2500      0.0000    769.9818      2.3661    125.3357
  1396.5000      0.0000    762.6855      2.8509    133.0953
  1396.7500      0.0000    762.7416      3.4095    134.5481
  1397.0000      0.0000    769.3367      3.9715    131.3040
  1397.2500      0.0000    775.5181      4.4749    126.4195
  1397.5000      0.0000    776.1335      4.8987    121.8525
  1397.7500      0.0000    772.1321      5.2536    117.7234
  1398.0000      0.0000    766.8986      5.5518    113.8011
  1398.2500      0.0000    761.3055      5.7954    110.7267
