~Version Information
VERS.                      2.0: CWLS Log ASCII Standard - VERSION 2.0
WRAP.                       NO: One line per depth step
~Well Information Block
STRT.FT               230.0000: 
STOP.FT              1527.0000: 
STEP.FT                 0.1000: 
NULL.                -999.2500: 
COMP.          Pioneer Natural Resources: COMPANY
WELL.              Border 21-3: WELL
FLD.           Purgatorie River: FIELD
LOC.           865' FNL & 1415' FWL: LOCATION
PROV.                 Colorado: PROVINCE
CNTY.               Las Animas: COUNTRY
SRVC.                         : SERVICE COMPANY
DATE.          Thu Dec 09 16:57:34 2004: LOG DATE
UWI.           05 071 08169 00: UNIQUE WELL ID
~Curve Information Block
DEPT.FT            0 000 00 00: Depth
LTEN.lb                       : Surface Line Tension
DCAL.in                       : CDL Caliper
RHOB.g/cc                     : CDL Bulk Density
RHOC.g/cc                     : CDL Density Correction
DPOR.pu                       : CDL Density Porosity
GR.GAPI                       : Gamma Ray
NPOR.pu                       : Neutron Porosity
~Parameter Information Block
~A  Depth       LTEN        DCAL        RHOB        RHOC        DPOR         GR         NPOR    
# ...
   314.0000    715.7105      7.9030      2.4879      0.0343      9.8266    124.4768     24.1849
   314.1000    715.7105      7.9030      2.4981      0.0431      9.2082    122.0096     24.2484
   314.2000    715.7105      7.9030      2.5246      0.1057      7.5983    117.0003     24.0501
   314.3000    730.5657      7.9023      2.5544      0.0946      5.7968    113.3717     23.5724
   314.4000    730.5657      7.9023      2.5744      0.1294      4.5822    113.0774     23.3022
   314.5000    756.2369      7.9011      2.5857      0.1338      3.8969    112.9960     23.4469
   314.6000    756.2369      7.9011      2.5973      0.1052      3.1928    109.6129     23.6665
   314.7000    756.2369      7.9011      2.6107      0.1472      2.3832    106.8228     23.5971
   314.8000    762.5400      7.9025      2.6132      0.1587      2.2285    110.1793     23.4129
   314.9000    762.5400      7.9025      2.5965      0.1311      3.2433    118.2068     23.3396
   315.0000    741.1935      7.9022      2.5717      0.1076      4.7438    123.8198     23.4281
   315.1000    741.1935      7.9022      2.5596      0.1165      5.4791    120.9042     23.6964
   315.2000    741.1935      7.9022      2.5663      0.0860      5.0736    112.4849     24.0525
   315.3000    740.3881      7.9032      2.5775      0.0838      4.3959    107.7073     24.3590
   315.4000    740.3881      7.9032      2.5778      0.0750      4.3771    110.6225     24.5058
   315.5000    722.2134      7.9016      2.5721      0.0390      4.7234    117.6619     24.4974
   315.6000    722.2134      7.9016      2.5747      0.1003      4.5627    124.1200     24.4595
   315.7000    722.2134      7.9016      2.5830      0.0858      4.0610    126.9238     24.5103
   315.8000    732.8834      7.9028      2.5865      0.0820      3.8512    126.8459     24.4633
   315.9000    732.8834      7.9028      2.5874      0.0565      3.7921    125.5337     24.0795
   316.0000    709.6090      7.9013      2.5901      0.0918      3.6294    119.5891     23.7316
   316.1000    709.6090      7.9013      2.5899      0.0706      3.6437    109.4477     23.8220
   316.2000    709.6090      7.9013      2.5882      0.0966      3.7468    103.4677     24.0868
   316.3000    713.7064      7.9011      2.5932      0.0844      3.4398    104.6593     24.1755
   316.4000    713.7064      7.9011      2.6062      0.0927      2.6543    107.6954     24.1549
   316.5000    706.4738      7.9012      2.6136      0.1268      2.2085    107.4148     24.0710
   316.6000    706.4738      7.9012      2.6028      0.1020      2.8583    105.2342     24.0749
   316.7000    706.4738      7.9012      2.5851      0.0479      3.9356    105.4865     24.4427
   316.8000    747.2982      7.8997      2.5784      0.0401      4.3389    105.4514     25.0466
   316.9000    747.2982      7.8997      2.5777      0.0618      4.3812    103.4359     25.3542
   317.0000    724.7015      7.9008      2.5655      0.0878      5.1203    103.6259     25.0434
   317.1000    724.7015      7.9008      2.5456      0.0552      6.3272    106.9666     24.5179
   317.2000    724.7015      7.9008      2.5398      0.0157      6.6785    109.8572     24.1346
   317.3000    730.6111      7.9004      2.5537      0.0500      5.8364    109.7802     23.8538
   317.4000    730.6111      7.9004      2.5656      0.1012      5.1138    105.7863     23.6680
   317.5000    732.1896      7.9012      2.5570      0.1122      5.6355     99.4692     23.4095
   317.6000    732.1896      7.9012      2.5411      0.0587      6.6000     94.6577     22.9352
   317.7000    732.1896      7.9012      2.5448      0.0704      6.3765     91.3549     22.4975
   317.8000    752.2145      7.9003      2.5707      0.1123      4.8083     89.3711     22.3816
   317.9000    752.2145      7.9003      2.6007      0.1315      2.9873     91.3244     22.6200
   318.0000    769.5654      7.9025      2.6255      0.1348      1.4820     96.8310     23.0354
   318.1000    769.5654      7.9025      2.6449      0.1686      0.3078     99.3246     23.3366
   318.2000    769.5654      7.9025      2.6564      0.1786     -0.3904     97.4910     23.3493
   318.3000    767.5627      7.9000      2.6557      0.1854     -0.3432     99.1737     23.2276
   318.4000    767.5627      7.9000      2.6376      0.1824      0.7495    106.6757     23.0349
   318.5000    739.9722      7.8988      2.6095      0.1175      2.4527    112.4267     22.7449
   318.6000    739.9722      7.8988      2.5880      0.1021      3.7582    109.8127     22.4344
   318.7000    739.9722      7.8988      2.5738      0.1044      4.6203    103.3507     22.3548
   318.8000    752.2771      7.9002      2.5629      0.0694      5.2758    101.3996     22.6675
   318.9000    752.2771      7.9002      2.5647      0.0753      5.1717    103.6347     22.9967
   319.0000    755.0189      7.8988      2.5748      0.1366      4.5573    105.4521     23.0252
   319.1000    755.0189      7.8988      2.5718      0.1533      4.7367    104.5026     23.0088
   319.2000    755.0189      7.8988      2.5489      0.1352      6.1274    102.5402     23.0351
   319.3000    741.6550      7.8991      2.5199      0.0794      7.8878    102.0106     22.9315
   319.4000    741.6550      7.8991      2.5055      0.0484      8.7555    103.5754     22.7924
   319.5000    731.3389      7.8988      2.5151      0.0862      8.1739    105.7994     22.7647
   319.6000    731.3389      7.8988      2.5394      0.0786      6.7013    105.9933     22.7809
   319.7000    731.3389      7.8988      2.5640      0.1363      5.2148    105.2791     22.7650
   319.8000    734.1037      7.9006      2.5742      0.1453      4.5921    105.1861     22.7987
   319.9000    734.1037      7.9006      2.5681      0.1163      4.9660    105.2696     22.9825
   320.0000    791.3841      7.8997      2.5624      0.1004      5.3099    106.3975     23.2344
   320.1000    791.3841      7.8997      2.5709      0.1130      4.7968    111.8337     23.3986
   320.2000    791.3841      7.8997      2.5845      0.1161      3.9681    119.9572     23.4092
   320.3000    767.9470      7.9009      2.5874      0.1087      3.7921    122.6344     23.3227
   320.4000    767.9470      7.9009      2.5825      0.0890      4.0895    119.3937     23.2616
   320.5000    774.5194      7.8983      2.5848      0.1238      3.9505    114.8223     23.2743
   320.6000    774.5194      7.8983      2.5959      0.1407      3.2797    110.8063     23.2984
   320.7000    774.5194      7.8983      2.6035      0.1074      2.8157    108.7192     23.0996
   320.8000    784.2318      7.8999      2.5992      0.0660      3.0769    108.1413     22.6295
   320.9000    784.2318      7.8999      2.5855      0.0624      3.9088    104.6734     22.2757
   321.0000    772.8038      7.8998      2.5701      0.0581      4.8451     98.0962     22.3612
   321.1000    772.8038      7.8998      2.5588      0.0486      5.5245     95.3763     22.7057
   321.2000    772.8038      7.8998      2.5570      0.0395      5.6335     98.3082     22.9799
   321.3000    750.8044      7.9002      2.5647      0.0449      5.1699    101.8869     23.0090
   321.4000    750.8044      7.9002      2.5713      0.0846      4.7693    103.5021     22.8440
   321.5000    764.4402      7.9005      2.5689      0.0762      4.9132    103.9129     22.6295
   321.6000    764.4402      7.9005      2.5651      0.0588      5.1472    103.7978     22.6278
   321.7000    764.4402      7.9005      2.5676      0.0807      4.9949    103.1895     23.0061
   321.8000    796.9846      7.9002      2.5704      0.1002      4.8264    102.1669     23.3329
   321.9000    796.9846      7.9002      2.5645      0.0963      5.1792     99.6416     23.1914
   322.0000    772.0567      7.8999      2.5477      0.0819      6.2003     95.2521     22.7237
   322.1000    772.0567      7.8999      2.5221      0.0615      7.7535     93.2867     22.2942
   322.2000    772.0567      7.8999      2.4971      0.0357      9.2673     97.1460     22.2145
   322.3000    744.7782      7.9009      2.4873      0.0102      9.8632    103.1333     22.4152
