~Version Information
 VERS.                                  2.0 : CWLS LAS VERSION
 WRAP.                                   NO : WRAPING MODE
 SWARE .                 MController 2.5.0N : SOFTWARE VERSION
~Well Information
 WELL.                        Paradise 13-8 : WELL
 COMP.        Pioneer Natural Resources Inc : COMPANY
 FLD.                      Purgatoire River : FIELD
 LOC.                 NW/SW Sec 8 T32S R66W : LOCATION
 DATE.                           1/21-22/05 : DATE(S) LOGGED
 SRVC.       Blanco Geological Services LLC : SERVICE COMPANY
 STAT.                                   CO : STATE
 CNTY.                           Las Animas : COUNTY
 CTRY.                                  USA : COUNTRY
 API.                       05-071-07946-00 : API NUMBER
 STRT.FT                             855.00 : START DEPTH
 STOP.FT                            3151.00 : STOP DEPTH
 STEP.FT                               1.00 : DEPTH INCREMENT
 NULL.                                -9999 : NULL VALUE
~Curve information
 DEPTH.FT                                   :
 ROP.MIN/FT                                 :
 GAS.UNITS                                  :
~ASCII Log data
# ...
      2855.0         0.63         23.8 
      2856.0         0.92         25.1 
      2857.0         0.63         27.1 
      2858.0         0.70         31.8 
      2859.0         0.60         26.3 
      2860.0         0.43         10.6 
      2861.0         0.37          7.6 
      2862.0         0.32          6.3 
      2863.0         0.30          6.7 
      2864.0         0.30          9.5 
      2865.0         0.67         11.0 
      2866.0         0.93         11.1 
      2867.0         0.90          9.3 
      2868.0         0.88          9.7 
      2869.0         0.67         11.0 
      2870.0         0.43         10.3 
      2871.0         0.37          9.1 
      2872.0         0.23          9.3 
      2873.0         0.30         12.5 
      2874.0         0.37         23.6 
      2875.0         0.35         27.3 
      2876.0         0.27         27.9 
      2877.0         0.23         27.4 
      2878.0         0.40         24.5 
      2879.0         0.50         23.3 
      2880.0         0.60         28.1 
      2881.0         0.40         33.4 
      2882.0         0.47         37.5 
      2883.0         0.72         37.4 
      2884.0         7.90         35.8 
      2885.0         0.67          4.7 
      2886.0         0.73          4.7 
      2887.0         0.72          4.8 
      2888.0         1.13          5.1 
      2889.0         0.80          5.8 
      2890.0         0.73          5.6 
      2891.0         0.68          4.5 
      2892.0         0.50          4.4 
      2893.0         0.63          4.3 
      2894.0         0.67          4.2 
      2895.0         0.60          4.2 
      2896.0         0.68          4.4 
      2897.0         0.70          4.6 
      2898.0         0.67          4.8 
      2899.0         0.63          4.5 
      2900.0         0.30          4.6 
      2901.0         0.33          4.7 
      2902.0         0.30          4.8 
      2903.0         0.33          5.2 
      2904.0         0.35          5.1 
      2905.0         0.37          5.5 
      2906.0         0.40          5.5 
      2907.0         0.37          5.7 
      2908.0         0.30          5.4 
      2909.0         0.57          6.0 
      2910.0         0.63          6.0 
      2911.0         0.45          5.4 
      2912.0         0.37          5.2 
      2913.0         0.43          5.0 
      2914.0        14.53         71.7 
      2915.0         0.37         10.6 
      2916.0         0.43         12.8 
      2917.0         0.53         15.5 
      2918.0         1.12         28.9 
      2919.0         0.87         25.0 
      2920.0         0.67          8.4 
      2921.0         0.37          8.0 
      2922.0         0.52          9.5 
      2923.0         0.70         14.6 
      2924.0         0.80         27.7 
      2925.0         0.97         38.7 
      2926.0         0.88         43.2 
      2927.0         0.30         45.8 
      2928.0         0.23         48.3 
      2929.0         0.30         53.4 
      2930.0         0.33         57.7 
      2931.0         0.33         65.4 
      2932.0         0.37         70.6 
      2933.0         0.37         77.2 
      2934.0         0.57         85.9 
      2935.0         0.45         91.6 
      2936.0         0.67         95.1 
      2937.0         0.67         95.6 
      2938.0         0.70         91.3 
      2939.0         0.50         88.9 
      2940.0         0.50         88.2 
      2941.0         0.58         86.6 
      2942.0         0.43         83.4 
      2943.0         0.57         79.0 
      2944.0        19.20        133.0 
      2945.0         0.63        133.6 
      2946.0         0.53        134.6 
      2947.0         0.43        142.3 
      2948.0         0.33        150.0 
      2949.0         0.27        157.5 
      2950.0         0.27        173.5 
      2951.0         0.55        190.9 
      2952.0         0.40        208.3 
      2953.0         0.30        215.1 
      2954.0         0.23        223.9 
      2955.0         0.13        230.4 
      2956.0         0.23        232.4 
      2957.0         0.33        238.5 
      2958.0         0.30        237.1 
      2959.0         0.37        234.4 
      2960.0         0.43        231.8 
      2961.0         0.40        230.2 
      2962.0         0.42        230.9 
      2963.0         0.47        230.6 
      2964.0         0.37        230.1 
      2965.0         0.53        228.2 
      2966.0         0.80        224.4 
      2967.0         0.92        227.5 
      2968.0         0.87        236.6 
      2969.0         3.18        208.7 
      2970.0         1.23         20.9 
      2971.0         0.70          9.6 
      2972.0         1.32         10.7 
      2973.0         1.50         16.8 
      2974.0        22.58        193.4 
      2975.0         1.40        281.1 
      2976.0         0.85        354.3 
      2977.0         0.60        363.4 
      2978.0         0.60        359.7 
      2979.0         0.57        317.0 
      2980.0         0.47        201.0 
      2981.0         0.43        172.9 
      2982.0         0.52        138.5 
      2983.0         0.47        124.5 
      2984.0         0.47        126.1 
      2985.0         0.47        126.7 
      2986.0         0.47        126.1 
      2987.0         0.43        125.4 
      2988.0         0.47        123.5 
      2989.0         0.62        120.7 
      2990.0         0.53        113.4 
      2991.0         0.43        102.1 
      2992.0         0.47        100.2 
      2993.0         0.43         84.6 
      2994.0         0.43         74.9 
      2995.0         0.63         65.5 
      2996.0         0.75         47.4 
      2997.0         0.73         23.2 
      2998.0         0.77          9.5 
      2999.0         0.83          8.1 
      3000.0         0.65         10.1 
      3001.0         0.53          8.6 
      3002.0         0.37          7.2 
      3003.0         0.60          6.4 
      3004.0        10.32        305.9 
      3005.0         0.57        331.0 
      3006.0         0.75        335.0 
      3007.0         0.93        288.2 
      3008.0         0.67        190.9 
      3009.0         0.43        197.9 
      3010.0         0.47        224.6 
      3011.0         0.37        233.4 
      3012.0         0.42        245.5 
      3013.0         0.37        251.8 
      3014.0         0.40        252.2 
      3015.0         0.40        251.7 
      3016.0         0.40        250.7 
      3017.0         0.43        249.5 
      3018.0         0.43        246.3 
      3019.0         0.43        241.6 
      3020.0         0.48        239.9 
      3021.0         0.60        239.7 
      3022.0         0.50        238.1 
      3023.0         0.53        236.3 
      3024.0         0.53        228.4 
      3025.0         0.53        218.5 
      3026.0         0.65        208.6 
      3027.0         0.53        168.0 
      3028.0         0.57        138.8 
      3029.0         0.57        120.7 
      3030.0         0.57        109.8 
      3031.0         0.67         98.3 
      3032.0         0.88         88.3 
      3033.0         0.80         73.1 
      3034.0         9.88         62.1 
      3035.0         0.83         46.0 
      3036.0         1.30         74.7 
      3037.0         0.68         72.6 
      3038.0         0.77         73.9 
      3039.0         0.60         73.1 
      3040.0         0.73         68.0 
      3041.0         0.92         67.5 
      3042.0         0.93         76.0 
      3043.0         1.03         76.4 
      3044.0         1.03         81.5 
      3045.0         0.95         82.2 
      3046.0         0.90         69.8 
      3047.0         0.93         53.4 
      3048.0         1.02         54.2 
      3049.0         1.03         55.2 
      3050.0         1.13         51.1 
      3051.0         1.12         38.7 
      3052.0         1.03         27.3 
      3053.0         0.97         23.4 
      3054.0         0.93         21.2 
