~Version Information
VERS.                      2.0: CWLS Log ASCII Standard - VERSION 2.0
WRAP.                       NO: One line per depth step
~Well Information Block
STRT.FT              1727.9000: 
STOP.FT              1961.0000: 
STEP.FT                 0.1000: 
NULL.                -999.2500: 
COMP.          Petrogulf Corporation: COMPANY
WELL.              Royal 8-33R: WELL
FLD.           Purgatorie River: FIELD
LOC.           2401' FSL & 2270' FEL: LOCATION
CNTY.               Las Animas: COUNTY
SRVC.                         : SERVICE COMPANY
DATE.          Mon Apr 26 06:57:24 2004: LOG DATE
UWI.           05 071 08041 00: UNIQUE WELL ID
STAT.                 Colorado: STATE
~Curve Information Block
DEPT.FT            0 000 00 00: Depth
DCAL.in                       : CDL Caliper
RHOB.g/cc                     : CDL Bulk Density
RHOC.g/cc                     : CDL Density Correction
DPOR.pu                       : CDL Density Porosity
GR.GAPI                       : Gamma Ray
~Parameter Information Block
~A  Depth       DCAL        RHOB        RHOC        DPOR         GR     
# ...
  1750.3000      8.0080      2.4397      0.1149     12.7474    166.3140
  1750.4000      8.0080      2.4561      0.0638     11.7533    171.4391
  1750.5000      7.9027      2.4704      0.1013     10.8865    172.7995
  1750.6000      7.9027      2.4931      0.2235      9.5106    172.7544
  1750.7000      7.9027      2.5200      0.2378      7.8814    165.2536
  1750.8000      7.8867      2.5479      0.2075      6.1861    151.2834
  1750.9000      7.8867      2.5674      0.2235      5.0074    143.6493
  1751.0000      7.8807      2.5589      0.2157      5.5213    147.3341
  1751.1000      7.8807      2.5160      0.2281      8.1188    156.8248
  1751.2000      7.8807      2.4666      0.1194     11.1154    164.4866
  1751.3000      7.8845      2.4426      0.0931     12.5717    163.0311
  1751.4000      7.8845      2.4340      0.1726     13.0936    152.6246
  1751.5000      7.9105      2.4276      0.0445     13.4763    143.3798
  1751.6000      7.9105      2.4369      0.1283     12.9128    147.4608
  1751.7000      7.9105      2.4576      0.1299     11.6586    159.5709
  1751.8000      7.9587      2.4688      0.1376     10.9821    164.1265
  1751.9000      7.9587      2.4676      0.1536     11.0538    163.3976
  1752.0000      7.9176      2.4604      0.1883     11.4890    160.3957
  1752.1000      7.9176      2.4476      0.1495     12.2671    144.4523
  1752.2000      7.9176      2.4377      0.0968     12.8663    126.0711
  1752.3000      7.9217      2.4462      0.1599     12.3539    129.0065
  1752.4000      7.9217      2.4793      0.1104     10.3431    146.8005
  1752.5000      7.9348      2.5197      0.2708      7.8993    152.1976
  1752.6000      7.9348      2.5331      0.2636      7.0825    142.0983
  1752.7000      7.9348      2.5151      0.2252      8.1775    134.2135
  1752.8000      7.9197      2.4935      0.1175      9.4876    136.4065
  1752.9000      7.9197      2.5035      0.1324      8.8789    143.2377
  1753.0000      7.9003      2.5518      0.2079      5.9529    146.9887
  1753.1000      7.9003      2.6026      0.3182      2.8728    145.5193
  1753.2000      7.9003      2.6199      0.3114      1.8268    144.5752
  1753.3000      7.9408      2.5973      0.3084      3.1943    148.2987
  1753.4000      7.9408      2.5471      0.2550      6.2388    150.7767
  1753.5000      7.9399      2.5015      0.0576      9.0015    154.5092
  1753.6000      7.9399      2.4942      0.1253      9.4436    161.7024
  1753.7000      7.9399      2.5068      0.1468      8.6768    163.6647
  1753.8000      7.9707      2.4987      0.1356      9.1727    158.4401
  1753.9000      7.9707      2.4598      0.1050     11.5294    146.2395
  1754.0000      7.8950      2.4172      0.0329     14.1095    133.4432
  1754.1000      7.8950      2.4094      0.0162     14.5800    130.8379
  1754.2000      7.8950      2.4376      0.1019     12.8744    134.7655
  1754.3000      7.8779      2.4736      0.0824     10.6888    139.6759
  1754.4000      7.8779      2.5132      0.0660      8.2884    143.0322
  1754.5000      7.8689      2.5559      0.2576      5.7001    141.8027
  1754.6000      7.8689      2.5810      0.2667      4.1805    142.4568
  1754.7000      7.8689      2.5844      0.2329      3.9757    154.5951
  1754.8000      7.8687      2.5795      0.1782      4.2740    167.7837
  1754.9000      7.8687      2.5685      0.1638      4.9406    160.5538
  1755.0000      7.8471      2.5395      0.1657      6.6976    138.8108
  1755.1000      7.8471      2.4867      0.1349      9.8943    124.8614
  1755.2000      7.8471      2.4323      0.0750     13.1911    125.3023
  1755.3000      7.8462      2.4154      0.0212     14.2206    129.8247
  1755.4000      7.8462      2.4492      0.0517     12.1692    130.4079
  1755.5000      7.8900      2.4966      0.1674      9.2948    132.0457
  1755.6000      7.8900      2.5190      0.1842      7.9419    133.6788
  1755.7000      7.8900      2.5176      0.1491      8.0237    131.7099
  1755.8000      7.9670      2.5043      0.1647      8.8274    132.6073
  1755.9000      7.9670      2.4829      0.1313     10.1300    141.0342
  1756.0000      8.0980      2.4684      0.1925     11.0037    152.6623
  1756.1000      8.0980      2.4732      0.2776     10.7126    164.4401
  1756.2000      8.0980      2.4780      0.2309     10.4232    170.7148
  1756.3000      8.2203      2.4728      0.1366     10.7375    161.3191
  1756.4000      8.2203      2.4838      0.1252     10.0722    141.6805
  1756.5000      8.2387      2.5090      0.2000      8.5482    129.8147
  1756.6000      8.2387      2.4952      0.2754      9.3814    133.3849
  1756.7000      8.2387      2.4215      0.2159     13.8460    143.0166
  1756.8000      7.9548      2.3248      0.2275     19.7118    148.2569
  1756.9000      7.9548      2.2189      0.2027     26.1286    145.5499
  1757.0000      7.8894      2.0776      0.1469     34.6927    135.7489
  1757.1000      7.8894      1.8927      0.0701     45.8962    131.4993
  1757.2000      7.8894      1.7186     -0.0067     56.4512    139.9422
  1757.3000      7.8802      1.6411     -0.0157     61.1450    149.6915
  1757.4000      7.8802      1.6821      0.0848     58.6582    148.4273
  1757.5000      7.7884      1.7837      0.2116     52.5004    141.4442
  1757.6000      7.7884      1.8902      0.2994     46.0503    141.0345
  1757.7000      7.7884      1.9820      0.5594     40.4865    152.1723
  1757.8000      7.7642      2.0493      0.5749     36.4066    163.3900
  1757.9000      7.7642      2.0852      0.5653     34.2281    160.8006
  1758.0000      7.8333      2.0995      0.5117     33.3655    150.1093
  1758.1000      7.8333      2.1324      0.4719     31.3679    143.0553
  1758.2000      7.8333      2.2157      0.5524     26.3205    142.9791
  1758.3000      8.2227      2.3246      0.6730     19.7214    145.9289
  1758.4000      8.2227      2.4137      0.6618     14.3211    152.4619
  1758.5000      8.4107      2.4695      0.6409     10.9370    166.5714
  1758.6000      8.4107      2.5031      0.6732      8.9003    179.2113
  1758.7000      8.4107      2.5367      0.5601      6.8653    180.0867
  1758.8000      8.6424      2.5932      0.5633      3.4396    171.9475
  1758.9000      8.6424      2.6557      0.5564     -0.3480    158.0550
  1759.0000      8.6338      2.6744      0.5173     -1.4803    137.9680
  1759.1000      8.6338      2.6295      0.4162      1.2402    123.3287
  1759.2000      8.6338      2.5446      0.4346      6.3881    123.1549
  1759.3000      8.2306      2.4368      0.4007     12.9195    127.1514
  1759.4000      8.2306      2.3232      0.1412     19.8068    129.6539
  1759.5000      8.0463      2.2352      0.1082     25.1389    134.3737
  1759.6000      8.0463      2.1698      0.0682     29.1041    139.7701
  1759.7000      8.0463      2.0997      0.0642     33.3519    141.4675
  1759.8000      8.0011      2.0294      0.0398     37.6117    143.3842
  1759.9000      8.0011      2.0011      0.0120     39.3266    147.9944
  1760.0000      7.8894      2.0369      0.2826     37.1586    153.5490
  1760.1000      7.8894      2.1007      0.4860     33.2903    161.4205
  1760.2000      7.8894      2.1690      0.5580     29.1523    161.5981
  1760.3000      7.9107      2.2733      0.5755     22.8292    145.2771
  1760.4000      7.9107      2.4209      0.6948     13.8876    126.4630
  1760.5000      7.8911      2.5583      0.7993      5.5588    118.0270
  1760.6000      7.8911      2.6447      0.8345      0.3208    117.0979
  1760.7000      7.8911      2.6687      0.8594     -1.1317    117.6736
  1760.8000      7.8630      2.6131      0.8055      2.2363    116.1312
  1760.9000      7.8630      2.4717      0.6096     10.8052    114.3282
  1761.0000      8.0122      2.2863      0.2799     22.0422    118.5093
  1761.1000      8.0122      2.1383      0.0922     31.0151    130.0257
  1761.2000      8.0122      2.0871      0.0517     34.1145    141.4079
  1761.3000      8.0999      2.1241      0.0762     31.8714    143.6231
  1761.4000      8.0999      2.1912      0.1798     27.8051    139.3050
