~Version Information
VERS.                      2.0: CWLS Log ASCII Standard - VERSION 2.0
WRAP.                       NO: One line per depth step
~Well Information Block
STRT.FT               230.0000: 
STOP.FT              1527.0000: 
STEP.FT                 0.1000: 
NULL.                -999.2500: 
COMP.          Pioneer Natural Resources: COMPANY
WELL.              Border 21-3: WELL
FLD.           Purgatorie River: FIELD
LOC.           865' FNL & 1415' FWL: LOCATION
PROV.                 Colorado: PROVINCE
CNTY.               Las Animas: COUNTRY
SRVC.                         : SERVICE COMPANY
DATE.          Thu Dec 09 16:57:34 2004: LOG DATE
UWI.           05 071 08169 00: UNIQUE WELL ID
~Curve Information Block
DEPT.FT            0 000 00 00: Depth
LTEN.lb                       : Surface Line Tension
DCAL.in                       : CDL Caliper
RHOB.g/cc                     : CDL Bulk Density
RHOC.g/cc                     : CDL Density Correction
DPOR.pu                       : CDL Density Porosity
GR.GAPI                       : Gamma Ray
NPOR.pu                       : Neutron Porosity
~Parameter Information Block
~A  Depth       LTEN        DCAL        RHOB        RHOC        DPOR         GR         NPOR    
   230.0000    594.4998      2.6784      2.3243      0.3631     19.7411     55.6745     16.6009
   230.1000    594.4998      2.6784      2.3327      0.3690     19.2330     55.7666     17.3806
   230.2000    594.4998      2.6784      2.3349      0.3568     19.0970     58.9552     18.6875
   230.3000    593.5420      2.6756      2.3384      0.3728     18.8873     62.4019     19.2470
   230.4000    593.5420      2.6756      2.3462      0.3728     18.4121     63.6165     18.8382
   230.5000    594.8384      2.6741      2.3529      0.3784     18.0051     63.3656     18.1460
   230.6000    594.8384      2.6741      2.3519      0.3862     18.0642     63.5714     17.3842
   230.7000    594.8384      2.6741      2.3462      0.3766     18.4125     62.2966     17.1798
   230.8000    595.9392      2.6695      2.3402      0.3983     18.7778     57.6743     17.7895
   230.9000    595.9392      2.6695      2.3344      0.3364     19.1259     50.5519     18.1807
   231.0000    591.8406      2.6757      2.3280      0.3699     19.5135     45.3438     17.7860
   231.1000    591.8406      2.6757      2.3147      0.3642     20.3208     45.4545     17.2430
   231.2000    591.8406      2.6757      2.2929      0.3423     21.6437     49.9035     17.2958
   231.3000    600.6727      2.6722      2.2675      0.3598     23.1802     57.1240     17.3967
   231.4000    600.6727      2.6722      2.2416      0.3460     24.7535     63.0371     16.6248
   231.5000    596.9161      2.6771      2.2180      0.3457     26.1848     62.5805     15.7255
   231.6000    596.9161      2.6771      2.1987      0.3244     27.3505     59.7049     15.8779
   231.7000    596.9161      2.6771      2.1854      0.3026     28.1578     61.3160     16.7632
   231.8000    597.3043      2.6783      2.1814      0.2935     28.3970     65.4212     17.3337
   231.9000    597.3043      2.6783      2.1866      0.3263     28.0878     67.5465     17.4867
   232.0000    604.2323      2.6841      2.1969      0.3136     27.4591     69.5881     17.8723
   232.1000    604.2323      2.6841      2.2129      0.3232     26.4890     73.6826     18.0698
   232.2000    604.2323      2.6841      2.2307      0.3463     25.4096     78.0205     17.4659
   232.3000    597.5359      2.6791      2.2431      0.3575     24.6611     81.2144     16.9090
   232.4000    597.5359      2.6791      2.2516      0.3446     24.1481     83.2847     17.3721
   232.5000    598.3237      2.6780      2.2564      0.3724     23.8547     85.7441     18.5869
   232.6000    598.3237      2.6780      2.2545      0.3416     23.9697     90.3540     19.4174
   232.7000    598.3237      2.6780      2.2538      0.3349     24.0106     93.8899     19.8142
   232.8000    598.6923      2.6763      2.2614      0.3650     23.5498     92.3365     20.4945
   232.9000    598.6923      2.6763      2.2695      0.3630     23.0635     90.3630     21.0799
   233.0000    591.8717      2.6807      2.2657      0.3544     23.2909     94.2447     20.9979
   233.1000    591.8717      2.6807      2.2403      0.3826     24.8293    102.4937     20.6242
   233.2000    591.8717      2.6807      2.1947      0.3056     27.5952    112.6003     20.7183
   233.3000    594.4540      2.6746      2.1551      0.2508     29.9944    122.8745     21.7546
   233.4000    594.4540      2.6746      2.1424      0.2961     30.7633    129.1566     23.3768
   233.5000    595.9070      2.6856      2.1461      0.3098     30.5413    130.1973     24.6712
   233.6000    595.9070      2.6856      2.1522      0.2827     30.1680    130.5457     24.9451
   233.7000    595.9070      2.6856      2.1557      0.3202     29.9557    132.6647     24.4692
   233.8000    595.2279      2.6833      2.1510      0.3240     30.2407    134.3407     24.1951
   233.9000    595.2279      2.6833      2.1402      0.3067     30.8946    133.0519     24.5653
   234.0000    597.2838      2.6878      2.1291      0.3169     31.5675    131.2629     25.4258
   234.1000    597.2838      2.6878      2.1190      0.2969     32.1796    134.1679     26.2522
   234.2000    597.2838      2.6878      2.1121      0.3021     32.5980    137.5985     26.8732
   234.3000    596.3262      2.6812      2.1131      0.3011     32.5378    136.5589     27.7592
   234.4000    596.3262      2.6812      2.1268      0.3019     31.7101    135.7109     28.4249
   234.5000    592.1047      2.6842      2.1492      0.3158     30.3532    136.8898     28.1032
   234.6000    592.1047      2.6842      2.1638      0.3413     29.4650    134.6676     27.1895
   234.7000    592.1047      2.6842      2.1600      0.3083     29.6966    127.3662     26.5980
   234.8000    598.7684      2.6888      2.1469      0.3119     30.4886    121.0317     27.0200
   234.9000    598.7684      2.6888      2.1386      0.3028     30.9922    121.3795     28.1493
   235.0000    598.1195      2.6858      2.1380      0.2961     31.0328    129.7389     28.8095
   235.1000    598.1195      2.6858      2.1407      0.3104     30.8652    140.6661     28.5531
   235.2000    598.1195      2.6858      2.1486      0.3025     30.3908    144.8575     27.7080
   235.3000    591.1132      2.6806      2.1671      0.3025     29.2661    137.9196     26.6755
   235.4000    591.1132      2.6806      2.1875      0.3469     28.0324    128.2656     25.9770
   235.5000    597.1918      2.6844      2.1952      0.3261     27.5658    128.2080     25.9494
   235.6000    597.1918      2.6844      2.1951      0.3210     27.5694    136.0955     26.4043
   235.7000    597.1918      2.6844      2.2017      0.3223     27.1673    141.9417     26.6182
   235.8000    592.6755      2.6800      2.2171      0.3360     26.2370    142.0568     26.3577
   235.9000    592.6755      2.6800      2.2341      0.3494     25.2082    137.1429     26.0275
   236.0000    597.4412      2.6787      2.2495      0.3451     24.2718    129.8967     25.7145
   236.1000    597.4412      2.6787      2.2603      0.3646     23.6164    124.5722     25.5928
   236.2000    597.4412      2.6787      2.2611      0.3438     23.5711    125.3504     26.0338
   236.3000    601.0285      2.6863      2.2548      0.3317     23.9501    132.6217     26.9214
   236.4000    601.0285      2.6863      2.2534      0.3313     24.0359    140.9584     27.6198
   236.5000    597.4884      2.6865      2.2644      0.3370     23.3724    145.4039     27.7581
   236.6000    597.4884      2.6865      2.2821      0.3651     22.2943    143.2667     27.5179
   236.7000    597.4884      2.6865      2.2953      0.3688     21.4964    134.6469     26.9556
   236.8000    597.0232      2.6862      2.2943      0.3737     21.5563    125.5932     26.0691
   236.9000    597.0232      2.6862      2.2744      0.3663     22.7638    125.3357     25.2957
   237.0000    596.9753      2.6752      2.2473      0.3177     24.4057    133.0553     25.1556
   237.1000    596.9753      2.6752      2.2313      0.3299     25.3763    136.5253     25.4791
   237.2000    596.9753      2.6752      2.2256      0.3315     25.7229    132.2887     25.7512
   237.3000    592.7851      2.6777      2.2212      0.3408     25.9875    128.5812     25.7639
   237.4000    592.7851      2.6777      2.2177      0.3378     26.1992    128.3785     25.6394
   237.5000    595.1501      2.6783      2.2178      0.3401     26.1950    123.3162     25.4726
   237.6000    595.1501      2.6783      2.2195      0.3541     26.0880    113.3143     25.3936
   237.7000    595.1501      2.6783      2.2173      0.3289     26.2273    113.0404     25.6767
   237.8000    599.6826      2.6777      2.2081      0.3290     26.7795    122.8235     26.2556
   237.9000    599.6826      2.6777      2.1961      0.3179     27.5120    131.9321     26.5058
   238.0000    594.3647      2.6736      2.1932      0.3065     27.6862    138.3521     25.9763
   238.1000    594.3647      2.6736      2.2044      0.3279     27.0055    140.3531     25.1687
   238.2000    594.3647      2.6736      2.2170      0.3581     26.2421    135.7276     24.8836
   238.3000    600.1172      2.6770      2.2251      0.3268     25.7513    129.6909     25.2145
