~Version Information
VERS.                      2.0: CWLS Log ASCII Standard - VERSION 2.0
WRAP.                       NO: One line per depth step
~Well Information Block
STRT.FT               -10.3000: 
STOP.FT              1936.7000: 
STEP.FT                 0.1000: 
NULL.                -999.2500: 
COMP.          Petrogulf Corporation: COMPANY
WELL.              Graff 9-31R: WELL
FLD.           Purgatorie River: FIELD
LOC.           707' FNL & 1713' FEL------: LOCATION
CNTY.               Las Animas: COUNTY
SRVC.                         : SERVICE COMPANY
DATE.          Wed Nov 17 13:41:51 2004: LOG DATE
UWI.                          : UNIQUE WELL ID
STAT.                       CO: STATE
~Curve Information Block
DEPT.FT            0 000 00 00: Depth
GR.GAPI                       : Gamma Ray
CCL.                          : Casing Collar Locator
TT3.usec                      : CBL 3' Travel Time
AMP3.mV                       : CBL 3' Amplitude
~Parameter Information Block
~A  Depth        GR         CCL         TT3         AMP3    
# ...
  1021.5000    112.9854      0.0000    758.5009     11.6995
  1021.6000    112.9854      0.0000    758.5009     11.6995
  1021.7000    112.9854      0.0000    758.5009     11.6995
  1021.8000    114.6415      0.0000    755.8755     11.7675
  1021.9000    114.6415      0.0000    755.8755     11.7675
  1022.0000    120.0959      0.0000    754.8123     11.7302
  1022.1000    120.0959      0.0000    754.8123     11.7302
  1022.2000    120.0959      0.0000    754.8123     11.7302
  1022.3000    127.1659      0.0000    754.8552     11.6501
  1022.4000    127.1659      0.0000    754.8552     11.6501
  1022.5000    133.2322      0.0000    756.0206     11.5904
  1022.6000    133.2322      0.0000    756.0206     11.5904
  1022.7000    133.2322      0.0000    756.0206     11.5904
  1022.8000    136.7091      0.0000    758.7589     11.5758
  1022.9000    136.7091      0.0000    758.7589     11.5758
  1023.0000    137.5817      0.0000    763.3481     11.6008
  1023.1000    137.5817      0.0000    763.3481     11.6008
  1023.2000    137.5817      0.0000    763.3481     11.6008
  1023.3000    136.7251      0.0000    769.1008     11.6730
  1023.4000    136.7251      0.0000    769.1008     11.6730
  1023.5000    134.8366      0.0000    774.4688     11.8359
  1023.6000    134.8366      0.0000    774.4688     11.8359
  1023.7000    134.8366      0.0000    774.4688     11.8359
  1023.8000    131.9910      0.0000    778.6081     12.1410
  1023.9000    131.9910      0.0000    778.6081     12.1410
  1024.0000    128.0124      0.0000    782.7226     12.5940
  1024.1000    128.0124      0.0000    782.7226     12.5940
  1024.2000    128.0124      0.0000    782.7226     12.5940
  1024.3000    123.2406      0.0000    788.9296     13.1298
  1024.4000    123.2406      0.0000    788.9296     13.1298
  1024.5000    119.0727      0.0000    797.6938     13.6403
  1024.6000    119.0727      0.0000    797.6938     13.6403
  1024.7000    119.0727      0.0000    797.6938     13.6403
  1024.8000    117.4818      0.0000    807.3685     14.0382
  1024.9000    117.4818      0.0000    807.3685     14.0382
  1025.0000    119.4185      0.0000    816.3646     14.3057
  1025.1000    119.4185      0.0000    816.3646     14.3057
  1025.2000    119.4185      0.0000    816.3646     14.3057
  1025.3000    123.5522      0.0000    824.5692     14.4839
  1025.4000    123.5522      0.0000    824.5692     14.4839
  1025.5000    126.8859      0.0000    832.1202     14.6155
  1025.6000    126.8859      0.0000    832.1202     14.6155
  1025.7000    126.8859      0.0000    832.1202     14.6155
  1025.8000    126.8020      0.0000    837.7148     14.7056
  1025.9000    126.8020      0.0000    837.7148     14.7056
  1026.0000    122.6868      0.0000    838.8366     14.7410
  1026.1000    122.6868      0.0000    838.8366     14.7410
  1026.2000    122.6868      0.0000    838.8366     14.7410
  1026.3000    115.9445      0.0000    833.5794     14.7268
  1026.4000    115.9445      0.0000    833.5794     14.7268
  1026.5000    108.7447      0.0000    822.0419     14.6847
  1026.6000    108.7447      0.0000    822.0419     14.6847
  1026.7000    108.7447      0.0000    822.0419     14.6847
  1026.8000    102.8169      0.0000    806.1872     14.6259
  1026.9000    102.8169      0.0000    806.1872     14.6259
  1027.0000     99.1627      0.0000    789.1909     14.5503
  1027.1000     99.1627      0.0000    789.1909     14.5503
  1027.2000     99.1627      0.0000    789.1909     14.5503
  1027.3000     98.2490      0.0000    775.3786     14.4722
  1027.4000     98.2490      0.0000    775.3786     14.4722
  1027.5000     99.9356      0.0000    769.2726     14.4369
  1027.6000     99.9356      0.0000    769.2726     14.4369
  1027.7000     99.9356      0.0000    769.2726     14.4369
  1027.8000    103.3985      0.0000    772.6742     14.5015
  1027.9000    103.3985      0.0000    772.6742     14.5015
  1028.0000    107.6728      0.0000    783.0186     14.6994
  1028.1000    107.6728      0.0000    783.0186     14.6994
  1028.2000    107.6728      0.0000    783.0186     14.6994
  1028.3000    112.3042      0.0000    795.6846     15.0303
  1028.4000    112.3042      0.0000    795.6846     15.0303
  1028.5000    117.1173      0.0000    806.9954     15.4959
  1028.6000    117.1173      0.0000    806.9954     15.4959
  1028.7000    117.1173      0.0000    806.9954     15.4959
  1028.8000    121.4755      0.0000    814.2318     16.1330
  1028.9000    121.4755      0.0000    814.2318     16.1330
  1029.0000    124.4114      0.0000    814.8782     16.9773
  1029.1000    124.4114      0.0000    814.8782     16.9773
  1029.2000    124.4114      0.0000    814.8782     16.9773
  1029.3000    125.7640      0.0000    808.4078     17.9733
  1029.4000    125.7640      0.0000    808.4078     17.9733
  1029.5000    126.5980      0.0000    798.2289     18.9474
  1029.6000    126.5980      0.0000    798.2289     18.9474
  1029.7000    126.5980      0.0000    798.2289     18.9474
  1029.8000    128.0200      0.0000    789.7595     19.7146
  1029.9000    128.0200      0.0000    789.7595     19.7146
  1030.0000    129.9685      0.0000    786.4097     20.2173
  1030.1000    129.9685      0.0000    786.4097     20.2173
  1030.2000    129.9685      0.0000    786.4097     20.2173
  1030.3000    131.5209      0.0000    788.4105     20.5403
  1030.4000    131.5209      0.0000    788.4105     20.5403
  1030.5000    131.8686      0.0000    794.5314     20.7949
  1030.6000    131.8686      0.0000    794.5314     20.7949
  1030.7000    131.8686      0.0000    794.5314     20.7949
  1030.8000    130.6433      0.0000    803.0586     21.0070
  1030.9000    130.6433      0.0000    803.0586     21.0070
  1031.0000    127.8760      0.0000    811.6997     21.1107
  1031.1000    127.8760      0.0000    811.6997     21.1107
  1031.2000    127.8760      0.0000    811.6997     21.1107
  1031.3000    124.2432      0.0000    818.7021     21.0133
  1031.4000    124.2432      0.0000    818.7021     21.0133
  1031.5000    121.2496      0.0000    824.4210     20.6419
  1031.6000    121.2496      0.0000    824.4210     20.6419
  1031.7000    121.2496      0.0000    824.4210     20.6419
  1031.8000    120.6197      0.0000    830.6454     19.9458
  1031.9000    120.6197      0.0000    830.6454     19.9458
  1032.0000    123.0421      0.0000    838.2628     18.9161
  1032.1000    123.0421      0.0000    838.2628     18.9161
  1032.2000    123.0421      0.0000    838.2628     18.9161
  1032.3000    127.4795      0.0000    846.1240     17.6581
  1032.4000    127.4795      0.0000    846.1240     17.6581
  1032.5000    132.0776      0.0000    851.9172     16.4228
  1032.6000    132.0776      0.0000    851.9172     16.4228
  1032.7000    132.0776      0.0000    851.9172     16.4228
  1032.8000    135.7776      0.0000    854.0710     15.4848
  1032.9000    135.7776      0.0000    854.0710     15.4848
  1033.0000    138.6592      0.0000    853.6198     14.9411
  1033.1000    138.6592      0.0000    853.6198     14.9411
  1033.2000    138.6592      0.0000    853.6198     14.9411
  1033.3000    140.7068      0.0000    854.3163     14.6437
  1033.4000    140.7068      0.0000    854.3163     14.6437
  1033.5000    140.8169      0.0000    859.7861     14.3569
  1033.6000    140.8169      0.0000    859.7861     14.3569
  1033.7000    140.8169      0.0000    859.7861     14.3569
  1033.8000    137.4934      0.0000    869.9260     13.9714
  1033.9000    137.4934      0.0000    869.9260     13.9714
  1034.0000    130.7029      0.0000    880.6003     13.5602
  1034.1000    130.7029      0.0000    880.6003     13.5602
  1034.2000    130.7029      0.0000    880.6003     13.5602
  1034.3000    122.8891      0.0000    886.9506     13.2697
  1034.4000    122.8891      0.0000    886.9506     13.2697
  1034.5000    117.5648      0.0000    886.1627     13.2098
  1034.6000    117.5648      0.0000    886.1627     13.2098
  1034.7000    117.5648      0.0000    886.1627     13.2098
  1034.8000    116.5052      0.0000    877.3162     13.4335
