~Version Information
VERS.                      2.0: CWLS Log ASCII Standard - VERSION 2.0
WRAP.                       NO: One line per depth step
~Well Information Block
STRT.FT               240.0000: 
STOP.FT              1452.5000: 
STEP.FT                 0.1000: 
NULL.                -999.2500: 
COMP.          Petrogulf Corporation: COMPANY
WELL.          Robinson 15-12R: WELL
FLD.           Purgatorie River: FIELD
LOC.           1752' FNL & 561' FWL: LOCATION
PROV.                 Colorado: PROVINCE
CNTY.               Las Animas: COUNTRY
SRVC.                Patterson: SERVICE COMPANY
DATE.          Tue Sep 13 15:07:52 2005: LOG DATE
UWI.                          : UNIQUE WELL ID
~Curve Information Block
DEPT.FT            0 000 00 00: Depth
DCAL.in                       : CDL Caliper
RHOB.g/cc                     : CDL Bulk Density
RHOC.g/cc                     : CDL Density Correction
DPOR.pu                       : CDL Density Porosity
GR.GAPI                       : Gamma Ray
NPOR.pu                       : Neutron Porosity
~Parameter Information Block
~A  Depth       DCAL        RHOB        RHOC        DPOR         GR         NPOR    
# ...
   556.8000      8.1162      2.2618      0.0497     23.5274    146.3449     25.2823
   556.9000      8.1162      2.2700      0.0575     23.0276    141.8611     25.6385
   557.0000      8.0365      2.2964      0.0933     21.4328    139.9351     26.1353
   557.1000      8.0365      2.3306      0.1267     19.3558    136.1676     26.2895
   557.2000      8.0365      2.3677      0.1569     17.1075    130.7788     26.3021
   557.3000      7.9863      2.4083      0.1877     14.6469    128.8964     26.4990
   557.4000      7.9863      2.4530      0.2268     11.9415    129.9508     26.6219
   557.5000      8.0031      2.4954      0.2624      9.3722    130.1897     26.5763
   557.6000      8.0031      2.5278      0.1716      7.4054    128.6712     26.5770
   557.7000      8.0031      2.5517      0.1326      5.9571    124.0830     26.4623
   557.8000      8.0064      2.5739      0.1091      4.6128    117.4832     25.9915
   557.9000      8.0064      2.6041      0.0836      2.7809    113.2777     25.3182
   558.0000      8.0077      2.6544      0.0994     -0.2663    112.0012     24.6932
   558.1000      8.0077      2.7213      0.1099     -4.3236    109.6361     24.4458
   558.2000      8.0077      2.7877      0.1089     -8.3453    104.5474     24.5995
   558.3000      8.0089      2.8484      0.1071    -12.0228     98.4986     24.3614
   558.4000      8.0089      2.9046      0.1296    -15.4282     92.8275     23.3601
   558.5000      8.0028      2.9429      0.1009    -17.7538     88.3889     22.1767
   558.6000      8.0028      2.9469      0.0971    -17.9943     85.5625     21.2358
   558.7000      8.0028      2.9128      0.0731    -15.9276     85.6021     20.4688
   558.8000      7.9996      2.8526      0.0375    -12.2779     88.4439     19.6661
   558.9000      7.9996      2.7854     -0.0034     -8.2046     91.3230     18.8233
   559.0000      7.9381      2.7197     -0.0416     -4.2236     92.9762     18.2438
   559.1000      7.9381      2.6494     -0.0886      0.0386     96.6719     18.2699
   559.2000      7.9381      2.5770     -0.1044      4.4218    104.2156     18.8070
   559.3000      7.9293      2.5249     -0.0774      7.5792    112.6720     19.4646
   559.4000      7.9293      2.5089     -0.0778      8.5542    118.8693     20.0394
   559.5000      7.9399      2.5161      0.0656      8.1124    123.0131     20.5764
   559.6000      7.9399      2.5227      0.0827      7.7176    128.2052     21.3185
   559.7000      7.9399      2.5225      0.1225      7.7289    135.0995     22.1818
   559.8000      7.9390      2.5167      0.1527      8.0817    140.1580     22.6757
   559.9000      7.9390      2.5002      0.1232      9.0810    139.6885     22.8865
   560.0000      8.0123      2.4854      0.0440      9.9761    137.5172     23.4712
   560.1000      8.0123      2.4912      0.0789      9.6260    138.7401     24.5477
   560.2000      8.0123      2.5067      0.0912      8.6819    141.0582     25.4714
   560.3000      8.0933      2.5195      0.0586      7.9101    143.2695     25.8528
   560.4000      8.0933      2.5339      0.0939      7.0355    145.5017     25.9505
   560.5000      8.1029      2.5491      0.1157      6.1176    146.2304     26.0222
   560.6000      8.1029      2.5704      0.0624      4.8226    145.0820     25.8667
   560.7000      8.1029      2.6092      0.1280      2.4746    142.1120     25.1204
   560.8000      8.0515      2.6445      0.1518      0.3309    138.6130     24.1589
   560.9000      8.0515      2.6451      0.1058      0.2994    135.7116     23.5746
   561.0000      8.0038      2.6132      0.0983      2.2325    134.1587     23.0252
   561.1000      8.0038      2.5748      0.0620      4.5556    134.0726     22.0367
   561.2000      8.0038      2.5531      0.0194      5.8757    134.3306     20.9883
   561.3000      8.0068      2.5504      0.0420      6.0384    134.4017     20.4437
   561.4000      8.0068      2.5433      0.0684      6.4685    134.7726     20.3431
   561.5000      8.0186      2.5090      0.0280      8.5476    136.3290     20.2890
   561.6000      8.0186      2.4501     -0.0076     12.1159    136.9329     19.9848
   561.7000      8.0186      2.3815     -0.0458     16.2732    134.1229     19.3693
   561.8000      8.0199      2.3074     -0.0116     20.7613    131.5049     18.9746
   561.9000      8.0199      2.2209     -0.0538     26.0050    130.4421     19.5438
   562.0000      8.0485      2.1204     -0.0528     32.0962    127.4758     20.8339
   562.1000      8.0485      2.0103     -0.0880     38.7691    122.8947     22.0276
   562.2000      8.0485      1.8977     -0.0903     45.5920    118.3284     23.0292
   562.3000      8.0621      1.7850     -0.0019     52.4222    112.5781     23.9727
   562.4000      8.0621      1.6685     -0.0120     59.4865    106.2218     24.7298
   562.5000      8.1337      1.5624     -0.0582     65.9177     99.9977     25.4111
   562.6000      8.1337      1.4921     -0.0393     70.1734     93.1786     26.1748
   562.7000      8.1337      1.4744      0.0244     71.2491     89.8444     26.8879
   562.8000      8.2064      1.5201      0.0645     68.4773     93.9241     27.4113
   562.9000      8.2064      1.6230      0.1512     62.2414     99.3325     27.8618
   563.0000      8.2987      1.7521      0.2125     54.4189     99.6318     28.5036
   563.1000      8.2987      1.8855      0.2009     46.3328     97.3005     29.2418
   563.2000      8.2987      2.0241      0.2530     37.9356     97.0104     29.4790
   563.3000      8.3642      2.1616      0.2790     29.5982    100.3425     29.1012
   563.4000      8.3642      2.2827      0.2769     22.2603    104.1386     28.6891
   563.5000      8.2603      2.3806      0.2793     16.3301    105.0288     28.5276
   563.6000      8.2603      2.4625      0.1661     11.3614    104.3176     28.3939
   563.7000      8.2603      2.5351      0.1829      6.9661    104.3668     27.7858
   563.8000      8.2113      2.5825      0.1518      4.0912    105.7341     26.6508
   563.9000      8.2113      2.5909      0.1077      3.5832    108.5929     25.6461
   564.0000      8.0494      2.5729      0.0698      4.6734    111.8811     25.1267
   564.1000      8.0494      2.5508      0.0705      6.0151    112.4608     24.9074
   564.2000      8.0494      2.5400      0.0212      6.6687    110.4975     24.5813
   564.3000      8.0086      2.5455      0.0826      6.3344    109.8367     23.9636
   564.4000      8.0086      2.5632      0.0781      5.2635    110.3108     23.3808
   564.5000      7.9691      2.5870      0.0747      3.8183    111.1230     23.1805
   564.6000      7.9691      2.6057      0.0849      2.6867    113.2089     23.1064
   564.7000      7.9691      2.6131      0.0695      2.2388    113.9910     22.6692
   564.8000      7.9554      2.6148      0.0856      2.1334    110.9863     21.8196
   564.9000      7.9554      2.6180      0.0582      1.9411    104.9691     21.0841
   565.0000      7.9583      2.6277      0.0808      1.3523     97.5063     20.8135
   565.1000      7.9583      2.6374      0.0733      0.7645     90.2929     20.3950
   565.2000      7.9583      2.6386      0.0350      0.6934     84.8645     19.5739
   565.3000      7.9580      2.6314      0.0134      1.1256     82.4463     18.9523
   565.4000      7.9580      2.6164      0.0429      2.0380     83.5065     18.5084
   565.5000      7.9511      2.5981      0.0230      3.1477     85.9808     17.7743
   565.6000      7.9511      2.5894      0.0299      3.6724     86.9393     16.9219
   565.7000      7.9511      2.5957      0.0530      3.2887     84.7713     16.3918
   565.8000      7.9416      2.6124      0.0451      2.2802     80.0964     15.9779
   565.9000      7.9416      2.6311      0.0554      1.1452     75.5979     15.3906
   566.0000      7.9163      2.6312      0.1336      1.1411     72.0049     14.7301
   566.1000      7.9163      2.6055      0.0490      2.6965     68.4886     14.3117
   566.2000      7.9163      2.5834      0.0195      4.0343     66.4330     14.4102
   566.3000      7.9228      2.5908      0.0101      3.5894     68.2042     14.7371
