~Version Information
VERS.                      2.0: CWLS Log ASCII Standard - VERSION 2.0
WRAP.                       NO: One line per depth step
~Well Information Block
STRT.FT               472.0000: 
STOP.FT              2428.5000: 
STEP.FT                 0.1000: 
NULL.                -999.2500: 
COMP.          Pioneer Natural Resources: COMPANY
WELL.          Flying Horse 12-11: WELL
FLD.           Purgatoire River: FIELD
LOC.           2428' FNL & 308' FWL: LOCATION
PROV.                 Colorado: PROVINCE
CNTY.               Las Animas: COUNTRY
SRVC.                Patterson: SERVICE COMPANY
DATE.          Mon May 30 06:06:20 2005: LOG DATE
UWI.           05 071 08378 00: UNIQUE WELL ID
~Curve Information Block
DEPT.FT            0 000 00 00: Depth
DCAL.in                       : CDL Caliper
RHOB.g/cc                     : CDL Bulk Density
RHOC.g/cc                     : CDL Density Correction
DPOR.pu                       : CDL Density Porosity
GR.GAPI                       : Gamma Ray
NPOR.pu                       : Neutron Porosity
~Parameter Information Block
~A  Depth       DCAL        RHOB        RHOC        DPOR         GR         NPOR    
# ...
  2411.2000      7.8572      2.6036      0.1139      2.8151     27.9997     23.5262
  2411.3000      7.8413      2.6079      0.1126      2.5511      9.1179     23.0562
  2411.4000      7.8413      2.6108      0.1015      2.3769      1.6939     22.4973
  2411.5000      7.8358      2.6059      0.0813      2.6752      0.1725     22.4346
  2411.6000      7.8358      2.5816      0.0681      4.1483      0.0093     22.7618
  2411.7000      7.8358      2.5450      0.0234      6.3642      0.0000     22.9565
  2411.8000      7.8411      2.5305      0.0243      7.2399   -999.2500     22.9139
  2411.9000      7.8411      2.5506      0.0778      6.0255   -999.2500     22.6328
  2412.0000      7.8449      2.5782      0.0742      4.3525   -999.2500     22.1756
  2412.1000      7.8449      2.5881      0.0987      3.7503   -999.2500     21.7674
  2412.2000      7.8449      2.5877      0.0661      3.7728   -999.2500     21.5735
  2412.3000      7.8264      2.5937      0.0805      3.4135   -999.2500     21.7096
  2412.4000      7.8264      2.5966      0.0824      3.2366   -999.2500     22.2053
  2412.5000      7.8210      2.5838      0.0749      4.0127   -999.2500     22.7361
  2412.6000      7.8210      2.5692      0.0482      4.8955   -999.2500     22.8956
  2412.7000      7.8210      2.5706      0.0417      4.8131   -999.2500     22.8935
  2412.8000      7.8264      2.5779      0.0694      4.3706   -999.2500     22.8230
  2412.9000      7.8264      2.5684      0.0636      4.9471   -999.2500     22.4857
  2413.0000      7.8234      2.5393      0.0519      6.7079   -999.2500     22.2470
  2413.1000      7.8234      2.5119     -0.0023      8.3684   -999.2500     22.2161
  2413.2000      7.8234      2.5100     -0.0066      8.4873   -999.2500     21.8000
  2413.3000      7.8285      2.5308      0.0504      7.2213   -999.2500     20.7801
  2413.4000      7.8285      2.5508      0.0623      6.0124   -999.2500     19.7143
  2413.5000      7.8279      2.5516      0.0575      5.9610   -999.2500     19.5491
  2413.6000      7.8279      2.5354      0.0180      6.9440   -999.2500     21.7396
  2413.7000      7.8279      2.5235      0.0299      7.6660   -999.2500     28.7568
  2413.8000      7.8333      2.5360      0.0107      6.9088   -999.2500     39.6372
  2413.9000      7.8333      2.5726      0.0962      4.6938   -999.2500     47.5410
  2414.0000      7.8047      2.6170      0.1010      1.9986   -999.2500     50.4054
  2414.1000      7.8047      2.6545      0.0966     -0.2704   -999.2500     50.9688
  2414.2000      7.8047      2.6778      0.0899     -1.6859   -999.2500     51.0287
  2414.3000      7.7978      2.6836      0.1089     -2.0366   -999.2500     51.0321
  2414.4000      7.7978      2.6678      0.0949     -1.0760   -999.2500   -999.2500
  2414.5000      7.8014      2.6374      0.1006      0.7622   -999.2500   -999.2500
  2414.6000      7.8014      2.6117      0.0649      2.3216   -999.2500   -999.2500
  2414.7000      7.8014      2.5965      0.1014      3.2418   -999.2500   -999.2500
  2414.8000      7.8383      2.5808      0.0301      4.1914   -999.2500   -999.2500
  2414.9000      7.8383      2.5664      0.0134      5.0685   -999.2500   -999.2500
  2415.0000      7.8444      2.5633      0.0325      5.2562   -999.2500   -999.2500
  2415.1000      7.8444      2.5686      0.0283      4.9307   -999.2500   -999.2500
  2415.2000      7.8444      2.5679      0.0314      4.9770   -999.2500   -999.2500
  2415.3000      7.8290      2.5560      0.0239      5.6999   -999.2500   -999.2500
  2415.4000      7.8290      2.5476      0.0127      6.2087   -999.2500   -999.2500
  2415.5000      7.8319      2.5479      0.0547      6.1850   -999.2500   -999.2500
  2415.6000      7.8319      2.5413      0.0766      6.5869   -999.2500   -999.2500
  2415.7000      7.8319      2.5230      0.0447      7.6990   -999.2500   -999.2500
  2415.8000      7.8341      2.5131      0.0412      8.2949   -999.2500   -999.2500
  2415.9000      7.8341      2.5265      0.0434      7.4864   -999.2500   -999.2500
  2416.0000      7.8266      2.5559      0.0859      5.7057   -999.2500   -999.2500
  2416.1000      7.8266      2.5882      0.1221      3.7425   -999.2500   -999.2500
  2416.2000      7.8266      2.6175      0.1630      1.9720   -999.2500   -999.2500
  2416.3000      7.8254      2.6439      0.1706      0.3692   -999.2500   -999.2500
  2416.4000      7.8254      2.6717      0.1709     -1.3162   -999.2500   -999.2500
  2416.5000      7.7679      2.6971      0.1896     -2.8523   -999.2500   -999.2500
  2416.6000      7.7679      2.7065      0.1552     -3.4262   -999.2500   -999.2500
  2416.7000      7.7679      2.6919      0.1626     -2.5384   -999.2500   -999.2500
  2416.8000      7.7627      2.6572      0.1473     -0.4382   -999.2500   -999.2500
  2416.9000      7.7627      2.6118      0.1118      2.3129   -999.2500   -999.2500
  2417.0000      7.7341      2.5631      0.0514      5.2679   -999.2500   -999.2500
  2417.1000      7.7341      2.5226     -0.0430      7.7241   -999.2500   -999.2500
  2417.2000      7.7341      2.4990     -0.0171      9.1498   -999.2500   -999.2500
  2417.3000      7.7951      2.4967     -0.0731      9.2934   -999.2500   -999.2500
  2417.4000      7.7951      2.5181     -0.0424      7.9960   -999.2500   -999.2500
  2417.5000      7.8353      2.5506      0.0382      6.0244   -999.2500   -999.2500
  2417.6000      7.8353      2.5756      0.0611      4.5090   -999.2500   -999.2500
  2417.7000      7.8353      2.5839      0.1090      4.0074   -999.2500   -999.2500
  2417.8000      7.8509      2.5817      0.0698      4.1421   -999.2500   -999.2500
  2417.9000      7.8509      2.5829      0.1081      4.0696   -999.2500   -999.2500
  2418.0000      7.8595      2.5908      0.0538      3.5895   -999.2500   -999.2500
  2418.1000      7.8595      2.6027      0.1015      2.8655   -999.2500   -999.2500
  2418.2000      7.8595      2.6062      0.1284      2.6530   -999.2500   -999.2500
  2418.3000      7.8489      2.5932      0.0590      3.4402   -999.2500   -999.2500
  2418.4000      7.8489      2.5817      0.0631      4.1367   -999.2500   -999.2500
  2418.5000      7.8323      2.5882      0.0680      3.7427   -999.2500   -999.2500
  2418.6000      7.8323      2.6053      0.0752      2.7070   -999.2500   -999.2500
  2418.7000      7.8323      2.6115      0.0741      2.3342   -999.2500   -999.2500
  2418.8000      7.8186      2.6008      0.0578      2.9846   -999.2500   -999.2500
  2418.9000      7.8186      2.5879      0.0687      3.7606   -999.2500   -999.2500
  2419.0000      7.8241      2.5736      0.0812      4.6276   -999.2500   -999.2500
  2419.1000      7.8241      2.5597     -0.0033      5.4725   -999.2500   -999.2500
  2419.2000      7.8241      2.5692      0.0290      4.8972   -999.2500   -999.2500
  2419.3000      7.8302      2.5956      0.0853      3.2943   -999.2500   -999.2500
  2419.4000      7.8302      2.6066      0.0685      2.6327   -999.2500   -999.2500
  2419.5000      7.8343      2.5943      0.0186      3.3731   -999.2500   -999.2500
  2419.6000      7.8343      2.5721      0.0275      4.7195   -999.2500   -999.2500
  2419.7000      7.8343      2.5498      0.0378      6.0732   -999.2500   -999.2500
  2419.8000      7.8329      2.5371      0.0137      6.8452   -999.2500   -999.2500
  2419.9000      7.8329      2.5415      0.0503      6.5782   -999.2500   -999.2500
  2420.0000      7.8364      2.5530      0.0612      5.8777   -999.2500   -999.2500
  2420.1000      7.8364      2.5559      0.0446      5.7010   -999.2500   -999.2500
  2420.2000      7.8364      2.5556      0.0455      5.7209   -999.2500   -999.2500
  2420.3000      7.8413      2.5622      0.0794      5.3210   -999.2500   -999.2500
  2420.4000      7.8413      2.5586      0.1202      5.5423   -999.2500   -999.2500
  2420.5000      7.8443      2.5330      0.0505      7.0889   -999.2500   -999.2500
  2420.6000      7.8443      2.5018      0.0863      8.9789   -999.2500   -999.2500
  2420.7000      7.8443      2.4697      0.0656     10.9251   -999.2500   -999.2500
