~Version Information
VERS.                      2.0: CWLS Log ASCII Standard - VERSION 2.0
WRAP.                       NO: One line per depth step
~Well Information Block
STRT.FT               679.2000: 
STOP.FT              2289.5000: 
STEP.FT                 0.1000: 
NULL.                -999.2500: 
COMP.          Petrogulf Corporation: COMPANY
WELL.          Anderson 18-43V: WELL
FLD.           Purgatorie River: FIELD
LOC.           1782' FSL & 887' FEL: LOCATION
CNTY.               Las Animas: COUNTY
SRVC.                         : SERVICE COMPANY
DATE.          Thu Sep 02 08:33:50 2004: LOG DATE
UWI.           05 071 08156 00: UNIQUE WELL ID
STAT.                 Colorado: STATE
~Curve Information Block
DEPT.FT            0 000 00 00: Depth
GR.GAPI                       : Gamma Ray
DCAL.in                       : CDL Caliper
DPOR.pu                       : CDL Density Porosity
NPOR.pu                       : Neutron Porosity
RHOB.g/cc                     : CDL Bulk Density
RHOC.g/cc                     : CDL Density Correction
~Parameter Information Block
~A  Depth        GR         DCAL        DPOR        NPOR        RHOB        RHOC    
# ...
  2167.2000     78.1988      8.3622     58.5912     33.0507      1.6832      0.0374
  2167.3000     76.7505      8.7210     49.0700     33.4424      1.8403      0.1428
  2167.4000     75.9190      8.7210     39.4847     33.3833      1.9985      0.2365
  2167.5000     75.6518      8.9618     32.1262     32.6627      2.1199      0.2982
  2167.6000     75.8776      8.9618     26.4363     31.8739      2.2138      0.2618
  2167.7000     76.5071      8.9618     21.1138     31.8118      2.3016      0.2984
  2167.8000     77.4372      8.6137     16.9800     32.1354      2.3698      0.2282
  2167.9000     78.5567      8.6137     15.0166     31.4847      2.4022      0.1064
  2168.0000     79.7568      7.8699     14.2510     29.7135      2.4149      0.0376
  2168.1000     80.9398      7.8699     13.6763     27.9754      2.4243      0.0773
  2168.2000     82.0286      7.8699     13.4029     26.9250      2.4289      0.0585
  2168.3000     82.9722      7.7457     13.4113     26.8211      2.4287      0.0533
  2168.4000     83.7483      7.7457     13.1286     27.5317      2.4334      0.0642
  2168.5000     84.3635      7.7337     11.9555     28.3204      2.4527      0.0411
  2168.6000     84.8466      7.7337     10.1504     28.6427      2.4825      0.0741
  2168.7000     85.2404      7.7337      8.9357     28.4292      2.5026      0.1265
  2168.8000     85.5924      7.7128      8.8024     27.9105      2.5048      0.0997
  2168.9000     85.9479      7.7128      8.8516     27.3486      2.5039      0.0894
  2169.0000     86.3448      7.7159      8.6219     27.0101      2.5077      0.1335
  2169.1000     86.8113      7.7159      8.6678     26.9107      2.5070      0.1113
  2169.2000     87.3663      7.7159      8.9674     27.0517      2.5020      0.0708
  2169.3000     88.0217      7.7570      9.0209     27.0761      2.5012      0.1268
  2169.4000     88.7835      7.7570      9.1786     26.5628      2.4986      0.1163
  2169.5000     89.6509      7.7624     10.1549     26.2188      2.4824      0.1177
  2169.6000     90.6151      7.7624     11.8167     26.4667      2.4550      0.0524
  2169.7000     91.6518      7.7624     12.8331     26.9234      2.4383      0.0295
  2169.8000     92.7169      7.7618     12.4740     27.5833      2.4442      0.0719
  2169.9000     93.7398      7.7618     11.8143     28.4876      2.4551      0.0785
  2170.0000     94.6245      7.7648     12.1113     29.3200      2.4502      0.0891
  2170.1000     95.2507      7.7648     13.6935     29.7460      2.4241      0.0728
  2170.2000     95.4837      7.7648     16.6497     29.5827      2.3753      0.0293
  2170.3000     95.1917      7.7615     21.4832     28.8184      2.2955      0.0337
  2170.4000     94.2615      7.7615     28.3897     28.0936      2.1816      0.0085
  2170.5000     92.6147      7.7611     36.1448     28.3616      2.0536     -0.0255
  2170.6000     90.2258      7.7611     43.3400     29.7220      1.9349     -0.0333
  2170.7000     87.1233      7.7611     50.5732     31.0780      1.8155     -0.0715
  2170.8000     83.3958      7.7672     59.4750     31.8027      1.6687     -0.1128
  2170.9000     79.1782      7.7672     69.7532     32.2301      1.4991     -0.1481
  2171.0000     74.6411      7.7840     78.6858     32.3247      1.3517     -0.1396
  2171.1000     69.9753      7.7840     84.0534     32.3829      1.2631     -0.0606
  2171.2000     65.3718      7.7840     86.5029     32.9227      1.2227      0.0043
  2171.3000     61.0117      7.9300     87.8148     33.5852      1.2011     -0.0095
  2171.4000     57.0570      7.9300     88.6831     34.0942      1.1867      0.0164
  2171.5000     53.6407      8.1617     89.0220     34.5616      1.1811      0.0105
  2171.6000     50.8707      8.1617     88.5626     34.9175      1.1887      0.0231
  2171.7000     48.8239      8.1617     86.8252     35.0604      1.2174     -0.0014
  2171.8000     47.5521      8.6452     83.5964     34.8891      1.2707      0.0046
  2171.9000     47.0800      8.6452     79.7134     34.4761      1.3347      0.0594
  2172.0000     47.4056      9.7290     75.8156     34.0156      1.3990      0.0463
  2172.1000     48.5011      9.7290     70.7691     33.2503      1.4823      0.0506
  2172.2000     50.3153      9.7290     63.9911     32.3260      1.5941      0.1277
  2172.3000     52.7738     10.1560     57.4941     31.8160      1.7013      0.1897
  2172.4000     55.7826     10.1560     52.5765     31.7445      1.7825      0.1431
  2172.5000     59.2333      9.6950     47.0034     31.7039      1.8744      0.1356
  2172.6000     63.0061      9.6950     38.0406     31.3200      2.0223      0.1639
  2172.7000     66.9770      9.6950     26.4138     30.6808      2.2142      0.2159
  2172.8000     71.0252      8.8475     16.0878     30.3910      2.3846      0.2275
  2172.9000     75.0383      8.8475     10.4117     30.5933      2.4782      0.1588
  2173.0000     78.9181      7.9298      9.1248     30.7232      2.4994      0.1183
  2173.1000     82.5885      7.9298      9.7913     30.1499      2.4884      0.1236
  2173.2000     86.0014      7.9298     10.4577     28.7408      2.4774      0.0616
  2173.3000     89.1394      7.8160     10.7247     27.1866      2.4730      0.1153
  2173.4000     92.0177      7.8160     11.2457     26.3543      2.4644      0.0734
  2173.5000     94.6807      7.7936     11.8867     26.2041      2.4539      0.0696
  2173.6000     97.1946      7.7936     11.9364     26.4160      2.4530      0.0417
  2173.7000     99.6365      7.7936     11.6753     26.7159      2.4574      0.0459
  2173.8000    102.0819      7.7903     11.9428     26.7922      2.4529      0.0558
  2173.9000    104.5940      7.7903     12.6011     26.7996      2.4421      0.0517
  2174.0000    107.2119      7.7907     12.9486     27.2510      2.4363      0.0628
  2174.1000    109.9481      7.7907     13.1116     28.0192      2.4337      0.0849
  2174.2000    112.7862      7.7907     13.3421     28.1504      2.4299      0.0680
  2174.3000    115.6870      7.7912     13.2687     27.5450      2.4311      0.0407
  2174.4000    118.5967      7.7912     13.0338     27.1605      2.4349      0.0877
  2174.5000    121.4550      7.7922     13.2596     27.5477      2.4312      0.0805
  2174.6000    124.2067      7.7922     13.6731     28.4705      2.4244      0.0446
  2174.7000    126.8031      7.7922     13.8320     29.4253      2.4218      0.0674
  2174.8000    129.2102      7.7904     14.0473     29.8246      2.4182      0.0351
  2174.9000    131.4028      7.7904     14.4629     29.3078      2.4114      0.0826
  2175.0000    133.3699      7.7897     14.6185     28.5409      2.4088      0.0347
  2175.1000    135.1031      7.7897     13.9442     28.4133      2.4199      0.0479
  2175.2000    136.5992      7.7897     12.6542     29.0066      2.4412      0.0950
  2175.3000    137.8576      7.7893     11.7499     29.7653      2.4561      0.1154
  2175.4000    138.8796      7.7893     11.9470     30.1046      2.4529      0.0987
  2175.5000    139.6655      7.7894     13.6727     30.1953      2.4244      0.1162
  2175.6000    140.2224      7.7894     17.5733     30.5453      2.3600      0.1293
  2175.7000    140.5569      7.7894     23.6022     30.9027      2.2606      0.0534
  2175.8000    140.6780      7.7904     31.2905     31.0915      2.1337      0.0575
  2175.9000    140.5929      7.7904     40.7696     31.4062      1.9773     -0.0651
  2176.0000    140.3029      7.7929     51.0963     31.6432      1.8069     -0.1306
  2176.1000    139.8012      7.7929     60.0719     31.7817      1.6588     -0.1230
  2176.2000    139.0719      7.7929     65.9744     32.2159      1.5614     -0.1507
  2176.3000    138.0857      7.8069     67.8070     32.5921      1.5312     -0.1623
  2176.4000    136.8104      7.8069     65.1856     32.5074      1.5744     -0.0691
  2176.5000    135.2089      7.9108     58.3012     32.4604      1.6880     -0.0266
  2176.6000    133.2490      7.9108     48.5886     32.9327      1.8483      0.1535
  2176.7000    130.9104      7.9108     39.6870     33.4547      1.9952      0.2851
