~Version Information
 VERS.                                  2.0 : CWLS LAS VERSION
 WRAP.                                   NO : WRAPING MODE
 SWARE .                 MController 2.5.0J : SOFTWARE VERSION
~Well Information
 WELL.                          GETEM 21-21 : WELL
 COMP.    PIONEER NATURAL RESOURCES USA INC : COMPANY
 FLD.                      PURGATOIRE RIVER : FIELD
 LOC.                NE/NW SEC 23 T32S R67W : LOCATION
 DATE.                             06/18/05 : DATE(S) LOGGED
 SRVC.       BLANCO GEOLOGICAL SERVICES LLC : SERVICE COMPANY
 STAT.                             COLORADO : STATE
 CNTY.                           LAS ANIMAS : COUNTY
 CTRY.                                  USA : COUNTRY
 API.                       05-071-08411-00 : API NUMBER
 STRT.FT                             321.00 : START DEPTH
 STOP.FT                            2815.00 : STOP DEPTH
 STEP.FT                               1.00 : DEPTH INCREMENT
 NULL.                                -9999 : NULL VALUE
~Curve information
 DEPTH.FT                                   :
 ROP.MIN/FT                                 :
 GAS.UNITS                                  :
~ASCII Log data
# ...
       521.0         0.17          2.5 
       522.0         0.17          3.0 
       523.0         0.17          3.1 
       524.0         0.20          2.6 
       525.0         0.17          3.0 
       526.0         0.17          2.7 
       527.0         0.17          3.5 
       528.0         0.20          3.7 
       529.0         0.20          3.3 
       530.0         0.17          3.1 
       531.0         0.13          3.3 
       532.0         0.17          2.7 
       533.0         0.15          3.4 
       534.0         0.17          3.2 
       535.0         0.17          3.3 
       536.0         2.07          3.7 
       537.0         0.30          4.0 
       538.0         0.27          3.7 
       539.0         0.27          3.6 
       540.0         0.22          3.4 
       541.0         0.20          3.0 
       542.0         0.20          3.6 
       543.0         0.20          4.0 
       544.0         0.17          4.0 
       545.0         0.17          3.2 
       546.0         0.17          3.5 
       547.0         0.17          3.7 
       548.0         0.17          3.6 
       549.0         0.17          2.9 
       550.0         0.17          2.9 
       551.0         0.20          3.2 
       552.0         0.17          4.1 
       553.0         0.17          3.6 
       554.0         0.20          3.9 
       555.0         0.17          3.2 
       556.0         0.17          3.8 
       557.0         0.17          4.2 
       558.0         0.20          3.3 
       559.0         0.22          3.4 
       560.0         0.17          4.0 
       561.0         0.17          3.8 
       562.0         0.17          3.3 
       563.0         0.17          3.6 
       564.0         0.20          3.8 
       565.0         0.17          3.3 
       566.0         1.73          3.6 
       567.0         0.27          3.2 
       568.0         0.25          3.5 
       569.0         0.20          3.4 
       570.0         0.20          3.7 
       571.0         0.20          3.3 
       572.0         0.17          3.2 
       573.0         0.17          3.4 
       574.0         0.17          2.8 
       575.0         0.13          2.5 
       576.0         0.17          3.6 
       577.0         0.17          3.4 
       578.0         0.17          4.0 
       579.0         0.13          3.9 
       580.0         0.17          3.4 
       581.0         0.20          3.4 
       582.0         0.13          3.6 
       583.0         0.17          3.6 
       584.0         0.17          3.0 
       585.0         0.17          3.4 
       586.0         0.20          3.2 
       587.0         0.22          3.3 
       588.0         0.23          3.2 
       589.0         0.20          3.5 
       590.0         0.20          3.8 
       591.0         0.17          3.6 
       592.0         0.17          3.8 
       593.0         0.17          4.3 
       594.0         0.20          4.0 
       595.0         0.20          3.6 
       596.0         1.57          3.5 
       597.0         0.32          3.8 
       598.0         0.23          3.5 
       599.0         0.30          3.9 
       600.0         0.23          3.6 
       601.0         0.20          3.9 
       602.0         0.17          4.4 
       603.0         0.20          3.2 
       604.0         0.17          3.4 
       605.0         0.20          3.8 
       606.0         0.17          3.4 
       607.0         0.20          3.5 
       608.0         0.17          4.3 
       609.0         0.17          3.8 
       610.0         0.17          3.5 
       611.0         0.17         10.6 
       612.0         0.20         65.6 
       613.0         0.17         95.3 
       614.0         0.18         84.4 
       615.0         0.17         58.9 
       616.0         0.20         34.7 
       617.0         0.17         21.2 
       618.0         0.17         11.8 
       619.0         0.20          6.7 
       620.0         0.17          3.8 
       621.0         0.23          2.1 
       622.0         0.20          1.1 
       623.0         0.17          1.6 
       624.0         0.17          1.4 
       625.0         0.20          1.7 
       626.0         1.22          2.4 
       627.0         0.47          2.5 
       628.0         0.30          2.4 
       629.0         0.23          1.8 
       630.0         0.20          1.9 
       631.0         0.20          2.6 
       632.0         0.17          2.7 
       633.0         0.20          2.5 
       634.0         0.17          2.2 
       635.0         0.17          2.5 
       636.0         0.20          2.4 
       637.0         0.13          2.7 
       638.0         0.17          2.4 
       639.0         0.17          2.6 
       640.0         0.17          2.8 
       641.0         0.17          2.5 
       642.0         0.17          3.4 
       643.0         0.18          2.9 
       644.0         0.17          2.7 
       645.0         0.17          3.3 
       646.0         0.13          2.7 
       647.0         0.20          2.8 
       648.0         0.20          3.2 
       649.0         0.20          2.7 
       650.0         0.17          2.4 
       651.0         0.17          2.9 
       652.0         0.17          2.2 
       653.0         0.20          2.7 
       654.0         0.20          3.4 
       655.0         0.23          2.9 
       656.0         2.08          2.9 
       657.0         0.37          2.8 
       658.0         0.23          3.2 
       659.0         0.20          3.1 
       660.0         0.17          3.6 
       661.0         0.17          3.8 
       662.0         0.17          3.3 
       663.0         0.20          3.1 
       664.0         0.17          3.3 
       665.0         0.17          2.6 
       666.0         0.17          3.2 
       667.0         0.13          3.1 
       668.0         0.22          3.1 
       669.0         0.17          4.0 
       670.0         0.17          3.2 
       671.0         0.17          3.3 
       672.0         0.17          3.6 
       673.0         0.27          3.1 
       674.0         0.20          3.2 
       675.0         0.17          2.9 
       676.0         0.17          4.2 
       677.0         0.20          3.0 
       678.0         0.17          3.1 
       679.0         0.17          3.0 
       680.0         0.17          2.9 
       681.0         0.20          3.0 
       682.0         0.17          3.4 
       683.0         0.17          3.1 
       684.0         0.17          3.3 
       685.0         0.20          3.1 
       686.0         1.68          3.8 
       687.0         0.23          3.6 
       688.0         0.17          3.5 
       689.0         0.20          3.5 
       690.0         0.23          2.9 
       691.0         0.23          3.5 
       692.0         0.20          3.4 
       693.0         0.20          3.0 
       694.0         0.17          3.2 
       695.0         0.17          4.0 
       696.0         0.22          3.3 
       697.0         0.33          3.2 
       698.0         0.17          2.9 
       699.0         0.20          3.0 
       700.0         0.20          3.7 
       701.0         0.20          3.3 
       702.0         0.20          3.5 
       703.0         0.20          4.2 
       704.0         0.17          4.1 
       705.0         0.20          3.4 
       706.0         0.20          3.0 
       707.0         0.17          3.0 
       708.0         0.20          3.0 
       709.0         0.20          3.5 
       710.0         0.17          3.6 
       711.0         0.13          3.7 
       712.0         0.20          3.8 
       713.0         0.25          2.9 
       714.0         0.17          4.2 
       715.0         0.50          3.8 
       716.0         1.13          3.6 
       717.0         0.30          3.6 
       718.0         0.27          4.3 
       719.0         0.23          3.6 
       720.0         0.20          3.4 
