~Version Information
VERS.                      2.0: CWLS Log ASCII Standard - VERSION 2.0
WRAP.                       NO: One line per depth step
~Well Information Block
STRT.FT               830.0000: 
STOP.FT              3122.7000: 
STEP.FT                 0.1000: 
NULL.                -999.2500: 
COMP.          Pioneer Natural Resources: COMPANY
WELL.              Stones 24-8: WELL
FLD.           Purgatoire River: FIELD
LOC.           648' FSL & 2264' FWL: LOCATION
PROV.                 Colorado: PROVINCE
CNTY.               Las Animas: COUNTRY
SRVC.                Patterson: SERVICE COMPANY
DATE.          Wed Jan 19 15:33:00 2005: LOG DATE
UWI.           05 071 07945 00: UNIQUE WELL ID
~Curve Information Block
DEPT.FT            0 000 00 00: Depth
DCAL.in                       : CDL Caliper
RHOB.g/cc                     : CDL Bulk Density
RHOC.g/cc                     : CDL Density Correction
DPOR.pu                       : CDL Density Porosity
NPOR.pu                       : Neutron Porosity
GR.GAPI                       : Gamma Ray
~Parameter Information Block
~A  Depth       DCAL        RHOB        RHOC        DPOR        NPOR         GR     
   830.0000      8.0069      2.4967     -0.2184      9.2927     40.8984     52.5758
   830.1000      8.0069      2.4884     -0.2135      9.7917     40.4219     57.2603
   830.2000      8.0069      2.4586     -0.2275     11.5986     40.2609     60.6053
   830.3000      8.0080      2.4252     -0.2893     13.6248     40.3142     59.5847
   830.4000      8.0080      2.4158     -0.2552     14.1916     40.5927     53.2245
   830.5000      8.0078      2.4245     -0.2120     13.6648     41.2040     46.9312
   830.6000      8.0078      2.4243     -0.2335     13.6797     41.7888     43.9529
   830.7000      8.0078      2.4015     -0.2437     15.0633     41.9197     43.1279
   830.8000      8.0085      2.3642     -0.3412     17.3202     41.6935     43.9397
   830.9000      8.0085      2.3316     -0.3474     19.2953     41.3712     45.8536
   831.0000      8.0098      2.3103     -0.3037     20.5900     40.9986     46.4024
   831.1000      8.0098      2.2990     -0.3048     21.2716     40.6865     45.9697
   831.2000      8.0098      2.3072     -0.2380     20.7773     40.6688     47.1385
   831.3000      8.0090      2.3391     -0.2563     18.8432     40.8601     48.3381
   831.4000      8.0090      2.3805     -0.1595     16.3312     40.9630     47.6272
   831.5000      8.0082      2.4114     -0.1620     14.4600     40.8850     45.2777
   831.6000      8.0082      2.4260     -0.1255     13.5788     40.5380     41.8722
   831.7000      8.0082      2.4303     -0.1409     13.3163     39.9561     39.0063
   831.8000      8.0102      2.4294     -0.1453     13.3716     39.3891     37.2609
   831.9000      8.0102      2.4249     -0.1488     13.6416     39.0216     36.2018
   832.0000      8.0127      2.4239     -0.1509     13.7058     38.7411     36.5673
   832.1000      8.0127      2.4337     -0.1199     13.1085     38.4140     37.6547
   832.2000      8.0127      2.4462     -0.1089     12.3520     38.2677     36.6987
   832.3000      8.0124      2.4493     -0.1412     12.1652     38.5769     33.6395
   832.4000      8.0124      2.4383     -0.1298     12.8280     39.1030     31.7105
   832.5000      8.0089      2.4149     -0.1535     14.2481     39.3315     33.0827
   832.6000      8.0089      2.3980     -0.2279     15.2732     39.3926     37.0225
   832.7000      8.0089      2.4027     -0.1667     14.9887     39.6515     40.4165
   832.8000      8.0060      2.4157     -0.1655     14.2011     39.8135     40.1570
   832.9000      8.0060      2.4266     -0.1592     13.5385     39.7836     38.2566
   833.0000      8.0068      2.4440     -0.1256     12.4867     39.8428     39.3848
   833.1000      8.0068      2.4680     -0.1057     11.0328     39.8677     43.1577
   833.2000      8.0068      2.4861     -0.0600      9.9328     39.9357     46.1742
   833.3000      8.0107      2.4951     -0.1077      9.3892     40.4015     47.9044
   833.4000      8.0107      2.4932     -0.0907      9.5058     41.1067     48.9549
   833.5000      8.0150      2.4763     -0.2138     10.5250     41.6825     50.1482
   833.6000      8.0150      2.4508     -0.1410     12.0699     41.8559     51.4712
   833.7000      8.0150      2.4250     -0.2242     13.6358     41.5012     50.0584
   833.8000      8.0169      2.4151     -0.2472     14.2391     40.9959     45.0104
   833.9000      8.0169      2.4288     -0.2085     13.4084     40.9603     40.2259
   834.0000      8.0173      2.4539     -0.1536     11.8866     41.0176     39.7614
   834.1000      8.0173      2.4741     -0.1380     10.6607     40.5995     43.1008
   834.2000      8.0173      2.4735     -0.1260     10.6997     40.2202     45.6913
   834.3000      8.0254      2.4481     -0.2216     12.2361     40.4656     45.6363
   834.4000      8.0254      2.4235     -0.2818     13.7270     41.0273     45.1467
   834.5000      8.0327      2.4255     -0.2556     13.6046     41.2314     44.3105
   834.6000      8.0327      2.4461     -0.2184     12.3572     40.8956     41.2235
   834.7000      8.0327      2.4649     -0.2032     11.2170     40.4918     37.1834
   834.8000      8.0220      2.4711     -0.1985     10.8450     40.6101     35.7919
   834.9000      8.0220      2.4654     -0.2262     11.1909     41.1682     39.4597
   835.0000      8.0109      2.4625     -0.1819     11.3624     41.7943     45.9582
   835.1000      8.0109      2.4709     -0.1708     10.8560     42.2667     50.3859
   835.2000      8.0109      2.4717     -0.1202     10.8077     42.4395     50.6261
   835.3000      8.0094      2.4488     -0.1699     12.1915     42.5851     48.7674
   835.4000      8.0094      2.4296     -0.2370     13.3585     43.0158     50.0597
   835.5000      8.0091      2.4416     -0.1680     12.6287     43.6903     55.8560
   835.6000      8.0091      2.4652     -0.1070     11.2005     44.3295     61.5160
   835.7000      8.0091      2.4733     -0.1403     10.7080     44.6778     64.9144
   835.8000      8.0083      2.4691     -0.1389     10.9620     44.7119     67.7291
   835.9000      8.0083      2.4640     -0.1926     11.2703     44.7096     70.1948
   836.0000      8.0085      2.4615     -0.1903     11.4243     45.0797     72.4538
   836.1000      8.0085      2.4619     -0.1984     11.4015     45.6202     75.3427
   836.2000      8.0085      2.4644     -0.1483     11.2513     45.7841     77.3936
   836.3000      8.0082      2.4722     -0.1949     10.7763     45.4104     78.0154
   836.4000      8.0082      2.4919     -0.1204      9.5848     44.8725     80.0996
   836.5000      8.0082      2.5146     -0.0985      8.2046     44.5327     81.9032
   836.6000      8.0082      2.5269     -0.1077      7.4593     44.3610     79.5951
   836.7000      8.0082      2.5367     -0.1352      6.8642     44.0734     75.4453
   836.8000      8.0098      2.5605     -0.1291      5.4259     43.4716     71.2756
   836.9000      8.0098      2.5924     -0.1179      3.4916     42.8002     66.4953
   837.0000      8.0119      2.6094     -0.0666      2.4598     42.5328     62.3452
   837.1000      8.0119      2.6010     -0.1282      2.9682     42.6705     60.5339
   837.2000      8.0119      2.5772     -0.1322      4.4119     42.6793     61.6364
   837.3000      8.0124      2.5473     -0.1737      6.2220     42.4710     63.3248
   837.4000      8.0124      2.5153     -0.1680      8.1613     42.5809     64.1553
   837.5000      8.0117      2.4927     -0.3348      9.5333     43.0319     67.4001
   837.6000      8.0117      2.4894     -0.2230      9.7325     43.2329     72.6716
   837.7000      8.0117      2.4929     -0.1984      9.5183     42.8652     74.2164
   837.8000      8.0110      2.4921     -0.2765      9.5684     42.0799     71.5875
   837.9000      8.0110      2.4915     -0.2234      9.6038     41.3918     69.8652
   838.0000      8.0084      2.4975     -0.2503      9.2444     41.4653     70.4617
   838.1000      8.0084      2.5105     -0.2451      8.4546     42.2860     71.3780
   838.2000      8.0084      2.5262     -0.2355      7.5059     43.0508     70.5202
   838.3000      8.0057      2.5467     -0.2408      6.2627     43.1413     66.0881
   838.4000      8.0057      2.5663     -0.2077      5.0732     42.8683     59.5466
   838.5000      8.0075      2.5642     -0.1997      5.2011     42.9608     56.5191
   838.6000      8.0075      2.5413     -0.2562      6.5884     43.3585     58.4610
   838.7000      8.0075      2.5218     -0.1866      7.7725     43.5828     62.0724
   838.8000      8.0098      2.5161     -0.1829      8.1170     43.4837     62.9944
   838.9000      8.0098      2.5210     -0.1598      7.8209     43.2960     58.7726
   839.0000      8.0093      2.5256     -0.1936      7.5369     43.2678     55.1862
   839.1000      8.0093      2.5209     -0.1823      7.8219     43.1156     56.9681
   839.2000      8.0093      2.5115     -0.1487      8.3953     42.6646     59.1008
   839.3000      8.0073      2.5026     -0.2124      8.9325     42.4396     58.0937
   839.4000      8.0073      2.4996     -0.2359      9.1166     42.6397     58.4936
   839.5000      8.0066      2.5050     -0.1819      8.7849     42.8230     61.0660
