~Version Information
VERS.                      2.0: CWLS Log ASCII Standard - VERSION 2.0
WRAP.                       NO: One line per depth step
~Well Information Block
STRT.FT               930.0000: 
STOP.FT              2783.2500: 
STEP.FT                 0.2500: 
NULL.                -999.2500: 
COMP.          Pioneer Natural Resources: COMPANY
WELL.           Desoto 13-7TR: WELL
FLD.           Purgatoire River: FIELD
LOC.           1404' FSL & 1115' FWL: LOCATION
PROV.                 Colorado: PROVINCE
CNTY.               Las Animas: COUNTRY
SRVC.                Patterson: SERVICE COMPANY
DATE.          Fri Jan 14 11:02:13 2005: LOG DATE
UWI.           05 071 08216 00: UNIQUE WELL ID
~Curve Information Block
DEPT.FT            0 000 00 00: Depth
SN.Ohm-m                      : IEL Short Normal
SP.mV                         : IEL Spontaneous Potential
DIR.Ohm-m                     : IEL Induction Resistivity
GR.GAPI                       : Gamma Ray
~Parameter Information Block
~A  Depth        SN          SP         DIR          GR     
# ...
  2605.0000      6.1428     24.0995      6.0759    139.3862
  2605.2500      6.1679     24.0702      6.0073    139.3669
  2605.5000      6.1708     24.0018      5.9695    140.9578
  2605.7500      6.1547     23.9050      5.9563    142.0830
  2606.0000      6.1227     23.7799      5.9606    143.0853
  2606.2500      6.0765     23.6169      5.9765    143.4820
  2606.5000      6.0195     23.3999      6.0005    144.2092
  2606.7500      5.9619     23.1108      6.0320    144.8417
  2607.0000      5.9201     22.7334      6.0737    145.9054
  2607.2500      5.9138     22.2560      6.1304    146.7182
  2607.5000      5.9592     21.6731      6.2087    148.1644
  2607.7500      6.0654     20.9854      6.3147    149.2080
  2608.0000      6.2296     20.2000      6.4531    150.6320
  2608.2500      6.4374     19.3294      6.6257    151.3177
  2608.5000      6.6679     18.3913      6.8315    151.5667
  2608.7500      6.9004     17.4078      7.0656    150.9256
  2609.0000      7.1196     16.4043      7.3201    148.3301
  2609.2500      7.3227     15.4079      7.5852    145.4341
  2609.5000      7.5236     14.4468      7.8535    139.6310
  2609.7500      7.7474     13.5493      8.1257    135.2586
  2610.0000      8.0129     12.7425      8.4115    129.4433
  2610.2500      8.3151     12.0502      8.7237    127.1834
  2610.5000      8.6234     11.4884      9.0657    127.3995
  2610.7500      8.8949     11.0607      9.4207    129.5515
  2611.0000      9.0912     10.7541      9.7498    133.4303
  2611.2500      9.1884     10.5386     10.0010    134.9925
  2611.5000      9.1819     10.3709     10.1278    134.8354
  2611.7500      9.0894     10.2031     10.1121    133.5983
  2612.0000      8.9499      9.9913      9.9769    131.9268
  2612.2500      8.8113      9.7043      9.7767    131.8826
  2612.5000      8.7086      9.3267      9.5707    133.8180
  2612.7500      8.6501      8.8580      9.3997    135.8418
  2613.0000      8.6179      8.3072      9.2780    138.1569
  2613.2500      8.5834      7.6856      9.2006    138.3530
  2613.5000      8.5241      7.0020      9.1533    136.5847
  2613.7500      8.4359      6.2586      9.1218    135.0088
  2614.0000      8.3352      5.4528      9.0957    134.4241
  2614.2500      8.2480      4.5798      9.0703    136.0558
  2614.5000      8.1956      3.6347      9.0480    140.8523
  2614.7500      8.1874      2.6138      9.0363    144.2013
  2615.0000      8.2232      1.5142      9.0436    146.8451
  2615.2500      8.2967      0.3349      9.0748    146.2454
  2615.5000      8.3965     -0.9205      9.1287    142.3620
  2615.7500      8.5062     -2.2395      9.2006    138.8426
  2616.0000      8.6137     -3.5989      9.2877    133.8082
  2616.2500      8.7253     -4.9669      9.3928    130.9569
  2616.5000      8.8697     -6.3100      9.5239    127.2680
  2616.7500      9.0831     -7.6023      9.6913    125.1110
  2617.0000      9.3879     -8.8330      9.9053    122.4964
  2617.2500      9.7834    -10.0093     10.1757    121.2843
  2617.5000     10.2520    -11.1549     10.5151    120.0067
  2617.7500     10.7716    -12.3051     10.9367    118.9656
  2618.0000     11.3245    -13.4999     11.4481    115.9554
  2618.2500     11.9040    -14.7739     12.0406    112.7288
  2618.5000     12.5200    -16.1432     12.6885    106.8785
  2618.7500     13.2020    -17.5922     13.3621    103.1884
  2619.0000     13.9845    -19.0658     14.0460     99.1189
  2619.2500     14.8761    -20.4725     14.7426     97.5441
  2619.5000     15.8340    -21.7014     15.4541     96.4458
  2619.7500     16.7695    -22.6492     16.1605     96.1903
  2620.0000     17.5801    -23.2477     16.8126     96.2567
  2620.2500     18.1886    -23.4839     17.3470     96.7266
  2620.5000     18.5730    -23.4041     17.7135     98.5027
  2620.7500     18.7784    -23.1041     17.8993    100.5804
  2621.0000     18.8951    -22.7080     17.9367    104.8248
  2621.2500     19.0078    -22.3456     17.8943    107.8623
  2621.5000     19.1510    -22.1319     17.8555    111.4601
  2621.7500     19.3073    -22.1510     17.8944    112.7160
  2622.0000     19.4430    -22.4468     18.0557    112.8194
  2622.2500     19.5455    -23.0163     18.3430    111.8963
  2622.5000     19.6323    -23.8110     18.7211    109.0818
  2622.7500     19.7420    -24.7432     19.1330    106.0645
  2623.0000     19.9198    -25.7032     19.5283     99.7996
  2623.2500     20.2017    -26.5827     19.8874     95.0633
  2623.5000     20.5931    -27.3012     20.2209     89.1143
  2623.7500     21.0608    -27.8278     20.5450     86.9524
  2624.0000     21.5494    -28.1892     20.8551     86.7979
  2624.2500     22.0162    -28.4615     21.1223     88.3123
  2624.5000     22.4535    -28.7474     21.3178     92.3275
  2624.7500     22.8781    -29.1462     21.4413     96.0427
  2625.0000     23.3021    -29.7273     21.5275    102.5955
  2625.2500     23.7133    -30.5131     21.6247    106.6298
  2625.5000     24.0767    -31.4756     21.7669    109.8513
  2625.7500     24.3535    -32.5427     21.9610    109.2033
  2626.0000     24.5246    -33.6119     22.1940    104.3849
  2626.2500     24.6156    -34.5669     22.4517     99.7484
  2626.5000     24.7060    -35.2938     22.7349     92.9717
  2626.7500     24.9044    -35.6992     23.0612     89.6190
  2627.0000     25.2895    -35.7249     23.4540     87.2331
  2627.2500     25.8521    -35.3600     23.9239     87.3455
  2627.5000     26.4830    -34.6459     24.4508     89.3644
  2627.7500     27.0261    -33.6717     24.9759     91.6333
  2628.0000     27.3633    -32.5609     25.4118     96.2935
  2628.2500     27.4715    -31.4515     25.6755    100.0465
  2628.5000     27.4117    -30.4753     25.7287    105.7239
  2628.7500     27.2716    -29.7415     25.5987    108.9749
  2629.0000     27.1234    -29.3272     25.3632    112.6901
  2629.2500     27.0231    -29.2761     25.1136    114.4827
  2629.5000     27.0225    -29.6023     24.9223    116.4822
  2629.7500     27.1632    -30.2966     24.8304    117.7623
  2630.0000     27.4675    -31.3326     24.8494    120.9041
  2630.2500     27.9412    -32.6713     24.9722    124.5806
  2630.5000     28.5816    -34.2642     25.1838    132.6017
  2630.7500     29.3709    -36.0564     25.4720    138.7829
  2631.0000     30.2631    -37.9908     25.8322    147.3707
  2631.2500     31.1850    -40.0107     26.2648    152.0798
  2631.5000     32.0608    -42.0623     26.7672    158.2081
  2631.7500     32.8450    -44.0928     27.3256    162.3427
  2632.0000     33.5324    -46.0459     27.9127    168.2881
  2632.2500     34.1385    -47.8565     28.4912    170.4439
  2632.5000     34.6733    -49.4490     29.0216    167.4471
  2632.7500     35.1301    -50.7426     29.4754    160.6628
  2633.0000     35.4880    -51.6642     29.8448    146.0711
  2633.2500     35.7180    -52.1650     30.1363    136.1616
  2633.5000     35.7929    -52.2347     30.3495    124.6101
  2633.7500     35.7027    -51.9063     30.4646    119.6587
  2634.0000     35.4656    -51.2504     30.4545    114.8897
  2634.2500     35.1235    -50.3610     30.3082    111.9820
  2634.5000     34.7257    -49.3394     30.0375    106.0823
  2634.7500     34.3114    -48.2815     29.6622    101.0137
  2635.0000     33.9011    -47.2713     29.1957     93.1130
  2635.2500     33.4958    -46.3813     28.6505     88.6167
  2635.5000     33.0829    -45.6752     28.0502     83.6696
  2635.7500     32.6493    -45.2102     27.4289     81.4360
  2636.0000     32.1957    -45.0360     26.8151     79.4756
  2636.2500     31.7440    -45.1890     26.2215     79.0020
  2636.5000     31.3267    -45.6832     25.6531     78.6768
  2636.7500     30.9681    -46.4964     25.1230     77.9054
  2637.0000     30.6709    -47.5572     24.6577     75.3056
  2637.2500     30.4160    -48.7339     24.2795     73.0916
  2637.5000     30.1639    -49.8349     23.9793     70.6105
  2637.7500     29.8489    -50.6244     23.6986     70.2792
  2638.0000     29.3735    -50.8580     23.3367     72.3458
  2638.2500     28.6178    -50.3320     22.7868     75.3962
