~Version Information
 VERS.                                  2.0 : CWLS LAS VERSION
 WRAP.                                   NO : WRAPING MODE
 SWARE .                 MController 2.5.0J : SOFTWARE VERSION
~Well Information
 WELL.                      Sumatra 34-22Tr : WELL
 COMP.    Pioneer Natural Resources USA Inc : COMPANY
 FLD.                      Purgatoire River : FIELD
 LOC.                SW/SE sec 22 T33S R67W : LOCATION
 DATE.                              6/08/05 : DATE(S) LOGGED
 SRVC.       Blanco Geological Services LLC : SERVICE COMPANY
 STAT.                                   CO : STATE
 CNTY.                           Las Animas : COUNTY
 CTRY.                                  USA : COUNTRY
 API.                       05-071-08383-00 : API NUMBER
 STRT.FT                             575.00 : START DEPTH
 STOP.FT                            1500.00 : STOP DEPTH
 STEP.FT                               1.00 : DEPTH INCREMENT
 NULL.                                -9999 : NULL VALUE
~Curve information
 DEPTH.FT                                   :
 ROP.MIN/FT                                 :
 GAS.UNITS                                  :
~ASCII Log data
# ...
       775.0         0.50          5.2 
       776.0         0.50          5.5 
       777.0         0.37          7.1 
       778.0         0.60          9.9 
       779.0         0.48          8.1 
       780.0         0.43          8.9 
       781.0         0.37          9.8 
       782.0         0.33         10.5 
       783.0         0.33         10.4 
       784.0         0.30         11.3 
       785.0         0.40         11.0 
       786.0         0.43         11.3 
       787.0         0.33         11.4 
       788.0         0.35         11.6 
       789.0         0.27         11.4 
       790.0         0.23         11.8 
       791.0         0.20         12.5 
       792.0         0.17         12.9 
       793.0         0.33         13.3 
       794.0         0.47         14.0 
       795.0         0.40         13.4 
       796.0         0.50         13.3 
       797.0         0.53         13.2 
       798.0         0.52         13.8 
       799.0         0.37         12.0 
       800.0         0.27         10.5 
       801.0        13.03        296.5 
       802.0         1.83         47.2 
       803.0         0.37         16.6 
       804.0         0.42         16.1 
       805.0         0.53         16.3 
       806.0         0.50         15.5 
       807.0         0.43         14.0 
       808.0         0.43         13.7 
       809.0         0.43         13.0 
       810.0         0.40         12.9 
       811.0         0.37         12.9 
       812.0         0.38         13.6 
       813.0         0.30         13.1 
       814.0         0.30         16.8 
       815.0         0.27         20.4 
       816.0         0.17         24.4 
       817.0         0.13         26.5 
       818.0         0.10         27.9 
       819.0         0.10         29.5 
       820.0         0.10         30.1 
       821.0         0.33         32.1 
       822.0         0.33         29.7 
       823.0         0.43         25.7 
       824.0         0.50         22.0 
       825.0         0.45         19.8 
       826.0         0.37         17.9 
       827.0         0.47         17.4 
       828.0         0.50         18.2 
       829.0         0.50         16.9 
       830.0         0.40         13.7 
       831.0         4.05          8.3 
       832.0         0.58          5.7 
       833.0         0.47          5.5 
       834.0         0.43          5.4 
       835.0         0.40          5.3 
       836.0         0.40          5.2 
       837.0         0.40          5.7 
       838.0         0.37          5.3 
       839.0         0.45          5.7 
       840.0         0.43          5.2 
       841.0         0.43          5.1 
       842.0         0.43          5.2 
       843.0         0.40          5.2 
       844.0         0.53          5.3 
       845.0         0.57          5.5 
       846.0         0.47          5.1 
       847.0         0.42          5.1 
       848.0         0.40          5.0 
       849.0         0.40          4.9 
       850.0         0.43          5.0 
       851.0         0.43          5.1 
       852.0         0.47          5.1 
       853.0         0.43          6.7 
       854.0         0.45          6.3 
       855.0         0.47          5.8 
       856.0         0.53          6.1 
       857.0         0.40          6.6 
       858.0         0.43          6.9 
       859.0         0.40          7.4 
       860.0         0.43          8.0 
       861.0         3.25          8.9 
       862.0         0.95         16.7 
       863.0         0.30         18.7 
       864.0         0.23         20.7 
       865.0         0.23         21.0 
       866.0         0.17         22.1 
       867.0         0.17         22.4 
       868.0         0.23         21.8 
       869.0         0.30         21.5 
       870.0         0.27         21.6 
       871.0         0.37         21.6 
       872.0         0.40         22.7 
       873.0         0.23         21.7 
       874.0         0.17         19.3 
       875.0         0.28         19.6 
       876.0         0.33         21.7 
       877.0         0.20         21.5 
       878.0         0.17         21.3 
       879.0         0.40         20.7 
       880.0         0.17         22.8 
       881.0         0.50         21.9 
       882.0         0.43         18.2 
       883.0         0.50         18.3 
       884.0         0.48         17.7 
       885.0         0.57         17.3 
       886.0         0.50         16.1 
       887.0         0.50         16.6 
       888.0         0.47         16.4 
       889.0         0.43         18.0 
       890.0         0.40         16.8 
       891.0         3.28         26.2 
       892.0         0.52         23.2 
       893.0         0.53         24.5 
       894.0         0.53         21.7 
       895.0         0.43         18.7 
       896.0         0.33         18.6 
       897.0         0.17         19.3 
       898.0         0.43         22.5 
       899.0         0.67         22.6 
       900.0         0.45         20.0 
       901.0         0.47         18.9 
       902.0         0.40         16.9 
       903.0         0.20         17.0 
       904.0         0.33         17.0 
       905.0         0.30         18.2 
       906.0         0.20         18.3 
       907.0         0.13         16.9 
       908.0         0.20         17.3 
       909.0         0.20         17.7 
       910.0         0.23         18.1 
       911.0         0.27         18.5 
       912.0         0.35         17.2 
       913.0         0.37         16.6 
       914.0         0.47         16.9 
       915.0         0.47         16.5 
       916.0         0.47         16.5 
       917.0         0.47         16.0 
       918.0         0.43         16.6 
       919.0         0.45         17.9 
       920.0         0.43         18.1 
       921.0         6.97         32.3 
       922.0         0.37         17.0 
       923.0         0.27         17.5 
       924.0         0.27         17.0 
       925.0         0.30         16.9 
       926.0         0.37         17.3 
       927.0         0.30         16.7 
       928.0         0.30         16.3 
       929.0         0.37         17.3 
       930.0         0.32         17.0 
       931.0         0.27         17.0 
       932.0         0.23         17.2 
       933.0         0.20         17.1 
       934.0         0.20         17.5 
       935.0         0.20         18.8 
       936.0         0.17         19.2 
       937.0         0.20         19.4 
       938.0         0.30         20.0 
       939.0         0.20         19.7 
       940.0         0.23         19.5 
       941.0         0.20         19.5 
       942.0         0.30         18.4 
       943.0         0.30         17.0 
       944.0         0.35         17.1 
       945.0         0.33         17.2 
       946.0         0.30         18.1 
       947.0         0.33         16.6 
       948.0         0.33         15.7 
       949.0         0.20         11.6 
       950.0         0.10         10.5 
       951.0         2.38         32.9 
       952.0         0.53         35.2 
       953.0         0.37         28.6 
       954.0         0.47         24.8 
       955.0         0.47         23.1 
       956.0         0.52         21.6 
       957.0         0.43         19.3 
       958.0         0.53         17.9 
       959.0         0.53         17.3 
       960.0         0.53         18.0 
       961.0         0.47         17.2 
       962.0         0.43         15.8 
       963.0         0.52         16.0 
       964.0         0.50         15.4 
       965.0         0.50         15.3 
       966.0         0.50         15.3 
       967.0         0.57         16.0 
       968.0         0.60         15.3 
       969.0         0.50         15.3 
       970.0         0.52         15.2 
       971.0         0.47         15.0 
       972.0         0.43         14.7 
       973.0         0.43         14.4 
       974.0         0.43         15.2 
