~Version Information
VERS.                      2.0: CWLS Log ASCII Standard - VERSION 2.0
WRAP.                       NO: One line per depth step
~Well Information Block
STRT.FT                 0.7500: 
STOP.FT              2144.0000: 
STEP.FT                 0.2500: 
NULL.                -999.2500: 
COMP.          Petrogulf Corporation: COMPANY
WELL.            Montoya 1-44R: WELL
FLD.           Purgatorie River: FIELD
LOC.           658' FSL & 1052' FWL: LOCATION
CNTY.               Las Animas: COUNTY
SRVC.                         : SERVICE COMPANY
DATE.          Tue Nov 30 08:31:55 2004: LOG DATE
UWI.           05 071 08239 00: UNIQUE WELL ID
STAT.                 Colorado: STATE
~Curve Information Block
DEPT.FT            0 000 00 00: Depth
TT3.usec                      : CBL 3' Travel Time
AMP3.mV                       : CBL 3' Amplitude
GR.GAPI                       : Gamma Ray
CCL.                          : Casing Collar Locator
~Parameter Information Block
~A  Depth       TT3         AMP3         GR         CCL     
# ...
   570.2500    852.8132     14.0524     71.3199      0.0000
   570.5000    829.1321     14.2409     69.9792      0.0000
   570.7500    802.6464     14.2033     69.3642      0.0000
   571.0000    789.7247     13.9695     69.1032      0.0000
   571.2500    797.3148     13.6649     68.8410      0.0000
   571.5000    820.1765     13.4533     68.2750      0.0000
   571.7500    850.6547     13.4368     67.1317      0.0000
   572.0000    884.1036     13.6012     65.2347      0.0000
   572.2500    915.6318     13.8347     62.6356      0.0000
   572.5000    939.3241     13.9797     59.6424      0.0000
   572.7500    953.7572     13.9093     56.7099      0.0000
   573.0000    964.0299     13.6161     54.2516      0.0000
   573.2500    975.6843     13.2302     52.5388      0.0000
   573.5000    989.7596     12.9119     51.7344      0.0000
   573.7500   1004.7661     12.7231     52.0037      0.0000
   574.0000   1019.4317     12.6173     53.5939      0.0000
   574.2500   1032.1208     12.5231     56.7751      0.0000
   574.5000   1040.2976     12.4012     61.6291      0.0000
   574.7500   1042.1437     12.2455     67.8396      0.0000
   575.0000   1037.7418     12.0768     74.6729      0.0000
   575.2500   1028.1285     11.9266     81.2174      0.0000
   575.5000   1012.2602     11.7878     86.7208      0.0000
   575.7500    984.4662     11.5968     90.7902      0.0000
   576.0000    937.5439     11.3048     93.3949      0.0000
   576.2500    873.0350     10.9481     94.7766      0.0000
   576.5000    809.5961     10.6158     95.3680      0.0000
   576.7500    776.6292     10.3633     95.7182      0.0000
   577.0000    793.5413     10.1809     96.3921      0.0000
   577.2500    853.1749     10.0266     97.8423      0.0000
   577.5000    927.1277      9.8691    100.2759      0.0000
   577.7500    987.5057      9.7064    103.5489      0.0000
   578.0000   1023.1143      9.5563    107.1190      0.0000
   578.2500   1038.4558      9.4299    110.1157      0.0000
   578.5000   1043.0623      9.3208    111.5553      0.0000
   578.7500   1043.0343      9.2299    110.6867      0.0000
   579.0000   1039.4249      9.1880    107.3335      0.0000
   579.2500   1031.7008      9.2327    102.0363      0.0000
   579.5000   1021.7047      9.3710     95.8698      0.0000
   579.7500   1013.5151      9.5689     90.0105      0.0000
   580.0000   1009.2350      9.7691     85.3066      0.0000
   580.2500   1006.5135      9.9047     82.1087      0.0000
   580.5000   1001.5171      9.9155     80.3833      0.0000
   580.7500    993.0470      9.7843     79.9251      0.0000
   581.0000    982.5339      9.5641     80.4707      0.0000
   581.2500    971.7750      9.3471     81.6832      0.0000
   581.5000    961.6035      9.1950     83.1006      0.0000
   581.7500    950.3845      9.1057     84.1705      0.0000
   582.0000    932.8960      9.0477     84.4013      0.0000
   582.2500    904.0067      9.0107     83.5784      0.0000
   582.5000    865.7194      9.0129     81.9055      0.0000
   582.7500    828.8102      9.0725     79.9061      0.0000
   583.0000    805.6572      9.1881     78.1027      0.0000
   583.2500    802.0105      9.3469     76.7267      0.0000
   583.5000    816.9978      9.5367     75.7252      0.0000
   583.7500    850.6450      9.7511     75.0540      0.0000
   584.0000    908.1507      9.9865     74.9439      0.0000
   584.2500    991.6765     10.2373     75.8546      0.0000
   584.5000   1085.9835     10.5113     78.1262      0.0000
   584.7500   1157.4944     10.8620     81.5930      0.0000
   585.0000   1175.0060     11.3926     85.4705      0.0000
   585.2500   1132.9158     12.1875     88.6552      0.0000
   585.5000   1052.0352     13.2162     90.3072      0.0000
   585.7500    961.1887     14.3000     90.2847      0.0000
   586.0000    883.6392     15.1724     89.0973      0.0000
   586.2500    837.6594     15.5725     87.4277      0.0000
   586.5000    836.5491     15.3591     85.6730      0.0000
   586.7500    878.0413     14.6233     83.8786      0.0000
   587.0000    937.4849     13.6664     82.0081      0.0000
   587.2500    981.6646     12.7946     80.2286      0.0000
   587.5000    993.0612     12.1406     78.9378      0.0000
   587.7500    979.2496     11.6963     78.5414      0.0000
   588.0000    960.2545     11.4430     79.1861     -3.0000
   588.2500    949.7016     11.3999     80.6565      0.0000
   588.5000    946.8557     11.5755     82.4819      0.0000
   588.7500    942.1317     11.9137     84.1403      0.0000
   589.0000    928.2747     12.2975     85.2069      0.0000
   589.2500    908.5462     12.6055     85.4214      0.0000
   589.5000    896.3658     12.7840     84.7342      0.0000
   589.7500    905.5020     12.8578     83.3160      0.0000
   590.0000    937.5546     12.8714     81.4859      0.0000
   590.2500    979.3712     12.8314     79.5589      0.0000
   590.5000   1013.8107     12.7089     77.7217      0.0000
   590.7500   1031.3502     12.4762     76.0206      0.0000
   591.0000   1031.9624     12.1421     74.4466      0.0000
   591.2500   1021.2346     11.7678     73.0397      0.0000
   591.5000   1007.5844     11.4457     71.9684      0.0000
   591.7500    999.0942     11.2453     71.5443      0.0000
   592.0000    998.0511     11.1758     72.1445      0.0000
   592.2500    998.9175     11.2059     74.0350      0.0000
   592.5000    993.5156     11.3029     77.1731      0.0000
   592.7500    976.6984     11.4366     81.1137      0.0000
   593.0000    946.6929     11.5609     85.0818      0.0000
   593.2500    904.6209     11.6153     88.2013      0.0000
   593.5000    857.1879     11.5548     89.7862      0.0000
   593.7500    816.5686     11.3706     89.5959      0.0000
   594.0000    793.0388     11.0866     87.9843      0.0000
   594.2500    787.7328     10.7541     85.8332      0.0000
   594.5000    794.1019     10.4489     84.1688      0.0000
   594.7500    805.5459     10.2506     83.5778      0.0000
   595.0000    820.2048     10.2014     83.8033      0.0000
   595.2500    839.0088     10.2800     83.8906      0.0000
   595.5000    860.6908     10.4174     82.8479      0.0000
   595.7500    879.5092     10.5537     80.3311      0.0000
   596.0000    888.0012     10.6966     76.8408      0.0000
   596.2500    882.2383     10.9142     73.3710      0.0000
   596.5000    865.2084     11.2387     70.8715      0.0000
   596.7500    845.5666     11.5790     69.9171      0.0000
   597.0000    832.7769     11.7638     70.6413      0.0000
   597.2500    832.5973     11.6856     72.7838      0.0000
   597.5000    845.1094     11.3853     75.7642      0.0000
   597.7500    864.5524     10.9920     78.8251      0.0000
   598.0000    881.9131     10.6092     81.2865      0.0000
   598.2500    891.2849     10.2723     82.7861      0.0000
   598.5000    894.1065      9.9899     83.3398      0.0000
   598.7500    894.7825      9.7833     83.1979      0.0000
   599.0000    893.3641      9.6763     82.6354      0.0000
   599.2500    887.0192      9.6727     81.8049      0.0000
   599.5000    878.1908      9.7571     80.7488      0.0000
   599.7500    876.1633      9.9128     79.5323      0.0000
   600.0000    888.3867     10.1453     78.3491      0.0000
   600.2500    912.1732     10.4960     77.4472      0.0000
   600.5000    935.8891     11.0152     76.8973      0.0000
   600.7500    947.3468     11.6964     76.4679      0.0000
   601.0000    941.3273     12.4393     75.7760      0.0000
   601.2500    921.2122     13.1063     74.5913      0.0000
   601.5000    895.4080     13.6191     72.9857      0.0000
   601.7500    872.0483     13.9773     71.2143      0.0000
   602.0000    855.1129     14.1903     69.5285      0.0000
   602.2500    844.0820     14.2387     68.1522      0.0000
   602.5000    837.2701     14.1177     67.4017      0.0000
   602.7500    835.2558     13.8865     67.7252      0.0000
   603.0000    840.3245     13.6473     69.5299      0.0000
   603.2500    852.9246     13.4815     72.9102      0.0000
   603.5000    869.7258     13.4123     77.5007      0.0000
