~Version Information
VERS.                      2.0: CWLS Log ASCII Standard - VERSION 2.0
WRAP.                       NO: One line per depth step
~Well Information Block
STRT.FT               998.8000: 
STOP.FT              2235.5000: 
STEP.FT                 0.1000: 
NULL.                -999.2500: 
COMP.          Petrogulf Corporation: COMPANY
WELL.          Latiluppe 8-13R: WELL
FLD.           Purgatorie River: FIELD
LOC.           1495' FSL & 946' FWL: LOCATION
CNTY.               Las Animas: COUNTY
SRVC.                         : SERVICE COMPANY
DATE.          Wed Apr 21 10:46:16 2004: LOG DATE
UWI.           05 071 08035 00: UNIQUE WELL ID
STAT.                 Colorado: STATE
~Curve Information Block
DEPT.FT            0 000 00 00: Depth
DCAL.in                       : CDL Caliper
RHOB.g/cc                     : CDL Bulk Density
RHOC.g/cc                     : CDL Density Correction
DPOR.pu                       : CDL Density Porosity
NPOR.pu                       : Neutron Porosity
GR.GAPI                       : Gamma Ray
~Parameter Information Block
~A  Depth       DCAL        RHOB        RHOC        DPOR        NPOR         GR     
# ...
  1325.2000      7.8115      2.5263      0.0271      7.4944     14.7948     48.9907
  1325.3000      7.8129      2.5145     -0.0007      8.2126     14.4283     48.8053
  1325.4000      7.8129      2.5149      0.0354      8.1906     14.1849     49.5622
  1325.5000      7.8150      2.5169      0.0574      8.0652     14.3018     51.2817
  1325.6000      7.8150      2.5196      0.0014      7.9037     14.5843     52.7425
  1325.7000      7.8150      2.5256      0.0786      7.5386     14.7736     52.9760
  1325.8000      7.8179      2.5250      0.0378      7.5741     14.8076     52.3403
  1325.9000      7.8179      2.5184     -0.0085      7.9778     14.6937     53.6301
  1326.0000      7.8222      2.5126      0.0481      8.3253     14.5861     58.0446
  1326.1000      7.8222      2.5025      0.0357      8.9380     14.8129     61.0967
  1326.2000      7.8222      2.4910      0.0252      9.6334     15.3677     60.1310
  1326.3000      7.8161      2.4875      0.0420      9.8485     15.9706     58.2287
  1326.4000      7.8161      2.4914      0.0097      9.6146     16.4959     56.7301
  1326.5000      7.8203      2.5019      0.0129      8.9745     16.9044     55.1053
  1326.6000      7.8203      2.5125      0.0638      8.3336     17.3962     54.6847
  1326.7000      7.8203      2.5090      0.0966      8.5467     18.3196     55.8226
  1326.8000      7.8129      2.4959      0.0455      9.3402     19.4165     57.2561
  1326.9000      7.8129      2.4890      0.0763      9.7604     20.2716     59.7054
  1327.0000      7.8121      2.4916      0.0575      9.5994     21.0438     63.9527
  1327.1000      7.8121      2.4990      0.0473      9.1522     21.6484     67.5896
  1327.2000      7.8121      2.4944      0.0839      9.4326     21.7217     68.7650
  1327.3000      7.8170      2.4595      0.0462     11.5472     21.2718     67.3290
  1327.4000      7.8170      2.3887      0.0547     15.8360     20.6779     63.2816
  1327.5000      7.8365      2.2821     -0.0041     22.2987     20.0239     57.9518
  1327.6000      7.8365      2.1462     -0.0290     30.5317     18.7863     53.2378
  1327.7000      7.8365      1.9978     -0.1364     39.5286     16.8813     49.9746
  1327.8000      7.8536      1.8527     -0.1331     48.3205     14.8630     47.4838
  1327.9000      7.8536      1.7055     -0.1530     57.2400     12.9813     46.0680
  1328.0000      7.8651      1.5492     -0.1768     66.7168     11.0933     47.1024
  1328.1000      7.8651      1.4038     -0.1401     75.5291      9.3654     51.3933
  1328.2000      7.8651      1.3054     -0.1404     81.4918      8.1836     57.8059
  1328.3000      7.8787      1.2712     -0.0261     83.5634      7.5908     61.5762
  1328.4000      7.8787      1.2785      0.0885     83.1197      7.4775     60.6704
  1328.5000      8.0072      1.2976      0.1310     81.9622      7.7314     59.2022
  1328.6000      8.0072      1.3218      0.1736     80.4967      8.2969     58.8089
  1328.7000      8.0072      1.3527      0.1992     78.6249      9.0488     56.0633
  1328.8000      8.0224      1.3854      0.2080     76.6440      9.7815     51.7093
  1328.9000      8.0224      1.4072      0.2192     75.3202     10.3931     52.3371
  1329.0000      7.9512      1.4024      0.2131     75.6098     10.8662     58.6545
  1329.1000      7.9512      1.3713      0.1276     77.4958     11.0601     63.2172
  1329.2000      7.9512      1.3387      0.0385     79.4725     10.6416     62.2406
  1329.3000      7.9423      1.3281      0.0327     80.1128      9.7775     58.1847
  1329.4000      7.9423      1.3412      0.0769     79.3193      9.0639     53.6376
  1329.5000      7.9436      1.3676      0.0974     77.7239      8.7754     54.1286
  1329.6000      7.9436      1.3976      0.0990     75.9021      8.8742     62.3928
  1329.7000      7.9436      1.4231      0.0888     74.3546      9.2282     69.9058
  1329.8000      7.9398      1.4417      0.0629     73.2317      9.6126     72.1778
  1329.9000      7.9398      1.4634      0.0495     71.9158      9.8691     74.7974
  1330.0000      7.9471      1.4978      0.0819     69.8328     10.1166     79.0956
  1330.1000      7.9471      1.5367      0.1363     67.4700     10.4356     81.9429
  1330.2000      7.9471      1.5699      0.1393     65.4586     10.6747     84.4539
  1330.3000      7.9454      1.5955      0.1488     63.9080     10.7802     89.4841
  1330.4000      7.9454      1.6056      0.1533     63.2962     10.8910     95.7740
  1330.5000      7.9435      1.5991      0.0960     63.6939     11.1447     99.8419
  1330.6000      7.9435      1.5972      0.0967     63.8073     11.4176     98.9646
  1330.7000      7.9435      1.6221      0.0960     62.2954     11.5139     95.4379
  1330.8000      7.9469      1.6788      0.1661     58.8596     11.4657     94.4851
  1330.9000      7.9469      1.7597      0.2002     53.9605     11.3407     94.5664
  1331.0000      7.9579      1.8556      0.2390     48.1437     11.1040     93.9052
  1331.1000      7.9579      1.9622      0.2706     41.6872     10.9410     97.4953
  1331.2000      7.9579      2.0777      0.2699     34.6833     11.2469    105.1536
  1331.3000      7.9751      2.1923      0.3513     27.7418     12.2010    111.7551
  1331.4000      7.9751      2.2897      0.3760     21.8376     13.4745    117.7334
  1331.5000      7.9727      2.3701      0.3004     16.9629     14.5577    126.2973
  1331.6000      7.9727      2.4439      0.2248     12.4902     15.6451    133.9347
  1331.7000      7.9727      2.5071      0.2093      8.6617     17.2027    133.3281
  1331.8000      7.9674      2.5505      0.1494      6.0304     18.9979    125.2216
  1331.9000      7.9674      2.5668      0.1590      5.0403     20.6024    121.2600
  1332.0000      7.9793      2.5322      0.1906      7.1386     21.7785    127.0288
  1332.1000      7.9793      2.4354      0.0696     13.0032     22.3242    134.6295
  1332.2000      7.9793      2.3194     -0.0244     20.0361     22.4992    137.0321
  1332.3000      7.9893      2.2458     -0.1091     24.5000     22.8635    134.4816
  1332.4000      7.9893      2.2384     -0.0275     24.9439     23.5876    131.6718
  1332.5000      8.0237      2.2779      0.0352     22.5536     24.3348    131.6010
  1332.6000      8.0237      2.3292      0.1095     19.4410     24.5926    133.2311
  1332.7000      8.0237      2.3659      0.2025     17.2166     24.3547    135.3499
  1332.8000      8.0325      2.3862      0.2687     15.9865     24.1111    136.0784
  1332.9000      8.0325      2.4049      0.3293     14.8561     23.9828    135.2289
  1333.0000      8.0320      2.4215      0.4320     13.8515     23.8768    136.5854
  1333.1000      8.0320      2.4184      0.4226     14.0374     23.8189    139.0565
  1333.2000      8.0320      2.3936      0.3245     15.5398     23.7070    137.5132
  1333.3000      8.0330      2.3678      0.1894     17.1055     23.3815    135.7763
  1333.4000      8.0330      2.3578      0.1483     17.7093     22.7220    138.1994
  1333.5000      8.0379      2.3651      0.1184     17.2696     21.8722    138.4562
  1333.6000      8.0379      2.3924      0.0703     15.6097     21.3414    134.2748
  1333.7000      8.0379      2.4416      0.1502     12.6287     21.3160    132.1487
  1333.8000      8.0395      2.4896      0.2171      9.7220     21.4943    132.1974
  1333.9000      8.0395      2.5085      0.1998      8.5785     21.4971    132.1301
  1334.0000      8.0342      2.5018      0.1592      8.9822     21.3300    134.7775
  1334.1000      8.0342      2.4916      0.1326      9.6022     21.3883    138.6251
  1334.2000      8.0342      2.4870      0.1749      9.8787     21.7377    137.0833
  1334.3000      8.0387      2.4807      0.1861     10.2615     21.8865    130.3632
  1334.4000      8.0387      2.4629      0.1711     11.3413     21.5362    124.6502
  1334.5000      8.0368      2.4372      0.0712     12.8949     21.0628    122.6397
  1334.6000      8.0368      2.4180      0.0864     14.0598     20.7471    125.6106
  1334.7000      8.0368      2.4149      0.0466     14.2475     20.4842    131.2780
