~Version Information
 VERS.                                  2.0 : CWLS LAS VERSION
 WRAP.                                   NO : WRAPING MODE
 SWARE .                 MController 2.5.0J : SOFTWARE VERSION
~Well Information
 WELL.                         Sliva 01-43V : WELL
 COMP.                Petrogulf Corporation : COMPANY
 FLD.                      Purgatoire River : FIELD
 LOC.                 NE/SE Sec 1 T33S R68W : LOCATION
 DATE.                          08/26-27/05 : DATE(S) LOGGED
 SRVC.       BLANCO Geological Services LLC : SERVICE COMPANY
 STAT.                                   CO : STATE
 CNTY.                           Las Animas : COUNTY
 CTRY.                                  USA : COUNTRY
 API.                       05-071-08371-00 : API NUMBER
 STRT.FT                             503.00 : START DEPTH
 STOP.FT                            2764.00 : STOP DEPTH
 STEP.FT                               1.00 : DEPTH INCREMENT
 NULL.                                -9999 : NULL VALUE
~Curve information
 DEPTH.FT                                   :
 ROP.MIN/FT                                 :
 GAS.UNITS                                  :
~ASCII Log data
# ...
      2303.0         0.17          6.1 
      2304.0         0.23          5.9 
      2305.0         0.32          5.4 
      2306.0         0.33          5.1 
      2307.0         0.27          4.9 
      2308.0         0.27          4.8 
      2309.0         0.27          4.1 
      2310.0         0.30          4.6 
      2311.0         0.23          4.9 
      2312.0         0.27          6.7 
      2313.0         0.23         10.6 
      2314.0         2.45        108.9 
      2315.0         0.43         83.6 
      2316.0         0.43         47.4 
      2317.0         0.43         29.2 
      2318.0         0.52         19.2 
      2319.0         0.67         12.7 
      2320.0         0.90          8.5 
      2321.0         0.73          5.7 
      2322.0         0.40          4.8 
      2323.0         0.35          4.7 
      2324.0         0.30          4.5 
      2325.0         0.30          4.4 
      2326.0         0.27          3.7 
      2327.0         0.27          3.8 
      2328.0         0.37          3.4 
      2329.0         0.43          3.3 
      2330.0         0.43          3.3 
      2331.0         0.37          3.4 
      2332.0         0.42          3.4 
      2333.0         0.40          3.5 
      2334.0         0.37          3.5 
      2335.0         0.47          4.2 
      2336.0         0.30          4.1 
      2337.0         0.27          4.0 
      2338.0         0.30          4.3 
      2339.0         0.42          4.2 
      2340.0         0.33          3.6 
      2341.0         0.47          3.6 
      2342.0         0.43          4.5 
      2343.0         0.33          8.8 
      2344.0         2.55        108.7 
      2345.0         0.83         49.8 
      2346.0         0.63         16.3 
      2347.0         0.65         10.7 
      2348.0         0.43          8.0 
      2349.0         0.33          6.9 
      2350.0         0.40          6.6 
      2351.0         0.43          6.8 
      2352.0         0.43          6.1 
      2353.0         0.40          5.7 
      2354.0         0.30          5.5 
      2355.0         0.35          5.5 
      2356.0         0.27          5.2 
      2357.0         0.33          4.7 
      2358.0         0.30          4.9 
      2359.0         0.33          8.1 
      2360.0         0.30         10.9 
      2361.0         0.23         10.8 
      2362.0         0.20         10.1 
      2363.0         0.20          9.1 
      2364.0         0.33          8.3 
      2365.0         0.35          7.1 
      2366.0         0.40          6.3 
      2367.0         0.43          5.7 
      2368.0         0.43          9.1 
      2369.0         0.40          9.1 
      2370.0         0.30          6.2 
      2371.0         0.17          5.1 
      2372.0         0.37          4.9 
      2373.0         0.48          7.0 
      2374.0         2.48         97.6 
      2375.0         0.63         67.7 
      2376.0         0.50         28.5 
      2377.0         0.53         15.3 
      2378.0         0.47          9.4 
      2379.0         0.47          8.2 
      2380.0         0.43          7.5 
      2381.0         0.45          7.3 
      2382.0         0.33          6.6 
      2383.0         0.40          6.3 
      2384.0         0.37          5.6 
      2385.0         0.40          5.6 
      2386.0         0.37          4.9 
      2387.0         0.47          4.5 
      2388.0         0.42          4.0 
      2389.0         0.37          3.8 
      2390.0         0.40          3.5 
      2391.0         0.47          3.9 
      2392.0         0.33          3.8 
      2393.0         0.37          3.9 
      2394.0         0.37          3.9 
      2395.0         0.43          4.0 
      2396.0         0.45          4.3 
      2397.0         0.37          4.4 
      2398.0         0.33          4.6 
      2399.0         0.40          4.1 
      2400.0         0.33          3.6 
      2401.0         0.30          3.3 
      2402.0         0.33          3.8 
      2403.0         0.33          5.6 
      2404.0         5.20        134.2 
      2405.0         0.77         36.5 
      2406.0         0.53         49.2 
      2407.0         0.47         80.0 
      2408.0         0.52        149.4 
      2409.0         0.40        171.6 
      2410.0         0.67        171.7 
      2411.0         0.50        131.9 
      2412.0         0.53         72.5 
      2413.0         0.70         32.3 
      2414.0         0.75         14.3 
      2415.0         0.40          8.3 
      2416.0         0.40          7.4 
      2417.0         0.40          6.9 
      2418.0         0.57          6.2 
      2419.0         0.43          5.9 
      2420.0         0.50          5.8 
      2421.0         0.72          6.5 
      2422.0         0.90          6.6 
      2423.0         1.00          6.3 
      2424.0         0.78          5.2 
      2425.0         0.60          5.1 
      2426.0         0.63          5.0 
      2427.0         0.67          5.5 
      2428.0         0.63          5.8 
      2429.0         0.68          6.1 
      2430.0         0.73          5.4 
      2431.0         0.73          4.3 
      2432.0         0.57         10.3 
      2433.0         0.63         52.4 
      2434.0         3.12         89.0 
      2435.0         0.88          8.4 
      2436.0         0.47          7.4 
      2437.0         0.33          6.8 
      2438.0         0.30          6.6 
      2439.0         0.37          6.4 
      2440.0         0.37          5.9 
      2441.0         0.33          5.9 
      2442.0         0.33          5.9 
      2443.0         0.33          6.0 
      2444.0         0.42          5.5 
      2445.0         0.40          5.6 
      2446.0         0.43          5.7 
      2447.0         0.47          5.4 
      2448.0         0.47          5.2 
      2449.0         0.47          5.3 
      2450.0         0.43          5.1 
      2451.0         0.47          5.1 
      2452.0         0.52          5.4 
      2453.0         0.53          5.1 
      2454.0         0.47          4.8 
      2455.0         0.50          4.5 
      2456.0         0.43          4.2 
      2457.0         0.47          4.2 
      2458.0         0.52          4.1 
      2459.0         0.50          4.1 
      2460.0         0.50          3.9 
      2461.0         0.47          3.8 
      2462.0         0.47          4.2 
      2463.0         0.52          8.0 
      2464.0         3.65         65.9 
      2465.0         0.57         11.0 
      2466.0         0.63          8.7 
      2467.0         0.68          7.3 
      2468.0         0.87          6.7 
      2469.0         0.57          5.4 
      2470.0         0.47          5.1 
      2471.0         0.43          5.1 
      2472.0         0.47          4.8 
      2473.0         0.45          5.3 
      2474.0         0.47          6.0 
      2475.0         0.40          5.6 
      2476.0         0.63          5.0 
      2477.0         0.93          5.1 
      2478.0         0.35          5.2 
      2479.0         0.50          6.6 
      2480.0         0.63          7.6 
      2481.0         0.37          8.0 
      2482.0         0.43          8.1 
      2483.0         0.50          7.7 
      2484.0         0.48          7.2 
      2485.0         0.47         11.0 
      2486.0         0.43         12.8 
      2487.0         0.30         12.4 
      2488.0         0.43         11.3 
      2489.0         0.57         10.4 
      2490.0         0.42          9.5 
      2491.0         0.47          8.2 
      2492.0         0.53          7.2 
      2493.0         0.57          5.4 
      2494.0         3.25         57.4 
      2495.0         0.77         57.1 
      2496.0         0.72         29.1 
      2497.0         0.47         16.1 
      2498.0         0.30         12.2 
      2499.0         0.50         11.3 
      2500.0         0.53          9.8 
      2501.0         0.83          9.1 
      2502.0         0.78          7.2 
