~Version Information
VERS.                      2.0: CWLS Log ASCII Standard - VERSION 2.0
WRAP.                       NO: One line per depth step
~Well Information Block
STRT.FT               583.0000: 
STOP.FT              1700.0000: 
STEP.FT                 0.1000: 
NULL.                -999.2500: 
COMP.          Pioneer Natural Resources: COMPANY
WELL.          Scott Canyon 11-18 Tr: WELL
FLD.           Purgatoire River: FIELD
LOC.           411' FNL & 580' FWL: LOCATION
PROV.                 Colorado: PROVINCE
CNTY.               Las Animas: COUNTRY
SRVC.                Patterson: SERVICE COMPANY
DATE.          Thu Feb 17 15:41:32 2005: LOG DATE
UWI.           05 071 08286 00: UNIQUE WELL ID
~Curve Information Block
DEPT.FT            0 000 00 00: Depth
DCAL.in                       : CDL Caliper
RHOB.g/cc                     : CDL Bulk Density
RHOC.g/cc                     : CDL Density Correction
DPOR.pu                       : CDL Density Porosity
GR.GAPI                       : Gamma Ray
NPOR.pu                       : Neutron Porosity
~Parameter Information Block
~A  Depth       DCAL        RHOB        RHOC        DPOR         GR         NPOR    
# ...
  1610.2000      7.9221      2.4930      0.0423      9.5161    115.1733     23.9456
  1610.3000      7.9288      2.4902      0.0203      9.6828    118.1982     23.4037
  1610.4000      7.9288      2.5019      0.0345      8.9738    118.2978     23.2690
  1610.5000      7.9405      2.5164      0.0325      8.0964    110.5827     23.3920
  1610.6000      7.9405      2.5189      0.0789      7.9450    105.9708     23.7013
  1610.7000      7.9405      2.5101      0.0309      8.4797    110.6559     24.1632
  1610.8000      7.9188      2.5023      0.0200      8.9488    116.3616     24.1891
  1610.9000      7.9188      2.5097      0.0131      8.5040    117.2035     23.2233
  1611.0000      7.9444      2.5343      0.0555      7.0131    113.5450     22.1830
  1611.1000      7.9444      2.5570      0.0317      5.6386    107.4440     21.7961
  1611.2000      7.9444      2.5603      0.0621      5.4389    100.6584     21.5981
  1611.3000      7.9152      2.5518      0.0304      5.9510     94.7820     21.5361
  1611.4000      7.9152      2.5446      0.0632      6.3906     91.1104     21.8820
  1611.5000      7.9233      2.5356      0.0430      6.9344     89.6233     22.4110
  1611.6000      7.9233      2.5254      0.0677      7.5488     87.6405     22.7633
  1611.7000      7.9233      2.5269     -0.0012      7.4592     84.9125     23.3273
  1611.8000      7.8456      2.5449      0.0228      6.3667     85.0104     24.4825
  1611.9000      7.8456      2.5630      0.0613      5.2743     87.2306     25.5029
  1612.0000      7.8398      2.5671      0.0595      5.0251     86.8165     25.5336
  1612.1000      7.8398      2.5593      0.0831      5.4951     83.0116     24.7422
  1612.2000      7.8398      2.5509      0.0388      6.0049     77.6417     23.8228
  1612.3000      7.8093      2.5569      0.0665      5.6407     72.3068     23.2691
  1612.4000      7.8093      2.5737      0.1116      4.6224     68.6888     23.2288
  1612.5000      7.8145      2.5837      0.0612      4.0194     68.9829     23.3003
  1612.6000      7.8145      2.5807      0.0572      4.2010     72.3635     23.0190
  1612.7000      7.8145      2.5629      0.0615      5.2788     72.6776     22.4339
  1612.8000      7.8114      2.5363      0.0242      6.8892     66.9894     21.6108
  1612.9000      7.8114      2.5202      0.0412      7.8691     57.6886     20.8729
  1613.0000      7.7700      2.5136      0.0741      8.2671     49.7365     20.5623
  1613.1000      7.7700      2.4937      0.0749      9.4723     47.1176     20.4399
  1613.2000      7.7700      2.4605      0.0222     11.4862     50.1730     20.2982
  1613.3000      7.7662      2.4427      0.0177     12.5665     55.6514     20.2758
  1613.4000      7.7662      2.4577      0.0174     11.6569     58.2555     20.6116
  1613.5000      7.7742      2.4985      0.0764      9.1827     57.5255     21.0733
  1613.6000      7.7742      2.5414      0.1387      6.5838     57.3560     21.0519
  1613.7000      7.7742      2.5583      0.1250      5.5551     59.6650     20.5786
  1613.8000      7.7836      2.5422      0.0755      6.5314     62.2798     20.0264
  1613.9000      7.7836      2.5077      0.1039      8.6247     62.6586     19.3053
  1614.0000      7.7855      2.4730      0.0313     10.7292     61.6135     18.2991
  1614.1000      7.7855      2.4485      0.0771     12.2120     61.2794     17.5009
  1614.2000      7.7855      2.4335      0.0201     13.1208     61.6854     17.3445
  1614.3000      7.7927      2.4268      0.0408     13.5284     59.6104     17.6395
  1614.4000      7.7927      2.4255      0.0367     13.6079     53.6583     17.8330
  1614.5000      7.8049      2.4294      0.0330     13.3721     47.2338     17.5632
  1614.6000      7.8049      2.4415      0.0537     12.6384     43.2110     17.4365
  1614.7000      7.8049      2.4565      0.0533     11.7281     40.9179     18.2581
  1614.8000      7.8099      2.4625      0.0891     11.3649     38.9897     19.6158
  1614.9000      7.8099      2.4551      0.0591     11.8130     38.4264     20.3383
  1615.0000      7.7959      2.4440      0.0534     12.4871     40.4209     20.2618
  1615.1000      7.7959      2.4436      0.0098     12.5118     44.9814     20.1988
  1615.2000      7.7959      2.4547      0.0774     11.8381     50.9851     20.6161
  1615.3000      7.7701      2.4599      0.0554     11.5205     54.9014     21.6370
  1615.4000      7.7701      2.4509      0.0733     12.0668     54.7008     23.0646
  1615.5000      7.7662      2.4389      0.0612     12.7944     53.4739     24.2443
  1615.6000      7.7662      2.4426      0.0491     12.5696     54.2367     24.8692
  1615.7000      7.7662      2.4624      0.0503     11.3697     56.5212     24.9144
  1615.8000      7.7790      2.4759      0.1051     10.5540     59.8226     24.3188
  1615.9000      7.7790      2.4732      0.0678     10.7162     63.7922     23.5308
  1616.0000      7.8036      2.4758      0.0435     10.5586     67.7184     23.1412
  1616.1000      7.8036      2.5034      0.0651      8.8857     72.9573     23.1107
  1616.2000      7.8036      2.5398      0.1366      6.6787     79.6572     22.8972
  1616.3000      7.8155      2.5559      0.1130      5.7004     84.3199     22.0569
  1616.4000      7.8155      2.5511      0.0711      5.9950     84.9827     20.8453
  1616.5000      7.8176      2.5445      0.0634      6.3926     82.4098     20.0380
  1616.6000      7.8176      2.5427      0.0854      6.5006     79.4313     20.0770
  1616.7000      7.8176      2.5347      0.0278      6.9896     78.2357     20.4634
  1616.8000      7.8320      2.5145      0.0318      8.2150     76.8680     20.3968
  1616.9000      7.8320      2.4915     -0.0150      9.6039     73.1741     20.0903
  1617.0000      7.8431      2.4773     -0.0073     10.4696     68.8353     20.1493
  1617.1000      7.8431      2.4664      0.0075     11.1303     65.1952     20.4590
  1617.2000      7.8431      2.4516      0.0018     12.0223     61.0217     20.6592
  1617.3000      7.8557      2.4434     -0.0161     12.5211     55.5798     20.5514
  1617.4000      7.8557      2.4487      0.0380     12.2021     50.7887     20.4038
  1617.5000      7.8535      2.4578      0.0103     11.6507     48.8734     20.7593
  1617.6000      7.8535      2.4625      0.0252     11.3619     49.7155     21.5922
  1617.7000      7.8535      2.4614      0.0533     11.4328     53.2738     22.3085
  1617.8000      7.8153      2.4556      0.0252     11.7816     57.3492     22.2169
  1617.9000      7.8153      2.4514      0.0365     12.0346     57.1244     21.1730
  1618.0000      7.7949      2.4546      0.0291     11.8417     51.7949     19.7896
  1618.1000      7.7949      2.4652      0.0500     11.2020     45.4448     18.8551
  1618.2000      7.7949      2.4794      0.0485     10.3397     42.6660     18.5327
  1618.3000      7.8184      2.4950      0.0334      9.3909     44.1878     18.3848
  1618.4000      7.8184      2.5080      0.0799      8.6046     46.5559     18.3140
  1618.5000      7.8334      2.5077      0.0821      8.6234     47.8166     18.4914
  1618.6000      7.8334      2.4842      0.0778     10.0506     48.1325     18.8245
  1618.7000      7.8334      2.4461     -0.0008     12.3549     47.9855     19.3021
  1618.8000      7.8402      2.4230     -0.0386     13.7556     47.9173     19.7661
  1618.9000      7.8402      2.4203      0.0244     13.9212     47.3506     19.8822
  1619.0000      7.8294      2.4061      0.0275     14.7789     46.6690     19.7049
  1619.1000      7.8294      2.3788     -0.0239     16.4347     48.1545     19.2831
  1619.2000      7.8294      2.3745     -0.0250     16.6976     51.4174     18.9612
  1619.3000      7.8036      2.3999      0.0229     15.1582     54.7757     19.2534
  1619.4000      7.8036      2.4309      0.0358     13.2810     57.7859     20.0888
  1619.5000      7.8084      2.4498      0.0642     12.1354     59.3248     21.1876
  1619.6000      7.8084      2.4487      0.0326     12.1977     57.6258     22.1597
  1619.7000      7.8084      2.4344     -0.0143     13.0680     54.0569     22.6308
