~Version Information
VERS.                      2.0: CWLS Log ASCII Standard - VERSION 2.0
WRAP.                       NO: One line per depth step
~Well Information Block
STRT.FT                -7.5000: 
STOP.FT              1716.7500: 
STEP.FT                 0.2500: 
NULL.                -999.2500: 
COMP.          Pioneer Natural Resources: COMPANY
WELL.          Lookout Point 31-23 Tr: WELL
FLD.           Purgatorie River: FIELD
LOC.           541' FNL & 1786' FEL--------: LOCATION
PROV.                       CO: PROVINCE
CNTY.               Las Animas: COUNTRY
SRVC.                         : SERVICE COMPANY
DATE.          Fri Jan 28 08:30:47 2005: LOG DATE
UWI.         005 071 08260 : UNIQUE WELL ID
~Curve Information Block
DEPT.FT            0 000 00 00: Depth
CCL.                          : Casing Collar Locator
TT3.usec                      : CBL 3' Travel Time
AMP3.mV                       : CBL 3' Amplitude
GR.GAPI                       : Gamma Ray
~Parameter Information Block
~A  Depth       CCL         TT3         AMP3         GR     
# ...
  1433.0000      0.0000    674.4758      5.8010    111.5584
  1433.2500      0.0000    678.6900      6.0000    101.4227
  1433.5000      0.0000    683.6217      5.9875     98.7471
  1433.7500      0.0000    689.1267      5.8074    104.6955
  1434.0000      0.0000    693.6189      5.6655    116.1036
  1434.2500      0.0000    696.5908      5.7486    127.3831
  1434.5000      0.0000    699.0529      6.0630    134.3027
  1434.7500      0.0000    701.6738      6.4236    136.4060
  1435.0000      0.0000    703.3122      6.5941    136.2142
  1435.2500      0.0000    701.9912      6.4621    136.4149
  1435.5000      0.0000    697.1434      6.1198    137.6245
  1435.7500      0.0000    690.6289      5.8027    138.2290
  1436.0000      0.0000    685.7976      5.7338    136.0221
  1436.2500      0.0000    685.5377      5.9768    130.1728
  1436.5000      0.0000    690.5559      6.3994    122.1472
  1436.7500      0.0000    699.0980      6.7661    115.2697
  1437.0000      0.0000    708.4061      6.8853    113.0519
  1437.2500      0.0000    716.3598      6.7095    116.9250
  1437.5000      0.0000    722.0818      6.3406    125.3606
  1437.7500      0.0000    725.9642      5.9633    135.5102
  1438.0000      0.0000    729.3990      5.7559    145.3633
  1438.2500      0.0000    733.5836      5.8109    154.3044
  1438.5000      0.0000    737.9481      6.0899    162.5668
  1438.7500      0.0000    740.2281      6.4403    170.6918
  1439.0000      0.0000    738.7195      6.6766    178.8986
  1439.2500      0.0000    734.3633      6.6797    186.5097
  1439.5000      0.0000    730.1569      6.4538    192.0960
  1439.7500      0.0000    728.4638      6.1018    194.2093
  1440.0000      0.0000    729.2814      5.7458    192.2101
  1440.2500      0.0000    731.1091      5.4720    186.8911
  1440.5000      0.0000    732.8464      5.3378    180.1611
  1440.7500      0.0000    734.4071      5.3858    173.3823
  1441.0000      0.0000    735.6724      5.6163    166.1736
  1441.2500      0.0000    735.0278      5.9538    157.7081
  1441.5000      0.0000    729.3484      6.2624    149.1073
  1441.7500      0.0000    716.1771      6.4084    143.6614
  1442.0000      0.0000    696.1483      6.3224    144.1110
  1442.2500      0.0000    672.5658      6.0278    149.7323
  1442.5000      0.0000    648.3848      5.6219    156.5593
  1442.7500      0.0000    624.5846      5.2271    160.9069
  1443.0000      0.0000    601.7772      4.9456    162.2793
  1443.2500      0.0000    582.0042      4.8396    162.4569
  1443.5000      0.0000    567.7578      4.9306    162.5574
  1443.7500      0.0000    559.5009      5.2010    161.8212
  1444.0000      0.0000    554.9086      5.5930    158.7961
  1444.2500      0.0000    550.9918      6.0141    152.8944
  1444.5000      0.0000    546.8832      6.3594    144.9212
  1444.7500      0.0000    544.2869      6.5428    136.7684
  1445.0000      0.0000    545.4935      6.5293    130.6235
  1445.2500      0.0000    551.7178      6.3583    127.5617
  1445.5000      0.0000    563.0906      6.1256    126.3815
  1445.7500      0.0000    578.9714      5.9044    124.5856
  1446.0000      0.0000    597.5670      5.6793    121.2414
  1446.2500      0.0000    615.8325      5.3988    118.1693
  1446.5000      0.0000    630.6357      5.0885    117.6577
  1446.7500      0.0000    641.0142      4.8539    119.9137
  1447.0000      0.0000    649.8540      4.7634    123.4286
  1447.2500      2.0000    661.9412      4.7830    126.7640
  1447.5000      2.0000    678.8177      4.8342    129.1924
  1447.7500      0.0000    696.6999      4.8756    130.7257
  1448.0000      0.0000    710.4027      4.9352    132.5355
  1448.2500      0.0000    717.2505      5.0974    136.5132
  1448.5000      0.0000    716.1987      5.4386    143.3131
  1448.7500      0.0000    705.7760      5.9377    151.2201
  1449.0000      0.0000    685.0054      6.4653    157.6909
  1449.2500      0.0000    656.0106      6.8824    161.6112
  1449.5000      0.0000    624.6220      7.1325    163.4411
  1449.7500      0.0000    597.5802      7.2281    163.4845
  1450.0000      0.0000    578.5224      7.1929    160.8464
  1450.2500      0.0000    566.8264      7.0437    154.7603
  1450.5000      0.0000    560.0522      6.8088    146.7296
  1450.7500      0.0000    556.7846      6.5322    140.1588
  1451.0000      0.0000    557.5353      6.2544    137.1993
  1451.2500      0.0000    564.1922      5.9986    136.7042
  1451.5000      0.0000    578.7208      5.7766    136.1709
  1451.7500      0.0000    601.2245      5.5996    135.1699
  1452.0000      0.0000    628.5702      5.4773    135.8060
  1452.2500      0.0000    655.2333      5.4139    139.9989
  1452.5000      0.0000    676.0536      5.4091    147.2302
  1452.7500      0.0000    688.7070      5.4603    154.9454
  1453.0000      0.0000    694.3248      5.5603    160.3174
  1453.2500      0.0000    696.1790      5.6981    161.4186
  1453.5000      0.0000    697.3318      5.8608    157.7848
  1453.7500      0.0000    698.8805      6.0322    150.9105
  1454.0000      0.0000    700.2240      6.1908    143.8568
  1454.2500      0.0000    700.8611      6.3150    139.4188
  1454.5000      0.0000    701.4951      6.3956    138.2428
  1454.7500      0.0000    703.2798      6.4378    138.7509
  1455.0000      0.0000    706.5374      6.4551    138.7018
  1455.2500      0.0000    710.4936      6.4688    136.5625
  1455.5000      0.0000    713.8063      6.5126    131.6424
  1455.7500      0.0000    715.1203      6.6169    123.7706
  1456.0000      0.0000    713.3076      6.7833    113.7867
  1456.2500      0.0000    707.3956      6.9793    104.2655
  1456.5000      0.0000    697.0912      7.1642     98.6740
  1456.7500      0.0000    684.8185      7.3172     99.0700
  1457.0000      0.0000    676.8058      7.4386    104.9104
  1457.2500      0.0000    679.3022      7.5342    114.2667
  1457.5000      0.0000    692.1829      7.6059    125.5439
  1457.7500      0.0000    707.6696      7.6545    137.6405
  1458.0000      0.0000    716.0550      7.6837    149.2923
  1458.2500      0.0000    711.3870      7.7046    159.2865
  1458.5000      0.0000    692.2941      7.7330    166.8883
  1458.7500      0.0000    660.9761      7.7790    171.3078
  1459.0000      0.0000    623.3682      7.8412    171.2880
  1459.2500      0.0000    588.4055      7.9167    166.3265
  1459.5000      0.0000    564.9397      8.0042    158.4624
  1459.7500      0.0000    558.9828      8.0886    152.0238
  1460.0000      0.0000    573.0809      8.1298    150.6879
  1460.2500      0.0000    605.8677      8.0818    154.6021
  1460.5000      0.0000    650.5331      7.9186    160.8568
  1460.7500      0.0000    694.7142      7.6358    166.4723
  1461.0000      0.0000    724.7972      7.2432    169.9300
  1461.2500      0.0000    732.6738      6.7746    170.2012
  1461.5000      0.0000    719.2261      6.2932    166.4470
  1461.7500      0.0000    691.7505      5.8645    159.6783
  1462.0000      0.0000    658.7453      5.5217    153.3921
  1462.2500      0.0000    627.3414      5.2660    151.4477
  1462.5000      0.0000    603.8670      5.0929    155.3033
  1462.7500      0.0000    594.2376      5.0038    162.9404
  1463.0000      0.0000    602.5623      4.9889    169.7736
  1463.2500      0.0000    628.5422      5.0136    171.0242
  1463.5000      0.0000    665.3362      5.0289    164.1846
  1463.7500      0.0000    701.1478      5.0080    149.8862
  1464.0000      0.0000    725.2397      4.9781    131.1471
  1464.2500      0.0000    733.5587      5.0114    112.0986
  1464.5000      0.0000    729.3345      5.1730     96.5156
  1464.7500      0.0000    719.4052      5.4755     86.1636
  1465.0000      0.0000    710.1757      5.8838     80.0352
  1465.2500      0.0000    705.5234      6.3533     75.5446
  1465.5000      0.0000    706.4631      6.8489     70.7507
  1465.7500      0.0000    711.5753      7.3303     65.3961
  1466.0000      0.0000    718.1832      7.7407     60.2414
  1466.2500      0.0000    724.1618      8.0238     56.2019
