~Version Information
VERS.                      2.0: CWLS Log ASCII Standard - VERSION 2.0
WRAP.                       NO: One line per depth step
~Well Information Block
STRT.FT               590.0000: 
STOP.FT              1563.5000: 
STEP.FT                 0.2500: 
NULL.                -999.2500: 
COMP.          Petrogulf Corporation: COMPANY
WELL.             State 16-43R: WELL
FLD.           Purgatorie River: FIELD
LOC.           2538' FSL & 716' FEL: LOCATION
PROV.                 Colorado: PROVINCE
CNTY.               Las Animas: COUNTRY
SRVC.                Patterson: SERVICE COMPANY
DATE.          Tue Aug 09 14:21:37 2005: LOG DATE
UWI.                          : UNIQUE WELL ID
~Curve Information Block
DEPT.FT            0 000 00 00: Depth
RILD.Ohm-m                    : DIL Deep Resistivity
RILM.Ohm-m                    : DIL Medium Resistivity
GR.GAPI                       : Gamma Ray
~Parameter Information Block
~A  Depth       RILD        RILM         GR     
# ...
  1132.7500     19.0948     19.3068    122.9910
  1133.0000     19.2387     19.3883    130.2537
  1133.2500     19.7971     19.6362    131.9842
  1133.5000     20.1381     20.8147    131.9042
  1133.7500     20.0246     21.4896    130.9898
  1134.0000     20.2105     21.2474    124.5592
  1134.2500     20.1648     21.3072    121.4870
  1134.5000     19.7898     21.5866    119.3286
  1134.7500     19.7878     21.8981    109.5162
  1135.0000     18.9780     21.5186    117.2283
  1135.2500     19.2261     21.5346    120.2189
  1135.5000     19.7248     21.6273    126.5269
  1135.7500     19.0144     21.3057    127.8084
  1136.0000     18.9050     20.1888    136.2884
  1136.2500     18.6919     19.1780    142.9339
  1136.5000     18.6710     18.6922    151.9531
  1136.7500     17.7050     18.0929    151.8380
  1137.0000     18.1081     17.5464    148.5863
  1137.2500     17.6365     17.1245    148.8398
  1137.5000     18.5029     16.9711    151.1317
  1137.7500     18.0344     16.5269    154.7268
  1138.0000     18.0186     16.7159    144.6985
  1138.2500     18.0424     17.3493    137.2237
  1138.5000     17.8568     17.5970    124.7454
  1138.7500     17.7984     18.6537    113.6971
  1139.0000     18.5925     18.6063    106.8932
  1139.2500     19.0983     18.3019    106.0592
  1139.5000     18.9092     19.1970    107.9614
  1139.7500     19.0701     19.5112    103.4974
  1140.0000     18.8042     20.3526    100.1631
  1140.2500     19.4433     20.2657    100.9189
  1140.5000     20.5819     21.3858     92.8882
  1140.7500     21.0061     21.7153     98.9439
  1141.0000     20.8065     22.3213     99.1696
  1141.2500     21.5534     21.8330    102.2548
  1141.5000     21.7674     23.4716    100.4926
  1141.7500     21.3607     23.1283     98.5277
  1142.0000     21.6313     23.0276     98.5578
  1142.2500     23.2098     23.6653    104.2144
  1142.5000     22.5231     23.8237    108.0330
  1142.7500     22.3675     24.3413    112.4013
  1143.0000     22.1074     23.9397    106.9556
  1143.2500     21.0811     24.0168    109.0457
  1143.5000     20.3369     23.4812    125.2795
  1143.7500     19.6334     22.4528    137.7716
  1144.0000     19.9790     21.1470    143.1896
  1144.2500     20.0628     19.6092    148.6323
  1144.5000     19.5234     18.8576    147.3791
  1144.7500     18.3550     19.0469    147.9012
  1145.0000     18.3144     18.3635    141.8501
  1145.2500     18.2852     18.0290    144.1818
  1145.5000     17.8381     17.6614    146.3099
  1145.7500     17.3511     16.9922    162.5350
  1146.0000     17.2070     16.0333    158.5031
  1146.2500     17.4293     16.0328    153.3144
  1146.5000     17.7376     15.8416    155.4919
  1146.7500     18.2017     15.8983    144.9748
  1147.0000     18.6921     16.7211    132.3161
  1147.2500     18.5464     17.8689    127.5764
  1147.5000     18.7371     19.4823    112.9076
  1147.7500     18.5486     19.9421    110.8962
  1148.0000     18.2709     20.5156    103.9792
  1148.2500     18.8294     21.3425    106.1093
  1148.5000     18.6667     22.7906    107.1513
  1148.7500     17.9144     22.3667    107.7601
  1149.0000     17.4452     21.5996    113.8026
  1149.2500     17.7873     20.9469    112.0738
  1149.5000     17.4574     20.6418    127.7450
  1149.7500     16.8968     19.7000    143.7977
  1150.0000     16.6100     17.4422    165.2636
  1150.2500     16.6257     15.7260    174.9280
  1150.5000     17.0459     14.5701    189.3330
  1150.7500     16.5937     14.0018    189.8700
  1151.0000     17.3526     13.8748    178.9579
  1151.2500     16.9531     14.3112    172.3188
  1151.5000     17.0943     14.5313    153.7262
  1151.7500     16.5967     15.5798    130.9580
  1152.0000     16.6052     16.0587    123.3376
  1152.2500     15.9226     16.5142    111.8052
  1152.5000     16.0488     17.6955    101.5602
  1152.7500     16.3665     18.2575    106.6910
  1153.0000     16.5654     18.1388     98.7776
  1153.2500     17.1272     18.5995     93.3581
  1153.5000     18.7102     19.4896     96.0754
  1153.7500     19.4295     20.3650     95.7703
  1154.0000     20.8302     21.0048     96.6492
  1154.2500     20.9053     21.1911     91.6214
  1154.5000     21.0269     22.9905     95.0522
  1154.7500     21.3250     22.2812     96.0667
  1155.0000     21.4891     23.4486     95.6014
  1155.2500     22.1230     22.9263     92.8726
  1155.5000     21.2986     23.2482     92.2606
  1155.7500     21.8304     22.8724     96.8542
  1156.0000     20.9565     24.2573     98.8317
  1156.2500     21.7556     23.1365     98.8298
  1156.5000     21.0221     22.8510     91.3844
  1156.7500     21.4475     23.7551     93.3503
  1157.0000     22.2839     23.6315     98.5009
  1157.2500     22.2540     22.4512     96.4924
  1157.5000     22.3405     22.7473     96.6190
  1157.7500     23.4439     22.1922     93.8884
  1158.0000     22.7283     22.9080     99.8032
  1158.2500     23.4150     23.5093     97.2127
  1158.5000     23.5346     24.2810     99.5756
  1158.7500     24.7034     24.5163     99.4094
  1159.0000     24.9019     24.6532     99.5587
  1159.2500     25.7811     25.7233     97.2917
  1159.5000     26.2595     26.0076     97.0706
  1159.7500     26.5913     26.7126     94.4253
  1160.0000     26.6094     27.0711     96.9128
  1160.2500     26.2477     28.9142    102.0102
  1160.5000     26.9631     29.7522     95.8806
  1160.7500     27.0924     28.5006     91.8776
  1161.0000     27.0873     28.9409    107.7340
  1161.2500     26.9370     30.1590    105.8070
  1161.5000     28.2212     28.1720    103.9145
  1161.7500     27.8570     30.1380     99.6891
  1162.0000     27.4309     28.8199     95.6621
  1162.2500     26.4933     28.5563     88.4643
  1162.5000     25.9958     28.5605     94.6251
  1162.7500     26.5291     28.1916     87.6924
  1163.0000     25.1805     26.5793     91.0528
  1163.2500     25.1449     26.0004     96.8695
  1163.5000     25.3990     26.0138     99.5088
  1163.7500     23.6255     24.9448     98.1981
  1164.0000     24.1226     24.2923     87.9774
  1164.2500     23.4621     23.4739     93.6521
  1164.5000     23.8731     24.2143    102.7004
  1164.7500     24.3660     23.8009     97.6772
  1165.0000     23.5194     24.1714     91.5198
  1165.2500     23.2537     23.6433     89.0999
  1165.5000     22.8115     23.3258     91.1028
  1165.7500     22.9897     22.7316     96.5878
  1166.0000     23.2817     23.2910     88.9810
  1166.2500     22.8614     23.9999     89.9972
  1166.5000     22.3238     23.2213     87.2030
  1166.7500     23.3865     24.8881     84.8710
  1167.0000     24.3669     24.7656     84.9056
  1167.2500     23.0087     23.5818     87.8281
  1167.5000     23.4059     24.5430     88.8858
  1167.7500     24.0209     24.2130     91.2685
  1168.0000     23.6184     24.3763     84.2817
  1168.2500     23.9478     24.2638     83.5529
  1168.5000     24.1732     24.1160     84.0883
  1168.7500     24.8343     24.8972     86.1157
  1169.0000     25.3134     24.6647    102.8699
  1169.2500     25.8656     25.4476    100.8994
  1169.5000     25.5406     25.6981    106.1445
  1169.7500     25.4139     25.3263    104.0772
  1170.0000     27.3864     26.8575    104.5738
  1170.2500     27.3406     28.7190    104.8600
  1170.5000     26.7499     30.3314    100.2963
  1170.7500     28.3662     30.7324     98.0603
  1171.0000     28.8408     33.6782     92.3120
  1171.2500     29.1573     35.4804     80.6105
  1171.5000     29.3934     36.6302     71.2699
  1171.7500     29.4374     37.4054     70.6076
  1172.0000     28.4723     38.4459     72.7635
  1172.2500     29.6562     39.8227     83.0000
  1172.5000     29.8196     39.3042     93.5722
  1172.7500     29.1491     37.1062     87.7551
  1173.0000     29.0767     35.8213     95.7661
  1173.2500     28.4973     36.7690     93.8259
  1173.5000     28.5539     35.5364     89.3379
  1173.7500     27.4959     31.6124     93.0126
  1174.0000     28.0899     30.1031     90.5453
  1174.2500     27.7822     29.8488     86.9227
