~Version Information
VERS.                      2.0: CWLS Log ASCII Standard - VERSION 2.0
WRAP.                       NO: One line per depth step
~Well Information Block
STRT.FT               510.5000: 
STOP.FT              2075.5000: 
STEP.FT                 0.1000: 
NULL.                -999.2500: 
COMP.          Petrogulf Corporation: COMPANY
WELL.          Robinson 15-11V: WELL
FLD.           Purgatorie River: FIELD
LOC.           226' FNL & 592' FWL: LOCATION
CNTY.               Las Animas: COUNTY
SRVC.                         : SERVICE COMPANY
DATE.          Wed Aug 04 06:17:53 2004: LOG DATE
UWI.           05 071 08027 00: UNIQUE WELL ID
STAT.                 Colorado: STATE
~Curve Information Block
DEPT.FT            0 000 00 00: Depth
DCAL.in                       : CDL Caliper
RHOB.g/cc                     : CDL Bulk Density
RHOC.g/cc                     : CDL Density Correction
DPOR.pu                       : CDL Density Porosity
GR.GAPI                       : Gamma Ray
NPOR.pu                       : Neutron Porosity
~Parameter Information Block
~A  Depth       DCAL        RHOB        RHOC        DPOR         GR         NPOR    
# ...
  1960.1000      7.5673      2.5284      0.0642      7.3691    132.0600     23.0738
  1960.2000      7.5673      2.5220      0.0518      7.7597    133.5249     23.2581
  1960.3000      7.5640      2.5233      0.0765      7.6813    136.3768     23.4373
  1960.4000      7.5640      2.5188      0.1111      7.9488    139.9515     23.4428
  1960.5000      7.5757      2.5012      0.0764      9.0204    135.4224     23.0523
  1960.6000      7.5757      2.4865      0.0585      9.9114    124.3852     22.7775
  1960.7000      7.5757      2.4861      0.0872      9.9314    118.6453     23.4051
  1960.8000      7.5763      2.4920      0.0837      9.5761    119.8362     24.6250
  1960.9000      7.5763      2.4954      0.0578      9.3686    123.7804     25.3290
  1961.0000      7.5766      2.4969      0.0721      9.2811    128.2029     24.7405
  1961.1000      7.5766      2.5029      0.0660      8.9177    128.4040     23.4042
  1961.2000      7.5766      2.5178      0.0938      8.0128    126.7761     22.3161
  1961.3000      7.5784      2.5319      0.0948      7.1596    133.9103     21.5391
  1961.4000      7.5784      2.5394      0.0713      6.7023    148.6257     20.9770
  1961.5000      7.5644      2.5465      0.0769      6.2698    157.4825     20.9248
  1961.6000      7.5644      2.5490      0.0990      6.1241    156.4730     21.3575
  1961.7000      7.5644      2.5382      0.0982      6.7771    155.8631     22.0500
  1961.8000      7.5682      2.5210      0.0601      7.8183    159.6763     22.7446
  1961.9000      7.5682      2.5124      0.0642      8.3413    159.4583     23.2087
  1962.0000      7.5670      2.5168      0.0570      8.0709    153.0433     23.5743
  1962.1000      7.5670      2.5261      0.0783      7.5075    147.0084     23.8151
  1962.2000      7.5670      2.5316      0.0757      7.1740    142.0516     23.7561
  1962.3000      7.5667      2.5323      0.0992      7.1313    136.3459     23.4304
  1962.4000      7.5667      2.5266      0.1271      7.4789    133.3282     22.8877
  1962.5000      7.5715      2.5122      0.0894      8.3521    132.5225     22.3406
  1962.6000      7.5715      2.5002      0.0817      9.0797    132.3029     22.2925
  1962.7000      7.5715      2.4996      0.0843      9.1155    131.4390     22.7739
  1962.8000      7.5762      2.5035      0.0798      8.8794    123.9961     23.2632
  1962.9000      7.5762      2.5035      0.1040      8.8778    115.1119     23.5010
  1963.0000      7.6051      2.4973      0.0920      9.2547    114.9825     23.7757
  1963.1000      7.6051      2.4884      0.0759      9.7950    121.9465     24.1907
  1963.2000      7.6051      2.4805      0.0501     10.2722    128.8738     24.4539
  1963.3000      7.5828      2.4715      0.0898     10.8206    129.4491     24.3800
  1963.4000      7.5828      2.4572      0.0519     11.6857    124.8348     23.8857
  1963.5000      7.5742      2.4356      0.0601     12.9925    125.4220     23.1994
  1963.6000      7.5742      2.4034      0.0882     14.9455    136.2405     22.8600
  1963.7000      7.5742      2.3602      0.0772     17.5623    147.1259     23.1344
  1963.8000      7.5726      2.3202      0.0517     19.9872    146.1785     23.8036
  1963.9000      7.5726      2.3042      0.0579     20.9546    135.8514     24.3824
  1964.0000      7.5742      2.3279      0.0552     19.5232    128.1307     24.2605
  1964.1000      7.5742      2.3997      0.0738     15.1696    130.5132     23.4149
  1964.2000      7.5742      2.5066      0.1845      8.6911    139.1489     22.9352
  1964.3000      7.5757      2.6142      0.2624      2.1699    143.5694     23.3199
  1964.4000      7.5757      2.6912      0.3355     -2.4983    139.5745     23.5240
  1964.5000      7.5740      2.7193      0.3492     -4.2000    134.7342     22.8315
  1964.6000      7.5740      2.6965      0.3250     -2.8174    134.3302     21.9310
  1964.7000      7.5740      2.6386      0.2637      0.6915    136.7379     21.7069
  1964.8000      7.5709      2.5735      0.1422      4.6393    140.7922     22.3085
  1964.9000      7.5709      2.5288      0.0846      7.3452    146.1003     22.9990
  1965.0000      7.5704      2.5152      0.0877      8.1717    147.4038     22.7216
  1965.1000      7.5704      2.5261      0.0667      7.5066    138.9174     21.8353
  1965.2000      7.5704      2.5527      0.1199      5.8952    126.3164     21.5709
  1965.3000      7.5795      2.5878      0.1740      3.7704    117.1974     22.2434
  1965.4000      7.5795      2.6212      0.2391      1.7425    111.3122     23.0752
  1965.5000      7.5729      2.6365      0.2526      0.8205    109.1988     22.8330
  1965.6000      7.5729      2.6312      0.2042      1.1371    111.6163     21.4070
  1965.7000      7.5729      2.6224      0.1984      1.6736    114.4065     20.0317
  1965.8000      7.5663      2.6153      0.1841      2.1036    116.8655     19.5058
  1965.9000      7.5663      2.6076      0.1484      2.5723    123.6475     19.4708
  1966.0000      7.5702      2.6056      0.1462      2.6885    132.9658     19.2491
  1966.1000      7.5702      2.6109      0.1318      2.3691    138.2379     18.5203
  1966.2000      7.5702      2.6117      0.1313      2.3221    136.6166     17.3108
  1966.3000      7.5744      2.6046      0.0856      2.7529    131.3751     16.2383
  1966.4000      7.5744      2.5996      0.1054      3.0532    129.1531     15.8699
  1966.5000      7.5762      2.5872      0.1344      3.8067    129.9228     15.9311
  1966.6000      7.5762      2.5500      0.0794      6.0619    125.9551     15.8132
  1966.7000      7.5762      2.5082      0.0388      8.5967    115.9291     15.1376
  1966.8000      7.5755      2.4939      0.0586      9.4618    104.7333     14.1049
  1966.9000      7.5755      2.5033      0.1086      8.8895     93.9010     13.1947
  1967.0000      7.5769      2.5094      0.1217      8.5216     83.1949     12.7500
  1967.1000      7.5769      2.5028      0.0851      8.9186     73.8810     13.0907
  1967.2000      7.5769      2.5007      0.0708      9.0514     67.7280     14.0072
  1967.3000      7.5739      2.5165      0.0914      8.0935     64.2876     14.9276
  1967.4000      7.5739      2.5393      0.1641      6.7087     62.5445     15.5921
  1967.5000      7.5721      2.5525      0.1131      5.9119     61.2433     16.0327
  1967.6000      7.5721      2.5536      0.1203      5.8401     60.9665     16.1496
  1967.7000      7.5721      2.5432      0.0958      6.4737     62.1988     16.0439
  1967.8000      7.5736      2.5177      0.1194      8.0162     62.9264     15.9698
  1967.9000      7.5736      2.4884      0.0778      9.7945     63.0544     15.9092
  1968.0000      7.5750      2.4798      0.0624     10.3150     62.8070     16.1703
  1968.1000      7.5750      2.4927      0.1220      9.5340     62.3846     16.9493
  1968.2000      7.5750      2.5068      0.1082      8.6813     63.0713     17.4579
  1968.3000      7.5785      2.5197      0.0856      7.8947     65.1861     17.0067
  1968.4000      7.5785      2.5384      0.1114      6.7619     69.7649     16.0771
  1968.5000      7.5817      2.5497      0.1183      6.0772     76.3089     15.2812
  1968.6000      7.5817      2.5417      0.1098      6.5622     80.5723     14.7401
  1968.7000      7.5817      2.5219      0.1216      7.7649     80.8365     14.5750
  1968.8000      7.5791      2.5010      0.0751      9.0296     79.3792     14.9425
  1968.9000      7.5791      2.4842      0.1056     10.0495     76.8292     15.4821
  1969.0000      7.5739      2.4721      0.0967     10.7837     70.5651     15.5322
  1969.1000      7.5739      2.4660      0.0927     11.1541     63.0232     15.2320
  1969.2000      7.5739      2.4684      0.0725     11.0068     60.4907     14.9099
  1969.3000      7.5732      2.4769      0.0940     10.4905     63.1535     14.1921
  1969.4000      7.5732      2.4826      0.0826     10.1450     66.5963     13.0769
  1969.5000      7.5749      2.4806      0.1103     10.2689     68.4590     12.2401
  1969.6000      7.5749      2.4776      0.0665     10.4478     69.2378     12.0224
