~Version Information
VERS.                      2.0: CWLS Log ASCII Standard - VERSION 2.0
WRAP.                       NO: One line per depth step
~Well Information Block
STRT.FT               521.0000: 
STOP.FT              2732.5000: 
STEP.FT                 0.2500: 
NULL.                -999.2500: 
COMP.          Petrogulf Corporation: COMPANY
WELL.              Silva 6-22V: WELL
FLD.           Purgatorie River: FIELD
LOC.           1936' FNL & 1798' FWL: LOCATION
CNTY.               Las Animas: COUNTY
SRVC.                         : SERVICE COMPANY
DATE.          Tue Nov 09 08:09:38 2004: LOG DATE
UWI.           05 071 08143 00: UNIQUE WELL ID
STAT.                 Colorado: STATE
~Curve Information Block
DEPT.FT            0 000 00 00: Depth
SP.mV                         : DIL Spontaneous Potential
RILD.Ohm-m                    : DIL Deep Resistivity
RILM.Ohm-m                    : DIL Medium Resistivity
RLL3.Ohm-m                    : DIL Shallow Resistivity
GR.GAPI                       : Gamma Ray
~Parameter Information Block
~A  Depth        SP         RILD        RILM        RLL3         GR     
# ...
  1557.0000    -33.3838     14.6225     16.8106     22.1551    134.2310
  1557.2500    -32.9832     14.5652     16.5227     20.9609    135.4719
  1557.5000    -32.5620     14.4844     16.1957     19.9481    140.4923
  1557.7500    -32.0830     14.3757     15.8454     19.1346    145.7217
  1558.0000    -31.4985     14.2384     15.4872     18.5140    154.2002
  1558.2500    -30.7880     14.0754     15.1345     18.0622    158.9346
  1558.5000    -29.9826     13.8931     14.7981     17.7455    163.8051
  1558.7500    -29.1681     13.7006     14.4863     17.5276    165.8925
  1559.0000    -28.4603     13.5086     14.2046     17.3760    168.1725
  1559.2500    -27.9608     13.3278     13.9569     17.2653    169.2909
  1559.5000    -27.7133     13.1678     13.7462     17.1798    169.8451
  1559.7500    -27.6795     13.0362     13.5751     17.1149    169.0587
  1560.0000    -27.7386     12.9387     13.4466     17.0769    166.1682
  1560.2500    -27.7185     12.8784     13.3642     17.0822    163.6884
  1560.5000    -27.4463     12.8570     13.3314     17.1538    160.6567
  1560.7500    -26.7986     12.8749     13.3521     17.3168    159.7729
  1561.0000    -25.7439     12.9315     13.4300     17.5965    160.2243
  1561.2500    -24.3601     13.0257     13.5678     18.0229    161.1638
  1561.5000    -22.8199     13.1556     13.7673     18.6426    162.4280
  1561.7500    -21.3587     13.3186     14.0285     19.5269    162.7037
  1562.0000    -20.2195     13.5110     14.3490     20.7644    161.4516
  1562.2500    -19.5900     13.7277     14.7230     22.4290    158.9201
  1562.5000    -19.5654     13.9624     15.1405     24.5286    152.0594
  1562.7500    -20.1214     14.2082     15.5868     26.9552    145.8294
  1563.0000    -21.1278     14.4578     16.0429     29.4666    135.5147
  1563.2500    -22.3854     14.7052     16.4868     31.7185    128.7828
  1563.5000    -23.6756     14.9460     16.8966     33.3458    119.6591
  1563.7500    -24.8083     15.1776     17.2540     34.0650    114.6047
  1564.0000    -25.6597     15.3990     17.5482     33.7610    109.5324
  1564.2500    -26.1834     15.6101     17.7777     32.5232    108.2966
  1564.5000    -26.4028     15.8100     17.9501     30.6176    109.5219
  1564.7500    -26.3943     15.9971     18.0788     28.4100    111.7838
  1565.0000    -26.2519     16.1677     18.1795     26.2672    116.2492
  1565.2500    -26.0619     16.3172     18.2658     24.4719    119.6032
  1565.5000    -25.8819     16.4411     18.3463     23.1743    125.0918
  1565.7500    -25.7335     16.5357     18.4243     22.3891    129.0708
  1566.0000    -25.6092     16.6000     18.4982     22.0289    135.2943
  1566.2500    -25.4880     16.6351     18.5638     21.9597    139.2838
  1566.5000    -25.3454     16.6442     18.6165     22.0543    144.4852
  1566.7500    -25.1698     16.6314     18.6525     22.2292    147.3563
  1567.0000    -24.9607     16.6010     18.6690     22.4548    150.8646
  1567.2500    -24.7275     16.5570     18.6629     22.7419    152.4978
  1567.5000    -24.4866     16.5028     18.6294     23.1114    153.0347
  1567.7500    -24.2579     16.4414     18.5612     23.5626    151.7690
  1568.0000    -24.0709     16.3757     18.4489     24.0508    148.0881
  1568.2500    -23.9639     16.3077     18.2845     24.4854    145.4048
  1568.5000    -23.9829     16.2385     18.0630     24.7468    142.4178
  1568.7500    -24.1701     16.1669     17.7863     24.7194    141.3667
  1569.0000    -24.5506     16.0897     17.4633     24.3289    141.0182
  1569.2500    -25.1217     16.0013     17.1091     23.5716    141.4554
  1569.5000    -25.8480     15.8958     16.7419     22.5229    142.9194
  1569.7500    -26.6745     15.7682     16.3800     21.3215    144.2858
  1570.0000    -27.5346     15.6169     16.0397     20.1340    146.5999
  1570.2500    -28.3690     15.4444     15.7337     19.1107    148.1962
  1570.5000    -29.1355     15.2575     15.4710     18.3518    150.6823
  1570.7500    -29.8056     15.0657     15.2569     17.8911    152.3895
  1571.0000    -30.3675     14.8800     15.0937     17.7025    154.5584
  1571.2500    -30.8096     14.7108     14.9807     17.7205    155.2937
  1571.5000    -31.1131     14.5665     14.9140     17.8664    155.0045
  1571.7500    -31.2559     14.4525     14.8869     18.0688    154.1722
  1572.0000    -31.2106     14.3718     14.8900     18.2734    152.6250
  1572.2500    -30.9498     14.3247     14.9122     18.4444    151.4008
  1572.5000    -30.4599     14.3095     14.9421     18.5595    148.8468
  1572.7500    -29.7398     14.3229     14.9700     18.6070    146.7962
  1573.0000    -28.8057     14.3613     14.9895     18.5848    144.5407
  1573.2500    -27.6959     14.4203     14.9991     18.5033    144.5251
  1573.5000    -26.4671     14.4963     15.0028     18.3870    147.2101
  1573.7500    -25.1977     14.5863     15.0083     18.2724    150.0627
  1574.0000    -23.9783     14.6889     15.0264     18.2031    153.5160
  1574.2500    -22.9046     14.8047     15.0683     18.2209    154.0111
  1574.5000    -22.0571     14.9360     15.1435     18.3601    151.6744
  1574.7500    -21.4765     15.0874     15.2583     18.6450    149.0090
  1575.0000    -21.1453     15.2644     15.4150     19.0891    145.5731
  1575.2500    -20.9825     15.4734     15.6114     19.6948    144.3492
  1575.5000    -20.8578     15.7204     15.8411     20.4473    143.6296
  1575.7500    -20.6262     16.0097     16.0946     21.3093    143.0032
  1576.0000    -20.1748     16.3421     16.3615     22.2152    140.4661
  1576.2500    -19.4657     16.7147     16.6327     23.0784    137.5239
  1576.5000    -18.5618     17.1189     16.9028     23.8099    132.1053
  1576.7500    -17.6193     17.5418     17.1725     24.3470    128.6153
  1577.0000    -16.8518     17.9668     17.4486     24.6801    124.7194
  1577.2500    -16.4700     18.3775     17.7439     24.8661    123.5157
  1577.5000    -16.6224     18.7604     18.0750     25.0178    124.1561
  1577.7500    -17.3450     19.1093     18.4597     25.2749    125.8020
  1578.0000    -18.5483     19.4272     18.9151     25.7653    128.3693
  1578.2500    -20.0359     19.7258     19.4560     26.5718    129.1735
  1578.5000    -21.5595     20.0232     20.0945     27.7154    128.6808
  1578.7500    -22.8854     20.3402     20.8397     29.1570    127.8950
  1579.0000    -23.8564     20.6965     21.6988     30.8131    127.8475
  1579.2500    -24.4213     21.1085     22.6770     32.5771    129.4314
  1579.5000    -24.6412     21.5869     23.7780     34.3400    134.6535
  1579.7500    -24.6506     22.1360     25.0035     36.0083    139.5788
  1580.0000    -24.6040     22.7541     26.3517     37.5177    147.4390
  1580.2500    -24.6230     23.4326     27.8143     38.8428    151.6957
  1580.5000    -24.7656     24.1564     29.3749     39.9996    154.1687
  1580.7500    -25.0122     24.9053     31.0067     41.0409    152.0102
  1581.0000    -25.2921     25.6554     32.6695     42.0442    142.5153
  1581.2500    -25.5047     26.3819     34.3106     43.0977    132.9685
  1581.5000    -25.5587     27.0645     35.8671     44.2868    116.9883
  1581.7500    -25.3965     27.6902     37.2723     45.6835    107.0878
  1582.0000    -25.0136     28.2556     38.4660     47.3365     95.2612
  1582.2500    -24.4603     28.7664     39.4067     49.2606     89.5581
  1582.5000    -23.8375     29.2357     40.0811     51.4279     83.3677
  1582.7500    -23.2848     29.6787     40.5083     53.7620     80.0536
  1583.0000    -22.9563     30.1092     40.7339     56.1444     75.5187
  1583.2500    -22.9870     30.5356     40.8184     58.4314     72.8438
  1583.5000    -23.4607     30.9612     40.8261     60.4800     69.7859
  1583.7500    -24.3875     31.3829     40.8136     62.1749     68.3836
  1584.0000    -25.6927     31.7954     40.8251     63.4503     66.6779
  1584.2500    -27.2344     32.1910     40.8945     64.2978     65.4916
  1584.5000    -28.8310     32.5622     41.0450     64.7613     63.5735
  1584.7500    -30.2930     32.9007     41.2953     64.9206     62.3170
