~Version Information
VERS.                      2.0: CWLS Log ASCII Standard - VERSION 2.0
WRAP.                       NO: One line per depth step
~Well Information Block
STRT.FT               375.0000: 
STOP.FT              2637.0000: 
STEP.FT                 0.1000: 
NULL.                -999.2500: 
COMP.          Pioneer Natural Resources: COMPANY
WELL.            Cortina 23-25: WELL
FLD.           Purgatoire River: FIELD
LOC.           2344' FWL & 2526' FSL----: LOCATION
PROV.                 Colorado: PROVINCE
CNTY.               Las Animas: COUNTRY
SRVC.                Patterson: SERVICE COMPANY
DATE.          Thu Mar 24 07:44:45 2005: LOG DATE
UWI.           05 071 08340 00: UNIQUE WELL ID
~Curve Information Block
DEPT.FT            0 000 00 00: Depth
DCAL.in                       : CDL Caliper
DPOR.pu                       : CDL Density Porosity
NPOR.pu                       : Neutron Porosity
RHOB.g/cc                     : CDL Bulk Density
RHOC.g/cc                     : CDL Density Correction
GR.GAPI                       : Gamma Ray
~Parameter Information Block
~A  Depth       DCAL        DPOR        NPOR        RHOB        RHOC         GR     
   375.0000      8.0492     11.9160     39.0695      2.4534     -0.2105     46.4186
   375.1000      8.0492     13.7207     39.0855      2.4236     -0.2530     44.1237
   375.2000      8.0492     14.9347     39.2888      2.4036     -0.3385     40.7446
   375.3000      8.0493     14.3788     39.3136      2.4127     -0.2375     40.1335
   375.4000      8.0493     13.5222     39.1220      2.4269     -0.2189     42.7740
   375.5000      8.0476     13.0727     38.9572      2.4343     -0.2527     46.3094
   375.6000      8.0476     12.7051     38.9736      2.4404     -0.2293     47.2427
   375.7000      8.0476     12.6824     38.8969      2.4407     -0.3107     45.3409
   375.8000      8.0468     12.5593     38.6504      2.4428     -0.3147     44.8894
   375.9000      8.0468     11.4517     38.5084      2.4610     -0.2584     48.3472
   376.0000      8.0488      9.5919     38.5026      2.4917     -0.2219     52.9600
   376.1000      8.0488      8.1150     38.5259      2.5161     -0.2400     54.9231
   376.2000      8.0488      8.0111     38.5326      2.5178     -0.2136     54.2467
   376.3000      8.0511      8.9581     38.6603      2.5022     -0.2689     53.4646
   376.4000      8.0511      9.5935     38.9675      2.4917     -0.2782     53.5057
   376.5000      8.0511      9.5162     39.1304      2.4930     -0.2583     54.4720
   376.6000      8.0511      9.2967     38.9205      2.4966     -0.2391     55.9058
   376.7000      8.0511      9.0960     38.5482      2.4999     -0.2538     55.7909
   376.8000      8.0500      8.6521     38.3244      2.5072     -0.2885     54.2248
   376.9000      8.0500      7.9453     38.1902      2.5189     -0.2533     54.7549
   377.0000      8.0496      7.2238     37.9714      2.5308     -0.2619     57.3787
   377.1000      8.0496      7.5152     37.7995      2.5260     -0.2360     57.5223
   377.2000      8.0496      9.8755     37.7124      2.4871     -0.2608     54.0990
   377.3000      8.0504     12.6116     37.5434      2.4419     -0.3505     50.1322
   377.4000      8.0504     13.4542     37.4507      2.4280     -0.2839     46.3998
   377.5000      8.0506     13.4430     37.6804      2.4282     -0.2723     42.9298
   377.6000      8.0506     14.4732     38.0571      2.4112     -0.3080     41.7848
   377.7000      8.0506     15.7471     38.2274      2.3902     -0.3504     42.8033
   377.8000      8.0515     15.3664     38.2440      2.3965     -0.2987     44.9026
   377.9000      8.0515     13.7492     38.5173      2.4231     -0.1914     47.8301
   378.0000      8.0511     12.1230     38.8940      2.4500     -0.2668     51.0969
   378.1000      8.0511     10.0137     38.8732      2.4848     -0.2402     54.3267
   378.2000      8.0511      7.9820     38.3856      2.5183     -0.1548     55.0201
   378.3000      8.0489      7.8807     37.8217      2.5200     -0.2087     53.1946
   378.4000      8.0489      8.6913     37.5674      2.5066     -0.2514     52.9950
   378.5000      8.0492      8.2830     37.7657      2.5133     -0.2601     55.1003
   378.6000      8.0492      7.4612     38.3563      2.5269     -0.2117     57.4916
   378.7000      8.0492      7.6497     38.9212      2.5238     -0.2394     60.0727
   378.8000      8.0512      8.1590     39.1679      2.5154     -0.2573     62.6442
   378.9000      8.0512      7.8122     39.2930      2.5211     -0.2401     62.6430
   379.0000      8.0508      6.4197     39.4605      2.5441     -0.2762     60.6024
   379.1000      8.0508      4.6921     39.5866      2.5726     -0.2131     59.6146
   379.2000      8.0508      3.9972     39.5613      2.5840     -0.2206     60.5628
   379.3000      8.0469      5.1819     39.3519      2.5645     -0.2124     63.5112
   379.4000      8.0469      6.7851     39.1754      2.5380     -0.3070     66.8470
   379.5000      8.0440      5.8726     39.3559      2.5531     -0.3221     68.4044
   379.6000      8.0440      2.5973     39.8470      2.6071     -0.2630     68.8325
   379.7000      8.0440      0.6027     40.3980      2.6401     -0.2131     68.1800
   379.8000      8.0435      1.5555     40.7654      2.6243     -0.2547     65.1558
   379.9000      8.0435      3.3154     40.7371      2.5953     -0.2717     61.9828
   380.0000      8.0443      3.7797     40.3182      2.5876     -0.2925     63.1461
   380.1000      8.0443      3.2007     39.7227      2.5972     -0.2535     68.1512
   380.2000      8.0443      2.6159     39.2668      2.6068     -0.2815     71.2351
   380.3000      8.0461      2.3915     39.2004      2.6105     -0.2713     70.2831
   380.4000      8.0461      2.0330     39.4690      2.6165     -0.2933     67.1927
   380.5000      8.0490      0.9085     39.7914      2.6350     -0.2331     63.7666
   380.6000      8.0490     -0.5211     39.9530      2.6586     -0.2129     63.8007
   380.7000      8.0490     -0.9790     39.8918      2.6662     -0.1723     66.7215
   380.8000      8.0514     -0.0219     39.7981      2.6504     -0.2445     67.3823
   380.9000      8.0514      1.0908     39.9138      2.6320     -0.2720     66.1083
   381.0000      8.0509      1.8957     40.1596      2.6187     -0.2711     67.2030
   381.1000      8.0509      4.2946     40.2960      2.5791     -0.2440     70.6503
   381.2000      8.0509      9.0805     40.1732      2.5002     -0.3455     73.6412
   381.3000      8.0498     13.8888     39.6901      2.4208     -0.3221     75.7008
   381.4000      8.0498     16.2862     38.7306      2.3813     -0.3887     78.8217
   381.5000      8.0495     16.3906     37.4651      2.3796     -0.2798     84.6289
   381.6000      8.0495     16.0871     36.1288      2.3846     -0.3237     90.7623
   381.7000      8.0495     16.0869     34.6145      2.3846     -0.3518     95.5915
   381.8000      8.0473     15.5766     32.9197      2.3930     -0.2985     99.6822
   381.9000      8.0473     14.5799     31.1870      2.4094     -0.1874    101.3992
   382.0000      8.0458     14.5912     29.2540      2.4092     -0.1897    100.1289
   382.1000      8.0458     16.3088     27.1688      2.3809     -0.1330     97.2198
   382.2000      8.0458     17.6667     25.4282      2.3585     -0.1653     94.9701
   382.3000      8.0471     16.1616     24.2279      2.3833      0.0130     95.5161
   382.4000      8.0471     12.7109     23.5761      2.4403      0.1502     98.1044
   382.5000      8.0486      9.8648     23.5604      2.4872      0.1510    102.0792
   382.6000      8.0486      8.4612     23.7365      2.5104      0.1595    105.8792
   382.7000      8.0486      8.4046     23.4151      2.5113      0.1808    109.5493
   382.8000      8.0490      9.1548     22.6070      2.4989      0.1234    113.8832
   382.9000      8.0490      9.6106     21.7571      2.4914      0.1260    116.1334
   383.0000      8.0499      9.5834     21.2183      2.4919      0.1365    116.9328
   383.1000      8.0499      9.4182     20.9893      2.4946      0.1093    117.6619
   383.2000      8.0499      8.7348     20.7068      2.5059      0.0936    115.9622
   383.3000      8.0524      6.8898     20.2533      2.5363      0.1376    112.1306
   383.4000      8.0524      4.4488     19.9958      2.5766      0.1849    108.5468
   383.5000      8.0656      2.8999     20.0269      2.6022      0.1818    106.4238
   383.6000      8.0656      2.8063     20.0442      2.6037      0.1496    107.0122
   383.7000      8.0656      3.4977     19.9888      2.5923      0.1226    108.8865
   383.8000      8.1062      4.3517     19.9028      2.5782      0.1479    108.1840
   383.9000      8.1062      5.0363     19.8274      2.5669      0.1365    103.0689
   384.0000      8.1630      4.9841     19.7293      2.5678      0.0972     97.1067
   384.1000      8.1630      4.6332     19.5722      2.5736      0.1363     96.4147
   384.2000      8.1630      5.2446     19.4414      2.5635      0.1004    101.4274
   384.3000      8.2022      6.4807     19.3774      2.5431      0.0902    105.3525
   384.4000      8.2022      7.0760     19.3841      2.5332      0.0557    104.5607
   384.5000      8.2164      6.9574     19.5838      2.5352      0.0975    104.2466
