~Version Information
VERS.                      2.0: CWLS Log ASCII Standard - VERSION 2.0
WRAP.                       NO: One line per depth step
~Well Information Block
STRT.FT                -6.5000: 
STOP.FT              2698.5000: 
STEP.FT                 0.2500: 
NULL.                -999.2500: 
COMP.          Pioneer Natural Resources: COMPANY
WELL.              Cluck 21-25: WELL
FLD.           Purgatorie River: FIELD
LOC.           91' FNL & 1834' FWL--: LOCATION
PROV.                       CO: PROVINCE
CNTY.               Las Animas: COUNTRY
SRVC.          Patterson Wireline: SERVICE COMPANY
DATE.          Mon Jun 13 14:54:35 2005: LOG DATE
UWI.           05 071 08397 00: UNIQUE WELL ID
~Curve Information Block
DEPT.FT            0 000 00 00: Depth
CCL.                          : Casing Collar Locator
TT3.usec                      : CBL 3' Travel Time
AMP3.mV                       : CBL 3' Amplitude
GR.GAPI                       : Gamma Ray
~Parameter Information Block
~A  Depth       CCL         TT3         AMP3         GR     
# ...
   529.5000      0.0000    851.3376      8.0308    137.6065
   529.7500      0.0000    851.4871      8.1198    137.1233
   530.0000      0.0000    848.6385      8.1744    135.7195
   530.2500      0.0000    844.0485      8.1589    135.0041
   530.5000      0.0000    838.9890      8.1253    135.6340
   530.7500      0.0000    834.1320      8.1497    137.0021
   531.0000      0.0000    828.9460      8.2459    137.5358
   531.2500      0.0000    822.0135      8.3556    135.3618
   531.5000      0.0000    812.2096      8.4210    129.4229
   531.7500      0.0000    799.7774      8.4431    120.4394
   532.0000      0.0000    786.7234      8.4544    110.7733
   532.2500      0.0000    776.5494      8.4616    103.2366
   532.5000      0.0000    773.0316      8.4451     99.7885
   532.7500      0.0000    777.8805      8.4043    100.6500
   533.0000      0.0000    789.1429      8.3628    104.1808
   533.2500      0.0000    802.4544      8.3288    108.0329
   533.5000      0.0000    813.8973      8.2851    111.0130
   533.7500      0.0000    821.4589      8.2289    113.8122
   534.0000      0.0000    824.4518      8.1850    117.6425
   534.2500      0.0000    822.5336      8.1644    122.3882
   534.5000      0.0000    815.6804      8.1408    126.5535
   534.7500      0.0000    804.9457      8.0837    128.8086
   535.0000      0.0000    792.6353      7.9994    129.1021
   535.2500      0.0000    781.1775      7.9271    128.3900
   535.5000      0.0000    772.0852      7.9001    127.6506
   535.7500      0.0000    766.3362      7.9199    127.1977
   536.0000      0.0000    764.9308      7.9650    126.7975
   536.2500      0.0000    768.1047      8.0164    126.3485
   536.5000      0.0000    774.3260      8.0677    126.5171
   536.7500      0.0000    780.8811      8.1249    128.6462
   537.0000      0.0000    785.6011      8.2029    133.6852
   537.2500      0.0000    787.9048      8.3043    141.0688
   537.5000      0.0000    788.4648      8.4022    148.7241
   537.7500      0.0000    788.2822      8.4640    154.1822
   538.0000      0.0000    788.0626      8.4903    155.8732
   538.2500      0.0000    788.1199      8.5041    153.7894
   538.5000      0.0000    788.5434      8.5032    149.2899
   538.7500      0.0000    789.1572      8.4625    144.3319
   539.0000      0.0000    789.1107      8.3902    140.4529
   539.2500      0.0000    786.7457      8.3488    137.8467
   539.5000      0.0000    780.6365      8.3902    135.3163
   539.7500      0.0000    771.2696      8.4896    131.5343
   540.0000      0.0000    761.3227      8.5721    126.6604
   540.2500      0.0000    754.0194      8.5979    122.7250
   540.5000      0.0000    751.4820      8.5901    122.1382
   540.7500      0.0000    754.2388      8.5737    125.3545
   541.0000      0.0000    760.8882      8.5266    130.0068
   541.2500      0.0000    767.8779      8.4150    132.9072
   541.5000      0.0000    771.0643      8.2609    132.8037
   541.7500      0.0000    768.6395      8.1388    130.4856
   542.0000      0.0000    762.3126      8.1005    126.6793
   542.2500      0.0000    755.4272      8.1224    121.2124
   542.5000      0.0000    750.3268      8.1431    114.3685
   542.7500      0.0000    747.4376      8.1381    107.8206
   543.0000      0.0000    746.0658      8.1370    103.4576
   543.2500      0.0000    745.4926      8.1661    101.6054
   543.5000      0.0000    745.5019      8.2024    100.9176
   543.7500      0.0000    746.4521      8.1944     99.8958
   544.0000      0.0000    749.0925      8.0978     98.0972
   544.2500      0.0000    754.1136      7.8793     95.8974
   544.5000      0.0000    761.4842      7.5318     93.6476
   544.7500      0.0000    770.3411      7.1123     91.4991
   545.0000      0.0000    779.9128      6.7194     89.8328
   545.2500      0.0000    790.2596      6.4056     89.1989
   545.5000      0.0000    801.3373      6.1627     89.5143
   545.7500      0.0000    811.6424      6.0080     89.7446
   546.0000      0.0000    818.9785      6.0055     88.8231
   546.2500      0.0000    822.4405      6.1590     86.7201
   546.5000      0.0000    822.5612      6.3519     84.4847
   546.7500     -2.0000    819.9848      6.4437     83.4965
   547.0000      0.0000    815.2892      6.3962     84.6503
   547.2500      0.0000    809.6284      6.2842     87.7926
   547.5000      0.0000    804.1738      6.2170     91.7078
   547.7500      0.0000    798.9749      6.2685     94.6727
   548.0000      0.0000    793.2183      6.4492     95.2689
   548.2500      0.0000    786.4745      6.7164     93.1253
   548.5000      0.0000    779.0883      7.0241     89.0460
   548.7500      0.0000    771.5889      7.3591     84.0813
   549.0000      0.0000    764.2935      7.7125     78.3943
   549.2500      0.0000    757.6253      8.0450     71.3854
   549.5000      0.0000    752.5021      8.3064     62.9335
   549.7500      0.0000    750.1273      8.4682     54.0787
   550.0000      0.0000    751.2471      8.5262     46.4715
   550.2500      0.0000    755.2723      8.4998     41.6148
   550.5000      0.0000    759.8510      8.4328     40.6220
   550.7500      0.0000    761.8817      8.3707     44.1428
   551.0000      0.0000    759.8380      8.3340     52.2509
   551.2500      0.0000    755.0406      8.3176     64.4942
   551.5000      0.0000    750.2098      8.3087     79.9520
   551.7500      0.0000    747.0602      8.2991     97.0247
   552.0000      0.0000    745.5561      8.2860    113.3055
   552.2500      0.0000    744.8398      8.2632    126.2554
   552.5000      0.0000    744.2566      8.2169    134.5469
   552.7500      0.0000    743.6457      8.1329    138.6287
   553.0000      0.0000    743.1176      8.0178    139.7754
   553.2500      0.0000    742.7740      7.9129    139.0375
   553.5000      0.0000    742.6017      7.8692    137.3307
   553.7500      0.0000    742.5417      7.8957    135.6470
   554.0000      0.0000    742.5610      7.9514    134.5198
   554.2500      0.0000    742.6580      7.9950    133.7848
   554.5000      0.0000    742.8334      8.0162    133.3267
   554.7500      0.0000    743.0775      8.0124    133.7026
   555.0000      0.0000    743.3640      7.9688    135.5550
   555.2500      0.0000    743.6387      7.8840    138.4750
   555.5000      0.0000    743.8290      7.7937    140.8230
   555.7500      0.0000    743.8915      7.7467    140.8619
   556.0000      0.0000    743.8479      7.7678    138.0726
   556.2500      0.0000    743.7613      7.8488    133.5844
   556.5000      0.0000    743.6786      7.9556    129.5358
   556.7500      0.0000    743.6036      8.0423    127.8030
   557.0000      0.0000    743.5192      8.0816    128.9419
   557.2500      0.0000    743.4349      8.0848    132.1248
   557.5000      0.0000    743.4136      8.0805    135.8880
   557.7500      0.0000    743.6469      8.0822    138.9007
   558.0000      0.0000    744.6162      8.0893    140.4486
   558.2500      0.0000    747.2619      8.1024    140.5405
   558.5000      0.0000    752.6281      8.1248    139.5342
   558.7500      0.0000    760.5355      8.1543    137.7478
   559.0000      0.0000    768.3008      8.1783    135.5743
   559.2500      0.0000    771.8113      8.1801    133.7084
   559.5000      0.0000    769.0112      8.1533    132.8585
   559.7500      0.0000    761.9933      8.1001    133.2699
   560.0000      0.0000    755.1365      8.0209    134.6612
   560.2500      0.0000    752.0307      7.9251    136.4167
   560.5000      0.0000    754.7839      7.8401    137.7914
   560.7500      0.0000    764.9345      7.7914    138.3322
   561.0000      0.0000    783.1140      7.7800    138.1087
   561.2500      0.0000    807.3187      7.7904    137.2391
   561.5000      0.0000    832.5263      7.8048    135.4507
   561.7500      0.0000    853.2088      7.8026    132.4467
   562.0000      0.0000    866.5562      7.7681    128.4346
   562.2500      0.0000    873.3052      7.7003    123.9173
   562.5000      0.0000    875.9638      7.6124    119.1892
   562.7500      0.0000    876.7231      7.5263    114.4116
