~Version Information
VERS.                      2.0: CWLS Log ASCII Standard - VERSION 2.0
WRAP.                       NO: One line per depth step
~Well Information Block
STRT.FT               590.0000: 
STOP.FT              1563.5000: 
STEP.FT                 0.1000: 
NULL.                -999.2500: 
COMP.          Petrogulf Corporation: COMPANY
WELL.             State 16-43R: WELL
FLD.           Purgatorie River: FIELD
LOC.           2538' FSL & 716' FEL: LOCATION
PROV.                 Colorado: PROVINCE
CNTY.               Las Animas: COUNTRY
SRVC.                Patterson: SERVICE COMPANY
DATE.          Tue Aug 09 14:21:37 2005: LOG DATE
UWI.                          : UNIQUE WELL ID
~Curve Information Block
DEPT.FT            0 000 00 00: Depth
DCAL.in                       : CDL Caliper
RHOB.g/cc                     : CDL Bulk Density
RHOC.g/cc                     : CDL Density Correction
DPOR.pu                       : CDL Density Porosity
GR.GAPI                       : Gamma Ray
NPOR.pu                       : Neutron Porosity
~Parameter Information Block
~A  Depth       DCAL        RHOB        RHOC        DPOR         GR         NPOR    
# ...
   964.4000      7.9502      2.6087      0.0963      2.5019    127.4911     26.3577
   964.5000      7.9437      2.6216      0.1162      1.7184    124.3665     26.6446
   964.6000      7.9437      2.6297      0.1043      1.2332    123.0805     27.1059
   964.7000      7.9437      2.6405      0.0964      0.5730    122.3674     27.2524
   964.8000      7.9159      2.6590      0.1624     -0.5441    121.5591     26.9936
   964.9000      7.9159      2.6719      0.1945     -1.3288    120.8079     26.8379
   965.0000      7.9225      2.6692      0.1130     -1.1658    120.5558     27.1186
   965.1000      7.9225      2.6552      0.1146     -0.3122    120.2704     27.3566
   965.2000      7.9225      2.6322      0.1235      1.0807    121.5220     27.1597
   965.3000      7.9058      2.6042      0.0788      2.7786    125.7934     26.9194
   965.4000      7.9058      2.5826      0.0566      4.0854    130.1444     26.7272
   965.5000      7.9148      2.5739      0.0543      4.6096    132.5165     26.2472
   965.6000      7.9148      2.5771      0.0440      4.4154    134.5676     25.6699
   965.7000      7.9148      2.5865      0.0885      3.8508    137.4359     25.3709
   965.8000      7.9369      2.5951      0.0722      3.3276    139.6917     25.5086
   965.9000      7.9369      2.5972      0.0878      3.2022    140.5648     25.8578
   966.0000      7.9602      2.5866      0.1110      3.8407    140.3135     26.1306
   966.1000      7.9602      2.5670      0.0692      5.0325    140.2199     26.4964
   966.2000      7.9602      2.5530      0.0244      5.8768    140.9738     27.0986
   966.3000      7.9802      2.5531      0.0567      5.8739    141.1068     27.6839
   966.4000      7.9802      2.5624      0.0601      5.3067    139.8898     28.0028
   966.5000      7.9738      2.5737      0.0387      4.6269    139.5755     27.9584
   966.6000      7.9738      2.5759      0.0722      4.4914    142.6560     27.6265
   966.7000      7.9738      2.5654      0.0241      5.1298    149.3017     27.3242
   966.8000      7.9564      2.5561      0.0430      5.6889    157.7635     27.3414
   966.9000      7.9564      2.5562      0.0594      5.6831    163.1537     27.7321
   967.0000      7.9596      2.5576      0.1008      5.6010    163.4987     28.2593
   967.1000      7.9596      2.5532      0.0958      5.8647    162.8898     28.5265
   967.2000      7.9596      2.5468      0.1237      6.2526    163.3043     28.3546
   967.3000      7.9736      2.5476      0.0707      6.2054    162.7403     28.0994
   967.4000      7.9736      2.5647      0.0679      5.1694    161.3312     28.2139
   967.5000      7.9875      2.5953      0.0978      3.3126    159.8410     28.5869
   967.6000      7.9875      2.6205      0.1424      1.7877    159.0788     28.7930
   967.7000      7.9875      2.6247      0.1137      1.5310    161.9255     28.5404
   967.8000      7.9932      2.6078      0.1216      2.5554    167.4471     28.0334
   967.9000      7.9932      2.5796      0.0901      4.2653    170.2729     27.8397
   968.0000      7.9944      2.5557      0.0336      5.7177    167.9772     28.1287
   968.1000      7.9944      2.5457      0.0430      6.3199    163.9618     28.6003
   968.2000      7.9944      2.5452      0.0715      6.3517    163.4552     28.9927
   968.3000      7.9952      2.5462      0.0921      6.2906    167.2280     29.2837
   968.4000      7.9952      2.5509      0.0429      6.0064    170.2961     29.4845
   968.5000      8.0374      2.5587      0.0976      5.5347    169.6689     29.5763
   968.6000      8.0374      2.5597      0.0735      5.4731    168.6295     29.4376
   968.7000      8.0374      2.5548      0.0660      5.7700    169.6068     29.0034
   968.8000      8.0379      2.5451      0.0830      6.3581    169.7897     28.4508
   968.9000      8.0379      2.5238      0.0473      7.6460    167.9613     27.8613
   969.0000      8.0144      2.4960      0.0522      9.3323    166.3968     27.3819
   969.1000      8.0144      2.4804     -0.0146     10.2792    164.5425     27.1473
   969.2000      8.0144      2.4900      0.0178      9.6970    162.3110     26.8753
   969.3000      7.9869      2.5113      0.0722      8.4061    162.0445     26.3433
   969.4000      7.9869      2.5248      0.0600      7.5900    163.3833     25.8913
   969.5000      7.9974      2.5352      0.0829      6.9605    164.1796     25.8425
   969.6000      7.9974      2.5522      0.1386      5.9265    163.7176     25.9965
   969.7000      7.9974      2.5668      0.1629      5.0447    163.5975     26.1826
   969.8000      8.0272      2.5622      0.1468      5.3183    167.1439     26.4953
   969.9000      8.0272      2.5355      0.1365      6.9388    172.4418     26.8444
   970.0000      8.0475      2.5017      0.0669      8.9887    172.5066     27.1189
   970.1000      8.0475      2.4749      0.0656     10.6134    166.6512     27.3493
   970.2000      8.0475      2.4553      0.0791     11.7991    162.2900     27.4263
   970.3000      8.0597      2.4475      0.0687     12.2730    163.1090     27.3258
   970.4000      8.0597      2.4625      0.0845     11.3648    165.4335     26.9272
   970.5000      8.0775      2.4875      0.1767      9.8461    167.2244     26.0405
   970.6000      8.0775      2.4939      0.1525      9.4619    169.9314     24.9588
   970.7000      8.0775      2.4765      0.1728     10.5169    172.4169     23.9325
   970.8000      8.0874      2.4488      0.1734     12.1958    173.4395     23.0310
   970.9000      8.0874      2.4210      0.1462     13.8784    174.0035     22.4137
   971.0000      8.0941      2.3946      0.1172     15.4779    174.0387     22.0234
   971.1000      8.0941      2.3593      0.1539     17.6152    172.9442     21.7667
   971.2000      8.0941      2.3125      0.0929     20.4568    171.0362     21.6809
   971.3000      8.1573      2.2777      0.0651     22.5607    170.2641     21.7306
   971.4000      8.1573      2.2688      0.1042     23.1010    169.3393     21.9658
   971.5000      8.2428      2.2618      0.1522     23.5303    165.4576     22.2679
   971.6000      8.2428      2.2347      0.0830     25.1703    159.9601     22.2567
   971.7000      8.2428      2.1958      0.0472     27.5295    155.2503     21.9825
   971.8000      8.1675      2.1536      0.0052     30.0829    153.2235     21.6645
   971.9000      8.1675      2.0980      0.0201     33.4525    153.9929     21.4861
   972.0000      8.1551      2.0243     -0.0302     37.9210    155.3421     21.5481
   972.1000      8.1551      1.9495     -0.0765     42.4569    155.2798     21.3556
   972.2000      8.1551      1.8829     -0.0605     46.4896    151.8806     20.7175
   972.3000      8.1368      1.8230     -0.0650     50.1226    145.4961     20.0706
   972.4000      8.1368      1.7825     -0.0258     52.5753    139.2486     19.5816
   972.5000      8.1714      1.7724      0.0293     53.1880    134.2766     19.1856
   972.6000      8.1714      1.7884      0.0292     52.2212    129.7075     18.9766
   972.7000      8.1714      1.8304      0.0459     49.6717    127.5238     18.9348
   972.8000      8.2024      1.8948      0.1797     45.7701    129.1202     19.0406
   972.9000      8.2024      1.9647      0.2120     41.5315    129.3239     19.4817
   973.0000      8.3479      2.0341      0.2381     37.3271    123.2281     20.2202
   973.1000      8.3479      2.1029      0.2785     33.1558    115.1719     20.9681
   973.2000      8.3479      2.1593      0.2063     29.7366    112.2904     21.6167
   973.3000      8.4393      2.2037      0.0651     27.0507    113.7311     22.3943
   973.4000      8.4393      2.2565      0.0795     23.8456    115.1711     23.5348
   973.5000      8.3925      2.3206      0.1050     19.9623    116.4668     24.7118
   973.6000      8.3925      2.3808      0.0837     16.3170    118.1057     25.3243
   973.7000      8.3925      2.4330      0.0813     13.1540    119.3637     25.2710
   973.8000      8.2572      2.4735      0.1267     10.6988    120.6541     24.8840
   973.9000      8.2572      2.4867      0.1320      9.8989    121.8958     24.6149
