~Version Information
VERS.                      2.0: CWLS Log ASCII Standard - VERSION 2.0
WRAP.                       NO: One line per depth step
~Well Information Block
STRT.FT               811.0000: 
STOP.FT              2507.0000: 
STEP.FT                 0.1000: 
NULL.                -999.2500: 
COMP.          Petrogulf Corporation: COMPANY
WELL.               YWAM 7-32V: WELL
FLD.           Purgatoire River: FIELD
LOC.           2423' FNL & 2412' FEL: LOCATION
PROV.                 Colorado: PROVINCE
CNTY.               Las Animas: COUNTRY
SRVC.                Patterson: SERVICE COMPANY
DATE.          Mon Dec 15 07:18:47 2003: LOG DATE
UWI.                          : UNIQUE WELL ID
~Curve Information Block
DEPT.FT            0 000 00 00: Depth
DCAL.in                       : CDL Caliper
RHOB.g/cc                     : CDL Bulk Density
RHOC.g/cc                     : CDL Density Correction
DPOR.pu                       : CDL Density Porosity
NPOR.pu                       : Neutron Porosity
GR.GAPI                       : Gamma Ray
~Parameter Information Block
~A  Depth       DCAL        RHOB        RHOC        DPOR        NPOR         GR     
# ...
  1156.6000      8.3930      2.5921      0.0367      3.5098     12.8527     97.7595
  1156.7000      8.3930      2.6021      0.0310      2.9019     12.9800     97.4925
  1156.8000      8.3937      2.6162      0.0503      2.0508     13.6031     98.7854
  1156.9000      8.3937      2.6199      0.0012      1.8264     14.4442     98.9706
  1157.0000      8.3964      2.6105      0.0237      2.3917     15.0987     96.5989
  1157.1000      8.3964      2.5954      0.0016      3.3088     15.7006     95.9091
  1157.2000      8.3964      2.5901     -0.0356      3.6322     16.8452    100.4949
  1157.3000      8.3976      2.5954      0.0200      3.3109     18.3793    105.1280
  1157.4000      8.3976      2.5882      0.0370      3.7474     19.6406    105.8108
  1157.5000      8.4079      2.5669     -0.0180      5.0333     20.3791    105.2132
  1157.6000      8.4079      2.5619     -0.0425      5.3400     20.7962    107.0906
  1157.7000      8.4079      2.5833      0.0077      4.0417     21.2134    111.9760
  1157.8000      8.4012      2.6037      0.0495      2.8064     21.8792    117.9875
  1157.9000      8.4012      2.6048      0.0384      2.7418     23.0088    125.4365
  1158.0000      8.3933      2.5963      0.0849      3.2537     24.5737    131.5318
  1158.1000      8.3933      2.5865      0.0605      3.8456     25.6860    132.9672
  1158.2000      8.3933      2.5738      0.0590      4.6201     25.4739    133.8034
  1158.3000      8.4031      2.5555      0.0470      5.7293     24.4152    137.7445
  1158.4000      8.4031      2.5417      0.0106      6.5653     23.5343    140.2693
  1158.5000      8.4025      2.5474     -0.0173      6.2204     23.0660    136.7206
  1158.6000      8.4025      2.5630      0.0554      5.2753     22.9625    135.5312
  1158.7000      8.4025      2.5611      0.0809      5.3856     23.1486    142.9365
  1158.8000      8.4014      2.5417      0.0046      6.5611     23.3054    150.8134
  1158.9000      8.4014      2.5292      0.0313      7.3196     23.6178    154.3375
  1159.0000      8.4018      2.5292      0.0293      7.3199     24.3782    155.8327
  1159.1000      8.4018      2.5262      0.0518      7.5027     25.1788    157.0895
  1159.2000      8.4018      2.5150     -0.0123      8.1824     25.6395    158.7476
  1159.3000      8.4109      2.5091      0.0143      8.5401     26.1828    159.2595
  1159.4000      8.4109      2.5108     -0.0141      8.4346     27.0502    158.3803
  1159.5000      8.4118      2.5107     -0.0005      8.4423     27.4762    156.4922
  1159.6000      8.4118      2.5149     -0.0219      8.1878     27.0030    152.8808
  1159.7000      8.4118      2.5357      0.0225      6.9294     26.4028    147.0745
  1159.8000      8.4094      2.5539      0.0910      5.8234     26.4619    142.0750
  1159.9000      8.4094      2.5454      0.0386      6.3407     27.1357    144.9033
  1160.0000      8.4112      2.5268      0.0183      7.4667     27.8229    154.1201
  1160.1000      8.4112      2.5198      0.0264      7.8889     27.8017    157.7054
  1160.2000      8.4112      2.5224      0.0032      7.7357     27.1036    151.3444
  1160.3000      8.4028      2.5307      0.0138      7.2288     26.4033    142.9948
  1160.4000      8.4028      2.5431      0.0159      6.4797     26.2718    140.8395
  1160.5000      8.4086      2.5563      0.0233      5.6778     26.6594    144.8457
  1160.6000      8.4086      2.5644      0.0391      5.1870     26.8407    149.1197
  1160.7000      8.4086      2.5593      0.0437      5.4973     26.5911    150.4156
  1160.8000      8.4101      2.5457      0.0442      6.3190     26.6020    150.3487
  1160.9000      8.4101      2.5395      0.0425      6.6946     26.8963    152.3948
  1161.0000      8.4087      2.5486      0.0304      6.1442     26.6686    155.6780
  1161.1000      8.4087      2.5643      0.0516      5.1954     25.8076    155.2151
  1161.2000      8.4087      2.5797      0.0210      4.2608     25.1351    151.5896
  1161.3000      8.4089      2.6004      0.0531      3.0076     25.2169    147.9605
  1161.4000      8.4089      2.6249      0.0394      1.5222     26.0591    144.0671
  1161.5000      8.4133      2.6447      0.0401      0.3183     27.1329    140.2339
  1161.6000      8.4133      2.6553      0.0622     -0.3215     27.6361    137.9624
  1161.7000      8.4133      2.6607      0.0497     -0.6502     27.5051    139.1109
  1161.8000      8.4260      2.6656      0.0257     -0.9472     27.1265    141.4459
  1161.9000      8.4260      2.6598      0.0692     -0.5966     26.6788    138.3968
  1162.0000      8.4323      2.6307      0.0795      1.1676     26.4193    132.7095
  1162.1000      8.4323      2.5902     -0.0315      3.6222     26.3835    132.5933
  1162.2000      8.4323      2.5603      0.0403      5.4378     26.1576    135.7850
  1162.3000      8.4116      2.5487     -0.0080      6.1391     25.6523    137.3298
  1162.4000      8.4116      2.5595     -0.0015      5.4873     25.0737    139.1770
  1162.5000      8.4097      2.5780      0.0636      4.3644     24.4695    145.4734
  1162.6000      8.4097      2.5797      0.0422      4.2582     23.9023    155.5247
  1162.7000      8.4097      2.5681      0.0277      4.9608     23.8601    162.5632
  1162.8000      8.4118      2.5574      0.0474      5.6095     24.4908    161.9718
  1162.9000      8.4118      2.5506      0.0165      6.0253     25.1325    157.8033
  1163.0000      8.4083      2.5513      0.0232      5.9847     25.4499    156.4497
  1163.1000      8.4083      2.5651      0.0193      5.1462     25.6987    155.2773
  1163.2000      8.4083      2.5913      0.0373      3.5557     25.8126    148.8374
  1163.3000      8.4236      2.6164      0.0508      2.0361     25.5228    140.6762
  1163.4000      8.4236      2.6239      0.0497      1.5830     25.3076    136.5103
  1163.5000      8.4102      2.6124      0.0544      2.2779     25.7435    135.1710
  1163.6000      8.4102      2.5938      0.0157      3.4055     26.3807    136.2608
  1163.7000      8.4102      2.5780      0.0140      4.3662     26.5527    141.4056
  1163.8000      8.4109      2.5651      0.0115      5.1428     26.4197    145.3986
  1163.9000      8.4109      2.5518      0.0239      5.9491     26.3542    143.6397
  1164.0000      8.4113      2.5393     -0.0286      6.7070     26.1016    139.9663
  1164.1000      8.4113      2.5339     -0.0058      7.0360     25.4234    138.5785
  1164.2000      8.4113      2.5346      0.0290      6.9960     25.0797    138.0836
  1164.3000      8.4115      2.5402     -0.0202      6.6565     25.5517    138.1121
  1164.4000      8.4115      2.5532      0.0243      5.8637     25.9796    141.9757
  1164.5000      8.4081      2.5662      0.0152      5.0812     25.6041    147.6022
  1164.6000      8.4081      2.5683      0.0360      4.9545     24.9435    150.1192
  1164.7000      8.4081      2.5554      0.0383      5.7325     24.8934    147.1177
  1164.8000      8.4130      2.5394      0.0019      6.7050     25.1992    140.7441
  1164.9000      8.4130      2.5391      0.0256      6.7240     24.9045    140.7439
  1165.0000      8.4122      2.5476      0.0597      6.2076     24.1664    151.0028
  1165.1000      8.4122      2.5417      0.0608      6.5613     23.9845    163.8991
  1165.2000      8.4122      2.5175      0.0636      8.0317     24.4460    170.7236
  1165.3000      8.4127      2.4866      0.0444      9.9004     24.7628    168.1087
  1165.4000      8.4127      2.4595      0.0209     11.5428     24.7842    160.6744
  1165.5000      8.4235      2.4478     -0.0180     12.2528     24.9387    157.9461
  1165.6000      8.4235      2.4553      0.0242     11.7975     25.2749    162.7096
  1165.7000      8.4235      2.4639      0.0471     11.2810     25.6860    166.6477
  1165.8000      8.4326      2.4584      0.0338     11.6111     26.2683    164.0560
  1165.9000      8.4326      2.4464      0.0074     12.3412     26.8247    161.5414
  1166.0000      8.4336      2.4404      0.0075     12.7043     27.2945    165.2418
  1166.1000      8.4336      2.4437      0.0200     12.5009     27.7679    167.3903
