~Version Information
VERS.                      2.0: CWLS Log ASCII Standard - VERSION 2.0
WRAP.                       NO: One line per depth step
~Well Information Block
STRT.FT                -8.5000: 
STOP.FT              2286.0000: 
STEP.FT                 0.2500: 
NULL.                -999.2500: 
COMP.          Pioneer Natural Resources: COMPANY
WELL.             Culver 14-12: WELL
FLD.           Purgatorie River: FIELD
LOC.           913' FSL & 1140' FWL--: LOCATION
PROV.                       CO: PROVINCE
CNTY.               Las Animas: COUNTRY
SRVC.          Patterson Wireline: SERVICE COMPANY
DATE.          Wed Jun 15 13:05:36 2005: LOG DATE
UWI.           05 071 08386 00: UNIQUE WELL ID
~Curve Information Block
DEPT.FT            0 000 00 00: Depth
CCL.                          : Casing Collar Locator
TT3.usec                      : CBL 3' Travel Time
AMP3.mV                       : CBL 3' Amplitude
GR.GAPI                       : Gamma Ray
~Parameter Information Block
~A  Depth       CCL         TT3         AMP3         GR     
# ...
  2269.5000      0.0000    744.7867      5.5047     87.5238
  2269.7500      0.0000    735.1979      5.1593     87.0048
  2270.0000      0.0000    730.5829      4.7790     85.3438
  2270.2500      0.0000    734.7800      4.4522     83.4523
  2270.5000      0.0000    746.6196      4.2062     81.4396
  2270.7500      0.0000    761.7145      3.9995     79.0311
  2271.0000      0.0000    775.0923      3.7725     76.9023
  2271.2500      0.0000    783.0804      3.4995     76.6349
  2271.5000      0.0000    784.6860      3.2121     78.7700
  2271.7500      0.0000    781.7466      2.9915     81.3762
  2272.0000      0.0000    777.1721      2.9116     80.9692
  2272.2500      0.0000    773.0025      2.9599     74.7294
  2272.5000      0.0000    770.1245      3.0271     62.1383
  2272.7500      0.0000    768.9092      2.9962     45.3915
  2273.0000      0.0000    769.2546      2.8402     28.4556
  2273.2500      0.0000    770.2789      2.6348     14.9928
  2273.5000      0.0000    770.6369      2.4896      6.5259
  2273.7500      0.0000    769.2535      2.4725      2.3144
  2274.0000      0.0000    765.9388      2.5813      0.6617
  2274.2500      0.0000    761.8769      2.7717      0.1509
  2274.5000      0.0000    759.5693      2.9972      0.0269
  2274.7500      0.0000    761.5622      3.2138      0.0032
  2275.0000      0.0000    768.7318      3.3648   -999.2500
  2275.2500      0.0000    779.8855      3.4013   -999.2500
  2275.5000      0.0000    792.7820      3.3310   -999.2500
  2275.7500      0.0000    805.1154      3.2264   -999.2500
  2276.0000      0.0000    814.9948      3.1610   -999.2500
  2276.2500      0.0000    821.3579      3.1397   -999.2500
  2276.5000      0.0000    824.1081      3.1065   -999.2500
  2276.7500      0.0000    823.0002      3.0172   -999.2500
  2277.0000      0.0000    815.0907      2.8859   -999.2500
  2277.2500      0.0000    791.5078      2.7511   -999.2500
  2277.5000      0.0000    736.7886      2.6120   -999.2500
  2277.7500      0.0000    636.2733      2.4185   -999.2500
  2278.0000      0.0000    491.2180      2.1308   -999.2500
  2278.2500      0.0000    327.5182      1.7783   -999.2500
  2278.5000      0.0000    183.3570      1.4472   -999.2500
  2278.7500      0.0000     84.3874      1.2098   -999.2500
  2279.0000      0.0000     31.4450      1.0792   -999.2500
  2279.2500      0.0000      9.3827      1.0239   -999.2500
  2279.5000      0.0000      2.2215      1.0057   -999.2500
  2279.7500      0.0000      0.4111      1.0011   -999.2500
  2280.0000      0.0000   -999.2500   -999.2500   -999.2500
  2280.2500      0.0000   -999.2500   -999.2500   -999.2500
  2280.5000      0.0000   -999.2500   -999.2500   -999.2500
  2280.7500      0.0000   -999.2500   -999.2500   -999.2500
  2281.0000      0.0000   -999.2500   -999.2500   -999.2500
  2281.2500      0.0000   -999.2500   -999.2500   -999.2500
  2281.5000      0.0000   -999.2500   -999.2500   -999.2500
  2281.7500      0.0000   -999.2500   -999.2500   -999.2500
  2282.0000      0.0000   -999.2500   -999.2500   -999.2500
  2282.2500      0.0000   -999.2500   -999.2500   -999.2500
  2282.5000      0.0000   -999.2500   -999.2500   -999.2500
  2282.7500      0.0000   -999.2500   -999.2500   -999.2500
  2283.0000      0.0000   -999.2500   -999.2500   -999.2500
  2283.2500      0.0000   -999.2500   -999.2500   -999.2500
  2283.5000      0.0000   -999.2500   -999.2500   -999.2500
  2283.7500      0.0000   -999.2500   -999.2500   -999.2500
  2284.0000      0.0000   -999.2500   -999.2500   -999.2500
  2284.2500      0.0000   -999.2500   -999.2500   -999.2500
  2284.5000      0.0000   -999.2500   -999.2500   -999.2500
  2284.7500      0.0000   -999.2500   -999.2500   -999.2500
  2285.0000      0.0000   -999.2500   -999.2500   -999.2500
  2285.2500      0.0000   -999.2500   -999.2500   -999.2500
  2285.5000      0.0000   -999.2500   -999.2500   -999.2500
  2285.7500   -999.2500   -999.2500   -999.2500   -999.2500
  2286.0000   -999.2500   -999.2500   -999.2500   -999.2500
