~Version Information
VERS.                      2.0: CWLS Log ASCII Standard - VERSION 2.0
WRAP.                       NO: One line per depth step
~Well Information Block
STRT.FT               -17.7500: 
STOP.FT              1590.5000: 
STEP.FT                 0.2500: 
NULL.                -999.2500: 
COMP.          Petrogulf Corporation: COMPANY
WELL.          Great Plains 22-21V: WELL
FLD.           Purgatorie River: FIELD
LOC.           63' FNL & 1895' FWL--: LOCATION
CNTY.               Las Animas: COUNTY
SRVC.          Superior Well Services: SERVICE COMPANY
DATE.          Fri Dec 08 14:45:19 2006: LOG DATE
UWI.           05 071 08346 00: UNIQUE WELL ID
STAT.                       CO: STATE
~Curve Information Block
DEPT.FT            0 000 00 00: Depth
CCL.                          : Casing Collar Locator
TT3.usec                      : CBL 3' Travel Time
AMP3.mV                       : CBL 3' Amplitude
GR.GAPI                       : Gamma Ray
~Parameter Information Block
~A  Depth       CCL         TT3         AMP3         GR     
# ...
   417.7500      0.0000    260.0107     76.5190     63.5065
   418.0000      0.0000    259.9778     76.7561     62.1340
   418.2500      0.0000    259.9555     76.8938     61.8528
   418.5000      0.0000    259.9525     76.8826     63.5068
   418.7500      0.0000    259.9656     76.7482     67.3146
   419.0000      0.0000    259.9809     76.5848     72.5950
   419.2500      0.0000    259.9833     76.4962     77.7551
   419.5000      0.0000    259.9675     76.5274     80.9249
   419.7500      0.0000    259.9401     76.6406     81.1179
   420.0000      0.0000    259.9122     76.7442     78.6357
   420.2500      0.0000    259.8881     76.7539     74.1175
   420.5000      0.0000    259.8630     76.6452     67.7157
   420.7500      0.0000    259.8305     76.4656     59.7295
   421.0000      0.0000    259.7925     76.2914     51.6589
   421.2500      0.0000    259.7596     76.1723     45.9490
   421.5000      0.0000    259.7424     76.0949     44.5816
   421.7500      0.0000    259.7520     75.9412     48.0225
   422.0000      0.0000    259.8234     75.3906     55.4065
   422.2500      0.0000    260.0474     73.8377     65.3661
   422.5000      0.0000    260.5647     70.5884     76.3737
   422.7500      0.0000    261.4868     65.4522     86.4024
   423.0000      0.0000    262.7825     59.2701     93.1023
   423.2500      0.0000    264.2389     53.6598     95.2253
   423.5000      0.0000    265.5576     50.0152     93.8455
   423.7500      0.0000    266.5133     48.6896     91.5915
   424.0000      0.0000    267.0524     49.0319     90.6424
   424.2500      0.0000    267.2729     50.0300     91.6717
   424.5000     -2.0000    267.3210     50.9404     94.2192
   424.7500      2.0000    267.2905     51.5504     97.3308
   425.0000     -2.0000    267.1931     52.1160    100.0749
   425.2500      0.0000    266.9876     53.2111    102.2324
   425.5000      0.0000    266.6232     55.5186    104.5892
   425.7500      0.0000    266.0594     59.3975    108.1281
   426.0000      0.0000    265.2720     64.3780    112.7719
   426.2500      0.0000    264.2749     69.2203    116.9271
   426.5000      0.0000    263.1588     72.7530    118.2402
   426.7500      0.0000    262.0938     74.6556    115.1035
   427.0000      0.0000    261.2535     75.3823    107.9941
   427.2500      0.0000    260.7151     75.5436     99.6955
   427.5000      0.0000    260.4362     75.5175     94.0994
   427.7500      0.0000    260.3196     75.4575     94.1877
   428.0000      0.0000    260.2849     75.4163    100.1193
   428.2500      0.0000    260.2877     75.4100    108.7595
   428.5000      0.0000    260.3042     75.4355    115.5298
   428.7500      0.0000    260.3177     75.4782    117.2722
   429.0000      0.0000    260.3184     75.5216    113.6805
   429.2500      0.0000    260.3055     75.5604    106.6563
   429.5000      0.0000    260.2843     75.6005     98.9005
   429.7500      0.0000    260.2612     75.6513     92.8318
   430.0000      0.0000    260.2389     75.7187     89.9360
   430.2500      0.0000    260.2169     75.8051     90.3851
   430.5000      0.0000    260.1954     75.9067     92.9847
   430.7500      0.0000    260.1773     76.0053     95.7877
   431.0000      0.0000    260.1671     76.0720     97.3873
   431.2500      0.0000    260.1661     76.0870     97.8151
   431.5000      0.0000    260.1710     76.0588     98.0050
   431.7500      0.0000    260.1771     76.0184     98.5287
   432.0000      0.0000    260.1830     75.9942     99.2233
   432.2500      0.0000    260.1900     75.9936     99.8516
   432.5000      0.0000    260.1982     76.0055    100.5292
   432.7500      0.0000    260.2044     76.0144    101.4148
   433.0000      0.0000    260.2059     76.0081    102.2597
   433.2500      0.0000    260.2037     75.9761    102.3338
   433.5000      0.0000    260.2014     75.9108    100.7683
   433.7500      0.0000    260.2012     75.8131     97.2041
   434.0000      0.0000    260.2026     75.6953     92.3174
   434.2500      0.0000    260.2047     75.5759     87.5941
   434.5000      0.0000    260.2073     75.4739     84.3262
   434.7500      0.0000    260.2087     75.4095     82.7257
   435.0000      0.0000    260.2043     75.4019     82.0148
   435.2500      0.0000    260.1890     75.4605     81.2998
   435.5000      0.0000    260.1600     75.5761     80.4353
   435.7500      0.0000    260.1210     75.7187     80.3244
   436.0000      0.0000    260.0850     75.8430     82.3816
   436.2500      0.0000    260.0695     75.9071     87.1939
   436.5000      0.0000    260.0819     75.9008     93.5047
   436.7500      0.0000    260.1097     75.8553     98.8860
   437.0000      0.0000    260.1309     75.8140    101.7081
   437.2500      0.0000    260.1349     75.7909    102.2589
   437.5000      0.0000    260.1292     75.7659    101.9562
   437.7500      0.0000    260.1262     75.7157    101.8833
   438.0000      0.0000    260.1301     75.6404    102.0760
   438.2500      0.0000    260.1371     75.5594    101.7764
   438.5000      0.0000    260.1416     75.4929    100.2662
   438.7500      0.0000    260.1411     75.4493     97.5887
   439.0000      0.0000    260.1359     75.4304     94.4548
   439.2500      0.0000    260.1266     75.4429     91.5717
   439.5000      0.0000    260.1135     75.4976     89.2590
   439.7500      0.0000    260.0969     75.5881     87.4482
   440.0000      0.0000    260.0796     75.6739     85.6771
   440.2500      0.0000    260.0674     75.6991     83.1794
   440.5000      0.0000    260.0666     75.6391     79.3777
   440.7500      0.0000    260.0775     75.5256     74.4734
   441.0000      0.0000    260.0940     75.4190     69.5055
   441.2500      0.0000    260.1087     75.3605     65.6636
   441.5000      0.0000    260.1176     75.3581     63.3269
   441.7500      0.0000    260.1179     75.4141     61.6511
   442.0000      0.0000    260.1050     75.5486     59.2310
   442.2500      0.0000    260.0759     75.7787     55.2172
   442.5000      0.0000    260.0355     76.0694     49.7480
   442.7500      0.0000    259.9985     76.3174     43.5369
   443.0000      0.0000    259.9815     76.4131     37.3428
   443.2500      0.0000    259.9888     76.3373     31.7969
   443.5000      0.0000    260.0085     76.1867     27.5050
   443.7500      0.0000    260.0237     76.0900     25.1558
   444.0000      0.0000    260.0274     76.1059     25.3821
   444.2500      0.0000    260.0240     76.2012     28.2606
   444.5000      0.0000    260.0200     76.3027     32.7996
   444.7500      0.0000    260.0178     76.3520     37.0787
   445.0000      0.0000    260.0168     76.3276     39.3265
   445.2500      0.0000    260.0164     76.2431     39.1829
   445.5000      0.0000    260.0164     76.1358     37.8723
   445.7500      0.0000    260.0154     76.0484     37.0085
   446.0000      0.0000    260.0121     76.0081     37.2638
   446.2500      0.0000    260.0080     76.0099     38.2603
   446.5000      0.0000    260.0086     76.0199     39.6884
   446.7500      0.0000    260.0201     76.0007     42.2773
   447.0000      0.0000    260.0420     75.9431     47.3647
   447.2500      0.0000    260.0667     75.8711     55.5080
   447.5000      0.0000    260.0854     75.8188     65.8375
   447.7500      0.0000    260.0949     75.8097     76.7208
   448.0000      0.0000    260.0967     75.8511     86.5172
   448.2500      0.0000    260.0943     75.9349     93.5590
   448.5000      0.0000    260.0913     76.0400     96.0920
   448.7500      0.0000    260.0911     76.1394     93.0974
   449.0000      0.0000    260.0966     76.2094     85.4311
   449.2500      0.0000    260.1099     76.2356     75.8060
   449.5000      0.0000    260.1289     76.2199     67.1882
   449.7500      0.0000    260.1458     76.1873     61.1354
   450.0000      0.0000    260.1513     76.1756     57.7748
   450.2500      0.0000    260.1423     76.2094     57.0170
   450.5000      0.0000    260.1248     76.2852     59.2006
   450.7500      0.0000    260.1077     76.3793     64.5234
   451.0000      0.0000    260.0966     76.4661     72.3837
