~Version Information
VERS.                      2.0: CWLS Log ASCII Standard - VERSION 2.0
WRAP.                       NO: One line per depth step
~Well Information Block
STRT.FT                -7.0000: 
STOP.FT              2730.2500: 
STEP.FT                 0.2500: 
NULL.                -999.2500: 
COMP.          Pioneer Natural Resources: COMPANY
WELL.             Squeal 11-26: WELL
FLD.           Purgatorie River: FIELD
LOC.           1186' FNL & 152' FWL--: LOCATION
PROV.                       CO: PROVINCE
CNTY.               Las Animas: COUNTRY
SRVC.          Patterson Wireline: SERVICE COMPANY
DATE.          Tue Jul 26 11:59:46 2005: LOG DATE
UWI.           05 071 08404 00: UNIQUE WELL ID
~Curve Information Block
DEPT.FT            0 000 00 00: Depth
CCL.                          : Casing Collar Locator
TT3.usec                      : CBL 3' Travel Time
AMP3.mV                       : CBL 3' Amplitude
GR.GAPI                       : Gamma Ray
~Parameter Information Block
~A  Depth       CCL         TT3         AMP3         GR     
# ...
  1433.5000      0.0000    720.9459      3.1125    117.3650
  1433.7500      0.0000    723.5880      2.9692    111.1104
  1434.0000      0.0000    734.2622      2.8910    103.4755
  1434.2500      0.0000    753.3623      2.8673     94.7522
  1434.5000      0.0000    779.1659      2.8727     85.9168
  1434.7500      0.0000    808.2031      2.8836     79.2689
  1435.0000      0.0000    834.5910      2.8892     77.3979
  1435.2500      0.0000    849.1025      2.8914     81.5831
  1435.5000      0.0000    842.7974      2.8982     90.8793
  1435.7500      0.0000    815.1691      2.9175    102.4199
  1436.0000      0.0000    777.1393      2.9557    113.0406
  1436.2500      0.0000    743.2181      3.0219    121.1658
  1436.5000      0.0000    721.6277      3.1310    127.0767
  1436.7500      0.0000    712.4919      3.2967    131.5333
  1437.0000      0.0000    712.0756      3.5164    134.7227
  1437.2500      0.0000    716.1079      3.7615    136.4014
  1437.5000      0.0000    720.7189      3.9871    136.3395
  1437.7500      0.0000    723.0539      4.1545    134.7132
  1438.0000      0.0000    722.1004      4.2442    132.6056
  1438.2500      0.0000    718.8309      4.2532    131.7106
  1438.5000      0.0000    715.2537      4.1876    132.7238
  1438.7500      0.0000    712.6177      4.0647    134.2538
  1439.0000      0.0000    710.3118      3.9158    133.8940
  1439.2500      0.0000    706.8151      3.7790    130.2805
  1439.5000      0.0000    701.7261      3.6834    124.1303
  1439.7500      0.0000    696.3597      3.6372    117.7109
  1440.0000      0.0000    692.4163      3.6301    113.3006
  1440.2500      0.0000    690.6444      3.6457    111.6394
  1440.5000      0.0000    690.8330      3.6720    111.4592
  1440.7500      0.0000    692.4854      3.7041    110.5292
  1441.0000      0.0000    695.0705      3.7400    107.5379
  1441.2500      0.0000    697.8447      3.7778    103.4236
  1441.5000      0.0000    699.9462      3.8154    100.8497
  1441.7500      0.0000    700.8434      3.8524    102.0035
  1442.0000      0.0000    700.4298      3.8918    106.7525
  1442.2500      0.0000    698.7120      3.9368    112.9069
  1442.5000      0.0000    695.8637      3.9840    118.1582
  1442.7500      0.0000    692.5608      4.0247    121.6970
  1443.0000      0.0000    689.7341      4.0551    123.9891
  1443.2500      0.0000    687.9297      4.0813    125.2927
  1443.5000      0.0000    687.1718      4.1117    124.9797
  1443.7500      0.0000    687.3849      4.1477    122.6138
  1444.0000      0.0000    688.6395      4.1853    119.2655
  1444.2500      0.0000    690.8042      4.2253    117.0813
  1444.5000      0.0000    693.0629      4.2779    117.4203
  1444.7500      0.0000    694.1533      4.3553    119.6951
  1445.0000      0.0000    693.4041      4.4541    122.1591
  1445.2500      0.0000    691.3872      4.5444    123.6808
  1445.5000      0.0000    689.3243      4.5815    124.6451
  1445.7500      0.0000    688.0491      4.5384    126.2304
  1446.0000      0.0000    687.6581      4.4289    128.9819
  1446.2500      0.0000    687.8078      4.2991    132.1992
  1446.5000      0.0000    688.0574      4.1954    134.7796
  1446.7500      0.0000    688.0353      4.1407    136.4788
  1447.0000      0.0000    687.5107      4.1337    137.9492
  1447.2500      0.0000    686.3995      4.1606    139.5369
  1447.5000      0.0000    684.8970      4.2040    140.4016
  1447.7500      0.0000    683.8488      4.2435    138.9305
  1448.0000      0.0000    684.7202      4.2554    134.2285
  1448.2500      0.0000    688.2902      4.2204    127.6160
  1448.5000      0.0000    693.0565      4.1332    122.1260
  1448.7500      0.0000    696.0654      4.0052    119.7587
  1449.0000      0.0000    696.2488      3.8593    119.8515
  1449.2500      0.0000    696.0316      3.7208    120.7607
  1449.5000      0.0000    698.5540      3.6076    122.0767
  1449.7500      0.0000    704.1102      3.5255    124.2482
  1450.0000      0.0000    710.7327      3.4751    127.0219
  1450.2500      0.0000    717.8348      3.4674    129.3804
  1450.5000      0.0000    727.6175      3.5315    130.6662
  1450.7500      0.0000    742.6124      3.6982    130.9313
  1451.0000      0.0000    763.8157      3.9718    130.0850
  1451.2500      0.0000    792.5659      4.3237    127.3090
  1451.5000      0.0000    831.5627      4.7215    121.8925
  1451.7500      0.0000    879.5457      5.1598    114.5743
  1452.0000      0.0000    925.6713      5.6484    107.5463
  1452.2500      0.0000    954.9630      6.1694    102.9560
  1452.5000      2.0000    962.6420      6.6576    101.4996
  1452.7500     -2.0000    960.4994      7.0305    102.3127
  1453.0000      0.0000    966.1713      7.2312    103.9937
  1453.2500      0.0000    985.7385      7.2632    105.8827
  1453.5000      0.0000   1006.7069      7.2017    108.5833
  1453.7500      0.0000   1007.8877      7.1469    113.0339
  1454.0000      0.0000    977.3775      7.1232    118.8804
  1454.2500      0.0000    922.0489      7.0381    124.2883
  1454.5000      0.0000    860.4614      6.7785    127.8789
  1454.7500      0.0000    808.5451      6.3339    130.3691
  1455.0000      0.0000    772.4175      5.8012    133.6406
  1455.2500      0.0000    750.8132      5.2957    138.3875
  1455.5000      0.0000    740.1888      4.8814    142.9883
  1455.7500      0.0000    738.1170      4.5626    144.5165
  1456.0000      0.0000    745.2838      4.3095    140.7898
  1456.2500      0.0000    765.5507      4.0869    131.9040
  1456.5000      0.0000    801.5637      3.8742    120.2785
  1456.7500      0.0000    846.7112      3.6750    109.3784
  1457.0000      0.0000    882.2942      3.5181    102.0622
  1457.2500      0.0000    888.1497      3.4460     99.4320
  1457.5000      0.0000    859.2548      3.4867    100.4909
  1457.7500      0.0000    809.8103      3.6297    102.8163
  1458.0000      0.0000    760.2853      3.8305    104.3707
  1458.2500      0.0000    722.8138      4.0405    105.2159
  1458.5000      0.0000    698.0644      4.2326    107.0188
  1458.7500      0.0000    681.0983      4.4036    110.6635
  1459.0000      0.0000    667.7684      4.5604    115.0997
  1459.2500      0.0000    657.5513      4.7141    118.8172
  1459.5000      0.0000    652.7355      4.8829    121.6205
  1459.7500      0.0000    655.4590      5.0848    124.4706
  1460.0000      0.0000    665.1266      5.3148    128.0493
  1460.2500      0.0000    678.3943      5.5361    131.9112
  1460.5000      0.0000    691.4091      5.7101    135.0261
  1460.7500      0.0000    701.7709      5.8384    136.7705
  1461.0000      0.0000    708.5573      5.9613    137.0159
  1461.2500      0.0000    711.6390      6.1125    135.5949
  1461.5000      0.0000    711.7661      6.2825    132.3803
  1461.7500      0.0000    710.6281      6.4290    127.9216
  1462.0000      0.0000    709.9149      6.5140    123.7193
  1462.2500      0.0000    710.3091      6.5193    121.8190
  1462.5000      0.0000    711.7432      6.4356    123.6894
  1462.7500      0.0000    714.1559      6.2572    128.7929
  1463.0000      0.0000    716.9111      5.9954    134.4665
  1463.2500      0.0000    717.3758      5.6884    137.9632
  1463.5000      0.0000    710.8779      5.3878    138.4743
  1463.7500      0.0000    693.2487      5.1321    136.6490
  1464.0000      0.0000    665.1077      4.9382    132.8557
  1464.2500      0.0000    634.4617      4.8095    126.9339
  1464.5000      0.0000    613.0845      4.7415    119.2911
  1464.7500      0.0000    607.6094      4.7156    111.0605
  1465.0000      0.0000    613.9101      4.6970    102.9611
  1465.2500      0.0000    620.2255      4.6503     94.7600
  1465.5000      0.0000    614.6793      4.5599     86.2731
  1465.7500      0.0000    591.1947      4.4381     78.4102
  1466.0000      0.0000    553.0291      4.3168     72.6703
  1466.2500      0.0000    512.6539      4.2316     69.6328
  1466.5000      0.0000    484.7453      4.2060     68.2832
  1466.7500      0.0000    476.4550      4.2417     66.8660
