~Version Information
 VERS.                                  2.0 : CWLS LAS VERSION
 WRAP.                                   NO : WRAPING MODE
 SWARE .                 MController 2.5.0E : SOFTWARE VERSION
~Well Information
 WELL.                  McCullough 34-32 TR : WELL
 COMP.             Evergreen Operating Corp : COMPANY
 FLD.                      Purgatorie River : FIELD
 LOC.                SW/SE Sec 32 T32S R66W : LOCATION
 DATE.                           09/18/2004 : DATE(S) LOGGED
 SRVC.       Blanco Geological Services LLC : SERVICE COMPANY
 STAT.                                   CO : STATE
 CNTY.                            La Animas : COUNTY
 CTRY.                                  USA : COUNTRY
 API.                       05 071 08157-00 : API NUMBER
 STRT.FT                             521.00 : START DEPTH
 STOP.FT                            2000.00 : STOP DEPTH
 STEP.FT                               1.00 : DEPTH INCREMENT
 NULL.                                -9999 : NULL VALUE
~Curve information
 DEPTH.FT                                   :
 ROP.MIN/FT                                 :
 GAS.UNITS                                  :
~ASCII Log data
# ...
      921.00        0.267          2.9 
      922.00        0.200          7.8 
      923.00        0.267          7.7 
      924.00        0.267          7.0 
      925.00        0.467          6.7 
      926.00        3.017         13.2 
      927.00        0.167          9.5 
      928.00        0.167          8.1 
      929.00        0.133          8.2 
      930.00        0.167          9.2 
      931.00        0.167          9.2 
      932.00        0.133         11.1 
      933.00        0.167         11.1 
      934.00        0.267         10.5 
      935.00        0.283         11.3 
      936.00        0.267          9.8 
      937.00        0.467          9.0 
      938.00        0.400          8.5 
      939.00        0.133          7.7 
      940.00        0.233          7.7 
      941.00        0.167          6.7 
      942.00        0.133          6.7 
      943.00        0.233          7.5 
      944.00        0.267          6.3 
      945.00        0.367          6.3 
      946.00        0.367          7.1 
      947.00        0.417          7.0 
      948.00        0.300          6.8 
      949.00        0.267          7.0 
      950.00        0.400          7.0 
      951.00        0.333          7.0 
      952.00        0.333          7.2 
      953.00        0.333          7.7 
      954.00        0.333          7.7 
      955.00        0.300          6.9 
      956.00        2.417          7.6 
      957.00        0.433         16.3 
      958.00        0.300         17.3 
      959.00        0.300         19.8 
      960.00        0.267         11.7 
      961.00        0.383         11.7 
      962.00        0.267          9.6 
      963.00        0.267          9.3 
      964.00        0.267          8.1 
      965.00        0.267          7.8 
      966.00        0.233          6.8 
      967.00        0.267          6.7 
      968.00        0.267          7.0 
      969.00        0.200          7.0 
      970.00        0.267          7.3 
      971.00        0.233          6.5 
      972.00        0.300          6.7 
      973.00        0.383          6.7 
      974.00        0.533          7.0 
      975.00        0.333          6.5 
      976.00        0.333          6.5 
      977.00        0.233          6.9 
      978.00        0.300          6.3 
      979.00        0.267          6.9 
      980.00        0.333          6.8 
      981.00        0.367          8.6 
      982.00        0.167          8.6 
      983.00        0.200          8.4 
      984.00        0.283          7.9 
      985.00        0.267          7.9 
      986.00        2.167        203.7 
      987.00        0.300        205.3 
      988.00        0.400        122.2 
      989.00        0.417         53.3 
      990.00        0.233         30.2 
      991.00        0.367         20.3 
      992.00        0.233         13.9 
      993.00        0.233         10.9 
      994.00        0.233         11.0 
      995.00        0.233         10.2 
      996.00        0.233          9.5 
      997.00        0.300          9.2 
      998.00        0.300          9.6 
      999.00        0.267         10.4 
     1000.00        0.267          9.3 
     1001.00        0.250          9.5 
     1002.00        0.300          9.8 
     1003.00        0.233          9.2 
     1004.00        0.233          9.7 
     1005.00        0.200          9.7 
     1006.00        0.200          9.4 
     1007.00        0.200          9.2 
     1008.00        0.333          9.7 
     1009.00        0.233          9.8 
     1010.00        0.167          9.9 
     1011.00        0.267          9.8 
     1012.00        0.233         11.1 
     1013.00        0.233         10.3 
     1014.00        0.267         11.4 
     1015.00        0.250         11.8 
     1016.00        2.633         11.6 
     1017.00        0.300         10.3 
     1018.00        0.417         10.0 
     1019.00        0.300         10.0 
     1020.00        0.333         10.0 
     1021.00        0.367          9.9 
     1022.00        0.267         10.0 
     1023.00        0.233          9.9 
     1024.00        0.267          9.6 
     1025.00        0.233          9.6 
     1026.00        0.267         10.2 
     1027.00        0.233          9.5 
     1028.00        0.233         10.1 
     1029.00        0.233         10.1 
     1030.00        0.200          9.3 
     1031.00        0.283         10.4 
     1032.00        0.233          9.6 
     1033.00        0.233         10.0 
     1034.00        0.233         10.0 
     1035.00        0.233          9.8 
     1036.00        0.267         10.7 
     1037.00        0.233         10.2 
     1038.00        0.200          9.9 
     1039.00        0.267          9.9 
     1040.00        0.233         10.1 
     1041.00        0.233         11.2 
     1042.00        0.233         11.5 
     1043.00        0.233         11.7 
     1044.00        0.233         12.1 
     1045.00        0.250         12.1 
     1046.00        2.167         37.6 
     1047.00        0.200         38.3 
     1048.00        0.333         36.6 
     1049.00        0.200         33.8 
     1050.00        0.200         33.8 
     1051.00        0.150         30.1 
     1052.00        0.100         30.1 
     1053.00        0.133         23.4 
     1054.00        0.233         18.6 
     1055.00        0.167         18.6 
     1056.00        0.100         17.3 
     1057.00        0.067         13.9 
     1058.00        0.067         13.9 
     1059.00        0.100         13.9 
     1060.00        0.067         12.9 
     1061.00        0.067         11.4 
     1062.00        0.100         11.4 
     1063.00        0.067         11.4 
     1064.00        0.100         10.2 
     1065.00        0.167         10.2 
     1066.00        0.367          9.5 
     1067.00        0.267          7.1 
     1068.00        0.200          6.7 
     1069.00        0.200          6.3 
     1070.00        0.267          6.6 
     1071.00        0.267          8.2 
     1072.00        0.250          8.9 
     1073.00        0.233         10.2 
     1074.00        0.233         11.2 
     1075.00        0.267         11.9 
     1076.00        2.333         11.5 
     1077.00        0.183          5.8 
     1078.00        0.433          6.3 
     1079.00        0.467          6.2 
     1080.00        0.267          6.2 
     1081.00        0.533          8.0 
     1082.00        0.600         13.4 
     1083.00        0.267         14.3 
     1084.00        0.300         11.6 
     1085.00        0.267         10.3 
     1086.00        0.283          8.9 
     1087.00        0.233          7.8 
     1088.00        0.400          7.6 
     1089.00        0.200          6.5 
     1090.00        0.133          6.7 
     1091.00        0.133          6.7 
     1092.00        0.100          6.7 
     1093.00        0.233          5.8 
     1094.00        0.267          5.7 
     1095.00        0.267          5.8 
     1096.00        0.267          5.8 
     1097.00        0.300          5.7 
     1098.00        0.167          5.7 
     1099.00        0.233          7.0 
     1100.00        0.267          8.8 
     1101.00        0.283         10.6 
     1102.00        0.133         10.6 
     1103.00        0.233         11.5 
     1104.00        0.233         11.9 
     1105.00        0.267         12.1 
     1106.00        2.067         11.3 
     1107.00        0.283          7.2 
     1108.00        0.300          7.2 
     1109.00        0.400          6.9 
     1110.00        0.300          5.4 
     1111.00        0.233          6.1 
     1112.00        0.267          5.9 
     1113.00        0.467          6.0 
     1114.00        0.300          5.0 
     1115.00        0.267          5.0 
     1116.00        0.300          5.5 
     1117.00        0.300          5.9 
     1118.00        0.283          1.6 
     1119.00        0.267          1.5 
     1120.00        0.333          1.0 
