~Version Information
VERS.                      2.0: CWLS Log ASCII Standard - VERSION 2.0
WRAP.                       NO: One line per depth step
~Well Information Block
STRT.FT                -5.5000: 
STOP.FT              1979.7500: 
STEP.FT                 0.2500: 
NULL.                -999.2500: 
COMP.          Pioneer Natural Resources: COMPANY
WELL.          Bucksnort 41-35: WELL
FLD.           Purgatorie River: FIELD
LOC.           117' FNL & 463' FEL: LOCATION
PROV.                 Colorado: PROVINCE
CNTY.               Las Animas: COUNTRY
SRVC.                Patterson: SERVICE COMPANY
DATE.          Fri Jul 29 10:31:46 2005: LOG DATE
UWI.                          : UNIQUE WELL ID
~Curve Information Block
DEPT.FT            0 000 00 00: Depth
GR.GAPI                       : Gamma Ray
CCL.                          : Casing Collar Locator
TT3.usec                      : CBL 3' Travel Time
AMP3.mV                       : CBL 3' Amplitude
~Parameter Information Block
~A  Depth        GR         CCL         TT3         AMP3    
# ...
  1301.0000    144.0716      0.0000    643.1013      8.7171
  1301.2500    141.6933      0.0000    644.2523      8.7674
  1301.5000    139.2200      0.0000    637.6234      8.7918
  1301.7500    137.0656      0.0000    622.7117      8.7720
  1302.0000    134.4845      0.0000    607.2446      8.7444
  1302.2500    129.8308      0.0000    603.6250      8.7468
  1302.5000    122.0388      0.0000    619.2807      8.7593
  1302.7500    111.7435      0.0000    645.1051      8.7436
  1303.0000    101.0755      0.0000    657.4841      8.7060
  1303.2500     92.5679      0.0000    639.2010      8.6872
  1303.5000     87.8809      0.0000    600.9722      8.7168
  1303.7500     87.0208      0.0000    577.3660      8.7863
  1304.0000     88.7012      0.0000    588.3721      8.8591
  1304.2500     91.6941      0.0000    615.9816      8.9137
  1304.5000     95.9137      0.0000    635.3524      8.9535
  1304.7500    102.2914      0.0000    643.6962      8.9833
  1305.0000    111.7419      0.0000    648.3989      9.0105
  1305.2500    124.2619      0.0000    651.8279      9.0472
  1305.5000    138.8936      0.0000    654.1111      9.0952
  1305.7500    154.1375      0.0000    656.6054      9.1427
  1306.0000    168.1535      0.0000    659.3121      9.1658
  1306.2500    178.9853      0.0000    661.0997      9.1348
  1306.5000    185.2854      0.0000    661.8351      9.0451
  1306.7500    187.0004      0.0000    662.0771      8.9343
  1307.0000    185.1730      0.0000    662.1814      8.8513
  1307.2500    181.2661      0.0000    662.2963      8.8185
  1307.5000    176.9242      0.0000    662.8041      8.8291
  1307.7500    173.9581      0.0000    664.9544      8.8693
  1308.0000    173.6401      0.0000    670.5443      8.9306
  1308.2500    175.5587      0.0000    678.4636      8.9912
  1308.5000    177.4902      0.0000    682.3829      9.0125
  1308.7500    176.9305      0.0000    677.5867      8.9705
  1309.0000    172.7601      0.0000    667.6759      8.8730
  1309.2500    165.4954      0.0000    659.2607      8.7563
  1309.5000    156.5953      0.0000    655.6011      8.6649
  1309.7500    147.9823      0.0000    656.3284      8.6221
  1310.0000    141.6141      0.0000    658.7291      8.6170
  1310.2500    138.5393      0.0000    660.4035      8.6173
  1310.5000    138.1295      0.0000    661.0668      8.6171
  1310.7500    138.6364      0.0000    661.4958      8.6518
  1311.0000    138.8627      0.0000    662.6243      8.7212
  1311.2500    139.4078      0.0000    666.2336      8.7688
  1311.5000    142.1079      0.0000    674.4047      8.7680
  1311.7500    147.9550      0.0000    684.1182      8.7359
  1312.0000    155.6250      0.0000    684.8502      8.6907
  1312.2500    162.4997      0.0000    671.2500      8.6645
  1312.5000    167.1060      0.0000    652.7821      8.6932
  1312.7500    169.9552      0.0000    641.7806      8.7594
  1313.0000    171.9898      0.0000    643.3274      8.8149
  1313.2500    173.1148      0.0000    655.7485      8.8518
  1313.5000    172.6225      0.0000    668.6604      8.9026
  1313.7500    170.3961      0.0000    671.4728      8.9927
  1314.0000    167.0653      0.0000    666.9415      9.1092
  1314.2500    163.2373      0.0000    663.3167      9.2041
  1314.5000    159.0328      0.0000    662.4360      9.2414
  1314.7500    154.4103      0.0000    662.4803      9.2391
  1315.0000    149.9029      0.0000    662.5421      9.2428
  1315.2500    146.9448      0.0000    662.5584      9.2753
  1315.5000    147.0993      0.0000    662.5533      9.3224
  1315.7500    150.7708      0.0000    662.5283      9.3553
  1316.0000    156.6782      0.0000    662.4565      9.3604
  1316.2500    162.5237      0.0000    662.0000      9.3581
  1316.5000    166.4465      0.0000    659.9025      9.3856
  1316.7500    168.3451      0.0000    653.4224      9.4527
  1317.0000    169.7079      0.0000    639.2142      9.5228
  1317.2500    171.8779      0.0000    616.2924      9.5379
  1317.5000    174.5832      0.0000    589.8541      9.4688
  1317.7500    176.1873      0.0000    573.1062      9.3501
  1318.0000    175.1720      0.0000    578.0541      9.2633
  1318.2500    171.5462      0.0000    599.7952      9.2890
  1318.5000    167.0543      0.0000    621.4122      9.4471
  1318.7500    163.8683      0.0000    634.6570      9.6692
  1319.0000    163.0089      0.0000    644.4555      9.8648
  1319.2500    164.1178      0.0000    656.9901     10.0121
  1319.5000    166.3256      0.0000    669.6050     10.1595
  1319.7500    168.6542      0.0000    673.2001     10.3641
  1320.0000    169.7067      0.0000    664.9884     10.6317
  1320.2500    167.8601      0.0000    652.4584     10.8508
  1320.5000    162.3135      0.0000    640.9847     10.7756
  1320.7500    153.7088      0.0000    626.8221     10.2087
  1321.0000    143.3639      0.0000    606.3452      9.3111
  1321.2500    132.0572      0.0000    590.0856      8.4997
  1321.5000    119.8559      0.0000    597.4348      7.9199
  1321.7500    107.0570      0.0000    623.1472      7.4699
  1322.0000     94.9315      0.0000    627.1729      7.2089
  1322.2500     85.3779      0.0000    578.0807      7.1944
  1322.5000     79.9179      0.0000    492.6797      7.2835
  1322.7500     78.8363      2.0000    419.8749      7.3307
  1323.0000     81.0260      0.0000    394.9983      7.2926
  1323.2500     84.7769      0.0000    424.3576      7.1669
  1323.5000     89.1060      0.0000    494.6364      7.0426
  1323.7500     94.4728      0.0000    573.4548      7.2412
  1324.0000    102.0070      0.0000    625.4960      8.0269
  1324.2500    111.8161      0.0000    644.6481      9.0172
  1324.5000    122.2085      0.0000    649.5541      9.5640
  1324.7500    130.9414      0.0000    653.8985      9.6355
  1325.0000    137.1572      0.0000    658.6789      9.5747
  1325.2500    141.7537      0.0000    661.8981      9.5205
  1325.5000    146.1036      0.0000    663.4314      9.4787
  1325.7500    150.9178      0.0000    664.2089      9.4808
  1326.0000    156.0802      0.0000    665.6326      9.5394
  1326.2500    160.8689      0.0000    669.4803      9.6058
  1326.5000    164.2582      0.0000    676.3056      9.6196
  1326.7500    165.5524      0.0000    683.1844      9.5616
  1327.0000    165.0140      0.0000    685.6282      9.4495
  1327.2500    163.6574      0.0000    682.0848      9.3154
  1327.5000    162.3513      0.0000    673.3098      9.1933
  1327.7500    161.3667      0.0000    661.5984      9.1059
  1328.0000    160.7182      0.0000    652.8168      9.0431
  1328.2500    160.3726      0.0000    650.6385      8.9698
  1328.5000    160.0136      0.0000    650.5765      8.8677
  1328.7500    159.2265      0.0000    647.0641      8.7443
  1329.0000    158.1416      0.0000    640.7223      8.6135
  1329.2500    157.4648      0.0000    634.8482      8.4977
  1329.5000    157.7068      0.0000    632.2405      8.4290
  1329.7500    158.7594      0.0000    635.8919      8.4214
  1330.0000    160.3583      0.0000    645.0776      8.4454
  1330.2500    162.6439      0.0000    654.1334      8.4588
  1330.5000    166.1042      0.0000    659.1177      8.4628
  1330.7500    171.0115      0.0000    660.7207      8.4897
  1331.0000    176.7569      0.0000    660.9424      8.5413
  1331.2500    181.6759      0.0000    660.8472      8.5800
  1331.5000    183.8191      0.0000    660.7402      8.5706
  1331.7500    182.1784      0.0000    660.6505      8.4994
  1332.0000    177.1468      0.0000    660.5707      8.3708
  1332.2500    169.7806      0.0000    660.5190      8.2263
  1332.5000    160.8083      0.0000    660.3671      8.1407
  1332.7500    150.5154      0.0000    659.3845      8.1505
  1333.0000    139.4982      0.0000    655.6665      8.2158
  1333.2500    129.2074      0.0000    647.5555      8.2854
  1333.5000    121.4868      0.0000    639.1174      8.3596
  1333.7500    117.5030      0.0000    638.7055      8.4547
  1334.0000    116.9331      0.0000    644.0555      8.5505
  1334.2500    118.2316      0.0000    643.8484      8.6059
