~Version Information
VERS.                      2.0: CWLS Log ASCII Standard - VERSION 2.0
WRAP.                       NO: One line per depth step
~Well Information Block
STRT.FT               780.0000: 
STOP.FT              2866.2000: 
STEP.FT                 0.1000: 
NULL.                -999.2500: 
COMP.          Pioneer Natural Resources: COMPANY
WELL.            Sebring 42-29: WELL
FLD.           Purgatoire River: FIELD
LOC.           1751' FNL & 584' FEL--: LOCATION
PROV.                 Colorado: PROVINCE
CNTY.               Las Animas: COUNTRY
SRVC.                Patterson: SERVICE COMPANY
DATE.          Mon Aug 15 07:11:37 2005: LOG DATE
UWI.           05 071 08293 00: UNIQUE WELL ID
~Curve Information Block
DEPT.FT            0 000 00 00: Depth
DCAL.in                       : CDL Caliper
RHOB.g/cc                     : CDL Bulk Density
RHOC.g/cc                     : CDL Density Correction
DPOR.pu                       : CDL Density Porosity
NPOR.pu                       : Neutron Porosity
GR.GAPI                       : Gamma Ray
~Parameter Information Block
~A  Depth       DCAL        RHOB        RHOC        DPOR        NPOR         GR     
   780.0000      8.1629      2.5493     -0.1378      6.1042     40.8701     72.5856
   780.1000      8.1629      2.5603     -0.1796      5.4380     41.0337     74.0622
   780.2000      8.1629      2.5646     -0.1313      5.1751     41.3098     76.5214
   780.3000      8.1638      2.5552     -0.2091      5.7478     41.4369     79.8378
   780.4000      8.1638      2.5434     -0.2618      6.4604     41.5508     82.1563
   780.5000      8.1626      2.5312     -0.1497      7.1992     41.8665     82.6321
   780.6000      8.1626      2.5048     -0.2246      8.8016     42.1176     83.1068
   780.7000      8.1626      2.4918     -0.2854      9.5852     41.9613     82.5044
   780.8000      8.1617      2.5234     -0.1925      7.6740     41.4581     79.1370
   780.9000      8.1617      2.5715     -0.1577      4.7592     41.1872     74.7491
   781.0000      8.1608      2.5968     -0.1265      3.2221     41.6233     72.5724
   781.1000      8.1608      2.5967     -0.1943      3.2322     42.2947     74.4535
   781.2000      8.1608      2.5893     -0.1621      3.6802     42.4657     78.3518
   781.3000      8.1594      2.5920     -0.1435      3.5122     42.1850     81.1746
   781.4000      8.1594      2.6019     -0.1359      2.9137     42.0026     80.9802
   781.5000      8.1593      2.5990     -0.1498      3.0889     42.1993     78.3154
   781.6000      8.1593      2.5787     -0.1857      4.3202     42.6040     77.6322
   781.7000      8.1593      2.5508     -0.1528      6.0135     42.8693     82.4171
   781.8000      8.1617      2.5257     -0.2259      7.5356     42.8690     89.4310
   781.9000      8.1617      2.5143     -0.2238      8.2222     42.7727     91.1346
   782.0000      8.1629      2.5153     -0.1761      8.1624     42.5968     87.1092
   782.1000      8.1629      2.5252     -0.2445      7.5609     42.3050     83.8339
   782.2000      8.1629      2.5380     -0.1658      6.7908     42.1723     83.5364
   782.3000      8.1597      2.5317     -0.1981      7.1688     42.3432     82.9605
   782.4000      8.1597      2.5102     -0.3056      8.4736     42.6952     78.7076
   782.5000      8.1567      2.4991     -0.2014      9.1472     43.1298     72.6002
   782.6000      8.1567      2.4961     -0.1980      9.3287     43.5419     71.0212
   782.7000      8.1567      2.4961     -0.2562      9.3279     43.7973     74.8787
   782.8000      8.1570      2.5039     -0.2026      8.8545     43.8406     80.9436
   782.9000      8.1570      2.5072     -0.1917      8.6517     43.9623     86.8935
   783.0000      8.1569      2.4983     -0.1857      9.1963     44.2235     90.1407
   783.1000      8.1569      2.4856     -0.1742      9.9642     44.2505     91.0142
   783.2000      8.1569      2.4771     -0.1701     10.4813     44.0205     90.4268
   783.3000      8.1556      2.4744     -0.1832     10.6407     43.7841     87.9616
   783.4000      8.1556      2.4768     -0.2132     10.4951     43.7046     87.3733
   783.5000      8.1506      2.4711     -0.1666     10.8440     43.8757     91.0786
   783.6000      8.1506      2.4477     -0.2280     12.2600     44.1895     97.1101
   783.7000      8.1506      2.4274     -0.2429     13.4895     44.3779    104.3119
   783.8000      8.1400      2.4256     -0.2275     13.5979     44.2231    107.7078
   783.9000      8.1400      2.4237     -0.1953     13.7165     43.8581    103.8625
   784.0000      8.1320      2.3999     -0.2207     15.1567     43.7017     99.4348
   784.1000      8.1320      2.3614     -0.2687     17.4914     43.7914     96.8579
   784.2000      8.1320      2.3401     -0.3815     18.7836     43.7527     90.7503
   784.3000      8.1318      2.3536     -0.2636     17.9636     43.4752     84.5238
   784.4000      8.1318      2.3775     -0.2563     16.5146     43.0481     85.1791
   784.5000      8.1339      2.3891     -0.2491     15.8151     42.5151     88.7796
   784.6000      8.1339      2.3982     -0.2598     15.2622     42.0473     89.9770
   784.7000      8.1339      2.4130     -0.2306     14.3631     41.7420     89.3439
   784.8000      8.1341      2.4226     -0.2247     13.7838     41.6252     87.3562
   784.9000      8.1341      2.4240     -0.2378     13.6942     41.7132     85.7273
   785.0000      8.1331      2.4264     -0.2476     13.5535     41.6894     87.6669
   785.1000      8.1331      2.4217     -0.1728     13.8361     41.4011     91.9084
   785.2000      8.1331      2.4034     -0.3072     14.9453     41.2008     96.5926
   785.3000      8.1321      2.3935     -0.3514     15.5439     41.2585    103.2210
   785.4000      8.1321      2.4024     -0.2549     15.0087     41.2761    109.1631
   785.5000      8.1307      2.4158     -0.2393     14.1910     41.1630    109.6387
   785.6000      8.1307      2.4289     -0.2574     13.4022     41.1942    104.4882
   785.7000      8.1307      2.4474     -0.2676     12.2801     41.4436     98.9536
   785.8000      8.1296      2.4720     -0.1969     10.7850     41.8534     96.6648
   785.9000      8.1296      2.4993     -0.2166      9.1358     42.3196     95.5353
   786.0000      8.1288      2.5263     -0.1593      7.4951     42.5269     93.6209
   786.1000      8.1288      2.5567     -0.1827      5.6521     42.3786     91.8329
   786.2000      8.1288      2.6130     -0.1655      2.2401     42.1613     90.9426
   786.3000      8.1292      2.7039     -0.1272     -3.2689     42.1986     90.2683
   786.4000      8.1292      2.7946     -0.0947     -8.7622     42.6359     88.7849
   786.5000      8.1314      2.8467     -0.1106    -11.9234     43.2474     88.7261
   786.6000      8.1314      2.8573     -0.1480    -12.5619     43.7285     91.2069
   786.7000      8.1314      2.8157     -0.0555    -10.0424     44.0448     92.9972
   786.8000      8.1328      2.6777     -0.1067     -1.6771     44.1854     93.2294
   786.9000      8.1328      2.4544     -0.3633     11.8574     44.1577     94.6937
   787.0000      8.1298      2.2463     -0.4873     24.4661     44.0876     98.0270
   787.1000      8.1298      2.1391     -0.5668     30.9660     43.9886     98.3504
   787.2000      8.1298      2.1276     -0.4901     31.6581     43.7177     93.6623
   787.3000      8.1264      2.1490     -0.6096     30.3662     43.0462     88.9307
   787.4000      8.1264      2.1787     -0.8475     28.5616     41.6729     89.6913
   787.5000      8.1379      2.2362     -0.6531     25.0760     39.3299     97.7738
   787.6000      8.1379      2.3011     -0.5276     21.1428     35.9038    107.1663
   787.7000      8.1379      2.3213     -0.3966     19.9222     31.7247    111.1125
   787.8000      8.1770      2.2926     -0.3759     21.6627     27.5212    112.1252
   787.9000      8.1770      2.2907     -0.2669     21.7768     23.7700    115.9371
   788.0000      8.2379      2.3570      0.1850     17.7566     20.5900    121.5063
   788.1000      8.2379      2.4237      0.2585     13.7141     18.1820    124.5844
   788.2000      8.2379      2.4388      0.2016     12.8017     16.5685    124.7889
   788.3000      8.3042      2.4199      0.2176     13.9448     15.5133    125.9550
   788.4000      8.3042      2.3820      0.2367     16.2449     14.8861    129.1936
   788.5000      8.3534      2.3349      0.1814     19.0990     14.6970    130.7441
   788.6000      8.3534      2.3073      0.1800     20.7696     14.7413    130.2420
   788.7000      8.3534      2.3141      0.1998     20.3547     14.6485    129.5629
   788.8000      8.3939      2.3410      0.2162     18.7263     14.4397    129.2890
   788.9000      8.3939      2.3730      0.2170     16.7883     14.2608    130.6344
   789.0000      8.4251      2.4093      0.2408     14.5902     14.1148    133.3960
   789.1000      8.4251      2.4475      0.3074     12.2714     14.0437    134.4717
   789.2000      8.4251      2.4816      0.3212     10.2058     14.0582    128.2150
   789.3000      8.4352      2.5173      0.3561      8.0412     14.0818    115.4786
   789.4000      8.4352      2.5617      0.3745      5.3521     13.9906    105.0394
   789.5000      8.6073      2.5973      0.4169      3.1914     13.8827    101.6715
