~Version Information
 VERS.                                  2.0 : CWLS LAS VERSION
 WRAP.                                   NO : WRAPING MODE
 SWARE .                 MController 2.5.0J : SOFTWARE VERSION
~Well Information
 WELL.                        Montoya 6-14R : WELL
 COMP.                       Petrogulf Corp : COMPANY
 FLD.                      Purgatoire River : FIELD
 LOC.                 SW/SW Sec 6 T33S R67W : LOCATION
 DATE.                             11/13/04 : DATE(S) LOGGED
 SRVC.       Blanco Geological Services LLC : SERVICE COMPANY
 STAT.                                   CO : STATE
 CNTY.                           Las Animas : COUNTY
 CTRY.                                  USA : COUNTRY
 API.                       05-071-08242-00 : API NUMBER
 STRT.FT                             484.00 : START DEPTH
 STOP.FT                            2180.00 : STOP DEPTH
 STEP.FT                               1.00 : DEPTH INCREMENT
 NULL.                                -9999 : NULL VALUE
~Curve information
 DEPTH.FT                                   :
 ROP.MIN/FT                                 :
 GAS.UNITS                                  :
~ASCII Log data
# ...
       884.0         0.18         35.6 
       885.0         0.27         23.4 
       886.0         0.30         19.6 
       887.0         0.23         13.0 
       888.0         0.20         12.5 
       889.0         0.23         10.9 
       890.0         0.17         10.6 
       891.0         0.17         10.4 
       892.0         0.20         10.1 
       893.0         0.30         10.5 
       894.0         0.23          9.7 
       895.0         0.43         18.7 
       896.0     -9999.00         18.7 
       897.0         0.23         32.3 
       898.0         0.20         59.5 
       899.0         0.17         85.4 
       900.0         0.20        107.6 
       901.0         0.13        126.1 
       902.0         0.17        136.0 
       903.0         0.20        136.6 
       904.0         0.20        129.2 
       905.0         0.17        118.3 
       906.0         0.22        113.1 
       907.0         0.17         91.8 
       908.0         0.20         83.6 
       909.0         0.23         57.5 
       910.0         0.17         52.0 
       911.0         0.17         44.5 
       912.0         0.13         36.3 
       913.0         0.10         30.6 
       914.0         0.17         28.6 
       915.0         0.17         20.9 
       916.0         0.23         20.1 
       917.0         0.17         15.8 
       918.0         0.13         12.9 
       919.0         0.10         12.9 
       920.0         0.13         11.7 
       921.0         0.20         11.5 
       922.0         0.17         10.6 
       923.0         0.23         10.4 
       924.0         0.13         10.6 
       925.0         0.20         11.3 
       926.0         0.28         11.3 
       927.0         0.33         14.0 
       928.0         0.30         30.9 
       929.0         0.20         78.3 
       930.0         0.20        120.0 
       931.0         0.20        143.9 
       932.0         0.23        147.2 
       933.0         0.28        141.8 
       934.0         0.17        128.0 
       935.0         0.17        114.9 
       936.0         0.20        106.7 
       937.0         0.17         87.9 
       938.0         0.17         85.4 
       939.0         0.17         66.9 
       940.0         0.17         64.9 
       941.0         0.17         52.1 
       942.0         0.20         39.8 
       943.0         0.17         38.6 
       944.0         0.17         29.8 
       945.0         0.17         22.0 
       946.0         0.20         21.3 
       947.0         0.17         16.9 
       948.0         0.13         15.8 
       949.0         0.13         13.6 
       950.0         0.10         12.2 
       951.0         0.10         11.4 
       952.0         0.10         11.4 
       953.0         0.17         10.6 
       954.0         0.15         10.5 
       955.0         0.13         10.5 
       956.0         0.27         11.2 
       957.0         0.17         15.8 
       958.0         0.13         15.8 
       959.0         0.10         26.1 
       960.0         0.20         53.7 
       961.0         0.23         78.7 
       962.0         0.20        139.9 
       963.0         0.17        168.2 
       964.0         0.12        168.2 
       965.0         0.17        171.9 
       966.0         0.20        164.3 
       967.0         0.20        149.5 
       968.0         0.20        131.3 
       969.0         0.20        124.9 
       970.0         0.20         99.3 
       971.0         0.17         95.7 
       972.0         0.20         74.1 
       973.0         0.20         55.6 
       974.0         0.20         51.0 
       975.0         0.17         42.1 
       976.0         0.17         33.1 
       977.0         0.13         27.8 
       978.0         0.13         23.7 
       979.0         0.17         22.2 
       980.0         0.17         17.7 
       981.0         0.17         13.6 
       982.0         0.17         13.0 
       983.0         0.28         11.7 
       984.0         0.30         11.1 
       985.0         0.23         10.8 
       986.0         0.17         10.2 
       987.0         0.27         10.0 
       988.0         0.20          9.9 
       989.0         0.33         15.5 
       990.0         0.22         25.1 
       991.0         0.10         36.4 
       992.0         0.20         96.4 
       993.0         0.20        134.8 
       994.0         0.17        157.5 
       995.0         0.17        177.3 
       996.0         0.13        185.9 
       997.0         0.20        183.7 
       998.0         0.23        169.0 
       999.0         0.17        160.8 
      1000.0         0.20        126.0 
      1001.0         0.23        111.8 
      1002.0         0.20         73.6 
      1003.0         0.17         64.9 
      1004.0         0.17         50.2 
      1005.0         0.17         48.1 
      1006.0         0.17         39.2 
      1007.0         0.17         37.9 
      1008.0         0.17         32.4 
      1009.0         0.22         26.8 
      1010.0         0.23         24.8 
      1011.0         0.17         18.9 
      1012.0         0.17         16.6 
      1013.0         0.17         15.0 
      1014.0         0.30         12.5 
      1015.0         0.23         10.9 
      1016.0         0.33         10.4 
      1017.0         0.20         10.4 
      1018.0         0.27         11.5 
      1019.0         0.37         43.3 
      1020.0         0.27         92.8 
      1021.0         0.23        106.5 
      1022.0         0.23        151.6 
      1023.0         0.23        172.7 
      1024.0         0.17        181.8 
      1025.0         0.13        180.7 
      1026.0         0.13        176.8 
      1027.0         0.13        169.3 
      1028.0         0.07        159.9 
      1029.0         0.10        156.6 
      1030.0         0.10        138.0 
      1031.0         0.10        126.9 
      1032.0         0.10        116.3 
      1033.0         0.10        102.7 
      1034.0         0.12         99.6 
      1035.0         0.10         87.0 
      1036.0         0.13         75.4 
      1037.0         0.17         72.6 
      1038.0         0.17         53.6 
      1039.0         0.17         37.5 
      1040.0         0.20         31.4 
      1041.0         0.13         27.5 
      1042.0         0.17         20.0 
      1043.0         0.20         14.8 
      1044.0         0.17         14.6 
      1045.0         0.30         13.0 
      1046.0         0.27         11.3 
      1047.0         0.13          9.4 
      1048.0         0.17          9.7 
      1049.0         0.40         13.2 
      1050.0         0.43         31.8 
      1051.0         0.30        138.2 
      1052.0         0.23        144.5 
      1053.0         0.27        181.8 
      1054.0         0.23        189.9 
      1055.0         0.20        183.6 
      1056.0         0.32        163.8 
      1057.0         0.23        127.2 
      1058.0         0.27        108.1 
      1059.0         0.17         78.0 
      1060.0         0.13         60.9 
      1061.0         0.10         47.4 
      1062.0         0.13         42.3 
      1063.0         0.20         34.8 
      1064.0         0.30         34.3 
      1065.0         0.20         28.0 
      1066.0         0.13         25.3 
      1067.0         0.13         22.4 
      1068.0         0.10         21.4 
      1069.0         0.10         19.2 
      1070.0         0.10         16.6 
      1071.0         0.17         15.8 
      1072.0         0.20         13.7 
      1073.0         0.17         12.1 
      1074.0         0.13         11.7 
      1075.0         0.17         11.4 
      1076.0         0.15          9.7 
      1077.0         0.40         10.1 
      1078.0         0.30         16.4 
      1079.0         0.27         38.2 
      1080.0         0.23         64.7 
      1081.0         0.17         87.0 
      1082.0         0.18        122.2 
      1083.0         0.13        129.8 
