~Version Information
VERS.                      2.0: CWLS Log ASCII Standard - VERSION 2.0
WRAP.                       NO: One line per depth step
~Well Information Block
STRT.FT               741.2000: 
STOP.FT              2461.0000: 
STEP.FT                 0.1000: 
NULL.                -999.2500: 
COMP.          Petrogulf Corporation: COMPANY
WELL.           Montoya 12-44V: WELL
FLD.           Purgatorie River: FIELD
LOC.           698' FSL & 599' FEL: LOCATION
CNTY.               Las Animas: COUNTY
SRVC.                         : SERVICE COMPANY
DATE.          Mon Aug 09 06:09:04 2004: LOG DATE
UWI.           05 071 08094 00: UNIQUE WELL ID
STAT.                 Colorado: STATE
~Curve Information Block
DEPT.FT            0 000 00 00: Depth
DCAL.in                       : CDL Caliper
RHOB.g/cc                     : CDL Bulk Density
RHOC.g/cc                     : CDL Density Correction
DPOR.pu                       : CDL Density Porosity
GR.GAPI                       : Gamma Ray
NPOR.pu                       : Neutron Porosity
~Parameter Information Block
~A  Depth       DCAL        RHOB        RHOC        DPOR         GR         NPOR    
# ...
  1432.4000      7.8840      2.5454      0.1144      6.3401    118.5742     22.9782
  1432.5000      7.9394      2.5719      0.0777      4.7347    117.4185     22.4390
  1432.6000      7.9394      2.6049      0.1378      2.7343    115.6673     22.1865
  1432.7000      7.9394      2.6230      0.1544      1.6373    112.4928     22.4744
  1432.8000      7.9679      2.6126      0.1417      2.2688    110.7070     23.2385
  1432.9000      7.9679      2.5890      0.0613      3.6945    111.6931     24.4061
  1433.0000      8.0437      2.5731      0.1110      4.6627    116.0930     25.8798
  1433.1000      8.0437      2.5647      0.0769      5.1678    121.2562     27.0483
  1433.2000      8.0437      2.5547      0.1349      5.7760    122.5880     27.2300
  1433.3000      8.0648      2.5320      0.0971      7.1539    124.0687     26.5811
  1433.4000      8.0648      2.4968      0.0636      9.2862    131.5356     26.0186
  1433.5000      8.0658      2.4689      0.0324     10.9734    141.1435     25.9518
  1433.6000      8.0658      2.4639      0.0188     11.2768    142.8736     25.8436
  1433.7000      8.0658      2.4794      0.0212     10.3369    135.7919     25.1290
  1433.8000      8.0553      2.5077      0.0467      8.6218    130.4329     24.3881
  1433.9000      8.0553      2.5488      0.0908      6.1313    129.7260     24.1754
  1434.0000      8.0652      2.6058      0.1311      2.6790    130.1922     23.9691
  1434.1000      8.0652      2.6632      0.2629     -0.8004    132.8637     23.4304
  1434.2000      8.0652      2.6933      0.2426     -2.6262    136.6608     23.1707
  1434.3000      8.0640      2.6892      0.2722     -2.3773    135.7368     23.7442
  1434.4000      8.0640      2.6606      0.2379     -0.6428    127.8356     25.0059
  1434.5000      8.0312      2.6235      0.1126      1.6056    120.2240     25.7424
  1434.6000      8.0312      2.5938      0.0846      3.4078    120.7514     25.3672
  1434.7000      8.0312      2.5719      0.1046      4.7345    125.3393     24.7785
  1434.8000      7.9713      2.5520      0.0790      5.9368    127.5364     24.2786
  1434.9000      7.9713      2.5381      0.0428      6.7830    125.1070     23.5134
  1435.0000      7.9693      2.5395      0.0574      6.6997    117.0471     23.0386
  1435.1000      7.9693      2.5542      0.0718      5.8051    108.0958     23.3775
  1435.2000      7.9693      2.5722      0.1208      4.7149    107.1303     23.8419
  1435.3000      7.9542      2.5869      0.0983      3.8271    114.1014     23.6680
  1435.4000      7.9542      2.5967      0.0759      3.2320    118.8385     23.2605
  1435.5000      7.9402      2.6024      0.0852      2.8862    117.1064     23.2630
  1435.6000      7.9402      2.5999      0.0889      3.0351    113.5434     23.4433
  1435.7000      7.9402      2.5874      0.0962      3.7912    111.3457     23.2699
  1435.8000      7.9413      2.5801      0.0444      4.2393    109.3008     22.6921
  1435.9000      7.9413      2.5963      0.0837      3.2535    106.2678     22.3240
  1436.0000      7.9379      2.6248      0.0997      1.5282    102.9699     22.6423
  1436.1000      7.9379      2.6277      0.1440      1.3489     99.9463     23.2259
  1436.2000      7.9379      2.5936      0.0569      3.4154     97.8415     23.4441
  1436.3000      7.9587      2.5594      0.0137      5.4903     98.6374     23.3122
  1436.4000      7.9587      2.5493      0.0515      6.1042    102.5403     22.9897
  1436.5000      7.9750      2.5469      0.0310      6.2504    105.4100     22.4553
  1436.6000      7.9750      2.5412      0.0340      6.5965    105.6158     22.2952
  1436.7000      7.9750      2.5373      0.0502      6.8316    106.2535     22.9528
  1436.8000      7.9784      2.5342      0.0463      7.0158    109.3469     23.6500
  1436.9000      7.9784      2.5258      0.0488      7.5294    115.2151     23.6734
  1437.0000      7.9749      2.5186      0.0060      7.9631    123.3140     23.5969
  1437.1000      7.9749      2.5271      0.0134      7.4505    125.5486     24.0685
  1437.2000      7.9749      2.5489      0.0405      6.1302    119.6656     24.6428
  1437.3000      7.9782      2.5653      0.0467      5.1317    115.5359     24.8307
  1437.4000      7.9782      2.5670      0.0703      5.0311    114.9879     24.8468
  1437.5000      7.9676      2.5625      0.0541      5.3010    113.4810     24.7484
  1437.6000      7.9676      2.5607      0.0629      5.4092    110.2853     24.2257
  1437.7000      7.9676      2.5601      0.0876      5.4514    106.2721     23.2677
  1437.8000      7.9138      2.5633      0.0596      5.2533    101.9000     22.8106
  1437.9000      7.9138      2.5818      0.0728      4.1319     96.0829     23.3472
  1438.0000      7.9214      2.6166      0.0741      2.0249     90.3219     23.8064
  1438.1000      7.9214      2.6545      0.1270     -0.2722     90.0469     23.7026
  1438.2000      7.9214      2.6795      0.1612     -1.7850     96.0515     23.8994
  1438.3000      7.9269      2.6861      0.1356     -2.1867    103.8947     24.3789
  1438.4000      7.9269      2.6752      0.1349     -1.5300    110.2713     24.2708
  1438.5000      7.9349      2.6415      0.0953      0.5160    114.0625     23.6835
  1438.6000      7.9349      2.5890      0.0937      3.6945    115.9655     23.5245
  1438.7000      7.9349      2.5414      0.0374      6.5818    118.9752     24.3743
  1438.8000      7.9689      2.5155      0.0633      8.1502    122.1709     25.7098
  1438.9000      7.9689      2.4978      0.1078      9.2257    122.5759     26.4791
  1439.0000      8.0061      2.4675      0.0571     11.0617    122.5377     26.6080
  1439.1000      8.0061      2.4243      0.0201     13.6766    122.2673     26.4836
  1439.2000      8.0061      2.3807      0.0686     16.3232    121.5065     26.3267
  1439.3000      8.0246      2.3521      0.1105     18.0543    125.7668     26.4881
  1439.4000      8.0246      2.3488      0.1557     18.2547    133.8134     27.2976
  1439.5000      8.0853      2.3693      0.1836     17.0093    139.7139     28.5460
  1439.6000      8.0853      2.4081      0.2542     14.6623    141.4431     29.3928
  1439.7000      8.0853      2.4607      0.2681     11.4710    138.0521     29.4475
  1439.8000      8.2285      2.5275      0.3394      7.4229    135.3706     29.2369
  1439.9000      8.2285      2.6013      0.4088      2.9488    141.6803     29.3163
  1440.0000      8.4102      2.6582      0.4500     -0.4946    154.7183     29.4293
  1440.1000      8.4102      2.6772      0.4171     -1.6461    166.6013     29.2575
  1440.2000      8.4102      2.6665      0.3366     -1.0030    169.5665     28.9554
  1440.3000      8.4495      2.6439      0.3106      0.3716    164.8381     28.5129
  1440.4000      8.4495      2.6122      0.2257      2.2937    163.9751     27.9874
  1440.5000      8.4254      2.5787      0.1802      4.3232    167.9500     27.6403
  1440.6000      8.4254      2.5575      0.1967      5.6047    170.1078     27.7776
  1440.7000      8.4254      2.5415      0.1881      6.5736    170.9176     28.3844
  1440.8000      8.4958      2.5156      0.1283      8.1470    169.9218     29.0442
  1440.9000      8.4958      2.4927      0.0303      9.5311    162.9343     29.3502
  1441.0000      8.3562      2.4860      0.1383      9.9417    153.5674     29.3478
  1441.1000      8.3562      2.4771      0.1191     10.4762    150.9618     29.5023
  1441.2000      8.3562      2.4603      0.0968     11.4976    155.2599     29.7982
  1441.3000      8.2045      2.4601      0.0599     11.5064    158.8622     29.7805
  1441.4000      8.2045      2.4914      0.1107      9.6111    159.2217     29.5623
  1441.5000      8.3019      2.5351      0.1456      6.9623    161.1137     29.6335
  1441.6000      8.3019      2.5602      0.1949      5.4438    164.1708     29.8604
  1441.7000      8.3019      2.5604      0.1451      5.4332    161.8750     29.9443
  1441.8000      8.2968      2.5504      0.2532      6.0369    156.1880     29.9673
  1441.9000      8.2968      2.5360      0.2015      6.9085    153.4662     29.9629
