~Version Information
VERS.                      2.0: CWLS Log ASCII Standard - VERSION 2.0
WRAP.                       NO: One line per depth step
~Well Information Block
STRT.FT               230.0000: 
STOP.FT              1527.0000: 
STEP.FT                 0.1000: 
NULL.                -999.2500: 
COMP.          Pioneer Natural Resources: COMPANY
WELL.              Border 21-3: WELL
FLD.           Purgatorie River: FIELD
LOC.           865' FNL & 1415' FWL: LOCATION
PROV.                 Colorado: PROVINCE
CNTY.               Las Animas: COUNTRY
SRVC.                         : SERVICE COMPANY
DATE.          Thu Dec 09 16:57:34 2004: LOG DATE
UWI.           05 071 08169 00: UNIQUE WELL ID
~Curve Information Block
DEPT.FT            0 000 00 00: Depth
LTEN.lb                       : Surface Line Tension
DCAL.in                       : CDL Caliper
RHOB.g/cc                     : CDL Bulk Density
RHOC.g/cc                     : CDL Density Correction
DPOR.pu                       : CDL Density Porosity
GR.GAPI                       : Gamma Ray
NPOR.pu                       : Neutron Porosity
~Parameter Information Block
~A  Depth       LTEN        DCAL        RHOB        RHOC        DPOR         GR         NPOR    
# ...
  1002.8000    933.2796      7.8884      2.5934      0.0561      3.4327    188.6982     22.5376
  1002.9000    933.2796      7.8884      2.6093      0.1002      2.4681    183.7052     22.0440
  1003.0000    935.7869      7.8880      2.6347      0.1088      0.9273    181.6342     21.0188
  1003.1000    935.7869      7.8880      2.6532      0.1456     -0.1933    180.8571     20.2174
  1003.2000    935.7869      7.8880      2.6542      0.1141     -0.2539    177.0703     19.7905
  1003.3000    932.3964      7.8887      2.6520      0.0993     -0.1233    172.7861     19.3828
  1003.4000    932.3964      7.8887      2.6645      0.0974     -0.8780    169.5347     18.5666
  1003.5000    914.6897      7.8890      2.6795      0.1304     -1.7907    161.4500     17.3886
  1003.6000    914.6897      7.8890      2.6755      0.1136     -1.5466    149.1375     16.9924
  1003.7000    914.6897      7.8890      2.6593      0.0737     -0.5648    141.8781     17.3101
  1003.8000    892.5740      7.8881      2.6470      0.0882      0.1828    142.0279     17.0698
  1003.9000    892.5740      7.8881      2.6406      0.0647      0.5668    143.8565     16.4985
  1004.0000    968.3064      7.8891      2.6393      0.0510      0.6479    142.5313     16.5804
  1004.1000    968.3064      7.8891      2.6383      0.0490      0.7119    139.4085     17.2100
  1004.2000    968.3064      7.8891      2.6327      0.0303      1.0491    138.7258     17.4850
  1004.3000    950.4102      7.8901      2.6318      0.0444      1.1019    138.2962     17.0576
  1004.4000    950.4102      7.8901      2.6371      0.0719      0.7803    132.1073     16.3869
  1004.5000    870.1349      7.8906      2.6328      0.0628      1.0411    122.4588     15.7989
  1004.6000    870.1349      7.8906      2.6152      0.0560      2.1068    117.2486     15.2800
  1004.7000    870.1349      7.8906      2.5984      0.0495      3.1259    120.0159     14.8016
  1004.8000    906.7733      7.8889      2.5933      0.0659      3.4376    127.4241     14.5704
  1004.9000    906.7733      7.8889      2.5961      0.0836      3.2662    133.8561     14.9906
  1005.0000    946.5723      7.8883      2.5972      0.0388      3.2020    139.2788     15.5436
  1005.1000    946.5723      7.8883      2.5942      0.0522      3.3795    143.8719     15.5492
  1005.2000    946.5723      7.8883      2.5931      0.0229      3.4459    144.1197     15.9602
  1005.3000    866.6357      7.8880      2.6023      0.0515      2.8909    139.9738     16.8941
  1005.4000    866.6357      7.8880      2.6205      0.0754      1.7896    134.3607     16.9525
  1005.5000    862.1943      7.8895      2.6326      0.0683      1.0547    127.3964     15.9246
  1005.6000    862.1943      7.8895      2.6261      0.0745      1.4488    118.5178     14.7667
  1005.7000    862.1943      7.8895      2.6097      0.0219      2.4421    110.7053     14.0446
  1005.8000    932.4573      7.8951      2.6052      0.0214      2.7162    108.2059     13.7970
  1005.9000    932.4573      7.8951      2.6188      0.0782      1.8912    113.8955     14.1211
  1006.0000    944.7620      7.8909      2.6362      0.0953      0.8334    126.3553     15.1648
  1006.1000    944.7620      7.8909      2.6433      0.0900      0.4050    137.9974     16.8464
  1006.2000    944.7620      7.8909      2.6360      0.0722      0.8511    146.9482     18.3942
  1006.3000    923.0662      7.8914      2.6178      0.0829      1.9508    155.5802     18.6284
  1006.4000    923.0662      7.8914      2.5987      0.0662      3.1117    160.3979     18.0013
  1006.5000    911.3210      7.8902      2.5893      0.0554      3.6773    161.3828     18.0049
  1006.6000    911.3210      7.8902      2.5903      0.0534      3.6161    162.5461     18.8489
  1006.7000    911.3210      7.8902      2.5934      0.0831      3.4322    163.6881     20.0264
  1006.8000    915.5226      7.8898      2.5934      0.1163      3.4326    164.4759     21.3504
  1006.9000    915.5226      7.8898      2.5891      0.1017      3.6934    166.2439     22.6504
  1007.0000    912.1987      7.8910      2.5833      0.0918      4.0402    166.9967     23.7110
  1007.1000    912.1987      7.8910      2.5855      0.0872      3.9066    166.5343     23.9092
  1007.2000    912.1987      7.8910      2.6030      0.0752      2.8515    167.9707     22.9951
  1007.3000    923.6538      7.8897      2.6302      0.1103      1.2003    166.4251     21.6725
  1007.4000    923.6538      7.8897      2.6552      0.1137     -0.3149    159.0414     20.4247
  1007.5000    932.8495      7.8890      2.6727      0.1139     -1.3773    152.6641     19.1611
  1007.6000    932.8495      7.8890      2.6758      0.1402     -1.5641    148.4073     17.8977
  1007.7000    932.8495      7.8890      2.6564      0.1348     -0.3862    142.1003     17.0901
  1007.8000    942.9106      7.8897      2.6231      0.0848      1.6331    134.5095     17.0986
  1007.9000    942.9106      7.8897      2.5921      0.0722      3.5071    129.0100     17.2966
  1008.0000    910.7564      7.8886      2.5708      0.0666      4.7994    124.8737     17.0837
  1008.1000    910.7564      7.8886      2.5655      0.0078      5.1240    120.7652     16.3773
  1008.2000    910.7564      7.8886      2.5764      0.0220      4.4632    117.7177     15.1226
  1008.3000    934.7178      7.8890      2.5869      0.0634      3.8233    114.9776     13.8577
  1008.4000    934.7178      7.8890      2.5863      0.0115      3.8630    110.8364     12.9640
  1008.5000    973.1732      7.8889      2.5815      0.0513      4.1509    105.9805     12.5464
  1008.6000    973.1732      7.8889      2.5827      0.0222      4.0760    105.1844     12.8372
  1008.7000    973.1732      7.8889      2.5935      0.0690      3.4243    113.1907     13.4520
  1008.8000    901.4512      7.8897      2.6068      0.0723      2.6201    125.5252     13.5587
  1008.9000    901.4512      7.8897      2.6191      0.0874      1.8751    132.0461     13.2604
  1009.0000    868.1324      7.8886      2.6318      0.0928      1.1006    129.8848     13.2488
  1009.1000    868.1324      7.8886      2.6352      0.1202      0.8946    127.9398     13.5105
  1009.2000    868.1324      7.8886      2.6168      0.1296      2.0092    132.8027     13.9360
  1009.3000    965.6034      7.8894      2.5911      0.0371      3.5691    137.5271     14.9111
  1009.4000    965.6034      7.8894      2.5830      0.0690      4.0631    136.1294     16.4608
  1009.5000    922.1276      7.8890      2.5879      0.0722      3.7625    135.4818     17.7643
  1009.6000    922.1276      7.8890      2.5927      0.0599      3.4728    140.3186     18.2580
  1009.7000    922.1276      7.8890      2.5954      0.0864      3.3081    147.8579     18.3638
  1009.8000    881.3788      7.8898      2.5904      0.1043      3.6147    156.7924     18.9352
  1009.9000    881.3788      7.8898      2.5776      0.0475      4.3859    166.6233     19.7890
  1010.0000    913.0242      7.8893      2.5670      0.0606      5.0303    173.2529     19.8559
  1010.1000    913.0242      7.8893      2.5662      0.0465      5.0806    171.7746     19.2952
  1010.2000    913.0242      7.8893      2.5796      0.0523      4.2659    163.6028     18.9382
  1010.3000    952.0362      7.8891      2.5950      0.1031      3.3338    156.7022     18.6675
  1010.4000    952.0362      7.8891      2.5972      0.0576      3.2018    154.4918     18.4362
  1010.5000    899.7190      7.8888      2.5933      0.0660      3.4348    151.6839     18.4571
  1010.6000    899.7190      7.8888      2.5900      0.0743      3.6389    147.8813     18.5461
  1010.7000    899.7190      7.8888      2.5838      0.0634      4.0097    146.9800     18.4845
  1010.8000    937.5007      7.8893      2.5726      0.0660      4.6890    144.9283     18.2928
  1010.9000    937.5007      7.8893      2.5550      0.0613      5.7571    138.8652     17.6928
  1011.0000    963.7074      7.8906      2.5433      0.0133      6.4644    134.1097     16.8299
  1011.1000    963.7074      7.8906      2.5520      0.0355      5.9411    133.4658     16.4620
