~Version Information
VERS.                      2.0: CWLS Log ASCII Standard - VERSION 2.0
WRAP.                       NO: One line per depth step
~Well Information Block
STRT.FT               745.0000: 
STOP.FT              2945.7500: 
STEP.FT                 0.2500: 
NULL.                -999.2500: 
COMP.          Pioneer Natural Resources: COMPANY
WELL.          Old Yeller 31-32: WELL
FLD.           Purgatoire River: FIELD
LOC.           1832' FEL & 793' FNL--: LOCATION
STAT.                 Colorado: State
CNTY.               Las Animas: COUNTY
CTRY. USA : Country
SECT. 32 : Section
TOWN. 32S : Township
RANG. 67W : Range
SRVC.                Patterson: SERVICE COMPANY
DATE.          Sun Aug 28 20:20:00 2005: LOG DATE
API.           05 071 08356 00: UNIQUE WELL ID
~Curve Information Block
DEPT.FT            0 000 00 00: Depth
SN.Ohm-m                      : IEL Short Normal
SP.mV                         : IEL Spontaneous Potential
DIR.Ohm-m                     : IEL Induction Resistivity
GR.GAPI                       : Gamma Ray
~Parameter Information Block
~A  Depth        SN          SP         DIR          GR     
# ...
  2621.0000     25.6689     -2.7518 100000.0000     64.9741
  2621.2500     24.9319     -1.9750 100000.0000     66.1911
  2621.5000     24.1045     -0.7218 100000.0000     72.7332
  2621.7500     23.0896      0.9240 100000.0000     79.4388
  2622.0000     21.8144      2.8286 100000.0000     90.6179
  2622.2500     20.2912      4.8287     93.0223     97.6563
  2622.5000     18.6197      6.7568     31.2348    106.8955
  2622.7500     16.9436      8.4614     20.9665    112.1693
  2623.0000     15.3899      9.8209     17.6620    118.2836
  2623.2500     14.0320     10.7466     16.2232    120.5666
  2623.5000     12.8917     11.1774     14.7845    120.7878
  2623.7500     11.9662     11.0676     12.6863    119.2902
  2624.0000     11.2509     10.3724     10.4037    116.4483
  2624.2500     10.7430      9.0337      8.6999    115.1920
  2624.5000     10.4315      6.9699      8.0298    115.1174
  2624.7500     10.2861      4.0712      9.0333    116.3132
  2625.0000     10.2580      0.2033     15.9377    119.6147
  2625.2500     10.2940     -4.7838 100000.0000    122.3120
  2625.5000     10.3495    -11.0420 100000.0000    125.5939
  2625.7500     10.3856    -18.7093 100000.0000    126.3619
  2626.0000     10.3544    -27.8990 100000.0000    124.9460
  2626.2500     10.1885    -38.6949 100000.0000    122.9665
  2626.5000      9.8055    -51.1563 100000.0000    120.1156
  2626.7500      9.1267    -65.3249 100000.0000    118.6487
  2627.0000      8.1146    -81.2259      3.2954    116.4480
  2627.2500      6.8165    -98.8508      1.0719    114.7036
  2627.5000      5.3785   -118.1183      0.5628    112.3783
  2627.7500      3.9986   -138.8195      0.3765    111.6205
  2628.0000      2.8379   -160.5664      0.3198    111.5527
  2628.2500      1.9588   -182.7717      0.3535    111.4197
  2628.5000      1.3345   -204.6794      0.5004    109.7042
  2628.7500      0.9037   -225.4526      0.8879    107.3427
  2629.0000      0.6133   -244.2985      2.1701    102.7180
  2629.2500      0.4276   -260.5981     18.8340     99.5956
  2629.5000      0.3208   -273.9990 100000.0000     95.5140
  2629.7500      0.2744   -284.4492 100000.0000     92.9165
  2630.0000      0.2847   -292.1644 100000.0000     87.8974
  2630.2500      0.3946   -297.5482 100000.0000     83.3140
  2630.5000      0.7733   -301.0933 100000.0000     75.3521
  2630.7500      1.8553   -303.2914 100000.0000     70.4154
  2631.0000      4.4677   -304.5709 100000.0000     64.9432
  2631.2500      9.7649   -305.2668      5.6858     62.6059
  2631.5000     18.8234   -305.6178      1.8414     60.3044
  2631.7500     32.0368   -305.7795      0.9996     59.2293
  2632.0000     48.7501   -305.8458      0.7220     58.1943
  2632.2500     67.4463   -305.8687      0.6716     57.8049
  2632.5000     86.3330   -305.8750      0.8068     57.1331
  2632.7500    103.8976   -305.8771      1.2834     56.3952
  2633.0000    119.1540   -305.8801      3.2333     55.3815
  2633.2500    131.5987   -305.8865 100000.0000     55.5243
  2633.5000    141.0407   -305.8966 100000.0000     57.8834
  2633.7500    147.4408   -305.9097 100000.0000     60.7013
  2634.0000    150.8159   -305.9246 100000.0000     65.5455
  2634.2500    151.2001   -305.9400 100000.0000     68.5480
  2634.5000    148.6285   -305.9547 100000.0000     72.3295
  2634.7500    143.1271   -305.9672 100000.0000     74.1911
  2635.0000    134.7115   -305.9751 100000.0000     75.2473
  2635.2500    123.4249   -305.9739 100000.0000     74.5206
  2635.5000    109.4287   -305.9572 100000.0000     71.9228
  2635.7500     93.1422   -305.9101 100000.0000     69.8961
  2636.0000     75.3943   -305.8035 100000.0000     67.1780
  2636.2500     57.4985   -305.5803      3.2680     65.7644
  2636.5000     41.0829   -305.1377      1.0189     64.7448
  2636.7500     27.5966   -304.3032      0.4393     65.2861
  2637.0000     17.7335   -302.8109      0.2037     68.8486
  2637.2500     11.2165   -300.2823      0.0983     73.4980
  2637.5000      7.1310   -296.2290      0.0535     83.9120
  2637.7500      4.5138   -290.0844      0.0348     92.3568
  2638.0000      2.7454   -281.2744      0.0269    104.7901
  2638.2500      1.5704   -269.3231      0.0243    111.5218
  2638.5000      0.9198   -253.9718      0.0253    118.0026
  2638.7500      0.7718   -235.2835      0.0302    119.8456
  2639.0000      1.1157   -213.6946      0.0423    119.5698
  2639.2500      1.9319   -189.9925      0.0709    118.0152
  2639.5000      3.1442   -165.2141      0.1390    114.7840
  2639.7500      4.5933   -140.4899      0.2949    112.5568
  2640.0000      6.0753   -116.8725      0.6487    109.7427
  2640.2500      7.4128    -95.1931      1.6885    108.5303
  2640.5000      8.4980    -75.9808      9.5782    108.2521
  2640.7500      9.2917    -59.4504 100000.0000    109.3922
  2641.0000      9.8042    -45.5525 100000.0000    113.3589
  2641.2500     10.0780    -34.0573 100000.0000    117.3245
  2641.5000     10.1745    -24.6455 100000.0000    124.0686
  2641.7500     10.1564    -16.9832 100000.0000    128.0261
  2642.0000     10.0695    -10.7692 100000.0000    131.5032
  2642.2500      9.9351     -5.7525     20.0596    131.8226
  2642.5000      9.7585     -1.7289     12.5413    130.0207
  2642.7500      9.5446      1.4755     13.2324    128.1510
  2643.0000      9.3052      4.0204     23.0809    125.4701
  2643.2500      9.0554      6.0627 100000.0000    123.9937
  2643.5000      8.8075      7.7571 100000.0000    122.3728
  2643.7500      8.5698      9.2485 100000.0000    121.8102
  2644.0000      8.3507     10.6547 100000.0000    121.7465
  2644.2500      8.1602     12.0532 100000.0000    122.0065
  2644.5000      8.0073     13.4722 100000.0000    122.5886
  2644.7500      7.8961     14.8914 100000.0000    123.2462
  2645.0000      7.8213     16.2542 100000.0000    125.1196
  2645.2500      7.7679     17.4869 100000.0000    127.1498
  2645.5000      7.7180     18.5205 100000.0000    131.3338
  2645.7500      7.6628     19.3098 100000.0000    134.5242
  2646.0000      7.6071     19.8426 100000.0000    138.6483
  2646.2500      7.5634     20.1392     86.1534    140.1637
  2646.5000      7.5406     20.2432     18.0124    139.9792
  2646.7500      7.5370     20.2088     10.8056    138.4720
  2647.0000      7.5423     20.0872      8.4021    135.3513
  2647.2500      7.5470     19.9190      7.4196    133.5240
  2647.5000      7.5514     19.7308      7.0499    131.8029
  2647.7500      7.5673     19.5370      7.0069    130.9635
  2648.0000      7.6125     19.3435      7.1713    128.9263
  2648.2500      7.7025     19.1515      7.4873    126.6002
  2648.5000      7.8443     18.9591      7.9159    121.7240
  2648.7500      8.0337     18.7621      8.4151    117.9319
  2649.0000      8.2617     18.5523      8.9382    112.5211
  2649.2500      8.5240     18.3158      9.4468    109.8213
  2649.5000      8.8253     18.0336      9.9232    107.7584
  2649.7500      9.1756     17.6838     10.3715    107.4654
  2650.0000      9.5806     17.2451     10.8074    107.6251
  2650.2500     10.0339     16.7031     11.2442    107.5033
  2650.5000     10.5151     16.0543     11.6841    105.9131
  2650.7500     10.9946     15.3101     12.1149    103.3762
  2651.0000     11.4410     14.4967     12.5136     97.3317
  2651.2500     11.8323     13.6526     12.8562     92.6354
  2651.5000     12.1634     12.8223     13.1289     87.0067
  2651.7500     12.4437     12.0502     13.3334     85.5437
  2652.0000     12.6859     11.3737     13.4816     87.9532
  2652.2500     12.8936     10.8196     13.5862     92.4702
  2652.5000     13.0471     10.4017     13.6518    102.2154
  2652.7500     13.0960     10.1224     13.6715    109.5143
  2653.0000     12.9698      9.9755     13.6285    119.5426
  2653.2500     12.6147      9.9491     13.5013    124.6042
  2653.5000     12.0299     10.0279     13.2727    128.8347
  2653.7500     11.2739     10.1943     12.9404    129.3286
  2654.0000     10.4392     10.4284     12.5221    126.8644
  2654.2500      9.6263     10.7069     12.0534    123.4165
