~Version Information
VERS.                      2.0: CWLS Log ASCII Standard - VERSION 2.0
WRAP.                       NO: One line per depth step
~Well Information Block
STRT.FT                -7.5000: 
STOP.FT              1702.2500: 
STEP.FT                 0.2500: 
NULL.                -999.2500: 
COMP.          Pioneer Natural Resources: COMPANY
WELL.          Warrior 33-1 Tr: WELL
FLD.           Purgatoire River: FIELD
LOC.           2648' FSL & 2341' FEL--: LOCATION
PROV.                 Colorado: PROVINCE
CNTY.               Las Animas: COUNTRY
SRVC.                Patterson: SERVICE COMPANY
DATE.          Wed Jun 22 12:18:08 2005: LOG DATE
UWI.           05 071 08412 00: UNIQUE WELL ID
~Curve Information Block
DEPT.FT            0 000 00 00: Depth
CCL.                          : Casing Collar Locator
TT3.usec                      : CBL 3' Travel Time
AMP3.mV                       : CBL 3' Amplitude
GR.GAPI                       : Gamma Ray
~Parameter Information Block
~A  Depth       CCL         TT3         AMP3         GR     
    -7.5000   -999.2500   -999.2500   -999.2500     94.2769
    -7.2500   -999.2500   -999.2500   -999.2500     95.6712
    -7.0000   -999.2500   -999.2500   -999.2500     95.2912
    -6.7500   -999.2500   -999.2500   -999.2500     94.1405
    -6.5000   -999.2500   -999.2500   -999.2500     93.4735
    -6.2500   -999.2500   -999.2500   -999.2500     93.7917
    -6.0000   -999.2500   -999.2500   -999.2500     94.5898
    -5.7500   -999.2500   -999.2500   -999.2500     94.9839
    -5.5000   -999.2500   -999.2500   -999.2500     94.4499
    -5.2500   -999.2500   -999.2500   -999.2500     92.7372
    -5.0000   -999.2500   -999.2500   -999.2500     89.4554
    -4.7500   -999.2500   -999.2500   -999.2500     84.6472
    -4.5000   -999.2500   -999.2500   -999.2500     79.7280
    -4.2500   -999.2500   -999.2500   -999.2500     76.9074
    -4.0000   -999.2500   -999.2500   -999.2500     77.3319
    -3.7500   -999.2500   -999.2500   -999.2500     80.1621
    -3.5000   -999.2500   -999.2500   -999.2500     83.5111
    -3.2500   -999.2500   -999.2500   -999.2500     86.0494
    -3.0000   -999.2500   -999.2500   -999.2500     87.7040
    -2.7500   -999.2500   -999.2500   -999.2500     88.9947
    -2.5000   -999.2500   1410.0000      0.1041     89.9929
    -2.2500   -999.2500   1410.0000      0.1227     90.2889
    -2.0000   -999.2500   1410.0000      0.1424     89.7888
    -1.7500   -999.2500   1410.0000      0.1600     88.8228
    -1.5000   -999.2500   1410.0000      0.1691     87.2658
    -1.2500   -999.2500   1410.0000      0.1662     84.2202
    -1.0000   -999.2500   1410.0000      0.1553     79.1013
    -0.7500   -999.2500   1410.0000      0.1442     72.5995
    -0.5000   -999.2500   1410.0000      0.1291     59.4033
    -0.2500   -999.2500   1410.0000      0.1186     52.2236
     0.0000   -999.2500   1410.0000      0.1075     43.8845
     0.2500   -999.2500   1410.0000      0.1026     35.2057
     0.5000   -999.2500   1410.0000      0.1080     28.1078
     0.7500   -999.2500   1410.0000      0.1213     24.5134
     1.0000   -999.2500   1410.0000      0.1354     25.3054
     1.2500   -999.2500   1410.0000      0.1436     29.8908
     1.5000   -999.2500   1410.0000      0.1447     36.4874
     1.7500   -999.2500   1410.0000      0.1428     42.9037
     2.0000   -999.2500   1410.0000      0.1431     47.4161
     2.2500   -999.2500   1410.0000      0.1459     49.3179
     2.5000     -2.0000   1410.0000      0.1477     48.9929
     2.7500      0.0000   1410.0000      0.1460     47.5803
     3.0000      0.0000   1410.0000      0.1435     46.3833
     3.2500      0.0000   1410.0000      0.1440     46.3534
     3.5000      0.0000   1410.0000      0.1471     48.0262
     3.7500      0.0000   1410.0000      0.1477     51.7383
     4.0000      0.0000   1410.0000      0.1424     57.5578
     4.2500      0.0000   1410.0000      0.1354     64.8813
     4.5000      0.0000   1410.0000      0.1347     72.2894
     4.7500      0.0000   1410.0000      0.1435     78.0799
     5.0000      0.0000   1410.0000      0.1561     81.1679
     5.2500      0.0000   1410.0000      0.1652     81.5857
     5.5000      0.0000   1410.0000      0.1696     80.2797
     5.7500      0.0000   1410.0000      0.1718     78.5723
     6.0000      0.0000   1410.0000      0.1723     77.5981
     6.2500      0.0000   1410.0000      0.1702     77.7446
     6.5000      0.0000   1410.0000      0.1678     78.4603
     6.7500      0.0000   1410.0000      0.1697     78.8077
     7.0000      0.0000   1410.0000      0.1758     78.2881
     7.2500      0.0000   1410.0000      0.1803     77.1048
     7.5000      0.0000   1410.0000      0.1784     75.9176
     7.7500      0.0000   1409.9767      0.1725     75.4930
     8.0000      0.0000   1409.8252      0.1681     76.1194
     8.2500      0.0000   1409.0540      0.1664     77.0294
     8.5000      0.0000   1406.0056      0.1636     76.7138
     8.7500      0.0000   1396.5953      0.1573     74.1958
     9.0000      0.0000   1373.9385      0.1556     70.0161
     9.2500      0.0000   1331.2190      0.1790     65.8551
     9.5000      0.0000   1267.6055      0.2620     63.2484
     9.7500      0.0000   1190.7898      0.5109     62.7571
    10.0000      0.0000   1110.0240      1.2885     64.0982
    10.2500      0.0000   1024.9236      3.5027     66.5523
    10.5000      0.0000    923.8538      8.6732     69.1263
    10.7500      0.0000    796.5522     18.2394     70.8052
    11.0000      0.0000    648.9277     32.1377     70.9897
    11.2500      0.0000    504.3042     47.9394     69.6115
    11.5000      0.0000    388.8387     61.9073     66.9099
    11.7500      0.0000    314.9642     71.2391     63.4362
    12.0000      0.0000    277.7245     75.2595     60.1060
    12.2500      0.0000    263.9036     74.7682     57.7164
    12.5000      0.0000    262.3208     70.8712     56.3579
    12.7500      0.0000    267.2495     64.5293     55.6982
    13.0000      0.0000    276.4273     56.6731     55.7606
    13.2500      0.0000    288.8454     48.2342     56.8805
    13.5000      0.0000    305.3522     39.9538     58.8650
    13.7500      0.0000    331.0059     32.3195     60.7688
    14.0000      0.0000    375.4401     25.7329     61.7355
    14.2500      0.0000    447.5562     20.5407     61.7688
    14.5000      2.0000    545.6400     16.7831     61.5101
    14.7500     -2.0000    651.7175     14.0970     61.5393
    15.0000     -2.0000    740.2332     12.0146     62.0203
    15.2500      2.0000    796.0332     10.3119     62.7882
    15.5000      0.0000    822.5511      9.0829     63.5697
    15.7500      0.0000    831.4807      8.5534     64.1269
    16.0000      0.0000    828.5693      8.7990     64.2507
    16.2500      0.0000    812.9537      9.5685     63.6815
    16.5000      0.0000    787.4514     10.3979     62.1423
    16.7500      0.0000    763.1287     10.9386     59.5311
    17.0000      0.0000    751.0853     11.1489     56.0854
    17.2500      0.0000    752.7435     11.1797     52.4170
    17.5000      0.0000    760.9158     11.1645     49.3704
    17.7500      0.0000    768.2725     11.1470     47.6567
    18.0000      0.0000    772.2596     11.1258     47.4701
    18.2500      0.0000    773.7571     11.0967     48.3625
    18.5000      0.0000    774.2015     11.0608     49.4209
    18.7500      0.0000    774.3574     11.0226     49.7279
    19.0000      0.0000    774.4494     10.9865     48.9662
    19.2500      0.0000    774.4884     10.9548     47.6739
    19.5000      0.0000    774.4854     10.9295     46.7489
    19.7500      0.0000    774.4559     10.9151     46.6732
    20.0000      0.0000    774.4122     10.9179     47.3787
    20.2500      0.0000    774.3599     10.9421     48.6838
    20.5000      0.0000    774.3164     10.9862     50.4731
    20.7500      0.0000    774.3156     11.0452     52.5080
    21.0000      0.0000    774.3833     11.1129     54.3787
    21.2500      0.0000    774.5117     11.1838     55.6255
    21.5000      0.0000    774.6361     11.2521     55.8067
    21.7500      0.0000    774.6051     11.3139     54.7635
    22.0000      0.0000    773.9614     11.3691     53.0605
    22.2500      0.0000    771.3135     11.4194     51.8114
    22.5000      0.0000    763.2643     11.4636     51.6703
    22.7500      0.0000    744.0479     11.4957     52.1503
    23.0000      0.0000    708.1081     11.5105     52.2866
    23.2500      0.0000    655.6599     11.5087     51.9574
    23.5000      0.0000    596.0196     11.4957     52.2296
    23.7500      0.0000    543.1617     11.4770     54.2104
    24.0000      0.0000    506.6077     11.4562     57.8157
    24.2500      0.0000    486.8919     11.4381     61.9173
    24.5000      0.0000    479.0265     11.4305     65.5055
    24.7500      0.0000    478.7607     11.4445     68.5157
    25.0000      0.0000    486.3497     11.4892     71.6638
    25.2500      0.0000    506.5610     11.5678     75.5954
    25.5000      0.0000    544.8325     11.6755     80.0871
    25.7500      0.0000    600.7040     11.8011     84.0959
