~Version Information
VERS.                      2.0: CWLS Log ASCII Standard - VERSION 2.0
WRAP.                       NO: One line per depth step
~Well Information Block
STRT.FT               806.0000: 
STOP.FT              1812.2000: 
STEP.FT                 0.1000: 
NULL.                -999.2500: 
COMP.          Pioneer Natural Resources: COMPANY
WELL.            Hill 33-22 Tr: WELL
FLD.           Purgatoire River: FIELD
LOC.           1573' FSL & 1585' FEL: LOCATION
PROV.                 Colorado: PROVINCE
CNTY.               Las Animas: COUNTRY
SRVC.                Patterson: SERVICE COMPANY
DATE.          Thu Apr 14 12:25:33 2005: LOG DATE
UWI.           05 071 08316 00: UNIQUE WELL ID
~Curve Information Block
DEPT.FT            0 000 00 00: Depth
DCAL.in                       : CDL Caliper
RHOB.g/cc                     : CDL Bulk Density
RHOC.g/cc                     : CDL Density Correction
DPOR.pu                       : CDL Density Porosity
GR.GAPI                       : Gamma Ray
NPOR.pu                       : Neutron Porosity
~Parameter Information Block
~A  Depth       DCAL        RHOB        RHOC        DPOR         GR         NPOR    
# ...
  1468.4000      7.9326      2.5094     -0.0096      8.5231     76.0023     20.3649
  1468.5000      7.9335      2.5170      0.0177      8.0602     74.8184     19.9162
  1468.6000      7.9335      2.5229      0.0457      7.7000     76.7990     19.9367
  1468.7000      7.9335      2.5167      0.0461      8.0791     78.0368     20.5767
  1468.8000      7.9393      2.5069      0.0482      8.6729     75.5354     21.2899
  1468.9000      7.9393      2.5046      0.0327      8.8118     70.4367     21.1501
  1469.0000      7.9194      2.5091      0.0740      8.5383     65.9950     19.8726
  1469.1000      7.9194      2.5054      0.0856      8.7639     63.4186     18.3007
  1469.2000      7.9194      2.4886      0.0301      9.7845     62.2903     17.2728
  1469.3000      7.9038      2.4759      0.0606     10.5503     63.3675     17.1939
  1469.4000      7.9038      2.4874      0.0508      9.8527     67.4065     17.8012
  1469.5000      7.9029      2.5233      0.0780      7.6775     72.3446     18.0850
  1469.6000      7.9029      2.5580      0.1005      5.5764     74.3104     17.5838
  1469.7000      7.9029      2.5748      0.0967      4.5587     73.2032     17.1483
  1469.8000      7.9080      2.5832      0.1092      4.0483     72.1462     17.5058
  1469.9000      7.9080      2.5873      0.1014      3.7973     71.4805     18.1854
  1470.0000      7.9222      2.5840      0.1166      3.9995     68.7396     18.3222
  1470.1000      7.9222      2.5783      0.0370      4.3462     63.6861     17.8484
  1470.2000      7.9222      2.5712      0.0838      4.7756     61.1182     17.3701
  1470.3000      7.9299      2.5594      0.0260      5.4889     64.3433     17.2523
  1470.4000      7.9299      2.5559      0.0319      5.7041     69.0933     17.3908
  1470.5000      7.9397      2.5695      0.0246      4.8785     72.3899     17.4344
  1470.6000      7.9397      2.5901      0.0454      3.6324     77.2703     17.3708
  1470.7000      7.9397      2.6097      0.0350      2.4445     82.5111     17.5967
  1470.8000      7.9407      2.6209      0.0594      1.7608     82.4977     17.9328
  1470.9000      7.9407      2.6026      0.0860      2.8709     79.5930     17.9601
  1471.0000      7.9251      2.5606     -0.0026      5.4156     80.6057     17.8683
  1471.1000      7.9251      2.5404     -0.0074      6.6444     84.9320     17.9722
  1471.2000      7.9251      2.5607      0.0038      5.4147     88.1651     18.4574
  1471.3000      7.9222      2.5963      0.0535      3.2570     88.6521     18.6679
  1471.4000      7.9222      2.6199      0.0356      1.8272     88.7496     17.4245
  1471.5000      7.9372      2.6249      0.0488      1.5186     93.5361     15.7936
  1471.6000      7.9372      2.6177      0.0470      1.9604     99.9479     15.3125
  1471.7000      7.9372      2.6039      0.0055      2.7934     99.3705     15.5040
  1471.8000      7.9467      2.5890      0.0063      3.6992     91.9821     15.7445
  1471.9000      7.9467      2.5781      0.0125      4.3582     86.1426     15.8580
  1472.0000      7.9529      2.5721      0.0143      4.7221     87.0592     15.8478
  1472.1000      7.9529      2.5710      0.0094      4.7855     89.9640     16.1431
  1472.2000      7.9529      2.5736      0.0391      4.6331     88.0831     16.7540
  1472.3000      7.9406      2.5753      0.0105      4.5294     81.7338     17.2344
  1472.4000      7.9406      2.5752      0.0052      4.5364     77.1220     17.2266
  1472.5000      7.9341      2.5728      0.0358      4.6784     76.7541     17.0488
  1472.6000      7.9341      2.5595      0.0302      5.4833     77.4582     17.3381
  1472.7000      7.9341      2.5292      0.0046      7.3237     77.2784     17.8448
  1472.8000      7.9292      2.4922     -0.0299      9.5620     79.3606     18.0713
  1472.9000      7.9292      2.4773     -0.0788     10.4666     88.3673     18.3721
  1473.0000      7.9291      2.4920      0.0488      9.5765    102.2211     19.1986
  1473.1000      7.9291      2.5091      0.0051      8.5419    112.3917     20.8797
  1473.2000      7.9291      2.5156      0.0388      8.1440    116.4997     22.5123
  1473.3000      7.9124      2.5201      0.0530      7.8752    120.2075     22.2119
  1473.4000      7.9124      2.5305      0.0630      7.2421    125.4726     20.9150
  1473.5000      7.9055      2.5449      0.0773      6.3680    125.3626     20.6538
  1473.6000      7.9055      2.5489      0.0954      6.1295    115.9070     21.1602
  1473.7000      7.9055      2.5389      0.0040      6.7320    106.5353     21.2112
  1473.8000      7.8825      2.5254      0.0774      7.5520    104.8977     20.1596
  1473.9000      7.8825      2.5193      0.0374      7.9224    107.8877     18.7236
  1474.0000      7.8839      2.5484     -0.0078      6.1551    111.1524     18.3459
  1474.1000      7.8839      2.6210      0.1014      1.7584    113.4597     18.9131
  1474.2000      7.8839      2.6801      0.1410     -1.8262    115.9008     19.3994
  1474.3000      7.8878      2.6741      0.1007     -1.4634    119.0204     19.7778
  1474.4000      7.8878      2.6276      0.0367      1.3602    121.1062     20.3418
  1474.5000      7.9154      2.5911      0.0356      3.5698    122.2200     20.5678
  1474.6000      7.9154      2.5786      0.0341      4.3294    123.5743     20.5204
  1474.7000      7.9154      2.5815      0.0135      4.1504    123.8162     20.6544
  1474.8000      7.9205      2.5897      0.0543      3.6540    121.3465     20.6083
  1474.9000      7.9205      2.5914      0.0255      3.5486    116.3883     20.4922
  1475.0000      7.9051      2.5873      0.0511      3.8022    112.0520     20.7553
  1475.1000      7.9051      2.5957      0.0177      3.2934    111.6800     21.1983
  1475.2000      7.9051      2.6253      0.0467      1.4994    113.3389     21.2363
  1475.3000      7.9168      2.6531      0.0957     -0.1875    113.7198     20.5481
  1475.4000      7.9168      2.6541      0.0675     -0.2501    112.6006     19.7110
  1475.5000      7.9214      2.6264      0.1045      1.4286    109.5088     19.6171
  1475.6000      7.9214      2.5884      0.0091      3.7304    104.0580     20.4026
  1475.7000      7.9214      2.5638      0.0166      5.2266     99.9092     21.1863
  1475.8000      7.9375      2.5551      0.0249      5.7488     98.5711     20.8935
  1475.9000      7.9375      2.5608     -0.0214      5.4074     96.6961     19.9480
  1476.0000      7.9349      2.5835      0.0457      4.0293     93.2824     19.8114
  1476.1000      7.9349      2.6059      0.0362      2.6719     91.4832     20.8344
  1476.2000      7.9349      2.6036      0.0524      2.8099     90.2001     22.0304
  1476.3000      7.9194      2.5728      0.0224      4.6789     85.8911     22.4684
  1476.4000      7.9194      2.5367     -0.0202      6.8690     83.0102     22.3528
  1476.5000      7.9102      2.5176      0.0353      8.0237     87.4425     22.3188
  1476.6000      7.9102      2.5200      0.0362      7.8768     94.4196     22.1791
  1476.7000      7.9102      2.5516      0.0260      5.9646     94.3448     21.5732
  1476.8000      7.8835      2.6092      0.1266      2.4756     88.2143     20.9157
  1476.9000      7.8835      2.6599      0.1716     -0.5986     85.0793     20.9600
  1477.0000      7.8498      2.6850      0.1631     -2.1238     87.1642     21.9915
  1477.1000      7.8498      2.6954      0.1718     -2.7529     93.3335     23.0104
  1477.2000      7.8498      2.6884      0.2274     -2.3294    103.4696     22.8816
  1477.3000      7.8403      2.6548      0.1628     -0.2932    113.8342     22.3513
  1477.4000      7.8403      2.6114      0.1076      2.3393    119.5572     22.3237
  1477.5000      7.8417      2.5743      0.1016      4.5887    119.9942     22.2199
  1477.6000      7.8417      2.5446      0.0365      6.3891    118.5459     21.7210
  1477.7000      7.8417      2.5188      0.0467      7.9534    120.8816     21.6782
  1477.8000      7.8628      2.4843      0.0032     10.0398    128.3296     22.9792
  1477.9000      7.8628      2.4344     -0.0375     13.0655    134.2489     25.1502
