~Version Information
VERS.                      2.0: CWLS Log ASCII Standard - VERSION 2.0
WRAP.                       NO: One line per depth step
~Well Information Block
STRT.FT               550.0000: 
STOP.FT              2359.0000: 
STEP.FT                 0.1000: 
NULL.                -999.2500: 
COMP.          Pioneer Natural Resources: COMPANY
WELL.              Whinny 42-2: WELL
FLD.           Purgatoire River: FIELD
LOC.           1836' FNL & 466' FEL: LOCATION
PROV.                 Colorado: PROVINCE
CNTY.               Las Animas: COUNTRY
SRVC.                Patterson: SERVICE COMPANY
DATE.          Mon Aug 22 07:28:42 2005: LOG DATE
UWI.           05 071 08406 00: UNIQUE WELL ID
~Curve Information Block
DEPT.FT            0 000 00 00: Depth
DCAL.in                       : CDL Caliper
RHOB.g/cc                     : CDL Bulk Density
RHOC.g/cc                     : CDL Density Correction
DPOR.pu                       : CDL Density Porosity
GR.GAPI                       : Gamma Ray
NPOR.pu                       : Neutron Porosity
~Parameter Information Block
~A  Depth       DCAL        RHOB        RHOC        DPOR         GR         NPOR    
   550.0000      4.9432      1.9122      0.3352     -0.0148    121.4999     19.1294
   550.1000      4.9432      1.7588      0.2776     -0.0178    116.7415     18.9787
   550.2000      4.9432      1.6069      0.1969     -0.0209    113.7236     19.1546
   550.3000      4.9242      1.4767      0.2301     -0.0235    111.4992     19.1330
   550.4000      4.9242      1.3793      0.2123     77.0096    111.4691     18.6903
   550.5000      4.9213      1.3216      0.2247     80.5106    114.0441     18.5671
   550.6000      4.9213      1.3049      0.2471     81.5183    116.5432     18.8698
   550.7000      4.9213      1.3194      0.2929     80.6431    118.3024     19.2013
   550.8000      4.9206      1.3578      0.3643     78.3160    122.4285     19.6412
   550.9000      4.9206      1.4583      0.3707     72.2262    127.7997     19.9593
   551.0000      4.9253      1.7196      0.3350     56.3900    130.0651     19.8211
   551.1000      4.9253      2.1819      0.5102     28.3700    127.7275     19.5505
   551.2000      4.9253      2.6907      0.7333     -2.4686    125.2927     19.4038
   551.3000      6.3338      3.0288      0.8001    -22.9597    129.3110     19.2929
   551.4000      6.3338      3.1440      0.7674    -29.9366    138.4171     19.4396
   551.5000     15.7135      3.1006      0.7376    -27.3082    141.6251     19.9057
   551.6000     15.7135      2.9176      0.7188    -16.2204    136.1109     20.3690
   551.7000     15.7135      2.6052      0.2389      2.7149    126.0163     20.7571
   551.8000      9.3438      2.2709     -0.3571     22.9746    113.3163     21.1466
   551.9000      9.3438      2.0433     -0.5092     36.7719    105.4522     21.0925
   552.0000      8.2951      1.9468     -0.5239     42.6163    112.3115     20.4402
   552.1000      8.2951      1.9292     -0.5511     43.6852    129.3971     19.8064
   552.2000      8.2951      1.9426     -0.5486     42.8700    143.2045     19.4852
   552.3000      8.2929      1.9641     -0.5054     41.5725    144.4201     19.3426
   552.4000      8.2929      1.9761     -0.5039     40.8451    133.0797     19.3202
   552.5000      8.2910      1.9638     -0.4940     41.5890    117.5035     19.3535
   552.6000      8.2910      1.9407     -0.6395     42.9855    106.4509     19.2163
   552.7000      8.2910      1.9331     -0.4860     43.4466    100.2359     19.0790
   552.8000      8.2913      1.9364     -0.5892     43.2492     95.2378     18.9646
   552.9000      8.2913      1.9419     -0.5570     42.9164     92.3841     18.6412
   553.0000      8.2949      1.9461     -0.5204     42.6581     91.0853     18.5096
   553.1000      8.2949      1.9428     -0.5189     42.8619     89.0758     18.6052
   553.2000      8.2949      1.9422     -0.6128     42.8964     86.6461     18.3961
   553.3000      8.2908      1.9561     -0.5123     42.0535     83.8945     17.7571
   553.4000      8.2908      1.9749     -0.5535     40.9123     81.9224     17.2253
   553.5000      8.2934      1.9818     -0.4463     40.4963     83.0281     17.3354
   553.6000      8.2934      1.9775     -0.5955     40.7548     82.7757     17.8711
   553.7000      8.2934      1.9840     -0.5490     40.3610     75.8205     18.2265
   553.8000      8.2894      1.9976     -0.5170     39.5368     69.1531     17.9161
   553.9000      8.2894      1.9936     -0.4991     39.7812     71.6052     17.2022
   554.0000      8.2844      1.9744     -0.4979     40.9472     78.4154     16.9204
   554.1000      8.2844      1.9723     -0.5649     41.0744     82.4860     17.1093
   554.2000      8.2844      2.0048     -0.5056     39.1046     83.4639     17.0177
   554.3000      8.2892      2.0403     -0.4386     36.9518     85.0425     16.4112
   554.4000      8.2892      2.0500     -0.4984     36.3607     89.2333     15.9859
   554.5000      8.2887      2.0431     -0.4910     36.7820     91.0226     16.2886
   554.6000      8.2887      2.0337     -0.5190     37.3506     86.8501     17.1163
   554.7000      8.2887      2.0309     -0.5106     37.5186     78.3371     17.7925
   554.8000      8.2898      2.0335     -0.4177     37.3656     72.1274     17.8155
   554.9000      8.2898      2.0335     -0.4996     37.3648     75.1307     17.1474
   555.0000      8.2890      2.0360     -0.4692     37.2118     84.9941     16.3782
   555.1000      8.2890      2.0392     -0.4518     37.0176     93.2674     16.1627
   555.2000      8.2890      2.0399     -0.5074     36.9753     97.1490     16.0480
   555.3000      8.2885      2.0490     -0.4502     36.4237     99.5397     15.4655
   555.4000      8.2885      2.0632     -0.4536     35.5629    100.1446     14.9524
   555.5000      8.2903      2.0697     -0.4474     35.1690     99.4133     14.9487
   555.6000      8.2903      2.0627     -0.4176     35.5914    101.5307     14.8870
   555.7000      8.2903      2.0463     -0.4640     36.5858    103.2363     14.7713
   555.8000      8.2964      2.0301     -0.4484     37.5717     99.8379     15.4272
   555.9000      8.2964      2.0053     -0.4731     39.0744     95.1541     16.5670
   556.0000      8.2918      1.9629     -0.5128     41.6405     93.3129     16.9715
   556.1000      8.2918      1.9113     -0.5256     44.7723     97.6568     16.2826
   556.2000      8.2918      1.8601     -0.5326     47.8721    105.2946     15.4428
   556.3000      8.2887      1.8217     -0.5727     50.2022    109.7525     15.3225
   556.4000      8.2887      1.8185     -0.5925     50.3949    112.8543     15.7724
   556.5000      8.2873      1.8519     -0.5097     48.3678    116.2503     16.5084
   556.6000      8.2873      1.8933     -0.4710     45.8609    117.8629     17.3885
   556.7000      8.2873      1.9340     -0.5493     43.3969    117.4973     17.7978
   556.8000      8.2772      1.9860     -0.4545     40.2435    113.1761     17.3430
   556.9000      8.2772      2.0385     -0.3757     37.0633    108.1059     16.3556
   557.0000      8.2886      2.0712     -0.3804     35.0795    111.4791     15.6682
   557.1000      8.2886      2.0817     -0.4426     34.4397    120.0602     15.9145
   557.2000      8.2886      2.0751     -0.4148     34.8397    123.2250     16.9546
   557.3000      8.2913      2.0596     -0.4987     35.7801    120.1276     18.1451
   557.4000      8.2913      2.0438     -0.4480     36.7371    117.2784     18.8965
   557.5000      8.2888      2.0197     -0.4545     38.2007    120.5495     18.9851
   557.6000      8.2888      1.9912     -0.5551     39.9272    127.8788     18.6344
   557.7000      8.2888      1.9767     -0.5136     40.8060    130.2662     18.3012
   557.8000      8.2929      1.9672     -0.5357     41.3812    126.7842     18.2209
   557.9000      8.2929      1.9553     -0.5332     42.1037    121.6983     18.3025
   558.0000      8.2912      1.9535     -0.5006     42.2104    111.6944     18.3607
   558.1000      8.2912      1.9636     -0.5142     41.5970    100.5476     18.4721
   558.2000      8.2912      1.9769     -0.5445     40.7955    100.8934     18.8570
   558.3000      8.2886      1.9856     -0.5077     40.2689    109.1535     19.0025
   558.4000      8.2886      1.9792     -0.5045     40.6568    114.4544     18.2974
   558.5000      8.2919      1.9577     -0.4926     41.9550    115.3596     17.3327
   558.6000      8.2919      1.9441     -0.6161     42.7791    114.0802     17.3957
   558.7000      8.2919      1.9577     -0.5506     41.9550    113.7257     18.8730
   558.8000      8.2913      1.9770     -0.4809     40.7900    115.8016     20.3639
   558.9000      8.2913      1.9708     -0.4722     41.1662    118.9030     20.7626
   559.0000      8.2933      1.9400     -0.5042     43.0273    120.3619     20.6589
   559.1000      8.2933      1.9014     -0.5712     45.3723    119.7108     20.7143
   559.2000      8.2933      1.8720     -0.5434     47.1545    117.0575     21.1876
   559.3000      8.2921      1.8673     -0.6101     47.4374    112.0584     21.5625
   559.4000      8.2921      1.8872     -0.5381     46.2318    108.5241     21.0520
   559.5000      8.2915      1.9079     -0.5144     44.9785    109.7421     20.5083
