~Version Information
VERS.                      2.0: CWLS Log ASCII Standard - VERSION 2.0
WRAP.                       NO: One line per depth step
~Well Information Block
STRT.FT               250.0000: 
STOP.FT              2600.7500: 
STEP.FT                 0.2500: 
NULL.                -999.2500: 
COMP.          Pioneer Natural Resources: COMPANY
WELL.              Quack 22-24: WELL
FLD.           Purgatoire River: FIELD
LOC.           2492' FNL & 2459' FWL--: LOCATION
PROV.                 Colorado: PROVINCE
CNTY.               Las Animas: COUNTRY
SRVC.                Patterson: SERVICE COMPANY
DATE.          Sun Jun 12 09:02:01 2005: LOG DATE
UWI.            05 071 0840200: UNIQUE WELL ID
~Curve Information Block
DEPT.FT            0 000 00 00: Depth
SN.Ohm-m                      : IEL Short Normal
SP.mV                         : IEL Spontaneous Potential
DIR.Ohm-m                     : IEL Induction Resistivity
GR.GAPI                       : Gamma Ray
~Parameter Information Block
~A  Depth        SN          SP         DIR          GR     
# ...
  1322.0000     13.1180    -83.3474     13.2198    114.3519
  1322.2500     13.1292    -82.1950     13.2082    118.8274
  1322.5000     13.1075    -81.0829     13.1450    124.2201
  1322.7500     13.1225    -80.1452     13.0528    126.6036
  1323.0000     13.2127    -79.5043     12.9617    128.6707
  1323.2500     13.3969    -79.2588     12.9073    129.3050
  1323.5000     13.6822    -79.4759     12.9245    129.0907
  1323.7500     14.0580    -80.1865     13.0415    127.9594
  1324.0000     14.4887    -81.3832     13.2738    124.7710
  1324.2500     14.9208    -83.0198     13.6233    122.0169
  1324.5000     15.3099    -85.0122     14.0810    117.7659
  1324.7500     15.6515    -87.2416     14.6328    115.0914
  1325.0000     15.9859    -89.5596     15.2635    111.4562
  1325.2500     16.3702    -91.7982     15.9568    109.6046
  1325.5000     16.8343    -93.7840     16.6907    108.6543
  1325.7500     17.3502    -95.3561     17.4284    109.4426
  1326.0000     17.8360    -96.3844     18.1086    111.6018
  1326.2500     18.1973    -96.7858     18.6449    112.5173
  1326.5000     18.3761    -96.5330     18.9455    112.0234
  1326.7500     18.3710    -95.6569     18.9506    110.8952
  1327.0000     18.2173    -94.2399     18.6606    109.7949
  1327.2500     17.9527    -92.4032     18.1334    110.2818
  1327.5000     17.5998    -90.2901     17.4547    113.0895
  1327.7500     17.1682    -88.0484     16.7086    115.7878
  1328.0000     16.6669    -85.8158     15.9623    119.3900
  1328.2500     16.1149    -83.7069     15.2634    120.7382
  1328.5000     15.5415    -81.8066     14.6416    121.5336
  1328.7500     14.9780    -80.1670     14.1127    122.2717
  1329.0000     14.4497    -78.8083     13.6806    124.9380
  1329.2500     13.9731    -77.7234     13.3377    127.3507
  1329.5000     13.5556    -76.8837     13.0637    130.0042
  1329.7500     13.1964    -76.2467     12.8267    130.4396
  1330.0000     12.8875    -75.7644     12.5889    129.6892
  1330.2500     12.6158    -75.3923     12.3172    129.1353
  1330.5000     12.3683    -75.1005     11.9947    129.1918
  1330.7500     12.1413    -74.8835     11.6287    129.8422
  1331.0000     11.9483    -74.7697     11.2499    131.2842
  1331.2500     11.8144    -74.8265     10.9027    132.2017
  1331.5000     11.7664    -75.1581     10.6328    132.8685
  1331.7500     11.8262    -75.8929     10.4773    132.5266
  1332.0000     12.0070    -77.1603     10.4601    130.4134
  1332.2500     12.3067    -79.0575     10.5907    127.5671
  1332.5000     12.7062    -81.6128     10.8653    120.0932
  1332.7500     13.1943    -84.7554     11.2712    112.4200
  1333.0000     13.8244    -88.2997     11.7936     97.0670
  1333.2500     14.7708    -91.9540     12.4257     85.3934
  1333.5000     16.3178    -95.3554     13.1775     68.9127
  1333.7500     18.7196    -98.1249     14.0785     60.5170
  1334.0000     21.9563    -99.9331     15.1725     53.9719
  1334.2500     25.5587   -100.5562     16.5028     53.9050
  1334.5000     28.7275    -99.9131     18.0918     58.9457
  1334.7500     30.7644    -98.0703     19.9115     64.3506
  1335.0000     31.4901    -95.2186     21.8542     73.5347
  1335.2500     31.2884    -91.6275     23.7227     80.0111
  1335.5000     30.7752    -87.5923     25.2716     90.3723
  1335.7500     30.4113    -83.3851     26.3062     97.2762
  1336.0000     30.3343    -79.2207     26.7756    105.4862
  1336.2500     30.4284    -75.2396     26.7827    108.3505
  1336.5000     30.4921    -71.5088     26.5098    108.7279
  1336.7500     30.3679    -68.0330     26.1288    107.5347
  1337.0000     29.9884    -64.7733     25.7503    105.9594
  1337.2500     29.3658    -61.6660     25.4130    105.8592
  1337.5000     28.5613    -58.6415     25.0985    107.1218
  1337.7500     27.6499    -55.6392     24.7558    108.2568
  1338.0000     26.6955    -52.6218     24.3272    108.7768
  1338.2500     25.7477    -49.5856     23.7677    107.6470
  1338.5000     24.8510    -46.5677     23.0610    104.0832
  1338.7500     24.0451    -43.6470     22.2308    101.5999
  1339.0000     23.3578    -40.9398     21.3424    100.0665
  1339.2500     22.8027    -38.5865     20.4866    101.2603
  1339.5000     22.3850    -36.7328     19.7525    105.8465
  1339.7500     22.1032    -35.5072     19.2040    109.6044
  1340.0000     21.9447    -34.9977     18.8674    114.0491
  1340.2500     21.8836    -35.2344     18.7317    115.3534
  1340.5000     21.8861    -36.1789     18.7587    114.2551
  1340.7500     21.9228    -37.7240     18.9003    111.3979
  1341.0000     21.9849    -39.7039     19.1188    104.0483
  1341.2500     22.0964    -41.9146     19.4022     97.6177
  1341.5000     22.3116    -44.1400     19.7636     87.6406
  1341.7500     22.6921    -46.1806     20.2256     82.2194
  1342.0000     23.2701    -47.8818     20.7975     77.7236
  1342.2500     24.0172    -49.1542     21.4598     77.2618
  1342.5000     24.8374    -49.9837     22.1618     78.9953
  1342.7500     25.5965    -50.4295     22.8354     80.6781
  1343.0000     26.1746    -50.6107     23.4172     83.1440
  1343.2500     26.5122    -50.6838     23.8643     85.0933
  1343.5000     26.6260    -50.8161     24.1599     89.2285
  1343.7500     26.5880    -51.1613     24.3114     92.4036
  1344.0000     26.4865    -51.8413     24.3472     95.6311
  1344.2500     26.3908    -52.9361     24.3146     95.6014
  1344.5000     26.3383    -54.4832     24.2743     92.1953
  1344.7500     26.3434    -56.4836     24.2925     88.6754
  1345.0000     26.4130    -58.9081     24.4306     83.4618
  1345.2500     26.5559    -61.6983     24.7333     80.6710
  1345.5000     26.7794    -64.7599     25.2159     77.8651
  1345.7500     27.0791    -67.9527     25.8563     76.9823
  1346.0000     27.4322    -71.0854     26.5948     76.9725
  1346.2500     27.8032    -73.9266     27.3473     77.4213
  1346.5000     28.1622    -76.2382     28.0307     77.8746
  1346.7500     28.4983    -77.8278     28.5920     77.8019
  1347.0000     28.8150    -78.6056     29.0220     77.2915
  1347.2500     29.1115    -78.6249     29.3397     76.7056
  1347.5000     29.3682    -78.0879     29.5580     74.9771
  1347.7500     29.5538    -77.3132     29.6629     72.9958
  1348.0000     29.6472    -76.6712     29.6274     69.1800
  1348.2500     29.6579    -76.5101     29.4488     66.7788
  1348.5000     29.6220    -77.0924     29.1731     64.4242
  1348.7500     29.5784    -78.5571     28.8827     63.7225
  1349.0000     29.5493    -80.9123     28.6599     63.2549
  1349.2500     29.5443    -84.0511     28.5546     62.9434
  1349.5000     29.5747    -87.7806     28.5739     62.4963
  1349.7500     29.6507    -91.8532     28.6898     62.5338
  1350.0000     29.7605    -95.9940     28.8558     63.5024
  1350.2500     29.8558    -99.9211     29.0173     64.6221
  1350.5000     29.8627   -103.3654     29.1139     66.2514
  1350.7500     29.7070   -106.0892     29.0804     66.8379
  1351.0000     29.3385   -107.9056     28.8586     66.5724
  1351.2500     28.7497   -108.6994     28.4185     65.7738
  1351.5000     27.9814   -108.4421     27.7736     64.8006
  1351.7500     27.1095   -107.1986     26.9752     65.4762
  1352.0000     26.2158   -105.1211     26.0880     70.3499
  1352.2500     25.3587   -102.4301     25.1652     76.3765
  1352.5000     24.5577    -99.3879     24.2370     87.7977
  1352.7500     23.7996    -96.2667     23.3168     95.1970
  1353.0000     23.0668    -93.3198     22.4189    103.1803
  1353.2500     22.3665    -90.7575     21.5737    105.6166
  1353.5000     21.7371    -88.7344     20.8293    105.2772
  1353.7500     21.2257    -87.3429     20.2393    103.4032
  1354.0000     20.8589    -86.6159     19.8497    100.4659
  1354.2500     20.6339    -86.5346     19.6908     99.5058
  1354.5000     20.5332    -87.0414     19.7776     99.8510
  1354.7500     20.5511    -88.0543     20.1107    100.5684
  1355.0000     20.7101    -89.4809     20.6721    101.0928
  1355.2500     21.0582    -91.2296     21.4194    101.0630
