~Version Information
 VERS.                                  2.0 : CWLS LAS VERSION
 WRAP.                                   NO : WRAPING MODE
 SWARE .                  MController 2.6.3 : SOFTWARE VERSION
~Well Information
 WELL.                       Stampede 42-18 : WELL
 COMP.    Pioneer Natural Resources USA Inc : COMPANY
 FLD.                      Purgatoire River : FIELD
 LOC.                SE/NE Sec 18 T32S R65W : LOCATION
 DATE.                           6/8-9/2007 : DATE(S) LOGGED
 SRVC.       Blanco Geological Services LLC : SERVICE COMPANY
 STAT.                                   CO : STATE
 CNTY.                           Las Animas : COUNTY
 CTRY.                                  USA : COUNTRY
 API.                       05-071-08237-00 : API NUMBER
 STRT.FT                             561.00 : START DEPTH
 STOP.FT                            1934.00 : STOP DEPTH
 STEP.FT                               1.00 : DEPTH INCREMENT
 NULL.                                -9999 : NULL VALUE
~Curve information
 DEPTH.FT                                   :
 ROP.MIN/FT                                 :
 GAS.UNITS                                  :
~ASCII Log data
# ...
     1561.00         0.40        676.4 
     1562.00         0.37        440.0 
     1563.00         0.37        339.8 
     1564.00         0.40        274.2 
     1565.00         0.37        205.3 
     1566.00         0.33        169.3 
     1567.00         0.37        166.8 
     1568.00         0.33        163.3 
     1569.00         0.35        239.7 
     1570.00         0.40        249.1 
     1571.00         0.33        243.2 
     1572.00         0.37        292.6 
     1573.00         0.37        364.6 
     1574.00         0.30        392.0 
     1575.00         0.33        388.7 
     1576.00         0.33        342.1 
     1577.00         0.37        343.0 
     1578.00         0.37        368.6 
     1579.00         0.42        385.7 
     1580.00         0.47        392.4 
     1581.00         0.67        394.0 
     1582.00         3.22        520.0 
     1583.00         0.70        480.1 
     1584.00         0.57        721.0 
     1585.00         0.47        968.3 
     1586.00         0.65       1126.9 
     1587.00         0.53       1210.7 
     1588.00         0.50       1211.4 
     1589.00         0.40       1203.0 
     1590.00         0.37       1198.1 
     1591.00         0.37       1184.0 
     1592.00         0.40       1156.3 
     1593.00         0.42       1093.9 
     1594.00         0.43       1035.7 
     1595.00         0.43        974.3 
     1596.00         0.43        903.1 
     1597.00         0.40        882.7 
     1598.00         0.43        843.8 
     1599.00         0.37        805.9 
     1600.00         0.33        693.6 
     1601.00         0.35        539.3 
     1602.00         0.37        440.0 
     1603.00         0.30        345.2 
     1604.00         0.30        304.1 
     1605.00         0.27        279.4 
     1606.00         0.30        270.1 
     1607.00         0.40        261.4 
     1608.00         0.43        273.5 
     1609.00         0.23        288.6 
     1610.00         0.30        318.0 
     1611.00         0.55        378.3 
     1612.00         3.10        476.1 
     1613.00         0.65        174.5 
     1614.00         0.77       1379.5 
     1615.00         0.97       1689.5 
     1616.00         0.93       2040.9 
     1617.00         0.58       2090.5 
     1618.00         0.53       2039.8 
     1619.00         0.67       1713.9 
     1620.00         0.80       1601.9 
     1621.00         0.67       2374.2 
     1622.00         0.65       2611.4 
     1623.00         0.77       2369.6 
     1624.00         0.57       2041.6 
     1625.00         0.63       2380.9 
     1626.00         0.63       2552.2 
     1627.00         0.72       2668.5 
     1628.00         0.47       2712.5 
     1629.00         0.50       2707.5 
     1630.00         0.33       2682.3 
     1631.00         0.33       2705.0 
     1632.00         0.87       2677.0 
     1633.00         0.37       1641.6 
     1634.00         0.28       1337.0 
     1635.00         0.57        961.8 
     1636.00         0.50        440.0 
     1637.00         0.53        264.8 
     1638.00         0.50        378.0 
     1639.00         0.50        668.4 
     1640.00         0.65       1061.2 
     1641.00         0.77       1471.0 
     1642.00         4.82       1678.7 
     1643.00         0.87        360.1 
     1644.00         0.75       1027.0 
     1645.00         1.00       2255.6 
     1646.00         1.20       2639.2 
     1647.00         1.22       1666.8 
     1648.00         1.43        301.4 
     1649.00         0.70        252.9 
     1650.00         0.78        225.6 
     1651.00         0.70        345.3 
     1652.00         0.70        427.2 
     1653.00         0.70        478.6 
     1654.00         0.63        490.7 
     1655.00         0.52        440.0 
     1656.00         0.47        355.1 
     1657.00         0.40        306.0 
     1658.00         0.40        270.1 
     1659.00         0.40        239.0 
     1660.00         0.47        204.9 
     1661.00         0.43        234.4 
     1662.00         0.53        294.4 
     1663.00         0.52        321.1 
     1664.00         0.57        383.6 
     1665.00         0.53        402.4 
     1666.00         0.53        404.8 
     1667.00         0.57        403.7 
     1668.00         0.60        402.2 
     1669.00         0.48        398.2 
     1670.00         0.47        425.2 
     1671.00         0.40        468.5 
     1672.00         4.82       2062.2 
     1673.00         0.30       2334.8 
     1674.00         0.30       2595.6 
     1675.00         0.28       2816.7 
     1676.00         0.27       2998.3 
     1677.00         0.30       3138.1 
     1678.00         0.77       3176.5 
     1679.00         0.87       2620.4 
     1680.00         1.35       1441.5 
     1681.00         1.53        661.2 
     1682.00         1.23        203.4 
     1683.00         1.05         78.0 
     1684.00         1.77         62.0 
     1685.00         1.25         65.5 
     1686.00         0.63         97.8 
     1687.00         0.60        144.0 
     1688.00         0.57        244.9 
     1689.00         0.60        286.4 
     1690.00         0.62        296.2 
     1691.00         0.60        331.9 
     1692.00         0.53        339.8 
     1693.00         0.60        353.4 
     1694.00         0.50        370.1 
     1695.00         0.53        438.8 
     1696.00         0.52        511.7 
     1697.00         0.53        524.2 
     1698.00         0.53        526.3 
     1699.00         0.50        517.6 
     1700.00         0.43        502.0 
     1701.00         0.43        487.1 
     1702.00         2.82        551.0 
     1703.00         0.27        440.0 
     1704.00         0.80        440.0 
     1705.00         0.38        655.3 
     1706.00         0.30        908.6 
     1707.00         0.30       1163.6 
     1708.00         0.40       1529.0 
     1709.00         0.57       1975.1 
     1710.00         0.63       2158.1 
     1711.00         0.67       2146.6 
     1712.00         1.35       1775.0 
     1713.00         1.03        304.4 
     1714.00         0.53        108.5 
     1715.00         0.75        149.2 
     1716.00         0.73        184.3 
     1717.00         0.77        224.8 
     1718.00         0.83        228.1 
     1719.00         0.73        186.1 
     1720.00         1.32        168.9 
     1721.00         0.93        160.1 
     1722.00         0.80        218.1 
     1723.00         0.78        303.4 
     1724.00         0.63        388.6 
     1725.00         0.87        479.7 
     1726.00         0.73        528.2 
     1727.00         0.80        519.9 
     1728.00         0.82        530.7 
     1729.00         0.87        588.5 
     1730.00         0.73        585.8 
     1731.00         0.78        662.0 
     1732.00         6.25       1837.6 
     1733.00         0.88       2119.6 
     1734.00         0.87       2113.3 
     1735.00         0.90       1656.8 
     1736.00         0.77        653.7 
     1737.00         0.68        342.7 
     1738.00         0.60        297.5 
     1739.00         0.57        371.6 
     1740.00         0.53        424.4 
     1741.00         0.50        454.1 
     1742.00         0.50        479.1 
     1743.00         0.52        526.3 
     1744.00         0.53        629.4 
     1745.00         0.67       1012.0 
     1746.00         0.50       1299.5 
     1747.00         0.53       1543.7 
     1748.00         0.47       1629.5 
     1749.00         0.35       1677.9 
     1750.00         0.40       1709.4 
     1751.00         0.43       1735.3 
     1752.00         0.67       1577.6 
     1753.00         0.60       1777.2 
     1754.00         0.77       2099.9 
     1755.00         0.52       2206.1 
     1756.00         0.60       2254.2 
     1757.00         0.60       2358.3 
     1758.00         0.63       2400.5 
     1759.00         0.63       2403.6 
     1760.00         0.53       2311.2 
