~Version Information
VERS.                      2.0: CWLS Log ASCII Standard - VERSION 2.0
WRAP.                       NO: One line per depth step
~Well Information Block
STRT.FT                15.0000: 
STOP.FT              1869.0000: 
STEP.FT                 0.2500: 
NULL.                -999.2500: 
COMP.          Pioneer Natural Resources: COMPANY
WELL.          Victory 12-14 Tr: WELL
FLD.           Purgatoire River: FIELD
LOC.           2522' FNL & 276' FWL: LOCATION
PROV.                 Colorado: PROVINCE
CNTY.               Las Animas: COUNTRY
SRVC.                Patterson: SERVICE COMPANY
DATE.          Fri Jul 22 14:39:41 2005: LOG DATE
UWI.           05 071 08433 00: UNIQUE WELL ID
~Curve Information Block
DEPT.FT            0 000 00 00: Depth
GR.GAPI                       : Gamma Ray
CCL.                          : Casing Collar Locator
TT3.usec                      : CBL 3' Travel Time
AMP3.mV                       : CBL 3' Amplitude
~Parameter Information Block
~A  Depth        GR         CCL         TT3         AMP3    
# ...
   752.0000     79.5049      0.0000    744.8207     13.0908
   752.2500     79.1396      0.0000    744.9772     13.0736
   752.5000     77.8045      0.0000    744.9685     13.0026
   752.7500     76.3943      0.0000    744.8188     12.8896
   753.0000     75.2850      0.0000    744.5790     12.7595
   753.2500     74.2799      0.0000    744.2905     12.6429
   753.5000     73.0539      0.0000    743.9907     12.5632
   753.7500     71.5649      0.0000    743.7347     12.5277
   754.0000     70.1485      0.0000    743.5945     12.5283
   754.2500     69.4310      0.0000    743.6229     12.5449
   754.5000     69.9376      0.0000    743.8148     12.5507
   754.7500     71.2895      0.0000    744.0901     12.5240
   755.0000     71.8639      0.0000    744.3160     12.4624
   755.2500     69.9955      0.0000    744.3865     12.3827
   755.5000     65.9465      0.0000    744.3139     12.3043
   755.7500     62.4176      0.0000    744.2340     12.2366
   756.0000     62.8136      0.0000    744.3271     12.1794
   756.2500     68.8416      0.0000    744.7912     12.1292
   756.5000     79.4176      0.0000    745.9521     12.0810
   756.7500     91.4769      0.0000    748.3585     12.0251
   757.0000    101.7618      0.0000    752.5502     11.9492
   757.2500    108.2229      0.0000    758.4747     11.8451
   757.5000    110.5056      0.0000    765.1297     11.7171
   757.7500    109.9422      0.0000    771.0443     11.5863
   758.0000    109.0818      0.0000    775.2594     11.4834
   758.2500    110.3168      0.0000    777.7888     11.4333
   758.5000    114.3309      0.0000    779.2200     11.4426
   758.7500    119.9078      0.0000    780.0938     11.5025
   759.0000    125.0315      0.0000    780.6962     11.5973
   759.2500    127.9376      0.0000    781.2438     11.7084
   759.5000    127.7379      0.0000    782.1050     11.8138
   759.7500    124.8654      0.0000    783.7226     11.8879
   760.0000    120.8985      0.0000    786.1445     11.9060
   760.2500    117.3740      0.0000    788.5791     11.8562
   760.5000    114.4591      0.0000    789.7335     11.7494
   760.7500    110.8993      0.0000    788.9126     11.6158
   761.0000    105.4292      0.0000    786.6594     11.4898
   761.2500     98.2003      0.0000    784.1417     11.4010
   761.5000     90.6637      0.0000    782.1412     11.3718
   761.7500     84.1592      0.0000    780.7764     11.4120
   762.0000     78.9443      0.0000    779.8723     11.5088
   762.2500     74.6601      0.0000    779.2890     11.6261
   762.5000     71.3342      0.0000    778.9747     11.7256
   762.7500     69.5814      0.0000    778.8985     11.7902
   763.0000     69.9355      0.0000    778.9999     11.8278
   763.2500     72.2201      0.0000    779.1811     11.8549
   763.5000     75.5212      0.0000    779.3397     11.8769
   763.7500     78.5347      0.0000    779.4015     11.8837
   764.0000     79.9962      0.0000    779.3417     11.8613
   764.2500     79.1258      0.0000    779.1956     11.8056
   764.5000     75.9929      0.0000    779.0586     11.7283
   764.7500     71.6521      0.0000    779.0653     11.6486
   765.0000     67.8667      0.0000    779.3268     11.5843
   765.2500     66.2722      0.0000    779.8453     11.5565
   765.5000     67.3652      0.0000    780.3359     11.6025
   765.7500     70.1802      0.0000    779.9995     11.7669
   766.0000     73.0059      0.0000    777.4111     12.0558
   766.2500     74.5677      0.0000    771.2076     12.3782
   766.5000     74.7216      0.0000    762.0623     12.5323
   766.7500     74.2150      0.0000    754.5721     12.2933
   767.0000     73.9106      0.0000    755.6567     11.5773
   767.2500     74.1901      0.0000    768.8336     10.5486
   767.5000     74.8207      0.0000    789.8369      9.5382
   767.7500     75.1973      0.0000    809.4073      8.8232
   768.0000     74.8583      0.0000    820.9326      8.4753
   768.2500     73.8926     -3.0000    825.1141      8.4004
   768.5000     72.7541     -3.0000    827.8976      8.4889
   768.7500     71.7586      0.0000    834.7607      8.7318
   769.0000     70.9915      0.0000    846.0129      9.2402
   769.2500     70.6514      0.0000    856.0854     10.1560
   769.5000     71.1637      0.0000    857.8918     11.4757
   769.7500     72.8009      0.0000    849.0811     12.9328
   770.0000     75.3009      0.0000    833.5844     14.1123
   770.2500     77.9139      0.0000    817.3528     14.7340
   770.5000     79.7014      0.0000    804.4297     14.8121
   770.7500     79.8487      0.0000    797.1318     14.5575
   771.0000     78.0469      0.0000    797.2943     14.1902
   771.2500     74.8525      0.0000    805.2338     13.8460
   771.5000     71.5972      0.0000    817.4296     13.5812
   771.7500     69.7202      0.0000    826.7172     13.4036
   772.0000     69.9824      0.0000    826.9390     13.2990
   772.2500     72.1025      0.0000    818.3951     13.2508
   772.5000     74.9785      0.0000    808.0235     13.2504
   772.7500     77.3519      0.0000    803.8369     13.2947
   773.0000     78.4926      0.0000    809.0571     13.3743
   773.2500     78.3984      0.0000    820.3467     13.4652
   773.5000     77.4324      0.0000    830.6000     13.5436
   773.7500     75.9387      0.0000    834.2042     13.6115
   774.0000     74.2755      0.0000    830.6725     13.7007
   774.2500     72.9171      0.0000    823.6014     13.8471
   774.5000     72.1078      0.0000    816.7123     14.0578
   774.7500     71.5165      0.0000    811.4177     14.3001
   775.0000     70.6444      0.0000    807.6689     14.5218
   775.2500     69.5716      0.0000    805.8201     14.6872
   775.5000     68.9641      0.0000    806.5479     14.7992
   775.7500     69.3416      0.0000    809.2626     14.8892
   776.0000     70.6151      0.0000    812.0460     14.9893
   776.2500     72.3506      0.0000    813.6160     15.1123
   776.5000     74.1766      0.0000    814.3851     15.2492
   776.7500     75.7879      0.0000    815.0156     15.3782
   777.0000     76.7860      0.0000    814.7429     15.4806
   777.2500     76.8276      0.0000    811.8923     15.5497
   777.5000     75.9828      0.0000    805.8041     15.5811
   777.7500     74.7419      0.0000    797.7678     15.5549
   778.0000     73.6218      0.0000    790.0555     15.4418
   778.2500     72.9214      0.0000    784.2942     15.2368
   778.5000     72.8105      0.0000    780.7701     14.9782
   778.7500     73.5100      0.0000    778.8882     14.7263
   779.0000     75.4193      0.0000    777.8868     14.5261
   779.2500     78.9983      0.0000    777.2052     14.3927
   779.5000     84.2875      0.0000    776.5560     14.3211
   779.7500     90.4485      0.0000    775.8969     14.3024
   780.0000     95.8627      0.0000    775.3272     14.3289
   780.2500     98.8983      0.0000    774.9467     14.3829
   780.5000     98.8858      0.0000    774.7939     14.4198
   780.7500     96.6526      0.0000    774.9324     14.3721
   781.0000     94.1132      0.0000    775.6424     14.1888
   781.2500     93.0368      0.0000    777.5075     13.8764
   781.5000     93.9648      0.0000    781.1185     13.4984
   781.7500     96.2488      0.0000    786.4457     13.1328
   782.0000     98.8142      0.0000    792.4948     12.8308
   782.2500    100.5826      0.0000    797.8013     12.6065
   782.5000    100.4981      0.0000    801.3845     12.4506
   782.7500     97.8143      0.0000    803.2055     12.3446
   783.0000     92.6663      0.0000    803.8379     12.2663
   783.2500     86.3680      0.0000    803.9010     12.1927
   783.5000     81.1391      0.0000    803.7673     12.1039
   783.7500     79.2522      0.0000    803.5593     11.9849
   784.0000     81.7930      0.0000    803.2629     11.8283
   784.2500     87.8607      0.0000    802.8837     11.6388
   784.5000     95.1696      0.0000    802.5962     11.4355
   784.7500    101.6256      0.0000    802.8101     11.2427
   785.0000    106.2496      0.0000    803.9966     11.0793
   785.2500    108.9662      0.0000    806.1935     10.9624
