~Version Information
VERS.                      2.0: CWLS Log ASCII Standard - VERSION 2.0
WRAP.                       NO: One line per depth step
~Well Information Block
STRT.FT               550.0000: 
STOP.FT              1577.7000: 
STEP.FT                 0.1000: 
NULL.                -999.2500: 
COMP.          Pioneer Natural Resources: COMPANY
WELL.          Kristin 22-23 Tr: WELL
FLD.           Purgatoire River: FIELD
LOC.           2273' FNL & 2029' FWL: LOCATION
PROV.                 Colorado: PROVINCE
CNTY.               Las Animas: COUNTRY
SRVC.                Patterson: SERVICE COMPANY
DATE.          Fri Jan 21 06:58:50 2005: LOG DATE
UWI.           05 071 08259 00: UNIQUE WELL ID
~Curve Information Block
DEPT.FT            0 000 00 00: Depth
DCAL.in                       : CDL Caliper
RHOB.g/cc                     : CDL Bulk Density
RHOC.g/cc                     : CDL Density Correction
DPOR.pu                       : CDL Density Porosity
NPOR.pu                       : Neutron Porosity
GR.GAPI                       : Gamma Ray
~Parameter Information Block
~A  Depth       DCAL        RHOB        RHOC        DPOR        NPOR         GR     
# ...
  1145.2000      7.9531      2.7748      0.1967     -7.5611     21.1368    126.2121
  1145.3000      7.9486      2.7690      0.1593     -7.2150     20.8927    121.9990
  1145.4000      7.9486      2.7464      0.0789     -5.8436     21.4378    109.6327
  1145.5000      7.9473      2.7245      0.1402     -4.5164     22.6512    104.9673
  1145.6000      7.9473      2.7045      0.0162     -3.3040     23.4583    109.1384
  1145.7000      7.9473      2.6888      0.0197     -2.3539     23.2525    112.9772
  1145.8000      7.9484      2.6713      0.0245     -1.2926     22.6686    116.3232
  1145.9000      7.9484      2.6395      0.0195      0.6386     22.6352    119.9532
  1146.0000      7.9484      2.5967     -0.0210      3.2282     23.0912    122.2936
  1146.1000      7.9484      2.5597     -0.0182      5.4703     23.4506    127.2182
  1146.2000      7.9484      2.5402     -0.0044      6.6568     23.5352    135.6622
  1146.3000      7.9458      2.5364      0.0260      6.8824     23.3169    140.7496
  1146.4000      7.9458      2.5355      0.0871      6.9375     22.9082    140.3473
  1146.5000      7.9445      2.5223      0.0450      7.7417     22.3942    139.3775
  1146.6000      7.9445      2.5007      0.0317      9.0498     21.5946    141.7992
  1146.7000      7.9445      2.4921      0.0024      9.5695     20.6513    145.7778
  1146.8000      7.9453      2.5039      0.0515      8.8555     20.2415    146.0874
  1146.9000      7.9453      2.5221      0.0584      7.7506     20.6307    141.0089
  1147.0000      7.9455      2.5415      0.0472      6.5766     20.9509    134.4340
  1147.1000      7.9455      2.5686      0.1100      4.9330     20.1343    128.6180
  1147.2000      7.9455      2.6001      0.1024      3.0243     18.8075    120.7503
  1147.3000      7.9457      2.6196      0.1372      1.8429     18.4932    114.1614
  1147.4000      7.9457      2.6212      0.0741      1.7480     19.2580    113.7252
  1147.5000      7.9435      2.6206      0.0862      1.7818     19.9128    115.2234
  1147.6000      7.9435      2.6286      0.0880      1.2948     19.5871    114.5870
  1147.7000      7.9435      2.6401      0.1011      0.5990     18.7795    112.9736
  1147.8000      7.9360      2.6424      0.1093      0.4618     18.5592    112.2044
  1147.9000      7.9360      2.6296      0.0874      1.2343     19.3046    113.4033
  1148.0000      7.9330      2.6151      0.0648      2.1153     20.4285    116.3937
  1148.1000      7.9330      2.6209      0.0358      1.7638     20.8800    118.5099
  1148.2000      7.9330      2.6443      0.1169      0.3457     20.6913    118.1329
  1148.3000      7.9411      2.6478      0.1479      0.1345     20.7839    116.6219
  1148.4000      7.9411      2.6169      0.0312      2.0069     21.3957    116.3544
  1148.5000      7.9482      2.5751      0.0569      4.5376     22.0048    119.4574
  1148.6000      7.9482      2.5270      0.0476      7.4556     22.6673    126.0684
  1148.7000      7.9482      2.4623     -0.0190     11.3780     23.5876    133.2878
  1148.8000      7.9522      2.3920     -0.0313     15.6383     24.1847    134.8230
  1148.9000      7.9522      2.3368     -0.0759     18.9814     24.2808    129.3538
  1149.0000      7.9537      2.3053     -0.0667     20.8895     24.2527    121.7949
  1149.1000      7.9537      2.2930     -0.0685     21.6388     24.1105    115.0062
  1149.2000      7.9537      2.2919     -0.0370     21.7020     23.6050    110.2369
  1149.3000      7.9532      2.2979     -0.0374     21.3401     22.9575    108.1674
  1149.4000      7.9532      2.3184     -0.0063     20.0976     22.7000    108.8440
  1149.5000      7.9543      2.3593      0.0615     17.6201     22.3240    111.5919
  1149.6000      7.9543      2.4098      0.0859     14.5585     21.0605    111.5502
  1149.7000      7.9543      2.4632      0.1465     11.3191     19.6563    107.6447
  1149.8000      7.9554      2.5207      0.1786      7.8391     19.1257    104.6678
  1149.9000      7.9554      2.5732      0.2074      4.6554     19.1196    104.4095
  1150.0000      7.9552      2.6084      0.1748      2.5202     18.9944    106.7589
  1150.1000      7.9552      2.6227      0.1510      1.6517     18.7406    110.6812
  1150.2000      7.9552      2.6227      0.0892      1.6558     18.3845    112.9939
  1150.3000      7.9558      2.6209      0.0854      1.7622     18.1686    111.3769
  1150.4000      7.9558      2.6212      0.0887      1.7429     18.2901    106.7911
  1150.5000      7.9562      2.6211      0.0697      1.7492     18.2583    100.4964
  1150.6000      7.9562      2.6214      0.0770      1.7310     17.8885     94.0070
  1150.7000      7.9562      2.6150      0.1069      2.1239     17.6628     88.7569
  1150.8000      7.9556      2.5971      0.0677      3.2062     17.9874     84.4384
  1150.9000      7.9556      2.5779      0.0580      4.3676     18.6070     83.7681
  1151.0000      7.9569      2.5660      0.0578      5.0892     18.9097     88.2386
  1151.1000      7.9569      2.5619      0.0338      5.3417     18.8632     91.7692
  1151.2000      7.9569      2.5594      0.0588      5.4905     18.6213     89.2296
  1151.3000      7.9600      2.5496      0.0314      6.0846     18.0924     87.4912
  1151.4000      7.9600      2.5331      0.0272      7.0833     17.6411     94.8757
  1151.5000      7.9637      2.5236      0.0049      7.6604     17.4886    105.4726
  1151.6000      7.9637      2.5394     -0.0163      6.7052     17.4426    110.0657
  1151.7000      7.9637      2.5731      0.0638      4.6621     17.5566    109.5406
  1151.8000      7.9758      2.5908      0.0857      3.5884     17.9104    109.8675
  1151.9000      7.9758      2.5819      0.0579      4.1266     18.5608    112.3433
  1152.0000      7.9876      2.5666      0.0145      5.0554     19.3547    114.5229
  1152.1000      7.9876      2.5611      0.0243      5.3873     19.5876    115.2709
  1152.2000      7.9876      2.5658      0.0694      5.1033     18.7787    112.1629
  1152.3000      7.9795      2.5713      0.0678      4.7690     17.4262    106.3163
  1152.4000      7.9795      2.5720      0.0515      4.7269     16.2688    102.6020
  1152.5000      7.9649      2.5705      0.0445      4.8204     15.5816     97.7227
  1152.6000      7.9649      2.5674      0.0673      5.0087     15.2741     88.8073
  1152.7000      7.9649      2.5657      0.0317      5.1097     15.0923     82.7065
  1152.8000      7.9564      2.5782      0.0683      4.3527     14.8042     82.1776
  1152.9000      7.9564      2.6004      0.1119      3.0086     14.3961     83.5645
  1153.0000      7.9526      2.6065      0.1109      2.6342     13.9207     83.0908
  1153.1000      7.9526      2.5875      0.0893      3.7898     13.4722     79.7781
  1153.2000      7.9526      2.5598      0.0579      5.4645     13.0822     75.9561
  1153.3000      7.9504      2.5442      0.0346      6.4119     12.6703     72.3487
  1153.4000      7.9504      2.5546      0.0345      5.7847     12.4275     68.9533
  1153.5000      7.9508      2.5905      0.0453      3.6053     12.5546     67.7866
  1153.6000      7.9508      2.6319      0.0843      1.0966     13.0803     72.4678
  1153.7000      7.9508      2.6545      0.0692     -0.2733     13.7533     81.0009
  1153.8000      7.9536      2.6502      0.0658     -0.0145     14.1962     86.4016
  1153.9000      7.9536      2.6308      0.0502      1.1642     14.4710     85.7905
  1154.0000      7.9545      2.6163      0.0525      2.0407     14.8735     82.1924
  1154.1000      7.9545      2.6131      0.0462      2.2366     15.5329     81.0825
  1154.2000      7.9545      2.6120      0.0218      2.3030     16.3001     83.9961
  1154.3000      7.9535      2.6066      0.0481      2.6327     16.8707     88.0773
  1154.4000      7.9535      2.5950      0.0334      3.3314     17.1809     93.3521
  1154.5000      7.9534      2.5825      0.0475      4.0932     17.4740    102.0057
  1154.6000      7.9534      2.5785      0.0629      4.3329     18.2590    114.0438
  1154.7000      7.9534      2.5828      0.0398      4.0708     19.4460    125.0070
