~Version Information
VERS.                      2.0: CWLS Log ASCII Standard - VERSION 2.0
WRAP.                       NO: One line per depth step
~Well Information Block
STRT.FT               -10.3000: 
STOP.FT              1936.7000: 
STEP.FT                 0.1000: 
NULL.                -999.2500: 
COMP.          Petrogulf Corporation: COMPANY
WELL.              Graff 9-31R: WELL
FLD.           Purgatorie River: FIELD
LOC.           707' FNL & 1713' FEL------: LOCATION
CNTY.               Las Animas: COUNTY
SRVC.                         : SERVICE COMPANY
DATE.          Wed Nov 17 13:41:51 2004: LOG DATE
UWI.                          : UNIQUE WELL ID
STAT.                       CO: STATE
~Curve Information Block
DEPT.FT            0 000 00 00: Depth
GR.GAPI                       : Gamma Ray
CCL.                          : Casing Collar Locator
TT3.usec                      : CBL 3' Travel Time
AMP3.mV                       : CBL 3' Amplitude
~Parameter Information Block
~A  Depth        GR         CCL         TT3         AMP3    
# ...
   123.7000     41.9410      0.0000    803.3901     25.2962
   123.8000     39.7328      1.5173    806.7446     26.0747
   123.9000     39.7328      0.0000    806.7446     26.0747
   124.0000     38.3552      0.0000    777.7429     27.1935
   124.1000     38.3552      0.0000    777.7429     27.1935
   124.2000     38.3552      0.0000    777.7429     27.1935
   124.3000     38.0689      0.0000    706.5158     28.7984
   124.4000     38.0689      0.0000    706.5158     28.7984
   124.5000     38.6195      0.0000    601.1865     31.0059
   124.6000     38.6195      0.0000    601.1865     31.0059
   124.7000     38.6195      0.0000    601.1865     31.0059
   124.8000     39.6146      0.0000    486.6467     33.7855
   124.9000     39.6146      0.0000    486.6467     33.7855
   125.0000     40.8547      0.0000    389.7459     36.9188
   125.1000     40.8547      0.0000    389.7459     36.9188
   125.2000     40.8547      0.0000    389.7459     36.9188
   125.3000     42.2483      0.0000    324.0923     39.9849
   125.4000     42.2483      0.0000    324.0923     39.9849
   125.5000     43.4786      0.0000    287.6014     42.4282
   125.6000     43.4786      0.0000    287.6014     42.4282
   125.7000     43.4786      0.0000    287.6014     42.4282
   125.8000     44.2272      0.0000    270.6229     43.8355
   125.9000     44.2272      0.0000    270.6229     43.8355
   126.0000     44.9057      0.0000    263.9507     44.2237
   126.1000     44.9057      0.0000    263.9507     44.2237
   126.2000     44.9057      0.0000    263.9507     44.2237
   126.3000     46.6693      0.0000    261.7835     44.0005
   126.4000     46.6693      0.0000    261.7835     44.0005
   126.5000     50.4097      0.0000    261.2477     43.6632
   126.6000     50.4097      0.0000    261.2477     43.6632
   126.7000     50.4097      0.0000    261.2477     43.6632
   126.8000     56.0141      0.0000    261.1665     43.5639
   126.9000     56.0141      0.0000    261.1665     43.5639
   127.0000     62.7853      0.0000    261.1380     43.8608
   127.1000     62.7853      0.0000    261.1380     43.8608
   127.2000     62.7853      0.0000    261.1380     43.8608
   127.3000     70.1460      0.0000    261.0544     44.5513
   127.4000     70.1460      0.0000    261.0544     44.5513
   127.5000     77.5721      0.0000    260.9222     45.4870
   127.6000     77.5721      0.0000    260.9222     45.4870
   127.7000     77.5721      0.0000    260.9222     45.4870
   127.8000     84.1628      0.0000    260.7819     46.4078
   127.9000     84.1628      0.0000    260.7819     46.4078
   128.0000     88.8444      0.0000    260.6797     47.0393
   128.1000     88.8444      0.0000    260.6797     47.0393
   128.2000     88.8444      0.0000    260.6797     47.0393
   128.3000     91.1412      0.0000    260.6378     47.2296
   128.4000     91.1412      0.0000    260.6378     47.2296
   128.5000     91.6176      0.0000    260.6447     47.0314
   128.6000     91.6176      0.0000    260.6447     47.0314
   128.7000     91.6176      0.0000    260.6447     47.0314
   128.8000     91.4959      0.0000    260.6667     46.6636
   128.9000     91.4959      0.0000    260.6667     46.6636
   129.0000     91.7242      0.0000    260.6726     46.3700
   129.1000     91.7242      0.0000    260.6726     46.3700
   129.2000     91.7242      0.0000    260.6726     46.3700
   129.3000     92.2407      0.0000    260.6554     46.2708
   129.4000     92.2407      0.0000    260.6554     46.2708
   129.5000     92.0849      0.0000    260.6343     46.3088
   129.6000     92.0849      0.0000    260.6343     46.3088
   129.7000     92.0849      0.0000    260.6343     46.3088
   129.8000     90.3616      0.0000    260.6408     46.3068
   129.9000     90.3616      0.0000    260.6408     46.3068
   130.0000     87.1469      0.0000    260.7061     46.0850
   130.1000     87.1469      0.0000    260.7061     46.0850
   130.2000     87.1469      0.0000    260.7061     46.0850
   130.3000     83.4448      0.0000    260.8570     45.5604
   130.4000     83.4448      0.0000    260.8570     45.5604
   130.5000     80.4610      0.0000    261.1152     44.7733
   130.6000     80.4610      0.0000    261.1152     44.7733
   130.7000     80.4610      0.0000    261.1152     44.7733
   130.8000     79.1053      0.0000    261.4847     43.8441
   130.9000     79.1053      0.0000    261.4847     43.8441
   131.0000     79.8493      0.0000    261.9284     42.9238
   131.1000     79.8493      0.0000    261.9284     42.9238
   131.2000     79.8493      0.0000    261.9284     42.9238
   131.3000     82.5484      0.0000    262.3562     42.1768
   131.4000     82.5484      0.0000    262.3562     42.1768
   131.5000     86.3881      0.0000    262.6530     41.7573
   131.6000     86.3881      0.0000    262.6530     41.7573
   131.7000     86.3881      0.0000    262.6530     41.7573
   131.8000     90.3239      0.0000    262.7424     41.7350
   131.9000     90.3239      0.0000    262.7424     41.7350
   132.0000     93.6863      0.0000    262.6404     42.0198
   132.1000     93.6863      0.0000    262.6404     42.0198
   132.2000     93.6863      0.0000    262.6404     42.0198
   132.3000     96.3012      0.0000    262.4407     42.3991
   132.4000     96.3012      0.0000    262.4407     42.3991
   132.5000     98.1829      0.0000    262.2336     42.7062
   132.6000     98.1829      0.0000    262.2336     42.7062
   132.7000     98.1829      0.0000    262.2336     42.7062
   132.8000     99.3283      0.0000    262.0375     42.9653
   132.9000     99.3283      0.0000    262.0375     42.9653
   133.0000     99.6554      0.0000    261.8148     43.3526
   133.1000     99.6554      0.0000    261.8148     43.3526
   133.2000     99.6554      0.0000    261.8148     43.3526
   133.3000     98.9067      0.0000    261.5446     44.0252
   133.4000     98.9067      0.0000    261.5446     44.0252
   133.5000     96.8394      0.0000    261.2568     45.0033
   133.6000     96.8394      0.0000    261.2568     45.0033
   133.7000     96.8394      0.0000    261.2568     45.0033
   133.8000     93.6768      0.0000    260.9989     46.1725
   133.9000     93.6768      0.0000    260.9989     46.1725
   134.0000     90.1290      0.0000    260.7937     47.3450
   134.1000     90.1290      0.0000    260.7937     47.3450
   134.2000     90.1290      0.0000    260.7937     47.3450
   134.3000     86.9534      0.0000    260.6347     48.3326
   134.4000     86.9534      0.0000    260.6347     48.3326
   134.5000     84.7238      0.0000    260.5066     49.0143
   134.6000     84.7238      0.0000    260.5066     49.0143
   134.7000     84.7238      0.0000    260.5066     49.0143
   134.8000     83.8099      0.0000    260.4024     49.3643
   134.9000     83.8099      0.0000    260.4024     49.3643
   135.0000     84.2270      0.0000    260.3239     49.4363
   135.1000     84.2270      0.0000    260.3239     49.4363
   135.2000     84.2270      0.0000    260.3239     49.4363
   135.3000     85.7818      0.0000    260.2721     49.3384
   135.4000     85.7818      0.0000    260.2721     49.3384
   135.5000     88.5543      0.0000    260.2404     49.2101
   135.6000     88.5543      0.0000    260.2404     49.2101
   135.7000     88.5543      0.0000    260.2404     49.2101
   135.8000     92.6042      0.0000    260.2187     49.1783
   135.9000     92.6042      0.0000    260.2187     49.1783
   136.0000     96.7924      0.0000    260.2004     49.3043
   136.1000     96.7924      0.0000    260.2004     49.3043
   136.2000     96.7924      0.0000    260.2004     49.3043
   136.3000     98.7297      0.0000    260.1808     49.5735
   136.4000     98.7297      0.0000    260.1808     49.5735
   136.5000     96.8920      0.0000    260.1505     49.9346
   136.6000     96.8920      0.0000    260.1505     49.9346
   136.7000     96.8920      0.0000    260.1505     49.9346
   136.8000     92.5805      0.0000    260.1022     50.3312
   136.9000     92.5805      0.0000    260.1022     50.3312
   137.0000     89.0415      0.0000    260.0413     50.7062
