~Version Information
VERS.                      2.0: CWLS Log ASCII Standard - VERSION 2.0
WRAP.                       NO: One line per depth step
~Well Information Block
STRT.FT               -11.0000: 
STOP.FT              1896.2500: 
STEP.FT                 0.2500: 
NULL.                -999.2500: 
COMP.          Pioneer Natural Resources: COMPANY
WELL.            Summers 21-19: WELL
FLD.           Purgatoire River: FIELD
LOC.           900' FNL & 1950' FWL--: LOCATION
PROV.                 Colorado: PROVINCE
CNTY.               Las Animas: COUNTRY
SRVC.                Patterson: SERVICE COMPANY
DATE.          Thu Oct 20 15:06:00 2005: LOG DATE
UWI.           05 071 08315 00: UNIQUE WELL ID
~Curve Information Block
DEPT.FT            0 000 00 00: Depth
GR.GAPI                       : Gamma Ray
CCL.                          : Casing Collar Locator
TT3.usec                      : CBL 3' Travel Time
AMP3.mV                       : CBL 3' Amplitude
~Parameter Information Block
~A  Depth        GR         CCL         TT3         AMP3    
# ...
   726.0000    144.0417      0.0000    739.1104      3.3305
   726.2500    145.6300      0.0000    736.0010      3.3272
   726.5000    146.9921      0.0000    730.4965      3.3370
   726.7500    147.9088      0.0000    724.0275      3.3570
   727.0000    148.6446      0.0000    718.4022      3.3883
   727.2500    149.6239      0.0000    714.8962      3.4346
   727.5000    150.9550      0.0000    713.8757      3.4939
   727.7500    152.0993      0.0000    715.1704      3.5542
   728.0000    152.2010      0.0000    718.4128      3.6021
   728.2500    151.0008      0.0000    722.8564      3.6355
   728.5000    149.1674      0.0000    727.2463      3.6663
   728.7500    147.2543      0.0000    730.3522      3.7060
   729.0000    144.4999      0.0000    731.6013      3.7511
   729.2500    139.2580      0.0000    731.0494      3.7852
   729.5000    130.8663      0.0000    729.0946      3.7939
   729.7500    120.9777      0.0000    726.4293      3.7759
   730.0000    112.9486      0.0000    723.7480      3.7407
   730.2500    109.8132      0.0000    721.2029      3.6977
   730.5000    112.5670      0.0000    718.5305      3.6490
   730.7500    119.9520      0.0000    715.7646      3.5916
   731.0000    129.4385      0.0000    713.4443      3.5282
   731.2500    138.2234      0.0000    712.1799      3.4734
   731.5000    143.9132      0.0000    712.4025      3.4436
   731.7500    145.5574      0.0000    714.5031      3.4415
   732.0000    144.6257      0.0000    718.7700      3.4549
   732.2500    144.2186      0.0000    724.8682      3.4670
   732.5000    146.4374      0.0000    731.4528      3.4642
   732.7500    150.3348      0.0000    736.5881      3.4397
   733.0000    152.5447      0.0000    738.7378      3.3995
   733.2500    150.1000      0.0000    737.5683      3.3630
   733.5000    142.9052      0.0000    734.1511      3.3493
   733.7500    133.7203      0.0000    730.5039      3.3622
   734.0000    125.9700      0.0000    728.5369      3.3900
   734.2500    121.5769      0.0000    729.0541      3.4169
   734.5000    120.5752      0.0000    731.6112      3.4313
   734.7500    122.3286      0.0000    735.1010      3.4259
   735.0000    126.6629      0.0000    738.3975      3.3952
   735.2500    133.4962      0.0000    740.7917      3.3373
   735.5000    141.5518      0.0000    742.1653      3.2609
   735.7500    148.2277      0.0000    742.8159      3.1884
   736.0000    151.2978      0.0000    743.1107      3.1439
   736.2500    150.5399      0.0000    743.2777      3.1338
   736.5000    147.5086      0.0000    743.3996      3.1427
   736.7500    144.0461      0.0000    743.4776      3.1495
   737.0000    141.1927      0.0000    743.4774      3.1461
   737.2500    139.1251      0.0000    743.3665      3.1386
   737.5000    137.5761      0.0000    743.1440      3.1374
   737.7500    136.1489      0.0000    742.8572      3.1468
   738.0000    134.5344      0.0000    742.5798      3.1618
   738.2500    132.8371      0.0000    742.3633      3.1713
   738.5000    131.7193      0.0000    742.2040      3.1663
   738.7500    131.9197      0.0000    742.0660      3.1487
   739.0000    133.3804      0.0000    741.9600      3.1320
   739.2500    134.8496      0.0000    742.0433      3.1319
   739.5000    134.4587      0.0000    742.6737      3.1538
   739.7500    130.8503      0.0000    744.2654      3.1902
   740.0000    124.1095      0.0000    746.8521      3.2294
   740.2500    115.9195      0.0000    749.6776      3.2650
   740.5000    108.6472      0.0000    751.4605      3.2968
   740.7500    103.8165      0.0000    751.3709      3.3271
   741.0000    101.2737      0.0000    749.6851      3.3589
   741.2500     99.8019      0.0000    747.3263      3.3968
   741.5000     98.3215      0.0000    744.8953      3.4456
   741.7500     96.3890      0.0000    742.3406      3.5058
   742.0000     94.0053      0.0000    739.5324      3.5713
   742.2500     91.4673      0.0000    736.9703      3.6330
   742.5000     89.4283      0.0000    735.6536      3.6846
   742.7500     88.7700      0.0000    736.0962      3.7264
   743.0000     89.9677      0.0000    737.6923      3.7612
   743.2500     92.4075      0.0000    739.2927      3.7846
   743.5000     94.5799      0.0000    740.2514      3.7789
   743.7500     95.1915      0.0000    740.7072      3.7180
   744.0000     94.1487      0.0000    741.0391      3.5830
   744.2500     92.3950      0.0000    741.3102      3.3760
   744.5000     90.7849      0.0000    741.2540      3.1161
   744.7500     89.2323      0.0000    740.6946      2.8284
   745.0000     86.9754      0.0000    739.8927      2.5456
   745.2500     83.5537      0.0000    739.4614      2.3102
   745.5000     79.6033      0.0000    739.8032      2.1538
   745.7500     76.8835      0.0000    740.6090      2.0742
   746.0000     77.3072      2.0000    741.1664      2.0447
   746.2500     81.3550      0.0000    741.5549      2.0457
   746.5000     87.2669      0.0000    743.2363      2.0861
   746.7500     92.1304      0.0000    747.4838      2.1989
   747.0000     93.9505      0.0000    753.0331      2.4122
   747.2500     92.6682      0.0000    756.4057      2.7104
   747.5000     89.4808      0.0000    755.2199      3.0269
   747.7500     85.6523      0.0000    750.4738      3.2871
   748.0000     81.8845      0.0000    745.1647      3.4593
   748.2500     78.2634      0.0000    741.4685      3.5564
   748.5000     74.5670      0.0000    739.6907      3.6042
   748.7500     70.7350      0.0000    739.1127      3.6205
   749.0000     67.0677      0.0000    739.0150      3.6159
   749.2500     63.9874      0.0000    739.0436      3.5978
   749.5000     61.7394      0.0000    739.1304      3.5718
   749.7500     60.3310      0.0000    739.3576      3.5409
   750.0000     59.6446      0.0000    739.8411      3.5068
   750.2500     59.6710      0.0000    740.6435      3.4711
   750.5000     60.6573      0.0000    741.6940      3.4371
   750.7500     62.9019      0.0000    742.7687      3.4088
   751.0000     66.3039      0.0000    743.5616      3.3923
   751.2500     70.1093      0.0000    743.8167      3.3937
   751.5000     73.1274      0.0000    743.4384      3.4145
   751.7500     74.3060      0.0000    742.5251      3.4488
   752.0000     73.3351      0.0000    741.3259      3.4829
   752.2500     70.7732      0.0000    740.1572      3.4974
   752.5000     67.4800      0.0000    739.3141      3.4751
   752.7500     64.0145      0.0000    738.9825      3.4125
   753.0000     60.8533      0.0000    739.1647      3.3256
   753.2500     59.0671      0.0000    739.6583      3.2407
   753.5000     60.1459      0.0000    740.1453      3.1787
   753.7500     64.8327      0.0000    740.3790      3.1476
   754.0000     72.5210      0.0000    740.3330      3.1474
   754.2500     82.1015      0.0000    740.1625      3.1736
   754.5000     93.0404      0.0000    740.0181      3.2147
   754.7500    105.2439      0.0000    739.8947      3.2523
   755.0000    117.8915      0.0000    739.5946      3.2712
   755.2500    128.8051      0.0000    738.7012      3.2732
   755.5000    135.5760      0.0000    736.5646      3.2770
   755.7500    137.6313      0.0000    732.5604      3.3024
   756.0000    136.9223      0.0000    726.7086      3.3522
   756.2500    136.4752      0.0000    720.0722      3.4105
   756.5000    138.5237      0.0000    714.2503      3.4576
   756.7500    143.4628      0.0000    710.3079      3.4825
   757.0000    149.5052      0.0000    708.2418      3.4822
   757.2500    153.5153      0.0000    707.3737      3.4556
   757.5000    153.3711      0.0000    707.0147      3.4049
   757.7500    149.8663      0.0000    706.7758      3.3419
   758.0000    145.7339      0.0000    706.5265      3.2857
   758.2500    142.8139      0.0000    706.2667      3.2523
   758.5000    140.8198      0.0000    706.0400      3.2489
   758.7500    138.8186      0.0000    705.8939      3.2748
   759.0000    136.9084      0.0000    705.8733      3.3266
   759.2500    135.8635      0.0000    706.0236      3.3969
