~Version Information
VERS.                      2.0: CWLS Log ASCII Standard - VERSION 2.0
WRAP.                       NO: One line per depth step
~Well Information Block
STRT.FT                -7.5000: 
STOP.FT              2304.7500: 
STEP.FT                 0.2500: 
NULL.                -999.2500: 
COMP.          Pioneer Natural Resources: COMPANY
WELL.          Foothills 12-36: WELL
FLD.           Purgatorie River: FIELD
LOC.           2450' FNL & 201' FWL--: LOCATION
PROV.                       CO: PROVINCE
CNTY.               Las Animas: COUNTRY
SRVC.          Patterson Wireline: SERVICE COMPANY
DATE.          Tue Apr 26 11:10:08 2005: LOG DATE
UWI.           05 071 08339 00: UNIQUE WELL ID
~Curve Information Block
DEPT.FT            0 000 00 00: Depth
CCL.                          : Casing Collar Locator
TT3.usec                      : CBL 3' Travel Time
AMP3.mV                       : CBL 3' Amplitude
GR.GAPI                       : Gamma Ray
~Parameter Information Block
~A  Depth       CCL         TT3         AMP3         GR     
# ...
   160.0000      0.0000    866.4318      7.3342     38.1615
   160.2500      0.0000    866.8852      7.4201     39.5303
   160.5000      0.0000    863.7102      7.5137     42.0050
   160.7500      0.0000    857.7570      7.5680     45.5887
   161.0000      0.0000    853.0824      7.5192     49.3186
   161.2500      0.0000    855.2893      7.3118     51.4316
   161.5000      0.0000    867.9122      6.9482     50.7619
   161.7500      0.0000    888.7182      6.5170     47.8033
   162.0000      0.0000    910.4142      6.1458     44.2707
   162.2500      0.0000    926.4655      5.9174     41.8606
   162.5000     -2.0000    935.4006      5.8345     41.4232
   162.7500     -2.0000    938.4829      5.8532     42.8095
   163.0000      2.0000    935.2805      5.9240     45.1111
   163.2500      0.0000    924.5082      6.0172     47.2487
   163.5000      0.0000    909.0044      6.1371     48.7777
   163.7500      0.0000    896.6305      6.3081     50.2493
   164.0000      0.0000    894.5623      6.5285     52.5813
   164.2500      0.0000    903.6207      6.7541     56.1182
   164.5000      0.0000    918.0426      6.9491     60.4441
   164.7500      0.0000    929.3422      7.1269     64.8317
   165.0000      0.0000    931.0919      7.3135     68.5181
   165.2500      0.0000    922.8242      7.4981     70.8128
   165.5000      0.0000    910.2802      7.6459     71.4403
   165.7500      0.0000    901.3765      7.7322     70.8903
   166.0000      0.0000    901.5118      7.7486     70.1977
   166.2500      0.0000    911.4432      7.7011     70.2182
   166.5000      0.0000    927.2350      7.6125     71.0683
   166.7500      0.0000    941.6820      7.5109     72.3213
   167.0000      0.0000    947.6869      7.4113     73.6752
   167.2500      0.0000    942.1832      7.3185     75.1829
   167.5000      0.0000    927.7536      7.2436     76.8318
   167.7500      0.0000    910.5532      7.2034     78.2989
   168.0000      0.0000    896.0793      7.2008     79.3666
   168.2500      0.0000    886.2751      7.2168     80.3513
   168.5000      0.0000    880.2130      7.2284     81.8359
   168.7500      0.0000    876.6935      7.2324     84.1161
   169.0000      0.0000    875.5516      7.2435     87.0903
   169.2500      0.0000    876.8914      7.2694     90.4767
   169.5000      0.0000    880.0986      7.2960     93.7673
   169.7500      0.0000    884.0480      7.2996     95.9768
   170.0000      0.0000    887.6450      7.2725     95.8493
   170.2500      0.0000    890.0105      7.2334     92.8198
   170.5000      0.0000    891.1205      7.2146     87.8758
   170.7500      0.0000    892.9386      7.2337     83.0378
   171.0000      0.0000    898.6061      7.2764     79.5741
   171.2500      0.0000    908.6439      7.3102     76.8660
   171.5000      0.0000    918.1570      7.3188     73.3349
   171.7500      0.0000    919.6758      7.3192     68.3891
   172.0000      0.0000    909.8234      7.3466     63.2860
   172.2500      0.0000    892.7827      7.4231     60.2196
   172.5000      0.0000    876.6796      7.5408     60.7138
   172.7500      0.0000    866.8215      7.6657     64.6567
   173.0000      0.0000    862.8350      7.7575     70.3478
   173.2500      0.0000    861.6781      7.7935     75.1930
   173.5000      0.0000    861.8773      7.7830     76.7618
   173.7500      0.0000    864.0963      7.7622     74.0297
   174.0000      0.0000    868.6781      7.7705     68.0300
   174.2500      0.0000    874.2268      7.8270     61.1641
   174.5000      0.0000    878.7569      7.9198     55.6619
   174.7500      0.0000    881.2883      8.0112     52.4584
   175.0000      0.0000    882.0648      8.0592     51.1480
   175.2500      0.0000    881.8181      8.0495     50.7401
   175.5000      0.0000    881.1940      8.0103     50.5502
   175.7500      0.0000    880.5967      7.9893     50.5703
   176.0000      0.0000    880.1951      8.0107     51.1066
   176.2500      0.0000    879.9697      8.0555     52.2616
   176.5000      0.0000    879.8248      8.0836     53.8862
   176.7500      0.0000    879.7015      8.0698     55.6782
   177.0000      0.0000    879.5689      8.0222     57.0746
   177.2500      0.0000    879.2734      7.9698     57.4570
   177.5000      0.0000    878.3676      7.9379     56.7740
   177.7500      0.0000    876.1147      7.9332     55.5509
   178.0000      0.0000    871.9268      7.9474     54.0758
   178.2500      0.0000    866.0361      7.9639     52.1283
   178.5000      0.0000    859.5173      7.9606     49.7700
   178.7500      0.0000    853.2562      7.9151     47.8387
   179.0000      0.0000    847.2360      7.8173     47.3521
   179.2500      0.0000    841.5976      7.6784     48.7348
   179.5000      0.0000    838.1549      7.5289     51.6556
   179.7500      0.0000    839.6620      7.4071     55.3220
   180.0000      0.0000    847.0308      7.3393     59.0345
   180.2500      0.0000    857.8481      7.3226     62.7663
   180.5000      0.0000    868.1243      7.3281     67.0462
   180.7500      0.0000    875.2161      7.3236     71.9094
   181.0000      0.0000    878.9073      7.2926     76.1809
   181.2500      0.0000    880.3712      7.2331     78.3849
   181.5000      0.0000    880.8105      7.1519     78.4226
   181.7500      0.0000    880.9214      7.0676     77.9813
   182.0000      0.0000    880.9905      7.0086     79.1154
   182.2500      0.0000    881.0970      6.9973     82.3054
   182.5000      0.0000    881.2441      7.0365     85.7722
   182.7500      0.0000    881.4131      7.1129     86.7882
   183.0000      0.0000    881.5699      7.2073     83.9408
   183.2500      0.0000    881.6691      7.2982     78.3052
   183.5000      0.0000    881.6714      7.3593     72.5262
   183.7500      0.0000    881.5562      7.3671     68.7770
   184.0000      0.0000    881.3112      7.3176     67.4782
   184.2500      0.0000    880.9292      7.2377     67.7211
   184.5000      0.0000    880.4333      7.1741     68.4764
   184.7500      0.0000    879.9031      7.1644     69.1846
   185.0000      0.0000    879.4545      7.2131     69.6766
   185.2500      0.0000    879.1895      7.2935     70.1659
   185.5000      0.0000    879.1687      7.3709     71.2441
   185.7500      0.0000    879.4460      7.4224     73.2887
   186.0000      0.0000    880.1776      7.4402     75.7731
   186.2500      0.0000    881.7452      7.4249     77.7888
   186.5000      0.0000    884.7056      7.3860     79.5281
   186.7500      0.0000    889.3333      7.3437     82.3924
   187.0000      0.0000    894.8807      7.3247     86.9879
   187.2500      0.0000    899.2834      7.3493     91.7830
   187.5000      0.0000    899.6284      7.4237     94.6355
   187.7500      0.0000    892.9419      7.5401     95.1056
   188.0000      0.0000    877.5019      7.6791     94.4361
   188.2500      0.0000    855.5781      7.8142     93.6502
   188.5000      0.0000    835.4755      7.9192     92.5585
   188.7500      0.0000    828.1518      7.9743     90.6886
   189.0000      0.0000    838.9202      7.9697     88.6213
   189.2500      0.0000    862.4046      7.9097     87.9796
   189.5000      0.0000    886.4664      7.8143     89.8911
   189.7500      0.0000    900.6805      7.7119     93.6011
   190.0000      0.0000    901.3257      7.6255     96.9878
   190.2500      0.0000    890.8524      7.5607     98.5130
   190.5000      0.0000    874.8834      7.5082     98.4949
   190.7500      0.0000    859.0189      7.4548     98.5300
   191.0000      0.0000    846.4848      7.3914     99.8703
   191.2500      0.0000    837.8752      7.3141    102.3675
   191.5000      0.0000    832.7836      7.2252    104.9307
   191.7500      0.0000    831.1553      7.1326    106.8985
   192.0000      0.0000    833.0543      7.0461    108.7027
   192.2500      0.0000    837.9713      6.9730    111.1363
   192.5000      0.0000    844.7341      6.9186    114.1363
   192.7500      0.0000    851.5824      6.8869    116.2627
   193.0000      0.0000    856.2737      6.8789    115.4518
   193.2500      0.0000    857.1292      6.8885    110.6783
