~Version Information
VERS.                      2.0: CWLS Log ASCII Standard - VERSION 2.0
WRAP.                       NO: One line per depth step
~Well Information Block
STRT.FT               430.0000: 
STOP.FT              2417.0000: 
STEP.FT                 0.1000: 
NULL.                -999.2500: 
COMP.          Evergreen Operating Corporation: COMPANY
WELL.          McCullough 34-32: WELL
FLD.           Purgatorie River: FIELD
LOC.           261' FSL & 2098' FEL: LOCATION
PROV.                 Colorado: PROVINCE
CNTY.               Las Animas: COUNTRY
SRVC.                Patterson: SERVICE COMPANY
DATE.          Mon May 17 11:25:23 2004: LOG DATE
UWI.           05 071 07953 00: UNIQUE WELL ID
~Curve Information Block
DEPT.FT            0 000 00 00: Depth
DCAL.in                       : CDL Caliper
RHOB.g/cc                     : CDL Bulk Density
RHOC.g/cc                     : CDL Density Correction
DPOR.pu                       : CDL Density Porosity
NPOR.pu                       : Neutron Porosity
GR.GAPI                       : Gamma Ray
~Parameter Information Block
~A  Depth       DCAL        RHOB        RHOC        DPOR        NPOR         GR     
# ...
   823.6000      8.4135      2.4951      0.0515      9.3856     14.8028     45.6610
   823.7000      8.4135      2.5047      0.0843      8.8031     15.6994     46.9522
   823.8000      8.4098      2.5233      0.0781      7.6769     16.8595     45.4567
   823.9000      8.4098      2.5383      0.0856      6.7688     18.0615     44.2008
   824.0000      8.4082      2.5397      0.0815      6.6879     19.3956     48.4161
   824.1000      8.4082      2.5280      0.0401      7.3965     21.0754     60.0472
   824.2000      8.4082      2.5196      0.0257      7.9059     23.0075     74.6582
   824.3000      8.4013      2.5321      0.0363      7.1427     24.7703     90.1414
   824.4000      8.4013      2.5632      0.0479      5.2580     25.8028    106.3220
   824.5000      8.4064      2.5880      0.0318      3.7600     26.0600    121.1709
   824.6000      8.4064      2.5849      0.0413      3.9446     26.4403    132.5740
   824.7000      8.4064      2.5629     -0.0056      5.2767     27.5235    140.1002
   824.8000      8.4081      2.5444      0.0142      6.3977     28.8405    144.5443
   824.9000      8.4081      2.5282      0.0297      7.3793     29.8555    145.0308
   825.0000      8.4033      2.5013      0.0372      9.0115     30.5837    140.8351
   825.1000      8.4033      2.4619      0.0270     11.3976     31.3520    136.0844
   825.2000      8.4033      2.4081     -0.0069     14.6629     32.2734    135.5858
   825.3000      8.3678      2.3324     -0.0136     19.2475     32.9967    142.4957
   825.4000      8.3678      2.2378     -0.0525     24.9793     33.3089    156.3068
   825.5000      8.4135      2.1480     -0.1060     30.4264     33.3275    163.7185
   825.6000      8.4135      2.0913     -0.1022     33.8623     33.0240    158.1859
   825.7000      8.4135      2.0755     -0.0395     34.8153     32.4647    152.2632
   825.8000      8.4086      2.0910     -0.0303     33.8774     31.6738    153.4104
   825.9000      8.4086      2.1266     -0.0173     31.7208     30.6952    156.5785
   826.0000      8.4046      2.1694      0.0814     29.1299     29.9012    156.7339
   826.1000      8.4046      2.2098      0.1063     26.6767     29.4528    151.1751
   826.2000      8.4046      2.2518      0.1568     24.1320     29.0103    139.4930
   826.3000      8.3926      2.2981      0.1811     21.3274     28.4180    131.4458
   826.4000      8.3926      2.3425      0.1584     18.6389     28.0674    136.4735
   826.5000      8.3858      2.3781      0.1122     16.4775     28.2642    147.5507
   826.6000      8.3858      2.3945      0.0684     15.4835     28.8850    151.0455
   826.7000      8.3858      2.3818      0.0076     16.2534     29.8024    146.3246
   826.8000      8.3834      2.3477     -0.0534     18.3214     30.8823    140.4975
   826.9000      8.3834      2.3068     -0.0704     20.7970     31.7482    138.1091
   827.0000      8.3832      2.2599     -0.0713     23.6423     32.3507    140.6127
   827.1000      8.3832      2.1946     -0.0534     27.5974     33.0393    143.7979
   827.2000      8.3832      2.1074     -0.1030     32.8820     33.7848    143.3307
   827.3000      8.3841      2.0096     -0.0943     38.8111     34.3343    137.0016
   827.4000      8.3841      1.9143     -0.1547     44.5865     34.7385    128.0149
   827.5000      8.3813      1.8350     -0.1601     49.3944     34.8777    121.8510
   827.6000      8.3813      1.7809     -0.1090     52.6716     34.5592    117.5846
   827.7000      8.3813      1.7609     -0.0529     53.8836     34.0377    115.4883
   827.8000      8.3580      1.7832      0.0198     52.5350     33.7291    117.0472
   827.9000      8.3580      1.8426      0.0865     48.9334     33.6113    115.3648
   828.0000      8.3404      1.9236      0.1769     44.0243     33.1657    107.4223
   828.1000      8.3404      2.0084      0.2364     38.8825     32.2189    101.2602
   828.2000      8.3404      2.0894      0.2469     33.9742     31.2354    102.8505
   828.3000      8.3312      2.1674      0.2644     29.2497     30.8104    110.8074
   828.4000      8.3312      2.2316      0.2732     25.3566     30.8967    121.1722
   828.5000      8.3320      2.2682      0.2156     23.1396     30.9341    130.5437
   828.6000      8.3320      2.2791      0.1625     22.4777     30.8661    135.2179
   828.7000      8.3320      2.2744      0.0885     22.7608     30.7783    136.2074
   828.8000      8.3271      2.2669      0.0224     23.2168     30.6807    136.8596
   828.9000      8.3271      2.2693     -0.0315     23.0721     30.8304    138.3160
   829.0000      8.3265      2.2859     -0.0357     22.0690     30.9986    139.7627
   829.1000      8.3265      2.3158      0.0056     20.2538     30.5148    138.9174
   829.2000      8.3265      2.3583      0.0657     17.6811     29.3445    135.4440
   829.3000      8.3332      2.4006      0.1492     15.1142     28.2232    133.2661
   829.4000      8.3332      2.4249      0.1474     13.6443     27.5305    132.5694
   829.5000      8.3338      2.4391      0.1134     12.7788     26.5592    129.0614
   829.6000      8.3338      2.4594      0.1638     11.5505     24.9215    124.1609
   829.7000      8.3338      2.4765      0.1237     10.5132     23.5688    121.3203
   829.8000      8.3321      2.4837      0.0604     10.0780     23.2095    118.2830
   829.9000      8.3321      2.4940      0.0091      9.4558     23.2406    112.2453
   830.0000      8.3378      2.5133      0.0541      8.2834     22.9385    105.0262
   830.1000      8.3378      2.5347      0.0623      6.9889     22.5130     98.6783
   830.2000      8.3378      2.5590      0.0600      5.5130     22.3050     94.8070
   830.3000      8.3326      2.5866      0.1318      3.8407     22.1604     95.0606
   830.4000      8.3326      2.6068      0.1301      2.6184     22.0226    101.3567
   830.5000      8.3279      2.6190      0.1250      1.8805     22.0625    112.0018
   830.6000      8.3279      2.6377      0.1030      0.7460     22.2073    115.7967
   830.7000      8.3279      2.6687      0.2068     -1.1314     22.4920    108.9254
   830.8000      8.3053      2.6929      0.2145     -2.6009     22.9011    101.0156
   830.9000      8.3053      2.6940      0.1839     -2.6678     22.8432     97.6528
   831.0000      8.3014      2.6856      0.1284     -2.1548     22.3252     98.7666
   831.1000      8.3014      2.6894      0.0915     -2.3861     22.0546    104.6016
   831.2000      8.3014      2.6981      0.0938     -2.9127     22.2417    110.3964
   831.3000      8.3069      2.6901      0.0717     -2.4315     22.5853    111.3953
   831.4000      8.3069      2.6712      0.0196     -1.2861     22.8170    109.4578
   831.5000      8.3059      2.6561      0.0402     -0.3696     22.7100    107.0413
   831.6000      8.3059      2.6362      0.0036      0.8388     22.1763    107.1561
   831.7000      8.3059      2.6066      0.0179      2.6297     21.6977    112.2931
   831.8000      8.3058      2.5835     -0.0100      4.0321     21.6556    119.1388
   831.9000      8.3058      2.5802     -0.0065      4.2295     21.8012    123.1347
   832.0000      8.3113      2.5929      0.0159      3.4630     21.7464    123.4300
   832.1000      8.3113      2.6069      0.0643      2.6095     21.4620    122.8646
   832.2000      8.3113      2.6116      0.0531      2.3247     21.0994    122.8603
   832.3000      8.3078      2.6098      0.0655      2.4345     20.6568    122.0991
   832.4000      8.3078      2.6087      0.0644      2.5046     20.0990    121.7740
   832.5000      8.3336      2.6188      0.0273      1.8896     19.5659    123.2018
   832.6000      8.3336      2.6434      0.0989      0.4000     19.0997    120.8757
   832.7000      8.3336      2.6639      0.1411     -0.8432     18.5738    112.5885
   832.8000      8.3176      2.6702      0.1238     -1.2222     18.3164    105.2819
   832.9000      8.3176      2.6722      0.1287     -1.3433     18.7214    104.6089
   833.0000      8.3308      2.6743      0.1247     -1.4718     19.3952    109.2099
   833.1000      8.3308      2.6690      0.1047     -1.1545     19.6535    114.2710
