~Version Information
VERS.                      2.0: CWLS Log ASCII Standard - VERSION 2.0
WRAP.                       NO: One line per depth step
~Well Information Block
STRT.FT                -6.7500: 
STOP.FT              2058.2500: 
STEP.FT                 0.2500: 
NULL.                -999.2500: 
COMP.          Petrogulf Corporation: COMPANY
WELL.           Schedler 9-23R: WELL
FLD.           Purgatorie River: FIELD
LOC.           2084' FSL & 2331' FWL--: LOCATION
PROV.                       CO: PROVINCE
CNTY.               Las Animas: COUNTRY
SRVC.                         : SERVICE COMPANY
DATE.          Fri Nov 12 13:22:46 2004: LOG DATE
UWI.       005 071 08040 : UNIQUE WELL ID
~Curve Information Block
DEPT.FT            0 000 00 00: Depth
GR.GAPI                       : Gamma Ray
CCL.                          : Casing Collar Locator
TT3.usec                      : CBL 3' Travel Time
AMP3.mV                       : CBL 3' Amplitude
~Parameter Information Block
~A  Depth        GR         CCL         TT3         AMP3    
# ...
   529.2500    104.9626      0.0000    900.6193     17.3887
   529.5000    103.3281      0.0000    899.8994     17.3627
   529.7500    101.6890      0.0000    902.9487     17.3149
   530.0000     99.9797      0.0000    908.6603     17.1683
   530.2500     98.2887      0.0000    914.0494     16.8812
   530.5000     97.1858      0.0000    916.5024     16.4762
   530.7500     96.9976      0.0000    913.9868     16.0098
   531.0000     96.8732      0.0000    903.8216     15.5185
   531.2500     95.2206      0.0000    883.1619     15.0077
   531.5000     91.3832      0.0000    852.5591     14.4824
   531.7500     86.5538      0.0000    819.1533     13.9687
   532.0000     82.8239      0.0000    793.9291     13.5027
   532.2500     81.5932      0.0000    783.3931     13.1131
   532.5000     83.0480      0.0000    784.3707     12.8186
   532.7500     86.5110      0.0000    788.2064     12.6314
   533.0000     90.7283      0.0000    788.7582     12.5570
   533.2500     94.3592      0.0000    784.8422     12.5915
   533.5000     96.8739      0.0000    776.9883     12.7204
   533.7500     98.8591      0.0000    765.2162     12.9292
   534.0000    101.1951      0.0000    750.7474     13.2241
   534.2500    104.0164      0.0000    738.1854     13.6301
   534.5000    106.3955      0.0000    734.1227     14.1451
   534.7500    106.9004      0.0000    742.9385     14.7019
   535.0000    104.6946      0.0000    764.2041     15.2001
   535.2500    100.3906      0.0000    793.7659     15.5830
   535.5000     95.8739      0.0000    826.1275     15.8767
   535.7500     93.2734      0.0000    855.7604     16.1645
   536.0000     93.8629      0.0000    878.1749     16.5341
   536.2500     97.4156      0.0000    890.8023     17.0352
   536.5000    102.3413      0.0000    891.7931     17.6660
   536.7500    106.6509      0.0000    877.1086     18.3962
   537.0000    109.0583      0.0000    840.3508     19.1980
   537.2500    109.3792      0.0000    779.0491     20.0309
   537.5000    108.1329      0.0000    704.0746     20.7966
   537.7500    105.8372      0.0000    639.7691     21.3507
   538.0000    102.7112      0.0000    607.7711     21.5884
   538.2500     99.1616      0.0000    610.1708     21.5077
   538.5000     96.2503      0.0000    633.7023     21.1865
   538.7500     95.1866      0.0000    667.2075     20.7341
   539.0000     96.3855      0.0000    706.6572     20.2850
   539.2500     99.1409      0.0000    746.9444     19.9909
   539.5000    101.8698      0.0000    779.6654     19.9479
   539.7500    102.7237      0.0000    799.3627     20.1198
   540.0000    100.8541      0.0000    806.0643     20.3631
   540.2500     97.4734      0.0000    801.1893     20.5329
   540.5000     94.9498      0.0000    785.0645     20.5594
   540.7500     94.3978      0.0000    760.7139     20.4371
   541.0000     94.4987      0.0000    738.4802     20.1653
   541.2500     92.9831      0.0000    731.7333     19.7096
   541.5000     89.1324      0.0000    744.7043     19.0276
   541.7500     84.6277      0.0000    767.3650     18.1344
   542.0000     82.0218      0.0000    785.3384     17.1254
   542.2500     82.4846      0.0000    792.4082     16.1310
   542.5000     84.8900      0.0000    792.5060     15.2580
   542.7500     86.8972      0.0000    793.8369     14.5550
   543.0000     86.9452      0.0000    803.4309     13.9952
   543.2500     85.2859      0.0000    823.9866     13.5087
   543.5000     83.2830      0.0000    852.1759     13.0650
   543.7500     82.0708      0.0000    880.2400     12.6979
   544.0000     81.9957      0.0000    901.2369     12.4219
   544.2500     82.9336     -2.0000    912.9709     12.1722
   544.5000     84.6061      2.0000    917.0602     11.8848
   544.7500     86.4733      0.0000    915.3135     11.6136
   545.0000     87.7539      0.0000    907.7646     11.5337
   545.2500     87.9481      0.0000    893.9311     11.8260
   545.5000     87.2516      0.0000    875.3423     12.5470
   545.7500     86.3189      0.0000    855.7382     13.5719
   546.0000     85.7662      0.0000    838.0593     14.6535
   546.2500     85.8070      0.0000    822.3478     15.5684
   546.5000     86.0019      0.0000    807.9033     16.2079
   546.7500     85.5784      0.0000    796.1282     16.5467
   547.0000     84.5911      0.0000    789.4242     16.6013
   547.2500     84.5340      0.0000    787.9449     16.4605
   547.5000     86.9550      0.0000    788.9540     16.2978
   547.7500     91.3728      0.0000    789.3835     16.2911
   548.0000     95.2602      0.0000    788.2004     16.5137
   548.2500     96.3982      0.0000    786.1343     16.9020
   548.5000     94.9730      0.0000    784.1024     17.3201
   548.7500     93.2180      0.0000    782.7239     17.6502
   549.0000     93.1822      0.0000    782.7299     17.8472
   549.2500     94.8151      0.0000    784.6917     17.9299
   549.5000     95.9909      0.0000    788.2713     17.9346
   549.7500     94.4459      0.0000    792.3009     17.8775
   550.0000     89.8963      0.0000    795.6488     17.7718
   550.2500     84.2615      0.0000    797.9004     17.6682
   550.5000     79.9123      0.0000    799.1849     17.6466
   550.7500     77.9388      0.0000    799.2839     17.7449
   551.0000     78.0118      0.0000    797.2254     17.9046
   551.2500     79.3100      0.0000    792.2886     18.0042
   551.5000     81.0576      0.0000    785.2469     17.9550
   551.7500     82.3997      0.0000    778.0120     17.7753
   552.0000     82.4465      0.0000    771.7167     17.5848
   552.2500     80.9061      0.0000    764.7518     17.5336
   552.5000     78.4910      0.0000    751.5559     17.7201
   552.7500     76.1654      0.0000    723.0023     18.1445
   553.0000     74.0548      0.0000    670.9352     18.7151
   553.2500     71.7748      0.0000    597.2028     19.2940
   553.5000     69.7113      0.0000    520.3264     19.7480
   553.7500     69.0436      0.0000    470.3621     19.9803
   554.0000     70.3218      0.0000    472.3092     19.9490
   554.2500     72.6981      0.0000    529.9151     19.6847
   554.5000     74.7494      0.0000    622.3649     19.2933
   554.7500     75.6219      0.0000    716.6869     18.9219
   555.0000     75.4447      0.0000    786.2786     18.7005
   555.2500     75.1161      0.0000    821.3506     18.6897
   555.5000     75.6497      0.0000    826.7249     18.8621
   555.7500     77.3054      0.0000    814.3793     19.1210
   556.0000     79.3720      0.0000    797.5848     19.3440
   556.2500     81.0529      0.0000    786.6038     19.4286
   556.5000     82.4646      0.0000    785.2426     19.3323
   556.7500     84.6125      0.0000    790.3362     19.1063
   557.0000     88.5735      0.0000    794.7589     18.8937
   557.2500     94.6897      0.0000    790.5162     18.8596
   557.5000    102.0499      0.0000    770.2854     19.0827
   557.7500    108.7448      0.0000    729.4844     19.4994
   558.0000    113.1297      0.0000    669.3788     19.9490
   558.2500    114.8369      0.0000    597.4457     20.2827
   558.5000    114.4693      0.0000    524.1877     20.4515
   558.7500    112.9140      0.0000    461.1740     20.5101
   559.0000    111.3301      0.0000    419.6936     20.5465
   559.2500    110.9872      0.0000    404.2223     20.6066
   559.5000    112.3659      0.0000    405.1808     20.6807
   559.7500    114.7990      0.0000    403.6624     20.7510
   560.0000    117.3206      0.0000    387.3329     20.8315
   560.2500    119.3126      0.0000    359.9128     20.9491
   560.5000    120.1116      0.0000    334.4763     21.0927
   560.7500    118.8055      0.0000    321.8653     21.1970
   561.0000    115.1911      0.0000    328.2554     21.1789
   561.2500    110.6382      0.0000    358.9107     20.9984
   561.5000    107.2094      0.0000    416.5312     20.7034
   561.7500    105.7708      0.0000    491.5482     20.4208
   562.0000    105.2778      0.0000    556.9358     20.2866
   562.2500    103.9056      0.0000    580.7665     20.3616
   562.5000    100.6431      0.0000    549.9195     20.6058
