~Version Information
VERS.                      2.0: CWLS Log ASCII Standard - VERSION 2.0
WRAP.                       NO: One line per depth step
~Well Information Block
STRT.FT               710.0000: 
STOP.FT              2304.5000: 
STEP.FT                 0.2500: 
NULL.                -999.2500: 
COMP.          Pioneer Natural Resources: COMPANY
WELL.           Ogallela 44-12: WELL
FLD.           Purgatoire River: FIELD
LOC.           610' FSL & 671' FEL: LOCATION
PROV.                 Colorado: PROVINCE
CNTY.               Las Animas: COUNTRY
SRVC.                Patterson: SERVICE COMPANY
DATE.          Wed Feb 23 00:14:59 2005: LOG DATE
UWI.           05 071 08283 00: UNIQUE WELL ID
~Curve Information Block
DEPT.FT            0 000 00 00: Depth
SN.Ohm-m                      : IEL Short Normal
SP.mV                         : IEL Spontaneous Potential
DIR.Ohm-m                     : IEL Induction Resistivity
GR.GAPI                       : Gamma Ray
~Parameter Information Block
~A  Depth        SN          SP         DIR          GR     
# ...
  1748.5000      8.6451    -12.5059      7.4084    137.7202
  1748.7500      8.6195    -12.5280      7.5684    138.9051
  1749.0000      8.6768    -12.5817      7.7949    139.8736
  1749.2500      8.8432    -12.6705      8.0875    139.9188
  1749.5000      9.1090    -12.7762      8.4404    138.8242
  1749.7500      9.4853    -12.8685      8.8448    137.3956
  1750.0000     10.0128    -12.9197      9.2947    134.6994
  1750.2500     10.7357    -12.9150      9.7906    132.4957
  1750.5000     11.6963    -12.8551     10.3406    127.4301
  1750.7500     12.9463    -12.7531     10.9584    122.1681
  1751.0000     14.5162    -12.6310     11.6621    111.6542
  1751.2500     16.4002    -12.5158     12.4733    103.8073
  1751.5000     18.6229    -12.4318     13.4146     92.3141
  1751.7500     21.2932    -12.3898     14.5035     85.2660
  1752.0000     24.5364    -12.3845     15.7497     75.8446
  1752.2500     28.3253    -12.4033     17.1570     70.4682
  1752.5000     32.3412    -12.4359     18.7277     64.1507
  1752.7500     36.0391    -12.4770     20.4568     61.3205
  1753.0000     38.9459    -12.5237     22.3050     59.2320
  1753.2500     40.9202    -12.5786     24.1692     59.1314
  1753.5000     42.1166    -12.6544     25.8803     60.6706
  1753.7500     42.7591    -12.7750     27.2606     62.8542
  1754.0000     42.9987    -12.9686     28.2067     67.9409
  1754.2500     42.9317    -13.2613     28.7326     72.2683
  1754.5000     42.6038    -13.6762     28.9423     79.0515
  1754.7500     41.9524    -14.2299     28.9670     83.0258
  1755.0000     40.8846    -14.9203     28.9095     87.2241
  1755.2500     39.4698    -15.7128     28.8130     88.6167
  1755.5000     37.9851    -16.5437     28.6578     89.0168
  1755.7500     36.7749    -17.3448     28.3870     88.9430
  1756.0000     36.0844    -18.0705     27.9508     89.9687
  1756.2500     35.9296    -18.7078     27.3414     91.9042
  1756.5000     36.0825    -19.2711     26.5896     96.0380
  1756.7500     36.2595    -19.7859     25.7292     98.5338
  1757.0000     36.3084    -20.2674     24.7656     99.7225
  1757.2500     36.1744    -20.6997     23.6759     97.9372
  1757.5000     35.7916    -21.0299     22.4372     91.5328
  1757.7500     35.0611    -21.1830     21.0581     85.9785
  1758.0000     33.8747    -21.0911     19.5860     78.8483
  1758.2500     32.1265    -20.7205     18.0866     76.5182
  1758.5000     29.7672    -20.0864     16.6149     77.9917
  1758.7500     26.9017    -19.2512     15.2043     82.1046
  1759.0000     23.7727    -18.3125     13.8770     91.4914
  1759.2500     20.6180    -17.3799     12.6573     98.7639
  1759.5000     17.6113    -16.5455     11.5700    109.4860
  1759.7500     14.9040    -15.8592     10.6272    115.8227
  1760.0000     12.6188    -15.3213      9.8212    123.2941
  1760.2500     10.8186    -14.9013      9.1294    126.5205
  1760.5000      9.5013    -14.5676      8.5258    128.3912
  1760.7500      8.5904    -14.3069      7.9907    127.9284
  1761.0000      7.9640    -14.1213      7.5141    126.0704
  1761.2500      7.5172    -14.0125      7.0933    125.2054
  1761.5000      7.1772    -13.9718      6.7290    126.0735
  1761.7500      6.8896    -13.9822      6.4225    128.1004
  1762.0000      6.6258    -14.0240      6.1750    131.3209
  1762.2500      6.3849    -14.0832      5.9868    132.1923
  1762.5000      6.1806    -14.1579      5.8566    131.1724
  1762.7500      6.0281    -14.2549      5.7803    129.9929
  1763.0000      5.9343    -14.3759      5.7505    129.2984
  1763.2500      5.9001    -14.5033      5.7572    129.5242
  1763.5000      5.9242    -14.6046      5.7906    129.2542
  1763.7500      6.0055    -14.6496      5.8432    127.7946
  1764.0000      6.1535    -14.6266      5.9123    123.5730
  1764.2500      6.3834    -14.5468      5.9997    119.9159
  1764.5000      6.6669    -14.4371      6.1102    114.0050
  1764.7500      6.9212    -14.3254      6.2507    110.1189
  1765.0000      7.1213    -14.2252      6.4283    105.0996
  1765.2500      7.3603    -14.1269      6.6507    102.7723
  1765.5000      7.7161    -14.0009      6.9245    101.0563
  1765.7500      8.1497    -13.8140      7.2534    100.7176
  1766.0000      8.5673    -13.5486      7.6348    100.3497
  1766.2500      8.9157    -13.2159      8.0579     99.7646
  1766.5000      9.2109    -12.8541      8.5039     98.3833
  1766.7500      9.4981    -12.5111      8.9495     97.4698
  1767.0000      9.7949    -12.2215      9.3729     96.7818
  1767.2500     10.0832    -11.9933      9.7582     96.9480
  1767.5000     10.3745    -11.8143     10.0966     97.7769
  1767.7500     10.7427    -11.6721     10.3823     98.2797
  1768.0000     11.2180    -11.5654     10.6076     98.4571
  1768.2500     11.6880    -11.4973     10.7593     98.1585
  1768.5000     12.0142    -11.4644     10.8180     97.0264
  1768.7500     12.1938    -11.4575     10.7624     95.6748
  1769.0000     12.2997    -11.4666     10.5778     93.0572
  1769.2500     12.3442    -11.4814     10.2697     91.7405
  1769.5000     12.2498    -11.4953      9.8691     92.2856
  1769.7500     11.8935    -11.5144      9.4230     94.9760
  1770.0000     11.1956    -11.5594      8.9738    102.2695
  1770.2500     10.2116    -11.6541      8.5461    108.6287
  1770.5000      9.1258    -11.8113      8.1477    118.9802
  1770.7500      8.1508    -12.0270      7.7779    125.6358
  1771.0000      7.4325    -12.2826      7.4354    134.2119
  1771.2500      6.9955    -12.5515      7.1203    138.7229
  1771.5000      6.7447    -12.8064      6.8323    143.8809
  1771.7500      6.5654    -13.0261      6.5690    146.5147
  1772.0000      6.4155    -13.2038      6.3277    149.2329
  1772.2500      6.3018    -13.3535      6.1082    149.7963
  1772.5000      6.2283    -13.5108      5.9148    148.0606
  1772.7500      6.1860    -13.7246      5.7537    145.3380
  1773.0000      6.1643    -14.0403      5.6302    140.3718
  1773.2500      6.1657    -14.4831      5.5469    137.6518
  1773.5000      6.1990    -15.0477      5.5044    135.9984
  1773.7500      6.2628    -15.7049      5.5031    136.6556
  1774.0000      6.3444    -16.4222      5.5436    138.9483
  1774.2500      6.4336    -17.1824      5.6257    140.1783
  1774.5000      6.5310    -17.9887      5.7468    140.7230
  1774.7500      6.6417    -18.8587      5.9016    140.7633
  1775.0000      6.7647    -19.8134      6.0835    141.6060
  1775.2500      6.8981    -20.8622      6.2878    142.6110
  1775.5000      7.0489    -21.9877      6.5131    143.3005
  1775.7500      7.2252    -23.1414      6.7621    142.4925
  1776.0000      7.4345    -24.2585      7.0403    139.5365
  1776.2500      7.6990    -25.2807      7.3555    136.9378
  1776.5000      8.0555    -26.1725      7.7178    132.4952
  1776.7500      8.5540    -26.9244      8.1395    129.0063
  1777.0000      9.2622    -27.5447      8.6334    122.8318
  1777.2500     10.2321    -28.0473      9.2119    118.3654
  1777.5000     11.4482    -28.4450      9.8842    112.1159
  1777.7500     12.8473    -28.7494     10.6563    108.7810
  1778.0000     14.3878    -28.9718     11.5312    105.1202
  1778.2500     16.0758    -29.1212     12.5106    103.0544
  1778.5000     17.9428    -29.2023     13.5978     99.4215
  1778.7500     20.0143    -29.2148     14.7996     96.3632
  1779.0000     22.3098    -29.1529     16.1259     90.9159
  1779.2500     24.8937    -29.0072     17.5880     86.7539
  1779.5000     27.8907    -28.7696     19.1954     79.5582
  1779.7500     31.4121    -28.4403     20.9504     74.1321
  1780.0000     35.4979    -28.0345     22.8391     65.5764
  1780.2500     40.0974    -27.5804     24.8175     60.0968
  1780.5000     44.9926    -27.1086     26.7891     52.9624
  1780.7500     49.7751    -26.6380     28.5833     49.1379
  1781.0000     53.9922    -26.1687     29.9693     44.6851
  1781.2500     57.2948    -25.6849     30.7414     42.3510
  1781.5000     59.4844    -25.1628     30.8284     39.5231
  1781.7500     60.5042    -24.5797     30.3126     38.0864
