~Version Information
VERS.                      2.0: CWLS Log ASCII Standard - VERSION 2.0
WRAP.                       NO: One line per depth step
~Well Information Block
STRT.FT               780.0000: 
STOP.FT              1557.5000: 
STEP.FT                 0.1000: 
NULL.                -999.2500: 
COMP.          Pioneer Natural Resources: COMPANY
WELL.          Bunner's 13-26 Tr: WELL
FLD.           Purgatoire River: FIELD
LOC.           1843' FSL & 456' FWL----: LOCATION
PROV.                 Colorado: PROVINCE
CNTY.               Las Animas: COUNTRY
SRVC.                Patterson: SERVICE COMPANY
DATE.          Tue Mar 29 07:41:16 2005: LOG DATE
UWI.           05 071 08331 00: UNIQUE WELL ID
~Curve Information Block
DEPT.FT            0 000 00 00: Depth
DCAL.in                       : CDL Caliper
RHOB.g/cc                     : CDL Bulk Density
RHOC.g/cc                     : CDL Density Correction
DPOR.pu                       : CDL Density Porosity
NPOR.pu                       : Neutron Porosity
GR.GAPI                       : Gamma Ray
~Parameter Information Block
~A  Depth       DCAL        RHOB        RHOC        DPOR        NPOR         GR     
# ...
  1029.6000      7.8802      2.6727     -0.0315     -1.3743     34.0275    109.5649
  1029.7000      7.8802      2.6329     -0.0941      1.0364     34.0514    115.3854
  1029.8000      7.8813      2.6221     -0.1379      1.6886     33.7457    120.4088
  1029.9000      7.8813      2.6282     -0.0403      1.3233     32.5632    125.1422
  1030.0000      7.8799      2.6195     -0.0428      1.8464     30.7631    132.4373
  1030.1000      7.8799      2.5972     -0.0461      3.2025     29.2892    139.0375
  1030.2000      7.8799      2.5838     -0.0029      4.0137     28.2282    140.3111
  1030.3000      7.8771      2.5772      0.0556      4.4103     27.0665    137.8159
  1030.4000      7.8771      2.5641      0.0193      5.2053     25.9917    136.5065
  1030.5000      7.8771      2.5521      0.0286      5.9344     25.2899    138.0458
  1030.6000      7.8771      2.5513      0.0260      5.9836     24.9287    142.4444
  1030.7000      7.8771      2.5628      0.0322      5.2852     24.7238    149.6112
  1030.8000      7.8787      2.5784      0.0679      4.3411     24.6217    155.1337
  1030.9000      7.8787      2.5809      0.0742      4.1906     24.8561    156.1099
  1031.0000      7.8796      2.5679      0.0744      4.9732     25.2295    156.5412
  1031.1000      7.8796      2.5576      0.0434      5.5970     25.4938    157.3600
  1031.2000      7.8796      2.5610      0.0437      5.3925     25.8516    154.0993
  1031.3000      7.8811      2.5667      0.0765      5.0470     26.1000    146.0358
  1031.4000      7.8811      2.5629      0.0330      5.2782     26.0388    137.3429
  1031.5000      7.8808      2.5537      0.0490      5.8336     26.1426    131.9630
  1031.6000      7.8808      2.5405      0.0409      6.6389     26.7986    130.8141
  1031.7000      7.8808      2.5225      0.0146      7.7301     27.5517    133.2581
  1031.8000      7.8783      2.5096      0.0072      8.5068     27.5826    138.2781
  1031.9000      7.8783      2.5152     -0.0042      8.1688     27.1859    142.5073
  1032.0000      7.8760      2.5358      0.0554      6.9221     27.1889    142.8790
  1032.1000      7.8760      2.5445      0.0949      6.3926     27.4484    140.8999
  1032.2000      7.8760      2.5305      0.0291      7.2448     27.4667    138.7849
  1032.3000      7.8739      2.5119      0.0442      8.3726     27.1107    137.9111
  1032.4000      7.8739      2.4996      0.0544      9.1169     26.6226    142.1939
  1032.5000      7.8726      2.4954      0.0438      9.3705     26.2000    152.8046
  1032.6000      7.8726      2.5051      0.0794      8.7838     25.6461    160.3584
  1032.7000      7.8726      2.5246      0.1054      7.5995     25.0537    158.0744
  1032.8000      7.8728      2.5405      0.1071      6.6390     24.8135    152.3616
  1032.9000      7.8728      2.5520      0.0519      5.9392     24.7782    148.6588
  1033.0000      7.8743      2.5632      0.1118      5.2625     24.7715    146.9750
  1033.1000      7.8743      2.5658      0.0912      5.1029     24.9831    145.9884
  1033.2000      7.8743      2.5605      0.0881      5.4231     25.2528    145.5140
  1033.3000      7.8753      2.5600      0.0466      5.4521     25.4258    147.1342
  1033.4000      7.8753      2.5701      0.0726      4.8398     25.7141    148.8717
  1033.5000      7.8758      2.5836      0.0745      4.0253     26.1241    147.4629
  1033.6000      7.8758      2.5913      0.0733      3.5557     26.5492    142.2434
  1033.7000      7.8758      2.5964      0.0604      3.2474     26.9047    135.5160
  1033.8000      7.8768      2.6068      0.0765      2.6154     27.0032    132.8030
  1033.9000      7.8768      2.6205      0.0545      1.7876     26.8614    137.6650
  1034.0000      7.8786      2.6343      0.0426      0.9494     26.7002    144.7037
  1034.1000      7.8786      2.6445      0.0908      0.3313     26.7768    147.2005
  1034.2000      7.8786      2.6381      0.0883      0.7234     27.3735    142.5761
  1034.3000      7.8794      2.6117      0.0361      2.3212     28.2268    132.9823
  1034.4000      7.8794      2.5826      0.0248      4.0826     28.5265    126.3499
  1034.5000      7.8787      2.5682     -0.0207      4.9595     27.9559    127.4757
  1034.6000      7.8787      2.5717      0.0132      4.7476     27.1760    131.7625
  1034.7000      7.8787      2.5891      0.0277      3.6922     27.0451    135.4187
  1034.8000      7.8780      2.6128      0.0160      2.2563     27.5983    141.0256
  1034.9000      7.8780      2.6287      0.0366      1.2924     28.0058    146.5067
  1035.0000      7.8779      2.6286      0.0230      1.3000     27.8899    143.0598
  1035.1000      7.8779      2.6148      0.0755      2.1336     27.9255    134.3175
  1035.2000      7.8779      2.5917      0.0527      3.5326     28.3235    133.0424
  1035.3000      7.8786      2.5701      0.0259      4.8433     28.7463    140.6776
  1035.4000      7.8786      2.5638      0.0192      5.2236     29.0518    148.9779
  1035.5000      7.8784      2.5754      0.0231      4.5227     29.0494    152.2608
  1035.6000      7.8784      2.6021      0.0015      2.9052     28.9393    151.2558
  1035.7000      7.8784      2.6484      0.0354      0.0984     29.0818    146.1272
  1035.8000      7.8784      2.6983      0.1114     -2.9267     29.2798    138.1617
  1035.9000      7.8784      2.7136      0.1373     -3.8534     29.2304    132.6189
  1036.0000      7.8800      2.6859      0.0651     -2.1753     29.1186    131.5117
  1036.1000      7.8800      2.6419      0.0583      0.4906     29.1092    133.0259
  1036.2000      7.8800      2.6005      0.0291      2.9990     29.2425    135.6896
  1036.3000      7.8811      2.5671     -0.0078      5.0224     29.5109    138.4256
  1036.4000      7.8811      2.5432      0.0086      6.4742     29.7390    141.8020
  1036.5000      7.8817      2.5245     -0.0342      7.6041     29.5888    146.0132
  1036.6000      7.8817      2.5097     -0.0020      8.5028     28.5544    149.4501
  1036.7000      7.8817      2.5040     -0.0241      8.8511     26.8755    150.9561
  1036.8000      7.8805      2.5113      0.0118      8.4057     25.5502    146.2569
  1036.9000      7.8805      2.5234      0.0234      7.6702     24.9585    135.7031
  1037.0000      7.8769      2.5311      0.0583      7.2078     24.8053    131.7024
  1037.1000      7.8769      2.5349      0.0705      6.9784     24.7178    140.5780
  1037.2000      7.8769      2.5415      0.0663      6.5736     24.5535    153.6936
  1037.3000      7.8732      2.5572      0.0638      5.6217     24.4886    160.9084
  1037.4000      7.8732      2.5758      0.0762      4.4957     24.4260    157.2317
  1037.5000      7.8727      2.5803      0.0800      4.2233     24.3910    146.1926
  1037.6000      7.8727      2.5609      0.0967      5.4026     25.0411    137.2294
  1037.7000      7.8727      2.5203      0.0757      7.8632     26.2838    133.0044
  1037.8000      7.8748      2.4780      0.0297     10.4243     27.1205    129.2166
  1037.9000      7.8748      2.4650      0.0378     11.2151     27.2626    124.6584
  1038.0000      7.8752      2.5027      0.0105      8.9246     27.2047    123.2884
  1038.1000      7.8752      2.5782      0.1140      4.3503     27.5087    126.1907
  1038.2000      7.8752      2.6464      0.1356      0.2187     28.2135    127.5929
  1038.3000      7.8756      2.6768      0.1766     -1.6259     28.7743    124.2333
  1038.4000      7.8756      2.6719      0.1573     -1.3291     28.9943    119.5005
  1038.5000      7.8799      2.6521      0.1359     -0.1277     29.2670    115.3019
  1038.6000      7.8799      2.6294      0.1172      1.2510     29.7359    110.4562
  1038.7000      7.8799      2.6051      0.0671      2.7195     29.9579    106.9072
  1038.8000      7.8930      2.5814      0.0785      4.1580     29.6685    108.5925
  1038.9000      7.8930      2.5513      0.0320      5.9817     29.1589    115.1240
  1039.0000      7.9141      2.5072     -0.0054      8.6567     28.5513    123.8326
  1039.1000      7.9141      2.4477      0.0169     12.2617     27.6166    132.9240
