~Version Information
VERS.                      2.0: CWLS Log ASCII Standard - VERSION 2.0
WRAP.                       NO: One line per depth step
~Well Information Block
STRT.FT               -12.2500: 
STOP.FT              1948.2500: 
STEP.FT                 0.2500: 
NULL.                -999.2500: 
COMP.          Petrogulf Corporation: COMPANY
WELL.            Torcom 17-33R: WELL
FLD.           Purgatorie River: FIELD
LOC.           1483' FSL & 1804' FEL--: LOCATION
PROV.                       CO: PROVINCE
CNTY.               Las Animas: COUNTRY
SRVC.          Patterson Wireline: SERVICE COMPANY
DATE.          Fri Sep 30 10:11:43 2005: LOG DATE
UWI.           05 071 08096 00: UNIQUE WELL ID
~Curve Information Block
DEPT.FT            0 000 00 00: Depth
CCL.                          : Casing Collar Locator
TT3.usec                      : CBL 3' Travel Time
AMP3.mV                       : CBL 3' Amplitude
GR.GAPI                       : Gamma Ray
~Parameter Information Block
~A  Depth       CCL         TT3         AMP3         GR     
# ...
  1662.7500      0.0000    763.0843      8.1086     64.4814
  1663.0000      0.0000    748.3743      7.9571     69.7190
  1663.2500      0.0000    733.5995      7.7367     73.4186
  1663.5000      0.0000    724.8392      7.4108     74.9829
  1663.7500      0.0000    726.6878      7.0297     75.6493
  1664.0000      0.0000    737.7061      6.7311     77.1330
  1664.2500      0.0000    750.9848      6.6308     79.9068
  1664.5000      0.0000    759.9283      6.7236     82.9752
  1664.7500      0.0000    762.2372      6.9043     85.2386
  1665.0000      2.0000    757.6692      7.0632     86.6017
  1665.2500      0.0000    745.2653      7.1431     87.7748
  1665.5000      0.0000    726.3848      7.1268     89.6392
  1665.7500      0.0000    709.3452      7.0154     92.9186
  1666.0000      0.0000    706.7667      6.8472     97.9043
  1666.2500      0.0000    725.4155      6.7200    104.1884
  1666.5000      0.0000    759.1082      6.7460    110.8900
  1666.7500      0.0000    792.8626      6.9521    117.2871
  1667.0000      0.0000    813.8761      7.2448    122.9912
  1667.2500      0.0000    818.7044      7.4900    127.5850
  1667.5000      0.0000    811.9921      7.6136    130.8574
  1667.7500      0.0000    799.8378      7.6217    133.6751
  1668.0000      0.0000    784.1694      7.5572    137.6737
  1668.2500      0.0000    762.7650      7.4578    143.4846
  1668.5000      0.0000    733.7555      7.3426    149.8751
  1668.7500      0.0000    698.9928      7.2159    154.8341
  1669.0000      0.0000    663.2003      7.0720    156.9320
  1669.2500      0.0000    631.8528      6.9003    155.6966
  1669.5000      0.0000    610.7825      6.6880    151.3292
  1669.7500      0.0000    605.8209      6.4241    144.3164
  1670.0000      0.0000    619.9852      6.1065    135.3605
  1670.2500      0.0000    649.8293      5.7482    125.6833
  1670.5000      0.0000    685.5170      5.3773    117.1638
  1670.7500      0.0000    715.8898      5.0250    111.8910
  1671.0000      0.0000    734.4830      4.7102    111.3721
  1671.2500      0.0000    741.3723      4.4312    115.8958
  1671.5000      0.0000    740.1353      4.1735    124.4144
  1671.7500      0.0000    733.8645      3.9274    135.0956
  1672.0000      0.0000    724.0942      3.7005    146.2654
  1672.2500      0.0000    712.2817      3.5101    157.1203
  1672.5000      0.0000    700.7499      3.3662    167.7083
  1672.7500      0.0000    691.6783      3.2604    178.1036
  1673.0000      0.0000    685.8025      3.1711    187.4394
  1673.2500      0.0000    682.5496      3.0794    193.7451
  1673.5000      0.0000    681.1102      2.9807    194.8683
  1673.7500      0.0000    681.1490      2.8849    189.8606
  1674.0000      0.0000    682.7836      2.8075    179.9148
  1674.2500      0.0000    686.0575      2.7606    168.2212
  1674.5000      0.0000    690.3520      2.7478    158.4958
  1674.7500      0.0000    694.2432      2.7654    152.9664
  1675.0000      0.0000    696.1329      2.8098    151.3725
  1675.2500      0.0000    695.0984      2.8845    151.8021
  1675.5000      0.0000    691.2421      2.9952    152.3985
  1675.7500      0.0000    685.5222      3.1380    152.3065
  1676.0000      0.0000    679.3951      3.2934    151.3792
  1676.2500      0.0000    674.2631      3.4386    149.6707
  1676.5000      0.0000    670.8474      3.5681    147.4322
  1676.7500      0.0000    669.0368      3.6992    145.2750
  1677.0000      0.0000    668.4155      3.8532    144.0507
  1677.2500      0.0000    668.9360      4.0329    144.3137
  1677.5000      0.0000    671.1598      4.2179    145.6297
  1677.7500      0.0000    675.9119      4.3755    146.6539
  1678.0000      0.0000    683.5374      4.4726    146.5249
  1678.2500      0.0000    693.0922      4.4816    146.1427
  1678.5000      0.0000    702.1071      4.3879    147.4022
  1678.7500      0.0000    707.6908      4.1981    151.1699
  1679.0000      0.0000    708.9020      3.9426    156.3956
  1679.2500      0.0000    708.4191      3.6659    161.1360
  1679.5000      0.0000    710.7306      3.4075    164.1852
  1679.7500      0.0000    717.3647      3.1879    165.6757
  1680.0000      0.0000    724.2645      3.0117    166.1736
  1680.2500      0.0000    724.9971      2.8774    165.5740
  1680.5000      0.0000    716.3339      2.7802    163.3079
  1680.7500      0.0000    700.0925      2.7081    159.6409
  1681.0000      0.0000    680.7339      2.6463    156.2999
  1681.2500      0.0000    662.5994      2.5854    155.3597
  1681.5000      0.0000    648.6027      2.5262    157.4162
  1681.7500      0.0000    639.7354      2.4771    160.9258
  1682.0000      0.0000    635.3418      2.4490    163.1927
  1682.2500      0.0000    634.2534      2.4488    162.0047
  1682.5000      0.0000    635.9471      2.4731    156.9489
  1682.7500      0.0000    640.6937      2.5102    149.6815
  1683.0000      0.0000    648.4545      2.5481    142.6160
  1683.2500      0.0000    657.3885      2.5829    137.0102
  1683.5000      0.0000    663.8043      2.6218    132.4689
  1683.7500      0.0000    664.4360      2.6846    128.0755
  1684.0000      0.0000    658.9084      2.7970    123.2622
  1684.2500      0.0000    649.6522      2.9742    117.6861
  1684.5000      0.0000    639.8866      3.2006    111.3025
  1684.7500      0.0000    632.3213      3.4273    104.9739
  1685.0000      0.0000    629.1569      3.5951    100.3693
  1685.2500      0.0000    632.0054      3.6654     98.7567
  1685.5000      0.0000    641.1791      3.6348     99.9254
  1685.7500      0.0000    655.2366      3.5297    102.4105
  1686.0000      0.0000    671.6721      3.3872    104.6694
  1686.2500      0.0000    688.2831      3.2373    105.8280
  1686.5000      0.0000    703.7649      3.0940    105.4317
  1686.7500      0.0000    717.1330      2.9625    103.1617
  1687.0000      0.0000    727.2673      2.8500     99.2037
  1687.2500      0.0000    733.2865      2.7655     94.4819
  1687.5000      0.0000    734.7636      2.7106     90.0657
  1687.7500      0.0000    731.2148      2.6763     86.4497
  1688.0000      0.0000    722.0117      2.6527     83.4231
  1688.2500      0.0000    707.5844      2.6386     80.4540
  1688.5000      0.0000    690.7436      2.6396     77.2363
  1688.7500      0.0000    676.0040      2.6585     74.0230
  1689.0000      0.0000    666.6673      2.6884     71.3759
  1689.2500      0.0000    662.2206      2.7165     69.5165
  1689.5000      0.0000    659.0361      2.7338     68.2225
  1689.7500      0.0000    654.0623      2.7422     67.7769
  1690.0000      0.0000    647.4682      2.7529     69.6677
  1690.2500      0.0000    641.5300      2.7754     75.5339
  1690.5000      0.0000    637.8987      2.8068     85.3846
  1690.7500      0.0000    636.5374      2.8304     97.6073
  1691.0000      0.0000    636.4816      2.8285    110.8407
  1691.2500      0.0000    636.7809      2.7994    124.8736
  1691.5000      0.0000    636.8658      2.7611    139.0685
  1691.7500      0.0000    636.5511      2.7366    150.7903
  1692.0000      0.0000    635.9078      2.7342    156.8607
  1692.2500      0.0000    635.0995      2.7436    156.8272
  1692.5000      0.0000    634.2863      2.7484    153.7400
  1692.7500      0.0000    633.5778      2.7430    151.1032
  1693.0000      0.0000    633.0135      2.7339    149.6624
  1693.2500      0.0000    632.5729      2.7271    147.8667
  1693.5000      0.0000    632.2136      2.7169    144.9754
  1693.7500      0.0000    631.9082      2.6925    142.3385
  1694.0000      0.0000    631.6501      2.6524    141.4073
  1694.2500      0.0000    631.4357      2.6077    141.9114
  1694.5000      0.0000    631.2363      2.5713    142.7460
  1694.7500      0.0000    631.0001      2.5492    143.6102
  1695.0000      0.0000    630.6769      2.5429    145.0133
  1695.2500      0.0000    630.2530      2.5525    147.2575
  1695.5000      0.0000    629.7843      2.5719    149.9586
  1695.7500      0.0000    629.5498      2.5880    152.2200
  1696.0000      0.0000    630.3482      2.5922    152.8241
