~Version Information
VERS.                      2.0: CWLS Log ASCII Standard - VERSION 2.0
WRAP.                       NO: One line per depth step
~Well Information Block
STRT.FT               250.0000: 
STOP.FT              1687.7000: 
STEP.FT                 0.1000: 
NULL.                -999.2500: 
COMP.          Pioneer Natural Resources: COMPANY
WELL.          Moneypenny 31-36: WELL
FLD.           Purgatoire River: FIELD
LOC.           280' FNL & 1976' FEL: LOCATION
PROV.                 Colorado: PROVINCE
CNTY.               Las Animas: COUNTRY
SRVC.                Patterson: SERVICE COMPANY
DATE.          Fri Oct 01 13:54:40 2004: LOG DATE
UWI.           05 071 08183 00: UNIQUE WELL ID
~Curve Information Block
DEPT.FT            0 000 00 00: Depth
DCAL.in                       : CDL Caliper
RHOB.g/cc                     : CDL Bulk Density
RHOC.g/cc                     : CDL Density Correction
DPOR.pu                       : CDL Density Porosity
NPOR.pu                       : Neutron Porosity
GR.GAPI                       : Gamma Ray
~Parameter Information Block
~A  Depth       DCAL        RHOB        RHOC        DPOR        NPOR         GR     
# ...
   346.0000      8.2930      2.4918      0.0560      9.5857     19.7056    122.3452
   346.1000      8.2930      2.5208      0.0925      7.8279     19.9666    120.5886
   346.2000      8.2930      2.5361      0.1138      6.9058     19.6773    116.4064
   346.3000      8.2478      2.5238      0.0451      7.6508     19.1176    112.3954
   346.4000      8.2478      2.5130      0.0219      8.3046     18.7499    109.9322
   346.5000      8.2313      2.5283      0.0690      7.3771     18.9760    109.0578
   346.6000      8.2313      2.5526      0.0681      5.9012     19.4380    107.8681
   346.7000      8.2313      2.5550      0.0947      5.7594     19.5705    102.5431
   346.8000      8.2210      2.5333      0.0276      7.0752     19.5987     93.7641
   346.9000      8.2210      2.5191     -0.0076      7.9333     19.8834     86.7262
   347.0000      8.2098      2.5286      0.0460      7.3594     20.2348     83.4028
   347.1000      8.2098      2.5424      0.0685      6.5202     20.6370     81.1889
   347.2000      8.2098      2.5481      0.0104      6.1763     21.1096     76.9569
   347.3000      8.2022      2.5535      0.0246      5.8506     21.3284     72.2126
   347.4000      8.2022      2.5542      0.0567      5.8071     21.3658     70.4104
   347.5000      8.1999      2.5385      0.0193      6.7604     21.5050     69.7947
   347.6000      8.1999      2.5224     -0.0554      7.7315     21.7440     68.3499
   347.7000      8.1999      2.5291     -0.0061      7.3251     21.9211     67.2572
   347.8000      8.1972      2.5486      0.0458      6.1435     22.0162     67.4403
   347.9000      8.1972      2.5550      0.0649      5.7583     22.2149     68.3524
   348.0000      8.1847      2.5376      0.0416      6.8098     22.5689     68.3332
   348.1000      8.1847      2.5117     -0.0038      8.3796     22.9057     67.7552
   348.2000      8.1847      2.5029      0.0082      8.9129     23.0500     69.0233
   348.3000      8.1740      2.5125      0.0687      8.3332     22.9379     72.1946
   348.4000      8.1740      2.5229      0.0552      7.7004     22.7466     75.8080
   348.5000      8.1884      2.5247      0.0757      7.5942     22.6632     79.5128
   348.6000      8.1884      2.5150      0.0166      8.1792     22.5140     80.6745
   348.7000      8.1884      2.4994      0.0225      9.1261     22.2635     80.0313
   348.8000      8.2099      2.4789      0.0464     10.3667     22.1760     84.3008
   348.9000      8.2099      2.4518      0.0118     12.0111     22.2747     92.1795
   349.0000      8.2209      2.4375      0.0030     12.8797     22.3747     93.6439
   349.1000      8.2209      2.4561      0.0437     11.7528     22.3358     89.5590
   349.2000      8.2209      2.4955      0.0705      9.3609     22.3291     88.3408
   349.3000      8.2280      2.5305      0.0605      7.2396     22.4687     89.5321
   349.4000      8.2280      2.5560      0.0931      5.6992     22.5015     89.8949
   349.5000      8.2444      2.5886      0.0594      3.7202     22.3545     92.6986
   349.6000      8.2444      2.6404      0.1035      0.5793     22.4593    101.0433
   349.7000      8.2444      2.6954      0.1465     -2.7533     23.2193    110.3073
   349.8000      8.2698      2.7304      0.1489     -4.8738     24.4053    113.9004
   349.9000      8.2698      2.7457      0.1110     -5.8020     25.4327    111.7669
   350.0000      8.2924      2.7492      0.1086     -6.0132     26.1666    106.6281
   350.1000      8.2924      2.7316      0.0971     -4.9450     26.5630    102.1811
   350.2000      8.2924      2.6885     -0.0029     -2.3318     26.4243    101.8219
   350.3000      8.3194      2.6321     -0.0081      1.0851     26.0764    103.9368
   350.4000      8.3194      2.5753     -0.1069      4.5246     26.0914    106.2022
   350.5000      8.3475      2.5293     -0.0843      7.3175     26.4358    111.0241
   350.6000      8.3475      2.4953     -0.0445      9.3731     26.5048    118.6971
   350.7000      8.3475      2.4701     -0.0469     10.9006     25.9196    122.6793
   350.8000      8.3605      2.4546     -0.0312     11.8397     24.9494    121.2175
   350.9000      8.3605      2.4480     -0.0248     12.2452     23.9023    120.4742
   351.0000      8.3607      2.4408      0.0258     12.6760     22.9886    123.5365
   351.1000      8.3607      2.4239     -0.0226     13.7015     22.5482    128.6193
   351.2000      8.3607      2.4057      0.0111     14.8054     22.4280    131.7964
   351.3000      8.3601      2.4014     -0.0061     15.0645     22.1323    132.4464
   351.4000      8.3601      2.4059      0.0468     14.7960     21.5580    133.5110
   351.5000      8.3629      2.4068      0.0520     14.7413     21.1834    134.0980
   351.6000      8.3629      2.4102      0.0467     14.5332     21.4697    131.7417
   351.7000      8.3629      2.4196      0.1071     13.9636     22.1361    128.0312
   351.8000      8.3664      2.4329      0.0673     13.1589     22.4844    126.7425
   351.9000      8.3664      2.4616      0.1165     11.4195     22.4149    129.3892
   352.0000      8.3672      2.5026      0.1468      8.9326     22.2381    132.5642
   352.1000      8.3672      2.5292      0.1450      7.3190     22.1009    131.2488
   352.2000      8.3672      2.5279      0.1062      7.4028     22.2062    127.6510
   352.3000      8.3673      2.5133      0.0796      8.2835     22.8736    127.4107
   352.4000      8.3673      2.5073      0.0245      8.6479     24.1849    130.1373
   352.5000      8.3734      2.5094      0.0559      8.5213     25.5286    133.2002
   352.6000      8.3734      2.4982      0.0538      9.1991     26.1386    133.6452
   352.7000      8.3734      2.4707      0.0090     10.8685     26.0744    130.9507
   352.8000      8.3888      2.4504     -0.0273     12.0983     26.0560    127.8146
   352.9000      8.3888      2.4489      0.0026     12.1873     26.3248    125.2917
   353.0000      8.4054      2.4539      0.0008     11.8878     26.4453    125.4843
   353.1000      8.4054      2.4555     -0.0058     11.7851     26.1437    129.1704
   353.2000      8.4054      2.4588     -0.0197     11.5853     25.5310    132.4848
   353.3000      8.4141      2.4709     -0.0073     10.8527     24.9412    134.2077
   353.4000      8.4141      2.4853      0.0431      9.9790     24.6678    136.8855
   353.5000      8.4162      2.4851      0.0457      9.9913     24.7740    138.9822
   353.6000      8.4162      2.4726     -0.0093     10.7538     25.0301    138.9299
   353.7000      8.4162      2.4665      0.0202     11.1198     25.2991    138.4628
   353.8000      8.4154      2.4684      0.0189     11.0035     25.5413    139.0899
   353.9000      8.4154      2.4655      0.0204     11.1788     25.4138    139.3034
   354.0000      8.4160      2.4513      0.0248     12.0433     24.9421    132.9427
   354.1000      8.4160      2.4351     -0.0147     13.0217     24.3896    121.3210
   354.2000      8.4160      2.4291      0.0111     13.3860     23.8037    114.6294
   354.3000      8.4231      2.4235      0.0491     13.7272     23.4525    117.4671
   354.4000      8.4231      2.4054     -0.0181     14.8245     23.6073    124.2347
   354.5000      8.4424      2.3758     -0.0130     16.6193     24.0269    127.5660
   354.6000      8.4424      2.3365      0.0077     18.9984     24.1392    125.2569
   354.7000      8.4424      2.2990     -0.0435     21.2750     23.7289    121.1659
   354.8000      8.4688      2.2845     -0.0449     22.1509     23.2527    120.3414
   354.9000      8.4688      2.2946     -0.0218     21.5399     23.1014    123.1571
   355.0000      8.4794      2.3123      0.0113     20.4646     23.0425    125.9811
   355.1000      8.4794      2.3282      0.0301     19.5002     22.8601    124.4297
   355.2000      8.4794      2.3432      0.0489     18.5968     22.5329    118.9375
   355.3000      8.4470      2.3589      0.0586     17.6404     22.0554    115.0296
   355.4000      8.4470      2.3731      0.1135     16.7806     21.6971    117.8209
   355.5000      8.3682      2.3845      0.0856     16.0899     21.5483    127.9054
