~Version Information
 VERS.                                  2.0 : CWLS LAS VERSION
 WRAP.                                   NO : WRAPING MODE
 SWARE .                 MController 2.5.0J : SOFTWARE VERSION
~Well Information
 WELL.              Cock-A-Doodle-Doo 44-27 : WELL
 COMP.      Pioneer Natural Resources, Inc. : COMPANY
 FLD.                      Purgatoire River : FIELD
 LOC.                SE/SE Sec.27 T32S R67W : LOCATION
 DATE.                              6/30/05 : DATE(S) LOGGED
 SRVC.       BLANCO Geological Services LLC : SERVICE COMPANY
 STAT.                                   CO : STATE
 CNTY.                           Las Animas : COUNTY
 CTRY.                                  USA : COUNTRY
 API.                             071 08429 : API NUMBER
 STRT.FT                             394.00 : START DEPTH
 STOP.FT                            2540.00 : STOP DEPTH
 STEP.FT                               1.00 : DEPTH INCREMENT
 NULL.                                -9999 : NULL VALUE
~Curve information
 DEPTH.FT                                   :
 ROP.MIN/FT                                 :
 GAS.UNITS                                  :
~ASCII Log data
# ...
       794.0         0.23         73.7 
       795.0         0.23         72.7 
       796.0         0.20         72.7 
       797.0         0.20         72.9 
       798.0         0.20         73.0 
       799.0         0.20         73.0 
       800.0         0.20         72.7 
       801.0         0.20         72.3 
       802.0         0.20         72.1 
       803.0         0.17         72.4 
       804.0         0.20         72.5 
       805.0         0.28         72.1 
       806.0         1.93        233.7 
       807.0         0.33        316.9 
       808.0         0.33        310.0 
       809.0         0.33        231.6 
       810.0         0.28        169.5 
       811.0         0.20        132.8 
       812.0         0.30        113.2 
       813.0         0.17         93.5 
       814.0         0.43         85.9 
       815.0         0.30         62.5 
       816.0         0.33         78.0 
       817.0         0.23         80.6 
       818.0         0.23         80.1 
       819.0         0.20         77.5 
       820.0         0.20         77.0 
       821.0         0.27         77.2 
       822.0         0.17         76.8 
       823.0         0.22         76.3 
       824.0         0.17         75.4 
       825.0         0.17         74.5 
       826.0         0.13         73.9 
       827.0         0.50         73.7 
       828.0         0.23         70.6 
       829.0         0.17         68.8 
       830.0         0.17         70.4 
       831.0         0.23         71.6 
       832.0         0.13         71.8 
       833.0         0.20         73.1 
       834.0         0.27         73.2 
       835.0         0.13         70.4 
       836.0         1.12        125.5 
       837.0         0.43        287.4 
       838.0         0.27        297.1 
       839.0         0.27        270.4 
       840.0         0.20        219.4 
       841.0         0.20        183.8 
       842.0         0.13        152.1 
       843.0         0.20        131.0 
       844.0         0.10        105.8 
       845.0         0.13         96.7 
       846.0         0.27         88.3 
       847.0         0.20         77.9 
       848.0         0.20         64.4 
       849.0         0.20         71.5 
       850.0         0.17         81.2 
       851.0         0.25         86.4 
       852.0         0.20         86.6 
       853.0         0.27         85.4 
       854.0         0.20         81.2 
       855.0         0.27         78.4 
       856.0         0.20         75.4 
       857.0         0.17         73.8 
       858.0         0.23         72.8 
       859.0         0.17         71.5 
       860.0         0.17         71.0 
       861.0         0.23         71.0 
       862.0         0.17         70.6 
       863.0         0.17         70.4 
       864.0         0.13         70.3 
       865.0         0.13         70.2 
       866.0         1.98        119.2 
       867.0         0.17        173.0 
       868.0         0.33        290.4 
       869.0         0.33        296.0 
       870.0         0.30        263.6 
       871.0         0.27        200.5 
       872.0         0.27        149.9 
       873.0         0.22        117.6 
       874.0         0.20        102.5 
       875.0         0.13         93.0 
       876.0         0.20         88.4 
       877.0         0.23         83.3 
       878.0         0.23         78.0 
       879.0         0.23         74.2 
       880.0         0.17         71.7 
       881.0         0.13         71.1 
       882.0         0.20         71.4 
       883.0         0.10         70.7 
       884.0         0.13         70.1 
       885.0         0.17         68.8 
       886.0         0.13         66.3 
       887.0         0.10         68.5 
       888.0         0.20         75.2 
       889.0         0.17         79.1 
       890.0         0.17         80.1 
       891.0         0.17         79.7 
       892.0         0.22         78.5 
       893.0         0.13         76.6 
       894.0         0.20         75.5 
       895.0         0.20         75.2 
       896.0         1.40         89.0 
       897.0         0.20        138.8 
       898.0         0.27        256.6 
       899.0         0.27        322.4 
       900.0         0.23        321.5 
       901.0         0.13        274.7 
       902.0         0.28        244.1 
       903.0         0.23        195.6 
       904.0         0.20        156.8 
       905.0         0.23        130.1 
       906.0         0.20        108.6 
       907.0         0.20         97.0 
       908.0         0.17         89.1 
       909.0         0.20         84.5 
       910.0         0.17         80.1 
       911.0         0.23         77.6 
       912.0         0.20         75.2 
       913.0         0.20         73.2 
       914.0         0.20         71.6 
       915.0         0.20         70.3 
       916.0         0.23         69.3 
       917.0         0.17         68.2 
       918.0         0.38         68.2 
       919.0         0.30         66.2 
       920.0         0.20         65.6 
       921.0         0.17         63.8 
       922.0         0.20         62.0 
       923.0         0.17         62.1 
       924.0         0.20         65.1 
       925.0         0.13         67.0 
       926.0         1.50         70.7 
       927.0         0.17         86.1 
       928.0         0.22        131.3 
       929.0         0.20        210.5 
       930.0         0.30        327.4 
       931.0         0.27        333.1 
       932.0         0.20        299.4 
       933.0         0.17        250.8 
       934.0         0.27        208.3 
       935.0         0.20        151.8 
       936.0         0.20        124.2 
       937.0         0.23        116.3 
       938.0         0.30        119.1 
       939.0         0.17        117.6 
       940.0         0.13        113.4 
       941.0         0.23        110.3 
       942.0         0.23        102.9 
       943.0         0.17         94.4 
       944.0         0.25         93.6 
       945.0         0.23         99.4 
       946.0         0.13        100.5 
       947.0         0.23        100.5 
       948.0         0.20         99.0 
       949.0         0.20         96.7 
       950.0         0.20         94.4 
       951.0         0.20         92.3 
       952.0         0.17         90.4 
       953.0         0.13         89.3 
       954.0         0.13         90.3 
       955.0         0.23         90.6 
       956.0         0.73         88.0 
       957.0         0.13         58.1 
       958.0         0.18         71.7 
       959.0         0.30        132.7 
       960.0         0.27        217.3 
       961.0         0.27        367.2 
       962.0         0.27        434.4 
       963.0         0.27        429.9 
       964.0         0.20        352.1 
       965.0         0.17        296.1 
       966.0         0.13        251.6 
       967.0         0.20        218.1 
       968.0         0.20        177.1 
       969.0         0.20        150.2 
       970.0         0.17        129.7 
       971.0         0.17        117.3 
       972.0         0.42        108.2 
       973.0         0.13         94.9 
       974.0         0.13         91.4 
       975.0         0.10         87.1 
       976.0         0.10         85.1 
       977.0         0.23         90.9 
       978.0         0.27         97.4 
       979.0         0.20        103.6 
       980.0         0.23        121.6 
       981.0         0.23        134.0 
       982.0         0.17        136.2 
       983.0         0.17        136.1 
       984.0         0.17        133.8 
       985.0         0.20        130.9 
       986.0         0.23        128.0 
       987.0         1.18        135.9 
       988.0         0.23        211.1 
       989.0         0.17        301.3 
       990.0         0.27        447.5 
       991.0         0.30        471.4 
       992.0         0.27        437.9 
       993.0         0.23        364.1 
