~Version Information
VERS.                      2.0: CWLS Log ASCII Standard - VERSION 2.0
WRAP.                       NO: One line per depth step
~Well Information Block
STRT.FT               440.0000: 
STOP.FT              1003.5000: 
STEP.FT                 0.2500: 
NULL.                -999.2500: 
COMP.          Pioneer Natural Resources: COMPANY
WELL.              Dylan 42-25: WELL
FLD.           Purgatoire River: FIELD
LOC.           2160' FNL & 855' FEL: LOCATION
PROV.                 Colorado: PROVINCE
CNTY.               Las Animas: COUNTRY
SRVC.                Patterson: SERVICE COMPANY
DATE.          Sat Apr 23 11:21:51 2005: LOG DATE
UWI.           05 071 08229 00: UNIQUE WELL ID
~Curve Information Block
DEPT.FT            0 000 00 00: Depth
SN.Ohm-m                      : IEL Short Normal
SP.mV                         : IEL Spontaneous Potential
DIR.Ohm-m                     : IEL Induction Resistivity
GR.GAPI                       : Gamma Ray
~Parameter Information Block
~A  Depth        SN          SP         DIR          GR     
# ...
   607.5000     41.1548    -31.7087     29.5726     75.7568
   607.7500     38.0886    -31.0912     26.8013     84.2721
   608.0000     34.7904    -30.3590     24.3147     94.9947
   608.2500     31.2744    -29.5275     22.1538     99.9165
   608.5000     27.6782    -28.6275     20.3225    104.2094
   608.7500     24.3219    -27.6976     18.7969    105.9278
   609.0000     21.5427    -26.7769     17.5387    108.5344
   609.2500     19.4613    -25.8997     16.5089    110.9017
   609.5000     17.9549    -25.0910     15.6754    115.5287
   609.7500     16.8328    -24.3658     15.0103    119.0583
   610.0000     15.9669    -23.7297     14.4795    124.3798
   610.2500     15.2847    -23.1786     14.0358    127.5906
   610.5000     14.7335    -22.6969     13.6248    131.4193
   610.7500     14.2688    -22.2591     13.2034    133.1032
   611.0000     13.8501    -21.8409     12.7570    134.0465
   611.2500     13.4504    -21.4333     12.3012    133.5212
   611.5000     13.0718    -21.0448     11.8661    131.0704
   611.7500     12.7380    -20.6871     11.4798    128.5537
   612.0000     12.4755    -20.3573     11.1597    124.2332
   612.2500     12.3050    -20.0343     10.9122    121.6963
   612.5000     12.2338    -19.6900     10.7324    119.6775
   612.7500     12.2394    -19.3065     10.6062    119.8656
   613.0000     12.2621    -18.8864     10.5138    121.9652
   613.2500     12.2317    -18.4512     10.4355    123.9458
   613.5000     12.1171    -18.0323     10.3554    126.7550
   613.7500     11.9472    -17.6576     10.2635    128.0183
   614.0000     11.7591    -17.3413     10.1546    128.3680
   614.2500     11.5405    -17.0753     10.0288    127.5802
   614.5000     11.2752    -16.8300      9.8924    125.7946
   614.7500     11.0066    -16.5710      9.7582    125.0352
   615.0000     10.7944    -16.2840      9.6419    125.6663
   615.2500     10.6600    -15.9842      9.5570    127.3813
   615.5000     10.5996    -15.7008      9.5104    130.9230
   615.7500     10.6045    -15.4571      9.5018    132.9722
   616.0000     10.6683    -15.2636      9.5286    134.4082
   616.2500     10.7799    -15.1192      9.5905    134.2566
   616.5000     10.9197    -15.0119      9.6896    133.0496
   616.7500     11.0774    -14.9224      9.8271    131.8719
   617.0000     11.2516    -14.8356      9.9995    129.4156
   617.2500     11.4322    -14.7485     10.1975    127.2178
   617.5000     11.6171    -14.6682     10.4108    123.6320
   617.7500     11.8308    -14.6037     10.6309    121.7152
   618.0000     12.0942    -14.5613     10.8539    120.3411
   618.2500     12.3929    -14.5455     11.0784    120.4138
   618.5000     12.6909    -14.5608     11.3028    121.6152
   618.7500     12.9558    -14.6099     11.5226    122.9187
   619.0000     13.1648    -14.6911     11.7280    125.0204
   619.2500     13.2956    -14.7994     11.9039    125.9704
   619.5000     13.3282    -14.9299     12.0324    126.0845
   619.7500     13.2645    -15.0796     12.0977    125.4315
   620.0000     13.1275    -15.2430     12.0924    124.1916
   620.2500     12.9367    -15.4103     12.0190    123.6395
   620.5000     12.6919    -15.5736     11.8872    123.6765
   620.7500     12.3802    -15.7313     11.7092    124.3889
   621.0000     11.9962    -15.8876     11.4970    126.3329
   621.2500     11.5541    -16.0486     11.2634    127.8241
   621.5000     11.0977    -16.2229     11.0215    129.4165
   621.7500     10.7014    -16.4193     10.7818    129.7367
   622.0000     10.4343    -16.6423     10.5484    129.5437
   622.2500     10.3172    -16.8907     10.3199    129.5101
   622.5000     10.3175    -17.1673     10.0932    129.8236
   622.7500     10.3671    -17.4895      9.8688    129.8562
   623.0000     10.3889    -17.8890      9.6525    129.1300
   623.2500     10.3268    -18.3949      9.4527    128.4542
   623.5000     10.1668    -19.0146      9.2751    128.2160
   623.7500      9.9406    -19.7225      9.1203    128.8618
   624.0000      9.7022    -20.4684      8.9847    130.7151
   624.2500      9.4943    -21.2003      8.8645    132.1871
   624.5000      9.3335    -21.8856      8.7594    134.3363
   624.7500      9.2181    -22.5146      8.6734    135.6320
   625.0000      9.1414    -23.0888      8.6122    137.3485
   625.2500      9.0974    -23.6090      8.5808    138.3190
   625.5000      9.0799    -24.0701      8.5809    139.4391
   625.7500      9.0875    -24.4638      8.6118    140.0428
   626.0000      9.1262    -24.7900      8.6708    141.1093
   626.2500      9.1916    -25.0666      8.7535    141.9730
   626.5000      9.2620    -25.3277      8.8521    142.9058
   626.7500      9.3268    -25.6032      8.9551    142.8522
   627.0000      9.4056    -25.8979      9.0496    141.7489
   627.2500      9.5182    -26.1889      9.1260    140.7971
   627.5000      9.6496    -26.4421      9.1820    139.7955
   627.7500      9.7634    -26.6322      9.2227    139.2687
   628.0000      9.8342    -26.7534      9.2588    137.4592
   628.2500      9.8539    -26.8187      9.3034    135.0134
   628.5000      9.8303    -26.8499      9.3664    130.2221
   628.7500      9.7920    -26.8643      9.4485    127.6031
   629.0000      9.7664    -26.8666      9.5379    126.6230
   629.2500      9.7480    -26.8496      9.6151    128.2406
   629.5000      9.7158    -26.8011      9.6619    132.8879
   629.7500      9.6589    -26.7102      9.6695    136.1487
   630.0000      9.5735    -26.5693      9.6393    138.8302
   630.2500      9.4646    -26.3765      9.5794    138.1968
   630.5000      9.3588    -26.1410      9.5007    133.8042
   630.7500      9.3007    -25.8823      9.4133    129.6909
   631.0000      9.3175    -25.6192      9.3248    124.0084
   631.2500      9.3781    -25.3581      9.2389    121.2905
   631.5000      9.4080    -25.0900      9.1569    118.7471
   631.7500      9.3551    -24.7984      9.0804    117.6586
   632.0000      9.2225    -24.4708      9.0128    116.6152
   632.2500      9.0479    -24.1058      8.9569    116.5515
   632.5000      8.8701    -23.7137      8.9101    117.9019
   632.7500      8.7194    -23.3119      8.8637    119.5674
   633.0000      8.6193    -22.9189      8.8053    121.8288
   633.2500      8.5687    -22.5496      8.7270    122.2170
   633.5000      8.5433    -22.2146      8.6292    120.1741
   633.7500      8.5369    -21.9208      8.5214    117.1978
   634.0000      8.5612    -21.6722      8.4154    111.7533
   634.2500      8.6213    -21.4674      8.3203    108.7182
   634.5000      8.7382    -21.2984      8.2393    106.8391
   634.7500      8.9325    -21.1541      8.1721    107.7707
   635.0000      9.1248    -21.0311      8.1182    112.0252
   635.2500      9.1390    -20.9413      8.0782    116.0881
   635.5000      8.8950    -20.9067      8.0535    122.5633
   635.7500      8.5120    -20.9417      8.0430    126.3790
   636.0000      8.1547    -21.0413      8.0419    130.5830
   636.2500      7.8919    -21.1888      8.0422    132.2391
   636.5000      7.7173    -21.3736      8.0353    133.1328
   636.7500      7.6118    -21.5925      8.0154    132.8580
   637.0000      7.5668    -21.8338      7.9807    131.4865
   637.2500      7.5736    -22.0683      7.9335    130.0625
   637.5000      7.6122    -22.2640      7.8794    127.3906
   637.7500      7.6589    -22.4087      7.8250    125.6278
   638.0000      7.7061    -22.5186      7.7772    124.1838
   638.2500      7.7652    -22.6249      7.7416    124.5594
   638.5000      7.8377    -22.7510      7.7224    126.7643
   638.7500      7.9042    -22.8961      7.7213    128.3919
   639.0000      7.9476    -23.0381      7.7372    129.4519
   639.2500      7.9580    -23.1497      7.7651    128.9345
   639.5000      7.9216    -23.2154      7.7960    127.1449
   639.7500      7.8402    -23.2347      7.8188    126.1089
   640.0000      7.7438    -23.2155      7.8233    125.8242
   640.2500      7.6544    -23.1673      7.8044    126.7040
   640.5000      7.5663    -23.0987      7.7646    129.6252
   640.7500      7.4787    -23.0168      7.7132    132.3412
