~Version Information
VERS.                      2.0: CWLS Log ASCII Standard - VERSION 2.0
WRAP.                       NO: One line per depth step
~Well Information Block
STRT.FT                 0.0000: 
STOP.FT              2234.2500: 
STEP.FT                 0.2500: 
NULL.                -999.2500: 
COMP.          Pioner Natural Resources: COMPANY
WELL.          Casablanca 11-28 Tr: WELL
FLD.           Purgatoire River: FIELD
LOC.           422' FNL & 215' FWL--: LOCATION
PROV.                 Colorado: PROVINCE
CNTY.               Las Animas: COUNTRY
SRVC.                         : SERVICE COMPANY
DATE.          Fri Mar 11 13:02:46 2005: LOG DATE
UWI.           005 071 08314  : UNIQUE WELL ID
~Curve Information Block
DEPT.FT            0 000 00 00: Depth
CCL.                          : Casing Collar Locator
TT3.usec                      : CBL 3' Travel Time
AMP3.mV                       : CBL 3' Amplitude
AMP5.mV                       : CBL 5' Amplitude
GR.GAPI                       : Gamma Ray
~Parameter Information Block
~A  Depth       CCL         TT3         AMP3        AMP5         GR     
# ...
   896.0000      0.0000    767.7650      6.3184      1.5186    141.9830
   896.2500      0.0000    768.6723      6.3001      1.9539    138.5553
   896.5000      0.0000    770.5699      6.2795      1.4316    134.3899
   896.7500      0.0000    773.5397      6.2863      1.7798    131.8525
   897.0000      0.0000    776.9783      6.3506      2.5632    131.5623
   897.2500      0.0000    779.5445      6.4876      2.2150    132.5118
   897.5000      0.0000    780.1271      6.7017      2.4762    133.6772
   897.7500      0.0000    778.9623      6.9925      2.9114    134.8657
   898.0000      0.0000    777.3742      7.3485      3.4337    136.0872
   898.2500      0.0000    776.3427      7.7386      4.1300    136.7924
   898.5000      0.0000    775.8722      8.1146      3.7819    136.0534
   898.7500      0.0000    775.9242      8.4321      3.5207    133.5380
   899.0000      0.0000    777.2427      8.6764      3.6948    130.2105
   899.2500      0.0000    780.6208      8.8652      2.8243    127.8246
   899.5000      0.0000    785.6448      9.0262      3.2596    127.4517
   899.7500      0.0000    790.7628      9.1777      2.5632    128.5853
   900.0000      0.0000    794.5678      9.3315      2.2150    129.9028
   900.2500      0.0000    796.6960      9.5000      2.6503    130.7439
   900.5000      0.0000    797.6060      9.6894      3.1725    131.2885
   900.7500      0.0000    797.9057      9.8932      3.3466    131.1473
   901.0000      0.0000    797.9717     10.1009      4.3041    128.7055
   901.2500      0.0000    797.9140     10.3109      5.0876    122.8022
   901.5000      0.0000    797.5407     10.5313      5.0005    114.6591
   901.7500      0.0000    796.0319     10.7695      5.3487    107.0824
   902.0000      0.0000    791.2825     11.0241      5.7839    101.6396
   902.2500      0.0000    779.5892     11.2846      5.9580     97.2588
   902.5000      0.0000    757.0012     11.5370      6.5673     91.7929
   902.7500      0.0000    722.6694     11.7660      6.8285     84.4969
   903.0000      0.0000    681.3715     11.9407      6.5673     76.5667
   903.2500      0.0000    641.7248     11.9991      7.4378     69.6555
   903.5000      0.0000    611.2228     11.8655      8.6565     64.5961
   903.7500      0.0000    592.9955     11.5053     11.0067     61.5435
   904.0000      0.0000    585.7147     10.9711     12.6606     60.4175
   904.2500      0.0000    584.3464     10.3850     12.1383     60.7207
   904.5000      0.0000    582.3281      9.8662     10.1363     61.3713
   904.7500      0.0000    576.9536      9.4729      8.3083     61.1972
   905.0000      0.0000    573.3300      9.2058      6.0451     59.5809
   905.2500      0.0000    580.4141      9.0410      2.8243     56.7308
   905.5000      0.0000    602.4172      8.9418      2.8243     53.7297
   905.7500      0.0000    635.4675      8.8507      2.0409     52.2138
   906.0000      0.0000    671.6443      8.7038      1.6927     53.2815
   906.2500      0.0000    703.7714      8.4686      2.3021     56.3305
   906.5000      0.0000    727.2757      8.1614      2.2150     59.2636
   906.7500      0.0000    740.9274      7.8242      1.6057     60.1032
   907.0000      0.0000    747.0178      7.4937      1.9539     58.4205
   907.2500      0.0000    749.6498      7.1915      1.7798     55.4241
   907.5000      0.0000    751.8217      6.9296      1.4316     52.9883
   907.7500      0.0000    753.8934      6.7120      1.6927     52.5316
   908.0000      0.0000    754.4734      6.5348      0.4741     54.3409
   908.2500      0.0000    752.4918      6.3912      1.1705     57.5609
   908.5000      0.0000    748.7047      6.2752      1.2575     60.7994
   908.7500      0.0000    745.5571      6.1792      0.8223     63.0583
   909.0000      0.0000    745.3202      6.0929      1.1705     64.2758
   909.2500      0.0000    748.0620      6.0084      1.5186     65.0066
   909.5000      0.0000    751.4767      5.9260      0.2129     65.6935
   909.7500      0.0000    752.6401      5.8504      0.3000     66.3336
   910.0000      0.0000    749.8668      5.7821      0.4741     66.6710
   910.2500      0.0000    743.4413      5.7215      0.3000     66.5341
   910.5000      0.0000    735.2757      5.6771      0.8223     66.0859
   910.7500      0.0000    727.7715      5.6604      0.4741     65.7635
   911.0000      0.0000    722.4849      5.6722      0.8223     65.8058
   911.2500      0.0000    719.5762      5.7033      0.7352     65.8703
   911.5000      0.0000    718.3143      5.7443      0.9093     65.2679
   911.7500      0.0000    717.8655      5.7904      1.2575     63.6204
   912.0000      0.0000    717.6789      5.8421      0.6482     61.3436
   912.2500      0.0000    717.4941      5.9081      0.9093     59.4462
   912.5000      0.0000    717.2490      5.9932      1.6057     58.7075
   912.7500      0.0000    716.9883      6.0816      1.2575     59.0916
   913.0000      0.0000    716.7794      6.1398      0.5611     59.9556
   913.2500      0.0000    716.6648      6.1447      0.8223     60.5505
   913.5000      0.0000    716.6677      6.1023      0.8223     60.3474
   913.7500      0.0000    716.8081      6.0371      0.9093     59.3553
   914.0000      0.0000    717.1165      5.9709      0.8223     58.2160
   914.2500      0.0000    717.6458      5.9149      0.9093     57.6257
   914.5000      0.0000    718.5250      5.8757      0.4741     57.5831
   914.7500      0.0000    719.9360      5.8600      7.8730     57.4340
   915.0000      0.0000    721.9763      5.8719      1.0834     56.6392
   915.2500      0.0000    724.7073      5.9095      0.9093     55.3821
   915.5000      0.0000    728.5419      5.9639      1.0834     54.4651
   915.7500      0.0000    734.2147      6.0240      1.1705     54.5722
   916.0000      0.0000    741.7675      6.0834      1.0834     55.6083
   916.2500      0.0000    749.7934      6.1453      1.6057     56.9220
   916.5000      0.0000    756.3292      6.2198      1.6057     58.0970
   916.7500      0.0000    760.3879      6.3092      0.6482     59.3240
   917.0000      0.0000    762.2982      6.3974      1.0834     61.2037
   917.2500      0.0000    762.9142      6.4610      1.0834     64.2745
   917.5000      0.0000    762.9107      6.4942      1.3446     68.3801
   917.7500      0.0000    762.6425      6.5187      2.1280     72.3528
   918.0000      0.0000    762.2879      6.5706      1.2575     74.7750
   918.2500      0.0000    761.9748      6.6747      0.9964     75.3456
   918.5000      0.0000    761.8276      6.8264      1.5186     75.1778
   918.7500      0.0000    761.8508      6.9940     -0.3093     75.4981
   919.0000      0.0000    761.6930      7.1448      2.4762     76.4515
   919.2500      0.0000    760.4511      7.2763      0.7352     77.6932
   919.5000      0.0000    757.0128      7.4115      1.0834     79.9189
   919.7500      0.0000    751.3286      7.5477     -0.0482     85.0327
   920.0000      0.0000    745.7925      7.6280      0.3000     94.3438
   920.2500      0.0000    744.6098      7.5927      0.2129    106.7442
   920.5000      0.0000    750.5256      7.4507      0.5611    118.9128
   920.7500      0.0000    761.9667      7.2720      0.5611    127.5136
   921.0000      0.0000    773.9783      7.1208     -0.2223    131.5689
   921.2500      0.0000    781.9521      7.0205      0.1259    132.8956
   921.5000      0.0000    784.1132      6.9697      0.2129    134.0122
   921.7500      0.0000    781.1320      6.9730      0.6482    135.5881
   922.0000      0.0000    774.9326      7.0566      0.8223    136.3137
   922.2500      0.0000    768.5751      7.2454      1.4316    135.1672
   922.5000      0.0000    765.8372      7.5148      0.7352    133.2900
   922.7500      0.0000    768.7591      7.7780      1.9539    133.3835
   923.0000      0.0000    775.4929      7.9513      1.5186    137.1796
   923.2500      0.0000    781.7888      8.0205      1.5186    143.4141
   923.5000      0.0000    784.6957      8.0248      0.4741    148.5610
   923.7500      0.0000    784.3216      8.0024      5.1746    149.7210
