~Version Information
VERS.                      2.0: CWLS Log ASCII Standard - VERSION 2.0
WRAP.                       NO: One line per depth step
~Well Information Block
STRT.FT                -4.0000: 
STOP.FT              2638.2500: 
STEP.FT                 0.2500: 
NULL.                -999.2500: 
COMP.          Petrogulf Corporation: COMPANY
WELL.            Montoya 6-14V: WELL
FLD.           Purgatorie River: FIELD
LOC.           318' FSL & 882' FWL--: LOCATION
PROV.                       CO: PROVINCE
CNTY.               Las Animas: COUNTRY
SRVC.                         : SERVICE COMPANY
DATE.          Mon May 02 08:32:04 2005: LOG DATE
UWI.      005 071 08020: UNIQUE WELL ID
~Curve Information Block
DEPT.FT            0 000 00 00: Depth
AMP3.mV                       : CBL 3' Amplitude
CCL.                          : Casing Collar Locator
GR.GAPI                       : Gamma Ray
TT3.usec                      : CBL 3' Travel Time
~Parameter Information Block
~A  Depth       AMP3        CCL          GR         TT3     
# ...
   532.0000     80.7758      0.0000     93.2521    254.4989
   532.2500     80.7659      0.0000     91.5345    254.5063
   532.5000     80.7736      0.0000     91.2824    254.5138
   532.7500     80.7768      0.0000     90.4914    254.5172
   533.0000     80.7581      0.0000     88.2789    254.5161
   533.2500     80.7036      0.0000     85.0798    254.5112
   533.5000     80.6024      0.0000     81.8580    254.5008
   533.7500     80.4594      0.0000     79.9156    254.4846
   534.0000     80.3034      0.0000     80.9603    254.4672
   534.2500     80.1728      0.0000     86.1880    254.4548
   534.5000     80.0942      0.0000     94.9469    254.4505
   534.7500     80.0733      0.0000    104.7638    254.4536
   535.0000     80.0982      0.0000    112.8364    254.4622
   535.2500     80.1453      0.0000    117.4892    254.4740
   535.5000     80.1834      0.0000    118.5461    254.4844
   535.7500     80.1810      0.0000    116.6787    254.4877
   536.0000     80.1248      0.0000    112.6504    254.4809
   536.2500     80.0335      0.0000    107.1304    254.4686
   536.5000     79.9451      0.0000    100.8544    254.4581
   536.7500     79.8844      0.0000     94.5848    254.4531
   537.0000     79.8495      0.0000     88.9788    254.4520
   537.2500     79.8302      0.0000     84.6374    254.4524
   537.5000     79.8302      0.0000     81.9546    254.4548
   537.7500     79.8669      0.0000     80.6596    254.4616
   538.0000     79.9504      0.0000     80.0031    254.4743
   538.2500     80.0628      0.0000     79.8387    254.4904
   538.5000     80.1590      0.0000     81.0722    254.5044
   538.7500     80.1927      0.0000     84.6564    254.5099
   539.0000     80.1470      0.0000     90.4725    254.5040
   539.2500     80.0424      0.0000     97.2234    254.4877
   539.5000     79.9209      0.0000    102.7689    254.4655
   539.7500     79.8300      0.0000    104.7045    254.4450
   540.0000     79.8115      0.0000    101.7919    254.4361
   540.2500     79.8794      0.0000     95.2640    254.4450
   540.5000     80.0032      0.0000     88.2295    254.4676
   540.7500     80.1231      0.0000     83.5823    254.4915
   541.0000     80.1953      0.0000     82.4400    254.5051
   541.2500     80.2240      0.0000     84.0003    254.5056
   541.5000     80.2526      0.0000     86.4278    254.4997
   541.7500     80.3291      0.0000     88.1826    254.4985
   542.0000     80.4702      0.0000     88.9081    254.5109
   542.2500     80.6470      0.0000     89.2008    254.5372
   542.5000     80.8025      0.0000     89.7740    254.5677
   542.7500     80.8862      0.0000     91.0713    254.5886
   543.0000     80.8807      0.0000     93.5389    254.5903
   543.2500     80.8030      0.0000     97.6646    254.5720
   543.5000     80.6933      0.0000    103.1854    254.5425
   543.7500     80.6039      0.0000    108.3419    254.5168
   544.0000     80.5874      0.0000    110.5304    254.5090
   544.2500     80.6771      0.0000    108.2220    254.5244
   544.5000     80.8688      0.0000    102.3443    254.5568
   544.7500     81.1207      0.0000     95.6139    254.5938
   545.0000     81.3742      0.0000     90.3168    254.6249
   545.2500     81.5800      0.0000     86.6692    254.6469
   545.5000     81.7133      0.0000     83.3095    254.6619
   545.7500     81.7754      0.0000     79.0994    254.6719
   546.0000     81.7861      0.0000     74.0658    254.6765
   546.2500     81.7731      0.0000     68.7543    254.6756
   546.5000     81.7612      0.0000     63.3729    254.6722
   546.7500     81.7667      0.0000     57.9046    254.6706
   547.0000     81.7982      0.0000     52.6878    254.6735
   547.2500     81.8567      0.0000     48.3952    254.6795
   547.5000     81.9296      0.0000     45.4723    254.6839
   547.7500     81.9920      0.0000     43.8466    254.6821
   548.0000     82.0255      0.0000     43.1750    254.6749
   548.2500     82.0376      0.0000     43.2176    254.6701
   548.5000     82.0576      0.0000     43.9064    254.6751
   548.7500     82.1094      0.0000     45.0862    254.6887
   549.0000     82.1948      0.0000     46.3511    254.7041
   549.2500     82.3003      0.0000     47.2936    254.7188
   549.5000     82.4100      0.0000     47.8439    254.7371
   549.7500     82.5089      0.0000     48.2677    254.7626
   550.0000     82.5796      0.0000     48.7652    254.7916
   550.2500     82.6067      0.0000     49.0743    254.8158
   550.5000     82.5855      0.0000     48.5873    254.8282
   550.7500     82.5269      0.0000     46.9389    254.8264
   551.0000     82.4557      0.0000     44.3792    254.8134
   551.2500     82.4042      0.0000     41.5736    254.7968
   551.5000     82.3974      0.0000     39.2477    254.7852
   551.7500     82.4374      0.0000     37.9936    254.7840
   552.0000     82.5013      0.0000     38.0788    254.7941
   552.2500     82.5583      0.0000     39.3409    254.8114
   552.5000     82.5869      0.0000     41.3781    254.8284
   552.7500     82.5771      0.0000     43.6934    254.8364
   553.0000     82.5272      0.0000     45.4857    254.8299
   553.2500     82.4462      0.0000     45.6690    254.8110
   553.5000     82.3594      0.0000     43.6980    254.7892
   553.7500     82.3023      0.0000     40.3263    254.7752
   554.0000     82.3018      0.0000     37.0937    254.7741
   554.2500     82.3626      0.0000     35.0639    254.7841
   554.5000     82.4642      0.0000     34.2915    254.8004
   554.7500     82.5695      0.0000     34.3141    254.8156
   555.0000     82.6397      0.0000     34.7358    254.8205
   555.2500     82.6540      0.0000     35.2729    254.8100
   555.5000     82.6220      0.0000     35.5539    254.7912
   555.7500     82.5797      0.0000     35.2166    254.7811
   556.0000     82.5691      0.0000     34.3690    254.7924
   556.2500     82.6128      0.0000     33.8198    254.8232
   556.5000     82.7018      0.0000     34.5702    254.8587
   556.7500     82.8052      0.0000     36.9144    254.8829
   557.0000     82.8961      0.0000     40.0963    254.8876
   557.2500     82.9678      0.0000     42.8343    254.8752
   557.5000     83.0241      0.0000     44.0538    254.8543
   557.7500     83.0650      0.0000     43.2239    254.8350
   558.0000     83.0952      0.0000     40.4312    254.8251
   558.2500     83.1401      0.0000     36.3954    254.8281
   558.5000     83.2404      0.0000     32.3029    254.8418
   558.7500     83.4241      0.0000     29.4112    254.8594
   559.0000     83.6850      0.0000     28.5014    254.8750
   559.2500     83.9850      0.0000     29.4180    254.8875
   559.5000     84.2739      0.0000     31.1508    254.8996
   559.7500     84.5102      0.0000     32.5202    254.9142
   560.0000     84.6718      0.0000     32.8815    254.9317
   560.2500     84.7641      0.0000     32.3708    254.9500
   560.5000     84.8203      0.0000     31.8348    254.9662
   560.7500     84.8835      0.0000     32.3734    254.9785
   561.0000     84.9829      0.0000     34.3535    254.9871
   561.2500     85.1048      0.0000     36.6940    254.9933
   561.5000     85.1413      0.0000     37.5850    255.0012
   561.7500     84.8193      0.0000     36.1305    255.0238
   562.0000     83.6981      0.0000     33.0509    255.0921
   562.2500     81.3831      0.0000     29.9051    255.2667
   562.5000     77.8618      0.0000     28.0319    255.6365
   562.7500     73.5928      0.0000     28.0030    256.2818
   563.0000     69.2217      0.0000     29.4368    257.2001
   563.2500     65.3203      0.0000     31.2344    258.2585
   563.5000     62.3693      0.0000     32.2795    259.2466
   563.7500     60.6673      0.0000     32.1034    260.0032
   564.0000     60.1194      0.0000     31.0448    260.4944
   564.2500     60.2748      0.0000     29.9685    260.7826
   564.5000     60.6129     -2.0000     29.7985    260.9515
   564.7500     60.7189      2.0000     31.0300    261.0630
   565.0000     60.3626      0.0000     33.3673    261.1347
   565.2500     59.7054      0.0000     35.7229    261.1021
