~Version Information
VERS.                      2.0: CWLS Log ASCII Standard - VERSION 2.0
WRAP.                       NO: One line per depth step
~Well Information Block
STRT.FT               240.0000: 
STOP.FT              1709.2000: 
STEP.FT                 0.1000: 
NULL.                -999.2500: 
COMP.          Pioneer Natural Resources: COMPANY
WELL.              Patten 22-2: WELL
FLD.           Purgatoire River: FIELD
LOC.           2157' FNL & 1528' FWL: LOCATION
PROV.                 Colorado: PROVINCE
CNTY.               Las Animas: COUNTRY
SRVC.                Patterson: SERVICE COMPANY
DATE.          Fri Dec 10 09:15:13 2004: LOG DATE
UWI.           05 071 08168 00: UNIQUE WELL ID
~Curve Information Block
DEPT.FT            0 000 00 00: Depth
DCAL.in                       : CDL Caliper
RHOB.g/cc                     : CDL Bulk Density
RHOC.g/cc                     : CDL Density Correction
DPOR.pu                       : CDL Density Porosity
NPOR.pu                       : Neutron Porosity
GR.GAPI                       : Gamma Ray
~Parameter Information Block
~A  Depth       DCAL        RHOB        RHOC        DPOR        NPOR         GR     
# ...
   528.0000      8.1423      2.5424      0.1121      6.5240     23.9271    121.3130
   528.1000      8.1423      2.5574      0.0939      5.6151     24.6371    112.4822
   528.2000      8.1423      2.5592      0.1036      5.5022     25.1949    108.9413
   528.3000      8.1390      2.5413      0.0827      6.5857     25.3215    110.4440
   528.4000      8.1390      2.5119      0.0335      8.3670     25.2103    115.1579
   528.5000      8.1340      2.4928      0.0099      9.5284     24.9728    120.3714
   528.6000      8.1340      2.4892      0.0671      9.7449     24.6792    121.1128
   528.7000      8.1340      2.4754      0.0610     10.5798     24.4568    117.3272
   528.8000      8.1278      2.4234      0.0414     13.7335     24.1424    114.5680
   528.9000      8.1278      2.3286      0.0082     19.4813     23.6131    114.8040
   529.0000      8.1203      2.2083     -0.0116     26.7703     23.0553    116.4833
   529.1000      8.1203      2.0893     -0.0898     33.9836     22.4797    117.2612
   529.2000      8.1203      1.9978     -0.1321     39.5298     21.8373    116.3756
   529.3000      8.1146      1.9472     -0.1563     42.5910     21.4130    115.8598
   529.4000      8.1146      1.9336     -0.1345     43.4208     21.2340    113.5414
   529.5000      8.1169      1.9363     -0.0717     43.2552     20.7385    106.5898
   529.6000      8.1169      1.9327     -0.0202     43.4722     19.5543    100.2658
   529.7000      8.1169      1.9244      0.0449     43.9735     18.1073     99.5852
   529.8000      8.1420      1.9486      0.0371     42.5108     17.0674    101.9391
   529.9000      8.1420      2.0325      0.2565     37.4239     16.3773    102.8881
   530.0000      8.1810      2.1419      0.3204     30.7911     15.6595    103.1282
   530.1000      8.1810      2.2213      0.3181     25.9794     15.0458    107.4244
   530.2000      8.1810      2.2513      0.2086     24.1623     14.8772    114.1994
   530.3000      8.1993      2.2488      0.1654     24.3138     15.0995    114.8928
   530.4000      8.1993      2.2432      0.1032     24.6543     15.6252    108.6098
   530.5000      8.2041      2.2531      0.1378     24.0530     16.4456    104.8857
   530.6000      8.2041      2.2771      0.1125     22.6015     17.1474    110.3127
   530.7000      8.2041      2.3082      0.1481     20.7163     17.3223    120.4622
   530.8000      8.2087      2.3390      0.1557     18.8471     17.1598    128.2790
   530.9000      8.2087      2.3652      0.1393     17.2613     17.1983    131.6056
   531.0000      8.2071      2.3936      0.1227     15.5382     17.6592    131.7816
   531.1000      8.2071      2.4267      0.1614     13.5316     18.3927    132.5826
   531.2000      8.2071      2.4508      0.1699     12.0725     19.2549    134.2596
   531.3000      8.2013      2.4630      0.1217     11.3341     20.1490    132.3920
   531.4000      8.2013      2.4743      0.1400     10.6497     20.9269    127.9546
   531.5000      8.2009      2.4841      0.1341     10.0550     21.6027    126.7742
   531.6000      8.2009      2.4900      0.1256      9.6965     22.1716    129.0488
   531.7000      8.2009      2.4955      0.1174      9.3607     22.6135    130.7703
   531.8000      8.2032      2.4946      0.1247      9.4197     23.1413    132.2918
   531.9000      8.2032      2.4778      0.1294     10.4357     23.7658    133.5539
   532.0000      8.2022      2.4543      0.1035     11.8581     24.1340    131.5511
   532.1000      8.2022      2.4426      0.0785     12.5724     24.1884    126.7811
   532.2000      8.2022      2.4452      0.0848     12.4119     24.1496    124.2129
   532.3000      8.2031      2.4515      0.0924     12.0307     24.1828    125.6191
   532.4000      8.2031      2.4495      0.1060     12.1507     24.3155    127.3745
   532.5000      8.2156      2.4351      0.0367     13.0220     24.0635    129.3372
   532.6000      8.2156      2.4186      0.0839     14.0233     23.0626    134.4014
   532.7000      8.2156      2.4090      0.0942     14.6088     22.1021    138.2555
   532.8000      8.2420      2.4059      0.1177     14.7919     21.8397    136.1106
   532.9000      8.2420      2.4096      0.1075     14.5718     21.9621    131.4401
   533.0000      8.2635      2.4221      0.1030     13.8104     22.1616    128.0400
   533.1000      8.2635      2.4357      0.1598     12.9875     22.4025    125.6646
   533.2000      8.2635      2.4362      0.1198     12.9549     22.5680    123.2965
   533.3000      8.2615      2.4305      0.0777     13.3054     22.6825    120.1889
   533.4000      8.2615      2.4377      0.0907     12.8670     22.9898    116.9883
   533.5000      8.2473      2.4628      0.0907     11.3445     23.3916    116.7960
   533.6000      8.2473      2.4916      0.1671      9.6026     23.5769    122.2934
   533.7000      8.2473      2.5041      0.1842      8.8447     23.5365    131.5018
   533.8000      8.2349      2.4938      0.1379      9.4678     23.4455    136.5086
   533.9000      8.2349      2.4715      0.0505     10.8195     23.4758    132.1280
   534.0000      8.2173      2.4482      0.0925     12.2319     23.5196    125.2680
   534.1000      8.2173      2.4268      0.0392     13.5256     23.0981    121.9226
   534.2000      8.2173      2.4116      0.0589     14.4465     22.0616    120.7933
   534.3000      8.2039      2.4032      0.0661     14.9578     20.9755    120.6717
   534.4000      8.2039      2.3972      0.0910     15.3186     20.4568    121.8590
   534.5000      8.1991      2.3874      0.1094     15.9171     20.5351    125.5617
   534.6000      8.1991      2.3740      0.0554     16.7298     20.8323    129.2260
   534.7000      8.1991      2.3719      0.0334     16.8532     20.9072    127.5984
   534.8000      8.1952      2.3900      0.0826     15.7604     20.4296    123.0674
   534.9000      8.1952      2.4222      0.1184     13.8033     19.6533    123.0822
   535.0000      8.1854      2.4604      0.1562     11.4889     19.3017    126.5212
   535.1000      8.1854      2.4937      0.2084      9.4721     19.5963    125.9407
   535.2000      8.1854      2.5138      0.1608      8.2572     19.8832    118.9086
   535.3000      8.1642      2.5209      0.1556      7.8263     19.7338    112.1273
   535.4000      8.1642      2.5258      0.1116      7.5270     19.6102    110.8723
   535.5000      8.1270      2.5432      0.1431      6.4711     20.0865    111.1248
   535.6000      8.1270      2.5801      0.1290      4.2368     21.0130    108.1770
   535.7000      8.1270      2.6417      0.1049      0.5045     21.8644    103.0089
   535.8000      8.0797      2.7199      0.1455     -4.2345     22.6576     99.4313
   535.9000      8.0797      2.7926      0.1360     -8.6425     23.6815     99.2136
   536.0000      8.0452      2.8572      0.1119    -12.5580     24.8214     99.4320
   536.1000      8.0452      2.9251      0.1745    -16.6756     25.9911     98.2614
   536.2000      8.0452      2.9964      0.1764    -20.9916     27.3291     96.4679
   536.3000      8.0340      3.0586      0.2119    -24.7627     28.9357     91.9060
   536.4000      8.0340      3.0991      0.1432    -27.2211     30.6923     83.4287
   536.5000      8.0344      3.1099      0.1500    -27.8742     32.2191     76.0256
   536.6000      8.0344      3.0778      0.0662    -25.9252     33.3683     74.1940
   536.7000      8.0344      3.0037     -0.0097    -21.4359     34.2750     76.7452
   536.8000      8.0334      2.9180     -0.0916    -16.2435     34.7187     79.2345
   536.9000      8.0334      2.8483     -0.1153    -12.0159     34.3560     81.0836
   537.0000      8.0312      2.7861     -0.1341     -8.2510     33.3310     86.3579
   537.1000      8.0312      2.7075     -0.1394     -3.4871     31.8245     94.2887
   537.2000      8.0312      2.6236     -0.1940      1.6003     30.0540     99.3204
   537.3000      8.0323      2.5713     -0.0854      4.7725     28.4075     99.4009
   537.4000      8.0323      2.5587     -0.0125      5.5331     27.0536     99.0945
   537.5000      8.0399      2.5615      0.0821      5.3625     25.9917    101.0520
