~Version Information
VERS.                      2.0: CWLS Log ASCII Standard - VERSION 2.0
WRAP.                       NO: One line per depth step
~Well Information Block
STRT.FT               741.2000: 
STOP.FT              2461.0000: 
STEP.FT                 0.1000: 
NULL.                -999.2500: 
COMP.          Petrogulf Corporation: COMPANY
WELL.           Montoya 12-44V: WELL
FLD.           Purgatorie River: FIELD
LOC.           698' FSL & 599' FEL: LOCATION
CNTY.               Las Animas: COUNTY
SRVC.                         : SERVICE COMPANY
DATE.          Mon Aug 09 06:09:04 2004: LOG DATE
UWI.           05 071 08094 00: UNIQUE WELL ID
STAT.                 Colorado: STATE
~Curve Information Block
DEPT.FT            0 000 00 00: Depth
DCAL.in                       : CDL Caliper
RHOB.g/cc                     : CDL Bulk Density
RHOC.g/cc                     : CDL Density Correction
DPOR.pu                       : CDL Density Porosity
GR.GAPI                       : Gamma Ray
NPOR.pu                       : Neutron Porosity
~Parameter Information Block
~A  Depth       DCAL        RHOB        RHOC        DPOR         GR         NPOR    
# ...
  2229.2000      7.7148      2.1968      0.0074     27.4678    113.3134     27.8973
  2229.3000      7.7475      2.0943     -0.0258     33.6792    107.0731     27.7081
  2229.4000      7.7475      2.0059     -0.0139     39.0338     99.0678     27.8662
  2229.5000      7.7726      1.9016     -0.0220     45.3573     94.1367     28.7625
  2229.6000      7.7726      1.7685     -0.0676     53.4222     93.7512     29.8071
  2229.7000      7.7726      1.6384     -0.0704     61.3068     88.2694     30.6802
  2229.8000      7.8202      1.5489     -0.0607     66.7337     75.5926     31.2755
  2229.9000      7.8202      1.5033     -0.0319     69.4952     65.9640     31.5361
  2230.0000      7.9750      1.4831     -0.0351     70.7216     64.2083     32.2144
  2230.1000      7.9750      1.4854      0.0095     70.5798     62.8667     33.3293
  2230.2000      7.9750      1.5157      0.1016     68.7451     56.4651     33.7578
  2230.3000      8.0293      1.5531      0.1545     66.4806     51.7241     33.4683
  2230.4000      8.0293      1.5706      0.1313     65.4182     52.5069     33.6093
  2230.5000      8.0267      1.5741      0.0955     65.2032     55.6727     34.2572
  2230.6000      8.0267      1.5856      0.0785     64.5072     59.3697     34.5611
  2230.7000      8.0267      1.6114      0.1032     62.9454     60.2125     34.0402
  2230.8000      8.1427      1.6486      0.0709     60.6911     57.1597     32.8796
  2230.9000      8.1427      1.7016      0.0534     57.4811     53.0540     31.7031
  2231.0000      7.8843      1.7713      0.0795     53.2539     50.7106     30.7429
  2231.1000      7.8843      1.8450      0.1090     48.7864     53.6755     30.0110
  2231.2000      7.8843      1.9219      0.0536     44.1278     60.9743     29.7328
  2231.3000      7.8963      2.0152      0.1802     38.4698     66.1011     29.6179
  2231.4000      7.8963      2.1163      0.2729     32.3484     68.8138     29.0629
  2231.5000      8.1856      2.2103      0.2528     26.6461     74.5037     28.1680
  2231.6000      8.1856      2.3056      0.2263     20.8720     82.3553     27.3262
  2231.7000      8.1856      2.4077      0.1844     14.6844     85.9184     26.8545
  2231.8000      8.1346      2.4926      0.1486      9.5371     84.9781     27.0162
  2231.9000      8.1346      2.5259      0.1074      7.5209     84.6342     27.6533
  2232.0000      7.7686      2.5106      0.0474      8.4500     84.3189     27.8995
  2232.1000      7.7686      2.4902      0.0095      9.6878     82.4602     27.0027
  2232.2000      7.7686      2.4915      0.0136      9.6070     81.5349     25.2631
  2232.3000      7.7145      2.5020      0.0624      8.9720     83.0198     23.6414
  2232.4000      7.7145      2.5071      0.0094      8.6636     85.9254     22.9110
  2232.5000      7.6798      2.5083      0.0393      8.5902     87.8078     23.1631
  2232.6000      7.6798      2.5081      0.0344      8.6026     87.9443     23.9148
  2232.7000      7.6798      2.5084      0.0171      8.5813     87.4441     24.4911
  2232.8000      7.6737      2.5116      0.0370      8.3864     85.8482     24.5477
  2232.9000      7.6737      2.5187      0.0423      7.9564     82.5548     24.3136
  2233.0000      7.6701      2.5319      0.0515      7.1552     81.5134     24.1451
  2233.1000      7.6701      2.5434      0.1138      6.4578     83.6590     23.9184
  2233.2000      7.6701      2.5387      0.0989      6.7474     85.4988     23.7331
  2233.3000      7.6599      2.5196      0.0907      7.9001     86.8813     23.8078
  2233.4000      7.6599      2.4983      0.0512      9.1966     87.9552     23.8826
  2233.5000      7.6724      2.4815      0.0497     10.2093     87.6446     23.9883
  2233.6000      7.6724      2.4719      0.0531     10.7922     87.8972     24.0921
  2233.7000      7.6724      2.4672      0.0385     11.0816     89.6007     23.9275
  2233.8000      7.6773      2.4636      0.0433     11.2958     89.9723     23.9381
  2233.9000      7.6773      2.4630      0.0346     11.3304     86.4518     24.0988
  2234.0000      7.6756      2.4729      0.0320     10.7351     81.1340     23.8298
  2234.1000      7.6756      2.4941      0.0624      9.4495     79.4095     23.4559
  2234.2000      7.6756      2.5168      0.0660      8.0699     80.6404     23.2983
  2234.3000      7.6761      2.5344      0.0758      7.0081     81.0279     22.9583
  2234.4000      7.6761      2.5449      0.0744      6.3680     80.5113     22.3902
  2234.5000      7.6765      2.5459      0.0834      6.3087     80.8735     22.0844
  2234.6000      7.6765      2.5416      0.0626      6.5690     81.4296     22.2781
  2234.7000      7.6765      2.5417      0.0621      6.5641     81.2605     22.6800
  2234.8000      7.6783      2.5437      0.1119      6.4428     82.8930     22.9328
  2234.9000      7.6783      2.5404      0.0600      6.6430     86.5523     23.1295
  2235.0000      7.6754      2.5374      0.0507      6.8234     86.7002     23.6582
  2235.1000      7.6754      2.5391      0.0503      6.7203     80.1341     24.3423
  2235.2000      7.6754      2.5400      0.0617      6.6648     72.4360     24.4758
  2235.3000      7.6761      2.5467      0.0321      6.2609     69.4425     24.2039
  2235.4000      7.6761      2.5640      0.1137      5.2124     70.7640     24.0725
  2235.5000      7.6768      2.5771      0.1113      4.4156     73.8459     24.0250
  2235.6000      7.6768      2.5818      0.0747      4.1307     77.1391     24.0080
  2235.7000      7.6768      2.5797      0.1438      4.2578     80.6797     23.9964
  2235.8000      7.6752      2.5652      0.1000      5.1412     84.6598     23.7298
  2235.9000      7.6752      2.5446      0.0811      6.3867     88.2884     23.2742
  2236.0000      7.6762      2.5300      0.0488      7.2741     90.8504     23.1101
  2236.1000      7.6762      2.5245      0.0610      7.6086     91.0352     23.4853
  2236.2000      7.6762      2.5150      0.0752      8.1835     89.1776     24.1782
  2236.3000      7.6772      2.4916      0.0315      9.5984     88.2037     24.9056
  2236.4000      7.6772      2.4667      0.0281     11.1100     89.8812     25.3403
  2236.5000      7.6755      2.4485      0.0267     12.2126     93.0099     25.4139
  2236.6000      7.6755      2.4355      0.0160     13.0020     95.4975     25.6428
  2236.7000      7.6755      2.4339      0.0323     13.0959     96.9876     25.9000
  2236.8000      7.6753      2.4472      0.0552     12.2928     99.8959     25.4174
  2236.9000      7.6753      2.4642      0.0948     11.2587    106.7202     24.6285
  2237.0000      7.6760      2.4751      0.0973     10.6017    114.8775     24.4600
  2237.1000      7.6760      2.4789      0.1030     10.3718    117.2044     24.7735
  2237.2000      7.6760      2.4837      0.0898     10.0764    112.8040     24.9856
  2237.3000      7.6759      2.4961      0.1247      9.3271    109.6764     25.3668
  2237.4000      7.6759      2.5082      0.1083      8.5917    114.2629     26.2903
  2237.5000      7.6772      2.5159      0.0726      8.1275    120.0418     26.9971
  2237.6000      7.6772      2.5283      0.0463      7.3780    114.7237     26.8307
  2237.7000      7.6772      2.5451      0.1369      6.3548    100.2310     26.2138
  2237.8000      7.6795      2.5496      0.1333      6.0874     91.1719     25.5475
  2237.9000      7.6795      2.5374      0.0901      6.8257     94.2133     24.8206
  2238.0000      7.6809      2.5264      0.0415      7.4903    101.9291     24.1609
  2238.1000      7.6809      2.5284      0.1116      7.3718    105.0563     23.8903
  2238.2000      7.6809      2.5365      0.0837      6.8769    101.3948     24.0362
  2238.3000      7.6761      2.5441      0.0573      6.4162     94.0118     24.4583
  2238.4000      7.6761      2.5508      0.0397      6.0136     89.1628     24.9151
  2238.5000      7.6731      2.5563      0.0554      5.6796     89.6667     24.7297
  2238.6000      7.6731      2.5636      0.0442      5.2356     89.4563     23.9314
  2238.7000      7.6731      2.5751      0.0919      4.5398     83.7727     23.4447
