~Version Information
VERS.                      2.0: CWLS Log ASCII Standard - VERSION 2.0
WRAP.                       NO: One line per depth step
~Well Information Block
STRT.FT                -6.7500: 
STOP.FT              1181.0000: 
STEP.FT                 0.2500: 
NULL.                -999.2500: 
COMP.          Pioneer Natural Resources: COMPANY
WELL.          Pacheco 33-27 Tr: WELL
FLD.           Purgatorie River: FIELD
LOC.           2251' FSL & 2342' FEL--: LOCATION
PROV.                       CO: PROVINCE
CNTY.               Las Animas: COUNTRY
SRVC.          Patterson Wireline: SERVICE COMPANY
DATE.          Wed Jun 15 10:58:02 2005: LOG DATE
UWI.           05 071 08384 00: UNIQUE WELL ID
~Curve Information Block
DEPT.FT            0 000 00 00: Depth
CCL.                          : Casing Collar Locator
TT3.usec                      : CBL 3' Travel Time
AMP3.mV                       : CBL 3' Amplitude
GR.GAPI                       : Gamma Ray
~Parameter Information Block
~A  Depth       CCL         TT3         AMP3         GR     
# ...
   897.7500      0.0000    683.4545      5.0976     68.3386
   898.0000      0.0000    683.4978      5.0560     67.1529
   898.2500      0.0000    684.3068      4.9952     65.6299
   898.5000      0.0000    687.2754      4.8738     64.7877
   898.7500      0.0000    694.7620      4.6818     65.4207
   899.0000      0.0000    709.0136      4.4533     67.1893
   899.2500      0.0000    730.1025      4.2224     68.8979
   899.5000      0.0000    754.8640      3.9934     69.6329
   899.7500      0.0000    778.5078      3.7617     69.4517
   900.0000      0.0000    797.3474      3.5370     69.1540
   900.2500      0.0000    809.8188      3.3402     69.6329
   900.5000      0.0000    815.8295      3.1952     71.2481
   900.7500      0.0000    816.2559      3.1181     73.6780
   901.0000      0.0000    812.4644      3.1012     76.4523
   901.2500      0.0000    804.9304      3.1179     79.4934
   901.5000      0.0000    792.4248      3.1473     83.0363
   901.7500      0.0000    773.7515      3.1844     87.1836
   902.0000      0.0000    750.3848      3.2347     91.6621
   902.2500      0.0000    726.5054      3.3114     96.0691
   902.5000      0.0000    706.6214      3.4195    100.3064
   902.7500      0.0000    694.2132      3.5279    104.4743
   903.0000      0.0000    692.5656      3.5830    108.1667
   903.2500      0.0000    705.5327      3.5632    110.0853
   903.5000      0.0000    736.3734      3.5003    108.6803
   903.7500      0.0000    784.4236      3.4450    103.4955
   904.0000      0.0000    841.1160      3.4377     96.0657
   904.2500      0.0000    889.7504      3.5049     89.4644
   904.5000      0.0000    913.6187      3.6507     86.8577
   904.7500      0.0000    908.3013      3.8517     90.1720
   905.0000     -2.0000    885.3480      4.0736     99.3170
   905.2500     -2.0000    862.1684      4.2970    111.8632
   905.5000      0.0000    848.9244      4.5461    123.7322
   905.7500      0.0000    845.2205      4.8996    131.2578
   906.0000      0.0000    846.3000      5.4374    133.1984
   906.2500      0.0000    849.0493      6.1517    130.8733
   906.5000      0.0000    852.0306      6.9311    126.6621
   906.7500      0.0000    852.9130      7.6477    122.6697
   907.0000      0.0000    848.6948      8.2457    120.2292
   907.2500      0.0000    838.6536      8.7309    119.7094
   907.5000      0.0000    825.9925      9.0982    120.4653
   907.7500      0.0000    816.1429      9.3112    121.1860
   908.0000      0.0000    813.4496      9.3497    120.5060
   908.2500      0.0000    818.7399      9.2348    117.6899
   908.5000      0.0000    829.2176      9.0017    113.2912
   908.7500      0.0000    840.4396      8.6778    109.2543
   909.0000      0.0000    848.7872      8.2854    108.0850
   909.2500      0.0000    852.8288      7.8504    111.5064
   909.5000      0.0000    853.2551      7.4012    119.3881
   909.7500      0.0000    852.0404      6.9610    129.7340
   910.0000      0.0000    851.2651      6.5455    140.0004
   910.2500      0.0000    851.9532      6.1691    148.7080
   910.5000      0.0000    853.7149      5.8442    155.8305
   910.7500      0.0000    855.5510      5.5742    161.8900
   911.0000      0.0000    856.8580      5.3571    167.0827
   911.2500      0.0000    857.6440      5.1942    171.2719
   911.5000      0.0000    858.1271      5.0893    174.2522
   911.7500      0.0000    858.4160      5.0420    175.7519
   912.0000      0.0000    858.5020      5.0374    175.4755
   912.2500      0.0000    858.3857      5.0466    173.3108
   912.5000      0.0000    858.1477      5.0432    169.3052
   912.7500      0.0000    857.9115      5.0163    163.6042
   913.0000      0.0000    857.7554      4.9655    156.8246
   913.2500      0.0000    857.6827      4.8928    150.2784
   913.5000      0.0000    857.6651      4.8060    145.2670
   913.7500      0.0000    857.6893      4.7234    142.1493
   914.0000      0.0000    857.7595      4.6648    140.3281
   914.2500      0.0000    857.8627      4.6444    139.0677
   914.5000      0.0000    857.9242      4.6693    138.2802
   914.7500      0.0000    857.6685      4.7302    138.6883
   915.0000      0.0000    856.2654      4.7958    141.2315
   915.2500      0.0000    851.7581      4.8344    146.0015
   915.5000      0.0000    840.9440      4.8366    151.5759
   915.7500      0.0000    820.9857      4.8116    155.7145
   916.0000      0.0000    792.6378      4.7696    156.9780
   916.2500      0.0000    761.9077      4.7217    155.5407
   916.5000      0.0000    737.1820      4.6858    152.5658
   916.7500      0.0000    724.3837      4.6753    149.2562
   917.0000      0.0000    725.4091      4.6819    146.2123
   917.2500      0.0000    739.5286      4.6846    143.0519
   917.5000      0.0000    763.2209      4.6769    138.7325
   917.7500      0.0000    788.5286      4.6734    132.7614
   918.0000      0.0000    804.7847      4.6824    126.1433
   918.2500      0.0000    804.7861      4.6853    120.7649
   918.5000      0.0000    790.4980      4.6590    117.6946
   918.7500      0.0000    772.8207      4.6131    116.4426
   919.0000      0.0000    764.3143      4.5906    116.0916
   919.2500      0.0000    770.0273      4.6258    116.5980
   919.5000      0.0000    784.5966      4.7140    118.3958
   919.7500      0.0000    798.3181      4.8296    121.1598
   920.0000      0.0000    805.7649      4.9604    123.7849
   920.2500      0.0000    808.7283      5.1097    125.5506
   920.5000      0.0000    812.0634      5.2773    126.6178
   920.7500      0.0000    817.9689      5.4537    127.3522
   921.0000      0.0000    824.7205      5.6287    127.8543
   921.2500      0.0000    830.0543      5.7874    128.3557
   921.5000      0.0000    833.9848      5.9107    129.4229
   921.7500      0.0000    837.7812      5.9971    131.3862
   922.0000      0.0000    841.6843      6.0769    133.9290
   922.2500      0.0000    844.6884      6.1849    136.2929
   922.5000      0.0000    845.7905      6.3165    137.5833
   922.7500      0.0000    844.5495      6.4236    137.1004
   923.0000      0.0000    841.0086      6.4546    134.9608
   923.2500      0.0000    835.9367      6.3923    132.5216
   923.5000      0.0000    830.8140      6.2567    131.9316
   923.7500      0.0000    826.9739      6.0828    134.7505
   924.0000      0.0000    824.7932      5.9010    140.3686
   924.2500      0.0000    823.8243      5.7331    145.7308
   924.5000      0.0000    823.4415      5.5974    147.2623
   924.7500      0.0000    823.2294      5.5081    143.4688
   925.0000      0.0000    823.0143      5.4612    135.5738
   925.2500      0.0000    822.7014      5.4249    125.9652
   925.5000      0.0000    822.0192      5.3601    116.5998
   925.7500      0.0000    820.2787      5.2546    108.5512
   926.0000      0.0000    816.5943      5.1284    102.1690
   926.2500      0.0000    810.9452      5.0066     97.2827
   926.5000      0.0000    805.2770      4.8979     93.7089
   926.7500      0.0000    802.7581      4.8100     92.0121
   927.0000      0.0000    805.0507      4.7684     93.5670
   927.2500      0.0000    810.6093      4.8046     99.3746
   927.5000      0.0000    816.2055      4.9208    108.9314
   927.7500      0.0000    819.5945      5.0710    120.4284
   928.0000      0.0000    820.1783      5.1818    131.6019
   928.2500      0.0000    817.5966      5.1961    140.2140
   928.5000      0.0000    810.4190      5.1053    144.5918
   928.7500      0.0000    796.7789      4.9493    144.6115
   929.0000      0.0000    777.0841      4.7943    142.1196
   929.2500      0.0000    756.5621      4.6997    139.7738
   929.5000      0.0000    744.2078      4.6876    139.0242
   929.7500      0.0000    747.2903      4.7333    139.2594
   930.0000      0.0000    765.4323      4.7875    139.0839
   930.2500      0.0000    789.5580      4.8160    138.1594
   930.5000      0.0000    806.9950      4.8242    137.4204
   930.7500      0.0000    808.7900      4.8444    137.6830
   931.0000      0.0000    794.0051      4.8997    138.6069
