~Version Information
 VERS.                                  2.0 : CWLS LAS VERSION
 WRAP.                                   NO : WRAPING MODE
 SWARE .                 MController 2.5.0I : SOFTWARE VERSION
~Well Information
 WELL.                        Montoya 7-21v : WELL
 COMP.                       Petrogulf Corp : COMPANY
 FLD.                      Purgatorie River : FIELD
 LOC.                 NE/NW Sec 7 T33S R67W : LOCATION
 DATE.                                  N/A : DATE(S) LOGGED
 SRVC.       Blanco Geological Services LLC : SERVICE COMPANY
 STAT.                                   CO : STATE
 CNTY.                           Las Animas : COUNTY
 CTRY.                                  USA : COUNTRY
 API.                       05-071-08018-00 : API NUMBER
 STRT.FT                             836.00 : START DEPTH
 STOP.FT                            2421.00 : STOP DEPTH
 STEP.FT                               1.00 : DEPTH INCREMENT
 NULL.                                -9999 : NULL VALUE
~Curve information
 DEPTH.FT                                   :
 ROP.MIN/FT                                 :
 GAS.UNITS                                  :
~ASCII Log data
# ...
      1836.0          0.4         25.0 
      1837.0          0.5         21.2 
      1838.0          0.3         18.6 
      1839.0          0.4         18.8 
      1840.0          0.5         19.5 
      1841.0          0.3         19.7 
      1842.0          0.4         20.1 
      1843.0          0.5         20.2 
      1844.0          0.4         20.2 
      1845.0          0.5         21.9 
      1846.0          0.4         26.2 
      1847.0          0.3         31.1 
      1848.0          0.4         39.6 
      1849.0          0.5         52.9 
      1850.0          0.5         65.4 
      1851.0          0.4         74.8 
      1852.0          0.6         84.2 
      1853.0          0.2         87.3 
      1854.0          0.4         91.7 
      1855.0          0.4         96.0 
      1856.0          0.3        100.5 
      1857.0          0.4        108.0 
      1858.0          0.4        119.2 
      1859.0          0.4        141.3 
      1860.0          0.3        178.0 
      1861.0          0.5        332.2 
      1862.0         21.8       1343.8 
      1863.0         53.1       1584.0 
      1864.0        150.4       1995.4 
      1865.0         46.3       1094.5 
      1866.0          0.1         71.4 
      1867.0          0.4         96.8 
      1868.0          0.5        138.8 
      1869.0          0.4        128.4 
      1870.0          0.3         50.0 
      1871.0          0.4         25.3 
      1872.0          0.6         15.9 
      1873.0          0.6         20.1 
      1874.0          0.5         21.4 
      1875.0          0.5         21.7 
      1876.0          0.5         21.7 
      1877.0          0.5         21.3 
      1878.0          0.6         20.7 
      1879.0          0.6         20.1 
      1880.0          0.6         18.0 
      1881.0          0.6         16.9 
      1882.0          0.6         16.9 
      1883.0          0.6         17.2 
      1884.0          0.6         17.2 
      1885.0          0.6         17.0 
      1886.0          0.6         16.9 
      1887.0          0.6         17.1 
      1888.0          0.6         17.9 
      1889.0          0.5         18.1 
      1890.0          4.3        114.9 
      1891.0          0.5         93.1 
      1892.0          0.5         25.3 
      1893.0          0.6         12.5 
      1894.0          0.6         16.7 
      1895.0          0.5         18.7 
      1896.0          0.5         20.8 
      1897.0          0.5         21.1 
      1898.0          0.6         20.8 
      1899.0          0.5         19.6 
      1900.0          0.5         19.3 
      1901.0          0.5         18.5 
      1902.0          0.5         18.5 
      1903.0          0.6         18.6 
      1904.0          0.5         18.7 
      1905.0          0.4         18.8 
      1906.0          0.4         19.2 
      1907.0          0.4         19.5 
      1908.0          0.4         19.5 
      1909.0          0.2         19.4 
      1910.0          0.5         19.4 
      1911.0          0.4         19.3 
      1912.0          0.6         20.0 
      1913.0          0.7         20.1 
      1914.0          0.5         20.0 
      1915.0          0.5         19.4 
      1916.0          0.7         19.4 
      1917.0          5.7        153.7 
      1918.0          0.3         15.0 
      1919.0          0.3         11.1 
      1920.0          0.3         11.9 
      1921.0          0.4         14.4 
      1922.0          0.4         17.1 
      1923.0          0.5         20.4 
      1924.0          0.4         21.1 
      1925.0          0.4         21.8 
      1926.0          0.4         21.8 
      1927.0          0.3         21.7 
      1928.0          0.4         21.3 
      1929.0          0.4         20.9 
      1930.0          0.3         20.3 
      1931.0          0.4         19.8 
      1932.0          0.4         18.9 
      1933.0          0.3         17.9 
      1934.0          0.4         17.4 
      1935.0          0.4         16.8 
      1936.0          0.4         16.8 
      1937.0          0.2         16.9 
      1938.0          0.2         16.9 
      1939.0          0.3         17.3 
      1940.0          0.4         17.4 
      1941.0          0.5         20.4 
      1942.0          0.5         25.1 
      1943.0          0.5         24.1 
      1944.0          0.6         20.8 
      1945.0          0.6         19.6 
      1946.0          0.2         19.1 
      1947.0          4.9        173.5 
      1948.0          0.4         53.2 
      1949.0          0.6         13.5 
      1950.0          0.6         15.3 
      1951.0          0.6         19.9 
      1952.0          0.6         22.1 
      1953.0          0.4         22.4 
      1954.0          0.4         22.3 
      1955.0          0.5         21.9 
      1956.0          0.5         22.1 
      1957.0          0.4         21.8 
      1958.0          0.4         20.9 
      1959.0          0.4         20.3 
      1960.0          0.5         19.7 
      1961.0          0.7         19.5 
      1962.0          0.5         19.2 
      1963.0          0.4         19.0 
      1964.0          0.4         18.6 
      1965.0          0.6         18.7 
      1966.0          0.6         18.8 
      1967.0          0.7         18.9 
      1968.0          0.4         18.8 
      1969.0          0.6         19.1 
      1970.0          0.6         18.9 
      1971.0          0.5         19.0 
      1972.0          0.5         18.9 
      1973.0          0.4         19.0 
      1974.0          0.4         18.8 
      1975.0          0.3         18.9 
      1976.0          0.4         18.7 
      1977.0          4.3        104.9 
      1978.0          0.3         66.8 
      1979.0          0.4         28.6 
      1980.0          0.4         12.1 
      1981.0          0.4         12.9 
      1982.0          0.4         16.2 
      1983.0          0.4         19.2 
      1984.0          0.4         20.4 
      1985.0          0.6         21.6 
      1986.0          0.4         21.8 
      1987.0          0.4         21.9 
      1988.0          0.2         21.1 
      1989.0          0.3         20.9 
      1990.0          0.4         20.5 
      1991.0          0.5         22.5 
      1992.0          0.4         26.8 
      1993.0          0.5         26.7 
      1994.0          0.6         23.6 
      1995.0          0.7         21.7 
      1996.0          0.5         20.7 
      1997.0          0.7         20.8 
      1998.0          0.6         20.7 
      1999.0          0.6         20.7 
      2000.0          0.6         21.0 
      2001.0          0.5         21.5 
      2002.0          0.3         21.4 
      2003.0          0.3         21.6 
      2004.0          0.3         21.6 
      2005.0          0.4         22.0 
      2006.0          0.4         22.4 
      2007.0          0.3         22.8 
      2008.0          0.3         23.0 
      2009.0          8.6        177.9 
      2010.0          0.5         21.8 
      2011.0          0.5         22.7 
      2012.0          0.6         22.8 
      2013.0          0.6         21.9 
      2014.0          0.6         20.8 
      2015.0          0.5         20.7 
      2016.0          0.5         20.6 
      2017.0          0.6         20.2 
      2018.0          0.6         10.4 
      2019.0          0.6          1.8 
      2020.0          0.7         19.5 
      2021.0          0.4         21.6 
      2022.0          0.4         21.6 
      2023.0          0.5         21.8 
      2024.0          0.5         21.7 
      2025.0          0.5         21.6 
      2026.0          0.6         21.8 
      2027.0          0.6         21.6 
      2028.0          0.8         21.7 
      2029.0          0.8         21.6 
      2030.0          0.6         21.3 
      2031.0          0.3         21.3 
      2032.0          0.4         21.4 
      2033.0          0.5         20.9 
      2034.0          0.6         73.8 
      2035.0          0.6         75.8 
