~Version Information
VERS.                      2.0: CWLS Log ASCII Standard - VERSION 2.0
WRAP.                       NO: One line per depth step
~Well Information Block
STRT.FT                15.0000: 
STOP.FT              1211.0000: 
STEP.FT                 0.2500: 
NULL.                -999.2500: 
COMP.          Pioneer Natural Resources: COMPANY
WELL.          Santa Fe 43-27 Tr: WELL
FLD.           Purgatoire River: FIELD
LOC.           2018' FSL & 534' FEL: LOCATION
PROV.                 Colorado: PROVINCE
CNTY.               Las Animas: COUNTRY
SRVC.                Patterson: SERVICE COMPANY
DATE.          Mon Mar 14 15:43:40 2005: LOG DATE
UWI.           05 071 08303 00: UNIQUE WELL ID
~Curve Information Block
DEPT.FT            0 000 00 00: Depth
GR.GAPI                       : Gamma Ray
CCL.                          : Casing Collar Locator
TT3.usec                      : CBL 3' Travel Time
AMP3.mV                       : CBL 3' Amplitude
AMP5.mV                       : CBL 5' Amplitude
~Parameter Information Block
~A  Depth        GR         CCL         TT3         AMP3        AMP5    
# ...
   323.0000     94.5910      0.0000   1303.1705      7.3473      1.4101
   323.2500     93.1942      0.0000   1319.0457      7.4100      1.4422
   323.5000     90.8104      0.0000   1323.3629      7.4637      1.4767
   323.7500     88.5470      0.0000   1321.5127      7.6829      1.5028
   324.0000     88.4736      0.0000   1312.8778      8.3482      1.5157
   324.2500     92.3695      0.0000   1293.8721      9.6647      1.5232
   324.5000    100.0602      0.0000   1262.9890     11.4933      1.5452
   324.7500    109.0702      0.0000   1224.6547     13.2984      1.6120
   325.0000    116.3981      0.0000   1186.2538     14.5211      1.7554
   325.2500    120.6134      0.0000   1151.2866     15.0165      1.9814
   325.5000    122.3582      0.0000   1120.0620     15.0615      2.2436
   325.7500    123.4582      0.0000   1096.2020     15.0147      2.4651
   326.0000    125.4471      0.0000   1082.9680     15.0637      2.6040
   326.2500    128.2404      0.0000   1072.0313     15.2184      2.6790
   326.5000    130.2328      0.0000   1047.5425     15.4135      2.7247
   326.7500    130.0566      0.0000   1005.2037     15.5850      2.7485
   327.0000    128.0560      0.0000    958.2971     15.6908      2.7419
   327.2500    125.9629      0.0000    921.8728     15.7036      2.7092
   327.5000    125.5925      0.0000    898.3055     15.6062      2.6708
   327.7500    127.8662      0.0000    880.5081     15.4072      2.6492
   328.0000    132.3586      0.0000    862.6960     15.1464      2.6596
   328.2500    137.3777      0.0000    845.1560     14.8864      2.7041
   328.5000    140.7528      0.0000    832.9053     14.7067      2.7697
   328.7500    140.8436      0.0000    832.5179     14.7031      2.8366
   329.0000    137.1403      0.0000    847.3194     14.9605      2.8927
   329.2500    130.3588      0.0000    872.8621     15.4944      2.9391
   329.5000    121.8951      0.0000    898.6392     16.2153      2.9829
   329.7500    112.9349      0.0000    916.6116     16.9641      3.0271
   330.0000    104.4149      0.0000    927.2712     17.6004      3.0679
   330.2500     97.8379      0.0000    935.6363     18.0739      3.1000
   330.5000     95.0460      0.0000    943.2662     18.4234      3.1190
   330.7500     96.4668      0.0000    946.9670     18.7096      3.1222
   331.0000    100.1915      0.0000    943.3523     18.9445      3.1110
   331.2500    103.4697      0.0000    931.3099     19.0882      3.0934
   331.5000    104.7840      0.0000    911.8762     19.1127      3.0810
   331.7500    104.2383      0.0000    888.9759     19.0437      3.0797
   332.0000    102.6885      0.0000    869.1801     18.9218      3.0849
   332.2500    101.1062      0.0000    858.3276     18.7460      3.0875
   332.5000    100.3682      0.0000    858.0618     18.4846      3.0844
   332.7500    100.8614      0.0000    865.4326     18.1297      3.0794
   333.0000    102.0290      0.0000    875.2424     17.7227      3.0726
   333.2500    102.6256      0.0000    882.8353     17.3253      3.0552
   333.5000    101.6913      0.0000    885.0593     16.9759      3.0173
   333.7500     99.2543      0.0000    880.0072     16.6729      2.9600
   334.0000     96.0416      0.0000    868.0095     16.3974      2.8975
   334.2500     92.7063      0.0000    852.7998     16.1477      2.8463
   334.5000     89.4807      0.0000    839.8046     15.9460      2.8133
   334.7500     86.3800      0.0000    832.7692     15.8129      2.7964
   335.0000     83.4326      0.0000    832.1343     15.7395      2.7929
   335.2500     80.7337      0.0000    835.6150     15.6965      2.8039
   335.5000     78.4507      0.0000    839.7218     15.6692      2.8304
   335.7500     76.6650      0.0000    841.4853     15.6802      2.8686
   336.0000     74.9952      0.0000    839.8140     15.7783      2.9130
   336.2500     72.5844      0.0000    835.9506     16.0083      2.9594
   336.5000     68.8455      0.0000    832.7170     16.3892      3.0052
   336.7500     64.2748      0.0000    832.5982     16.9102      3.0467
   337.0000     60.4045      0.0000    835.8755     17.5323      3.0810
   337.2500     58.8774      0.0000    840.6635     18.1959      3.1097
   337.5000     60.3865      0.0000    844.7245     18.8390      3.1378
   337.7500     64.1347      0.0000    846.8898     19.4170      3.1676
   338.0000     68.1561      0.0000    846.8578     19.9018      3.1967
   338.2500     70.4532      0.0000    844.3339     20.2661      3.2220
   338.5000     70.2870      0.0000    838.9048     20.4761      3.2450
   338.7500     68.5824      0.0000    830.8218     20.5071      3.2689
   339.0000     67.0882      0.0000    821.6143     20.3632      3.2929
   339.2500     67.1601      0.0000    813.5189     20.0758      3.3099
   339.5000     69.2320      0.0000    808.2736     19.6847      3.3113
   339.7500     73.0321      0.0000    806.7238     19.2219      3.2930
   340.0000     77.9581      0.0000    809.6671     18.7124      3.2568
   340.2500     83.1891      0.0000    818.3824     18.1762      3.2083
   340.5000     87.5182      0.0000    833.4193     17.6270      3.1525
   340.7500     89.5455      0.0000    852.9470     17.0814      3.0930
   341.0000     88.7269      0.0000    874.5042     16.5735      3.0347
   341.2500     86.2635      0.0000    899.8556     16.1466      2.9849
   341.5000     84.3942      0.0000    935.7938     15.8233      2.9485
   341.7500     84.7495      0.0000    985.8478     15.5989      2.9241
   342.0000     87.6883      0.0000   1041.1461     15.4706      2.9059
   342.2500     92.8749      0.0000   1082.9445     15.4585      2.8918
   342.5000     99.8434      0.0000   1095.5463     15.5850      2.8845
   342.7500    107.9479      0.0000   1075.6709     15.8340      2.8870
   343.0000    116.1994      0.0000   1031.1841     16.1425      2.8994
   343.2500    123.3879      0.0000    975.3680     16.4363      2.9197
   343.5000    128.3603      0.0000    922.2549     16.6794      2.9462
   343.7500    130.3124      0.0000    881.7051     16.8924      2.9772
   344.0000    129.0998      0.0000    855.4376     17.1219      3.0090
   344.2500    125.2772      0.0000    837.6682     17.3868      3.0359
   344.5000    119.6085      0.0000    820.2974     17.6531      3.0545
   344.7500    112.6699      0.0000    799.9250     17.8595      3.0670
   345.0000    105.3593      0.0000    782.5098     17.9596      3.0793
   345.2500     99.5747      0.0000    779.0621     17.9394      3.0937
   345.5000     97.5324      0.0000    793.4893     17.8065      3.1057
   345.7500    100.0220      0.0000    816.6177     17.5739      3.1074
   346.0000    105.6962      0.0000    835.2274     17.2577      3.0952
   346.2500    112.1715      0.0000    844.1230     16.8824      3.0733
   346.5000    117.4526      0.0000    847.3686     16.4865      3.0495
   346.7500    120.3499      0.0000    852.0994     16.1169      3.0282
   347.0000    120.2639      0.0000    864.5807     15.8125      3.0057
   347.2500    117.1360      0.0000    888.0923     15.5899      2.9743
   347.5000    111.7673      0.0000    918.6852     15.4444      2.9302
   347.7500    106.1259      0.0000    943.5651     15.3601      2.8784
   348.0000    102.9736      0.0000    949.3237     15.3142      2.8292
   348.2500    104.4777      0.0000    934.2299     15.2821      2.7909
   348.5000    110.6212      0.0000    910.0145     15.2489      2.7629
   348.7500    118.9663      0.0000    890.4089     15.2156      2.7377
   349.0000    126.3310      0.0000    880.0010     15.1855      2.7091
   349.2500    130.9716      0.0000    874.3507     15.1473      2.6783
   349.5000    133.2923      0.0000    867.7813     15.0780      2.6517
   349.7500    134.7765      0.0000    859.0701     14.9608      2.6336
   350.0000    136.5816      0.0000    850.9913     14.7986      2.6209
   350.2500    138.8925      0.0000    847.0642     14.6130      2.6057
   350.5000    141.0446      0.0000    850.0782     14.4320      2.5823
   350.7500    142.2136      0.0000    863.4498     14.2759      2.5527
