~Version Information
VERS.                      2.0: CWLS Log ASCII Standard - VERSION 2.0
WRAP.                       NO: One line per depth step
~Well Information Block
STRT.FT               185.2500: 
STOP.FT              2109.7500: 
STEP.FT                 0.2500: 
NULL.                -999.2500: 
COMP.    Petrogulf Corporation: COMPANY
WELL.             State 16-44V: WELL
FLD.          Purgatorie River: FIELD
LOC.       320' FSL & 320' FEL: LOCATION
PROV.                 Colorado: PROVINCE
CNTY.               Las Animas: COUNTRY
SRVC.                Patterson: SERVICE COMPANY
DATE. Thu Aug 11 12:58:04 2005: LOG DATE
UWI.               071-08263  : UNIQUE WELL ID
~Curve Information Block
DEPT.FT            0 000 00 00: Depth
GR.GAPI                       : Gamma Ray
CCL.                          : Casing Collar Locator
TT3.usec                      : CBL 3' Travel Time
AMP3.mV                       : CBL 3' Amplitude
~Parameter Information Block
~A  Depth        GR         CCL         TT3         AMP3    
# ...
  1826.7500     86.4123      0.0000    612.9849      1.1291
  1827.0000     94.3671      0.0000    612.4121      1.1539
  1827.2500    100.9839      0.0000    612.0807      1.1960
  1827.5000    106.0353      0.0000    612.4965      1.2552
  1827.7500    109.8822      0.0000    614.2750      1.3292
  1828.0000    113.0582      0.0000    617.2372      1.4077
  1828.2500    115.8139      0.0000    619.8134      1.4829
  1828.5000    117.9237      0.0000    621.4176      1.5657
  1828.7500    118.9549      0.0000    624.1027      1.6725
  1829.0000    118.7507      0.0000    629.0398      1.7987
  1829.2500    117.5695      0.0000    634.1440      1.9246
  1829.5000    115.7062      0.0000    636.7221      2.0379
  1829.7500    113.1688      0.0000    635.7092      2.1290
  1830.0000    110.0142      0.0000    632.1378      2.1886
  1830.2500    106.9167      0.0000    628.0202      2.2157
  1830.5000    104.9894      0.0000    623.1545      2.2113
  1830.7500    104.9014      0.0000    617.2101      2.1743
  1831.0000    106.3409      0.0000    614.0906      2.1171
  1831.2500    108.2490      0.0000    615.8701      2.0702
  1831.5000    109.6379      0.0000    617.2585      2.0538
  1831.7500    110.5846      0.0000    613.2919      2.0587
  1832.0000    112.2359      0.0000    606.9730      2.0494
  1832.2500    115.2265      0.0000    604.5112      1.9801
  1832.5000    118.4187      0.0000    606.9327      1.8407
  1832.7500    119.9973      0.0000    610.4101      1.6824
  1833.0000    119.6165      0.0000    612.1541      1.5616
  1833.2500    118.6755      0.0000    612.3382      1.4860
  1833.5000    118.5375      0.0000    611.9807      1.4326
  1833.7500    119.1543      0.0000    611.5614      1.3770
  1834.0000    119.4351      0.0000    611.1670      1.3086
  1834.2500    118.2139      0.0000    610.7610      1.2434
  1834.5000    114.8351      0.0000    610.2498      1.2074
  1834.7500    109.6614      0.0000    609.5925      1.2026
  1835.0000    104.2741      0.0000    608.8453      1.2108
  1835.2500    100.5595      0.0000    608.0652      1.2167
  1835.5000     99.3712      0.0000    607.3184      1.2210
  1835.7500    100.0761      0.0000    606.8015      1.2437
  1836.0000    100.9948      0.0000    606.7290      1.3062
  1836.2500    100.2020      0.0000    607.0521      1.3971
  1836.5000     96.5345      0.0000    607.6157      1.4754
  1836.7500     90.2881      0.0000    608.7920      1.5239
  1837.0000     83.0145      0.0000    611.5310      1.5724
  1837.2500     76.7003      0.0000    615.7531      1.6525
  1837.5000     72.9288      0.0000    619.0833      1.7582
  1837.7500     72.2288      0.0000    619.4851      1.8685
  1838.0000     73.8631      0.0000    618.1399      1.9737
  1838.2500     76.3019      0.0000    617.2448      2.0703
  1838.5000     78.1091      0.0000    617.2582      2.1548
  1838.7500     78.5375      0.0000    617.4310      2.2265
  1839.0000     77.5137      0.0000    616.0243      2.2773
  1839.2500     75.3231      0.0000    607.8507      2.2940
  1839.5000     72.4567      0.0000    583.5208      2.2774
  1839.7500     69.7002      0.0000    540.9546      2.2375
  1840.0000     68.1352      0.0000    502.7662      2.1716
  1840.2500     68.6495      0.0000    502.5527      2.0756
  1840.5000     71.2493      0.0000    542.6566      1.9735
  1840.7500     75.0113      0.0000    588.7149      1.8999
  1841.0000     78.7531      0.0000    610.7042      1.8621
  1841.2500     81.6446      0.0000    608.4983      1.8499
  1841.5000     83.3544      0.0000    598.4784      1.8629
  1841.7500     83.8738      0.0000    592.0455      1.8997
  1842.0000     83.2048      0.0000    591.5670      1.9431
  1842.2500     81.2423      0.0000    596.7918      1.9703
  1842.5000     78.0137      0.0000    605.6754      1.9638
  1842.7500     73.8466      0.0000    612.4077      1.9184
  1843.0000     69.2624      0.0000    612.8228      1.8475
  1843.2500     64.9808      0.0000    608.6883      1.7806
  1843.5000     62.0174      0.0000    602.6347      1.7376
  1843.7500     61.3581      0.0000    595.8824      1.7192
  1844.0000     63.1816      0.0000    590.4658      1.7215
  1844.2500     66.3663      0.0000    588.0950      1.7336
  1844.5000     68.9956      0.0000    589.3749      1.7332
  1844.7500     69.7594      0.0000    595.3498      1.7136
  1845.0000     69.1502      0.0000    606.6409      1.6930
  1845.2500     69.1580      0.0000    620.2761      1.6920
  1845.5000     71.4936      0.0000    630.4476      1.7252
  1845.7500     76.0373      0.0000    633.4739      1.8020
  1846.0000     81.0251      0.0000    630.1082      1.9162
  1846.2500     84.5658      0.0000    625.9049      2.0434
  1846.5000     85.8892      0.0000    629.4299      2.1518
  1846.7500     85.3865      0.0000    641.5670      2.2185
  1847.0000     83.8879      0.0000    649.9825      2.2391
  1847.2500     82.0486      0.0000    643.9012      2.2224
  1847.5000     80.2355      0.0000    627.3613      2.1788
  1847.7500     78.6767      0.0000    612.3882      2.1127
  1848.0000     77.4238      0.0000    606.9229      2.0333
  1848.2500     76.1808      0.0000    613.3981      1.9617
  1848.5000     74.5839      0.0000    630.4167      1.9157
  1848.7500     73.0122      0.0000    649.5740      1.8941
  1849.0000     72.8652      0.0000    659.0510      1.8762
  1849.2500     75.4622      0.0000    655.4619      1.8411
  1849.5000     80.4947      0.0000    645.1316      1.7905
  1849.7500     85.8811      0.0000    635.4348      1.7441
  1850.0000     89.4282      0.0000    631.2113      1.7160
  1850.2500     90.5327      0.0000    633.3668      1.7061
  1850.5000     90.0427      0.0000    637.2705      1.7108
  1850.7500     88.7508      0.0000    637.3677      1.7254
  1851.0000     86.5836      0.0000    633.4081      1.7404
  1851.2500     83.2144      0.0000    630.6591      1.7559
  1851.5000     78.9751      0.0000    633.8471      1.7874
  1851.7500     74.9840      0.0000    642.9144      1.8437
  1852.0000     72.5574      0.0000    655.9420      1.9171
  1852.2500     72.5312      0.0000    670.2692      1.9976
  1852.5000     74.9255      0.0000    680.5917      2.0782
  1852.7500     78.9488      0.0000    682.0096      2.1545
  1853.0000     83.2123      0.0000    673.3224      2.2339
  1853.2500     86.1850      0.0000    657.7024      2.3357
  1853.5000     86.8835      0.0000    643.5023      2.4815
  1853.7500     85.4559      0.0000    637.4761      2.6813
  1854.0000     83.2422      0.0000    636.5343      2.9337
  1854.2500     82.0935      0.0000    634.2830      3.2271
  1854.5000     83.1332      0.0000    632.1761      3.5132
  1854.7500     85.7977      0.0000    637.3274      3.6963
  1855.0000     88.1310      0.0000    651.4413      3.7123
  1855.2500     88.2601      0.0000    670.4975      3.6711
  1855.5000     85.6697      0.0000    694.1774      3.8180
  1855.7500     81.2548      0.0000    719.2096      4.2357
  1856.0000     76.5435      0.0000    728.6287      4.7358
  1856.2500     72.8490      0.0000    714.6371      5.0742
  1856.5000     70.6676      0.0000    697.7673      5.1168
  1856.7500     69.5842      0.0000    694.4556      4.8425
  1857.0000     68.8025      0.0000    693.5948      4.3691
  1857.2500     67.8170      0.0000    683.0572      3.9637
  1857.5000     66.7250      0.0000    667.6409      3.8028
  1857.7500     66.2671      0.0000    656.8649      3.7281
  1858.0000     67.4874      0.0000    654.6479      3.4875
  1858.2500     70.8057      0.0000    656.3361      3.1059
  1858.5000     75.3593      0.0000    655.2962      2.7680
  1858.7500     79.5555      0.0000    652.6687      2.5657
  1859.0000     82.2358      0.0000    653.1924      2.4941
  1859.2500     83.2963      0.0000    655.8106      2.5150
  1859.5000     83.5698      0.0000    654.7763      2.5768
  1859.7500     84.2948      0.0000    649.6100      2.6159
  1860.0000     86.1661      0.0000    646.3527      2.5706
