~Version Information
VERS.                      2.0: CWLS Log ASCII Standard - VERSION 2.0
WRAP.                       NO: One line per depth step
~Well Information Block
STRT.FT               546.2500: 
STOP.FT              2488.5000: 
STEP.FT                 0.2500: 
NULL.                -999.2500: 
COMP.          Petrogulf Corporation: COMPANY
WELL.               Egan 9-11V: WELL
FLD.           Purgatorie River: FIELD
LOC.           724' FNL & 1379' FWL: LOCATION
PROV.                 Colorado: PROVINCE
CNTY.               Las Animas: COUNTRY
SRVC.          Patterson Wireline: SERVICE COMPANY
DATE.          Fri Jul 11 23:16:48 2003: LOG DATE
UWI.           05 071 07875 00: UNIQUE WELL ID
~Curve Information Block
DEPT.FT            0 000 00 00: Depth
DCAL.in                       : CDL Caliper
RHOB.g/cc                     : CDL Bulk Density
RHOC.g/cc                     : CDL Density Correction
DPOR.pu                       : CDL Density Porosity
GR.GAPI                       : Gamma Ray
NPOR.pu                       : Neutron Porosity
~Parameter Information Block
~A  Depth       DCAL        RHOB        RHOC        DPOR         GR         NPOR    
# ...
  1842.2500      8.1867      2.5444      0.1107      6.3981    109.6754     27.6314
  1842.5000      8.2241      2.5568      0.1041      5.6462    109.4043     27.2639
  1842.7500      8.2507      2.5608      0.0922      5.4085    108.9466     27.0898
  1843.0000      8.2253      2.5610      0.0695      5.3935    106.8817     26.8802
  1843.2500      8.1743      2.5593      0.0578      5.4982    104.5339     26.7223
  1843.5000      8.1386      2.5576      0.0545      5.6017    100.7335     26.4411
  1843.7500      8.1244      2.5584      0.0622      5.5497     99.0082     26.2958
  1844.0000      8.1207      2.5627      0.0812      5.2912     98.3218     26.3007
  1844.2500      8.1201      2.5661      0.0935      5.0829     98.6657     26.4477
  1844.5000      8.1209      2.5683      0.1048      4.9504     99.2093     26.6523
  1844.7500      8.1217      2.5653      0.1062      5.1349     99.3293     26.6466
  1845.0000      8.1193      2.5501      0.0994      6.0557     99.5979     26.4797
  1845.2500      8.1111      2.5312      0.0914      7.1985    100.3345     26.4347
  1845.5000      8.1028      2.4886      0.0819      9.7790    102.7730     26.7020
  1845.7500      8.1138      2.4513      0.0826     12.0427    105.0091     27.0992
  1846.0000      8.1544      2.3857      0.0992     16.0187    108.0126     27.8570
  1846.2500      8.2458      2.3398      0.1198     18.8007    109.1690     28.3885
  1846.5000      8.4087      2.2778      0.1620     22.5558    109.6057     29.1964
  1846.7500      8.6090      2.2478      0.1959     24.3779    109.4025     29.7477
  1847.0000      8.8825      2.2293      0.2516     25.4967    108.5262     30.5063
  1847.2500      9.2094      2.2380      0.2871     24.9725    107.1322     30.8382
  1847.5000      9.3942      2.2817      0.3279     22.3216    103.0108     30.8636
  1847.7500      9.3910      2.3272      0.3415     19.5623     99.0477     30.5521
  1848.0000      9.2753      2.4079      0.3355     14.6755     92.6105     29.7592
  1848.2500      8.9702      2.4613      0.3118     11.4385     88.7796     29.1174
  1848.5000      8.5594      2.5275      0.2487      7.4246     84.2974     28.0689
  1848.7500      8.3078      2.5573      0.1946      5.6196     82.1862     27.3658
  1849.0000      8.2248      2.5779      0.1159      4.3686     80.4422     26.5141
  1849.2500      8.1901      2.5774      0.0764      4.4016     80.4123     26.2303
  1849.5000      8.1691      2.5607      0.0433      5.4099     82.5170     26.3615
  1849.7500      8.1622      2.5425      0.0352      6.5167     85.5652     26.7901
  1850.0000      8.1614      2.5089      0.0355      8.5542     92.4522     27.7798
  1850.2500      8.1732      2.4841      0.0407     10.0519     98.1022     28.5656
  1850.5000      8.2071      2.4459      0.0543     12.3700    106.8924     29.7885
  1850.7500      8.2527      2.4206      0.0669     13.9026    112.1198     30.5707
  1851.0000      8.2984      2.3846      0.0864     16.0869    117.8374     31.6086
  1851.2500      8.3178      2.3630      0.0951     17.3912    120.0858     32.1555
  1851.5000      8.2946      2.3379      0.0973     18.9146    121.8127     32.6424
  1851.7500      8.2455      2.3286      0.0935     19.4786    122.2124     32.6802
  1852.0000      8.2139      2.3303      0.0877     19.3741    121.2920     32.2516
  1852.2500      8.2056      2.3433      0.0868     18.5849    119.2229     31.6571
  1852.5000      8.1834      2.3794      0.0889     16.4015    114.0509     30.4384
  1852.7500      8.1431      2.4113      0.0896     14.4652    109.9157     29.5588
  1853.0000      8.1244      2.4634      0.0858     11.3063    104.0946     28.4381
  1853.2500      8.1199      2.4965      0.0802      9.3060    100.9990     27.9298
  1853.5000      8.0961      2.5378      0.0704      6.7980     97.7671     27.4851
  1853.7500      8.0567      2.5588      0.0655      5.5295     96.3574     27.2802
  1854.0000      8.0344      2.5810      0.0626      4.1797     94.6132     26.8939
  1854.2500      8.0303      2.5912      0.0634      3.5611     93.1822     26.5174
  1854.5000      8.0307      2.6021      0.0658      2.9027     90.0233     25.7933
  1854.7500      8.0265      2.6075      0.0664      2.5784     87.2399     25.2809
  1855.0000      8.0141      2.6139      0.0652      2.1850     82.7075     24.6660
  1855.2500      8.0019      2.6180      0.0648      1.9422     80.0712     24.4722
  1855.5000      7.9973      2.6248      0.0684      1.5293     77.7478     24.6000
  1855.7500      7.9981      2.6305      0.0738      1.1818     77.6748     24.9299
  1856.0000      7.9997      2.6415      0.0834      0.5170     79.6192     25.6064
  1856.2500      8.0000      2.6502      0.0895     -0.0141     81.5789     26.0384
  1856.5000      7.9991      2.6645      0.0987     -0.8770     83.8582     26.4292
  1856.7500      7.9979      2.6736      0.1050     -1.4325     84.3273     26.4071
  1857.0000      7.9972      2.6848      0.1120     -2.1113     83.4346     25.8362
  1857.2500      7.9971      2.6896      0.1137     -2.4016     82.1031     25.1228
  1857.5000      7.9973      2.6919      0.1126     -2.5406     79.6014     23.8160
  1857.7500      7.9978      2.6900      0.1120     -2.4224     77.8953     23.0221
  1858.0000      7.9978      2.6810      0.1135     -1.8789     75.7560     22.2912
  1858.2500      7.9908      2.6699      0.1146     -1.2057     74.9378     22.2098
  1858.5000      7.9734      2.6432      0.1104      0.4123     75.3010     22.7415
  1858.7500      7.9608      2.6181      0.1009      1.9308     77.0135     23.5262
  1859.0000      7.9687      2.5721      0.0792      4.7185     82.5045     25.2138
  1859.2500      8.0059      2.5396      0.0670      6.6922     88.3622     26.4739
  1859.5000      8.0750      2.4962      0.0653      9.3192     99.6027     28.1244
  1859.7500      8.1562      2.4753      0.0772     10.5896    107.1953     28.9054
  1860.0000      8.1840      2.4593      0.1047     11.5581    115.6283     29.5800
  1860.2500      8.1178      2.4585      0.1207     11.6074    118.4076     29.7538
  1860.5000      8.0488      2.4682      0.1315     11.0203    118.9655     29.6691
  1860.7500      8.0271      2.4790      0.1289     10.3617    117.6732     29.4065
  1861.0000      8.0385      2.4977      0.1146      9.2313    113.7015     28.7681
  1861.2500      8.0634      2.5099      0.1024      8.4883    109.7602     28.2454
  1861.5000      8.0818      2.5262      0.0870      7.5054    102.9542     27.4726
  1861.7500      8.0886      2.5348      0.0805      6.9805     99.0390     27.0684
  1862.0000      8.0899      2.5439      0.0755      6.4333     95.9238     26.7668
  1862.2500      8.0896      2.5471      0.0742      6.2357     95.9544     26.7828
  1862.5000      8.0879      2.5482      0.0748      6.1668     98.3319     26.9931
  1862.7500      8.0862      2.5470      0.0765      6.2414    100.6659     27.1176
  1863.0000      8.0856      2.5433      0.0790      6.4688    103.9439     27.1224
  1863.2500      8.0869      2.5401      0.0788      6.6629    105.4282     27.0322
  1863.5000      8.0911      2.5348      0.0743      6.9814    106.3817     26.9317
  1863.7500      8.0936      2.5310      0.0693      7.2116    106.4008     26.9548
  1864.0000      8.0932      2.5242      0.0623      7.6247    105.8949     27.0940
  1864.2500      8.0922      2.5182      0.0602      7.9879    105.2634     27.2008
  1864.5000      8.0906      2.5059      0.0617      8.7328    104.0536     27.3282
  1864.7500      8.0868      2.4953      0.0655      9.3732    103.4822     27.3993
  1865.0000      8.0810      2.4771      0.0766     10.4804    104.1884     27.5353
  1865.2500      8.0776      2.4647      0.0908     11.2315    106.3136     27.6783
  1865.5000      8.0787      2.4485      0.1280     12.2131    111.8175     28.0203
  1865.7500      8.1007      2.4404      0.1625     12.7003    116.0354     28.3536
  1866.0000      8.1782      2.4333      0.2193     13.1332    120.9414     29.0116
