~Version Information
VERS.                      2.0: CWLS Log ASCII Standard - VERSION 2.0
WRAP.                       NO: One line per depth step
~Well Information Block
STRT.FT               546.2500: 
STOP.FT              2496.7500: 
STEP.FT                 0.2500: 
NULL.                -999.2500: 
COMP.          Petrogulf Corporation: COMPANY
WELL.               Egan 9-11V: WELL
FLD.           Purgatorie River: FIELD
LOC.           724' FNL & 1379' FWL: LOCATION
PROV.                 Colorado: PROVINCE
CNTY.               Las Animas: COUNTRY
SRVC.          Patterson Wireline: SERVICE COMPANY
DATE.          Fri Jul 11 23:32:41 2003: LOG DATE
UWI.           05 071 07875 00: UNIQUE WELL ID
~Curve Information Block
DEPT.FT            0 000 00 00: Depth
SP.mV                         : DIL Spontaneous Potential
RILD.Ohm-m                    : DIL Deep Resistivity
RILM.Ohm-m                    : DIL Medium Resistivity
RLL3.Ohm-m                    : DIL Shallow Resistivity
GR.GAPI                       : Gamma Ray
~Parameter Information Block
~A  Depth        SP         RILD        RILM        RLL3         GR     
# ...
   574.2500   2000.0000      7.0293 100000.0000   2000.0000     73.7489
   574.5000   2000.0000      7.0104 100000.0000   2000.0000     73.7463
   574.7500   2000.0000      6.9922 100000.0000   2000.0000     73.8690
   575.0000   2000.0000      6.9764 100000.0000   2000.0000     73.4206
   575.2500   2000.0000      6.9650 100000.0000   2000.0000     72.7771
   575.5000   2000.0000      6.9606 100000.0000   2000.0000     72.2610
   575.7500   2000.0000      6.9652 100000.0000   2000.0000     72.7984
   576.0000   2000.0000      6.9792 100000.0000   2000.0000     75.1645
   576.2500   2000.0000      7.0007 100000.0000   2000.0000     77.4661
   576.5000   2000.0000      7.0260 100000.0000   2000.0000     81.3886
   576.7500   2000.0000      7.0508 100000.0000   2000.0000     84.1675
   577.0000   2000.0000      7.0731 100000.0000   2000.0000     88.3152
   577.2500   2000.0000      7.0928 100000.0000   2000.0000     90.6548
   577.5000   2000.0000      7.1109 100000.0000   2000.0000     92.8091
   577.7500   2000.0000      7.1272 100000.0000   2000.0000     93.2967
   578.0000   2000.0000      7.1394 100000.0000   2000.0000     93.0554
   578.2500   2000.0000      7.1440 100000.0000   2000.0000     92.5086
   578.5000   2000.0000      7.1387 100000.0000   2000.0000     91.4164
   578.7500   2000.0000      7.1245 100000.0000   2000.0000     90.7077
   579.0000   2000.0000      7.1049 100000.0000   2000.0000     90.0002
   579.2500   2000.0000      7.0845 100000.0000   2000.0000     89.7757
   579.5000   2000.0000      7.0671 100000.0000   2000.0000     89.4706
   579.7500   2000.0000      7.0548 100000.0000   2000.0000     89.0494
   580.0000   2000.0000      7.0486 100000.0000   2000.0000     87.9621
   580.2500   2000.0000      7.0483 100000.0000   2000.0000     87.0378
   580.5000   2000.0000      7.0538 100000.0000   2000.0000     85.6442
   580.7500   2000.0000      7.0644 100000.0000   2000.0000     84.8659
   581.0000   2000.0000      7.0791 100000.0000   2000.0000     84.1939
   581.2500   2000.0000      7.0959 100000.0000   2000.0000     84.2590
   581.5000   2000.0000      7.1119 100000.0000   2000.0000     85.3135
   581.7500   2000.0000      7.1244 100000.0000   2000.0000     86.5074
   582.0000   2000.0000      7.1315 100000.0000   2000.0000     88.3003
   582.2500   2000.0000      7.1331 100000.0000   2000.0000     88.9771
   582.5000   2000.0000      7.1308 100000.0000   2000.0000     88.7002
   582.7500   2000.0000      7.1262 100000.0000   2000.0000     87.7894
   583.0000   2000.0000      7.1201 100000.0000   2000.0000     86.2666
   583.2500   2000.0000      7.1118 100000.0000   2000.0000     85.7794
   583.5000   2000.0000      7.0992 100000.0000   2000.0000     86.4373
   583.7500   2000.0000      7.0805 100000.0000   2000.0000     87.7896
   584.0000   2000.0000      7.0556 100000.0000   2000.0000     90.7155
   584.2500   2000.0000      7.0269 100000.0000   2000.0000     92.7738
   584.5000   2000.0000      6.9992 100000.0000   2000.0000     94.8460
   584.7500   2000.0000      6.9775 100000.0000   2000.0000     94.9073
   585.0000   2000.0000      6.9657 100000.0000   2000.0000     92.6880
   585.2500   2000.0000      6.9650 100000.0000   2000.0000     90.0633
   585.5000   2000.0000      6.9742 100000.0000   2000.0000     85.5677
   585.7500   2000.0000      6.9889 100000.0000   2000.0000     82.8266
   586.0000   2000.0000      7.0033 100000.0000   2000.0000     79.8516
   586.2500   2000.0000      7.0113 100000.0000   2000.0000     78.8099
   586.5000   2000.0000      7.0091 100000.0000   2000.0000     78.4422
   586.7500   2000.0000      6.9971 100000.0000   2000.0000     78.6619
   587.0000   2000.0000      6.9797 100000.0000   2000.0000     79.0944
   587.2500   2000.0000      6.9629 100000.0000   2000.0000     79.1951
   587.5000   2000.0000      6.9518 100000.0000   2000.0000     78.9508
   587.7500   2000.0000      6.9490 100000.0000   2000.0000     78.7762
   588.0000   2000.0000      6.9545 100000.0000   2000.0000     79.2545
   588.2500   2000.0000      6.9665 100000.0000   2000.0000     80.2645
   588.5000   2000.0000      6.9822 100000.0000   2000.0000     82.3354
   588.7500   2000.0000      6.9978 100000.0000   2000.0000     83.6414
   589.0000   2000.0000      7.0093 100000.0000   2000.0000     85.1408
   589.2500   2000.0000      7.0130 100000.0000   2000.0000     85.7666
   589.5000   2000.0000      7.0071 100000.0000   2000.0000     85.6544
   589.7500   2000.0000      6.9925 100000.0000   2000.0000     84.4312
   590.0000   2000.0000      6.9731 100000.0000   2000.0000     80.6803
   590.2500   2000.0000      6.9545 100000.0000   2000.0000     77.4285
   590.5000   2000.0000      6.9430 100000.0000   2000.0000     72.9787
   590.7500   2000.0000      6.9426 100000.0000   2000.0000     71.0691
   591.0000   2000.0000      6.9549 100000.0000   2000.0000     70.4666
   591.2500   2000.0000      6.9792 100000.0000   2000.0000     71.7619
   591.5000   2000.0000      7.0153 100000.0000   2000.0000     76.3246
   591.7500   2000.0000      7.0633 100000.0000   2000.0000     80.7132
   592.0000   2000.0000      7.1215 100000.0000   2000.0000     87.5090
   592.2500   2000.0000      7.1825 100000.0000   2000.0000     90.8656
   592.5000   2000.0000      7.2337 100000.0000   2000.0000     92.8481
   592.7500   2000.0000      7.2617 100000.0000   2000.0000     92.3697
   593.0000   2000.0000      7.2569 100000.0000   2000.0000     90.4557
   593.2500   2000.0000      7.2165 100000.0000   2000.0000     89.1646
   593.5000   2000.0000      7.1468 100000.0000   2000.0000     87.5114
   593.7500   2000.0000      7.0661 100000.0000   2000.0000     86.2851
   594.0000   2000.0000      7.0010 100000.0000   2000.0000     83.6454
   594.2500   2000.0000      6.9740 100000.0000   2000.0000     81.2050
   594.5000   2000.0000      6.9895 100000.0000   2000.0000     76.5527
   594.7500   2000.0000      7.0288 100000.0000   2000.0000     72.8506
   595.0000   2000.0000      7.0596 100000.0000   2000.0000     66.6652
   595.2500   2000.0000      7.0562 100000.0000   2000.0000     62.4619
   595.5000   2000.0000      7.0146 100000.0000   2000.0000     56.6470
   595.7500   2000.0000      6.9555 100000.0000   2000.0000     53.2111
   596.0000   2000.0000      6.9154 100000.0000   2000.0000     48.6594
   596.2500   2000.0000      6.9359 100000.0000   2000.0000     46.1205
   596.5000   2000.0000      7.0508 100000.0000   2000.0000     43.3394
   596.7500   2000.0000      7.2686 100000.0000   2000.0000     42.0988
   597.0000   2000.0000      7.5491 100000.0000   2000.0000     40.6139
   597.2500   2000.0000      7.7876 100000.0000   2000.0000     39.6382
   597.5000   2000.0000      7.8485 100000.0000   2000.0000     38.1277
   597.7500   2000.0000      7.6601 100000.0000   2000.0000     37.0275
   598.0000   2000.0000      7.2811 100000.0000   2000.0000     35.0483
   598.2500   2000.0000      6.8487 100000.0000   2000.0000     33.6500
   598.5000   2000.0000      6.4796 100000.0000   2000.0000     32.2518
   598.7500   2000.0000      6.2324 100000.0000   2000.0000     32.2338
   599.0000   2000.0000      6.1287 100000.0000   2000.0000     33.7911
   599.2500   2000.0000      6.1891 100000.0000   2000.0000     35.8018
   599.5000   2000.0000      6.4558 100000.0000   2000.0000     39.8618
   599.7500   2000.0000      6.9868 100000.0000   2000.0000     42.6531
   600.0000   2000.0000      7.7931 100000.0000   2000.0000     45.4578
   600.2500   2000.0000      8.6756 100000.0000   2000.0000     45.9029
   600.5000   2000.0000      9.0828 100000.0000   2000.0000     45.0541
   600.7500   2000.0000      8.5434 100000.0000   2000.0000     44.3341
   601.0000   2000.0000      7.3854 100000.0000   2000.0000     43.9837
   601.2500   2000.0000      6.2958 100000.0000   2000.0000     44.2488
   601.5000   2000.0000      5.6100 100000.0000   2000.0000     45.0780
   601.7500   2000.0000      5.3613 100000.0000   2000.0000     45.8405
   602.0000   2000.0000      5.4987 100000.0000   2000.0000     47.2897
