~Version Information
VERS.                      2.0: CWLS Log ASCII Standard - VERSION 2.0
WRAP.                       NO: One line per depth step
~Well Information Block
STRT.FT               811.0000: 
STOP.FT              2507.0000: 
STEP.FT                 0.1000: 
NULL.                -999.2500: 
COMP.          Petrogulf Corporation: COMPANY
WELL.               YWAM 7-32V: WELL
FLD.           Purgatoire River: FIELD
LOC.           2423' FNL & 2412' FEL: LOCATION
PROV.                 Colorado: PROVINCE
CNTY.               Las Animas: COUNTRY
SRVC.                Patterson: SERVICE COMPANY
DATE.          Mon Dec 15 07:18:47 2003: LOG DATE
UWI.                          : UNIQUE WELL ID
~Curve Information Block
DEPT.FT            0 000 00 00: Depth
DCAL.in                       : CDL Caliper
RHOB.g/cc                     : CDL Bulk Density
RHOC.g/cc                     : CDL Density Correction
DPOR.pu                       : CDL Density Porosity
NPOR.pu                       : Neutron Porosity
GR.GAPI                       : Gamma Ray
~Parameter Information Block
~A  Depth       DCAL        RHOB        RHOC        DPOR        NPOR         GR     
# ...
  1819.0000      8.1508      2.6124      0.1430      2.2779     18.1908    108.7696
  1819.1000      8.1508      2.5984      0.1504      3.1301     17.4915    109.3494
  1819.2000      8.1508      2.5577      0.0575      5.5955     16.8529    115.6924
  1819.3000      8.1493      2.5219     -0.0064      7.7652     16.3229    127.7706
  1819.4000      8.1493      2.5229      0.0126      7.7059     15.8959    134.9642
  1819.5000      8.1449      2.5552      0.0383      5.7438     15.5857    130.8320
  1819.6000      8.1449      2.5874      0.0728      3.7918     15.3835    121.6674
  1819.7000      8.1449      2.5997      0.0524      3.0510     15.0740    116.0627
  1819.8000      8.1471      2.5957      0.0435      3.2925     14.8406    117.4374
  1819.9000      8.1471      2.5839      0.0497      4.0078     14.7838    124.9319
  1820.0000      8.1472      2.5744      0.0192      4.5807     14.6685    132.7733
  1820.1000      8.1472      2.5766      0.0431      4.4481     14.6513    130.0180
  1820.2000      8.1472      2.5815      0.0925      4.1491     14.8926    117.3953
  1820.3000      8.1454      2.5774      0.0375      4.4001     15.2422    107.9609
  1820.4000      8.1454      2.5704      0.0231      4.8214     15.2649    107.0508
  1820.5000      8.1476      2.5641      0.0485      5.2088     14.7917    111.0232
  1820.6000      8.1476      2.5536      0.0466      5.8433     14.2349    113.3550
  1820.7000      8.1476      2.5449      0.0113      6.3676     13.9441    108.5645
  1820.8000      8.1443      2.5491      0.0109      6.1142     14.1653    100.3918
  1820.9000      8.1443      2.5670      0.0173      5.0314     14.7226     97.0216
  1821.0000      8.1403      2.5918      0.0509      3.5279     15.2032    101.0927
  1821.1000      8.1403      2.6167      0.0605      2.0157     15.4775    107.6383
  1821.2000      8.1403      2.6314      0.0701      1.1270     15.4861    107.8296
  1821.3000      8.1600      2.6278      0.0504      1.3472     15.2002    103.0705
  1821.4000      8.1600      2.6122      0.0889      2.2884     14.9428    100.5798
  1821.5000      8.1631      2.5891      0.0824      3.6882     14.9885     98.9002
  1821.6000      8.1631      2.5593      0.0519      5.4997     14.9900     94.2083
  1821.7000      8.1631      2.5359     -0.0009      6.9126     14.6691     89.7737
  1821.8000      8.1604      2.5282      0.0193      7.3833     14.6435     91.1063
  1821.9000      8.1604      2.5190      0.0240      7.9409     15.6577     97.6550
  1822.0000      8.1609      2.4976     -0.0096      9.2347     17.7065    108.1550
  1822.1000      8.1609      2.4816     -0.0066     10.2065     20.1529    120.2955
  1822.2000      8.1609      2.4820     -0.0297     10.1839     22.1236    125.7479
  1822.3000      8.1670      2.4942     -0.0276      9.4424     23.0627    121.1374
  1822.4000      8.1670      2.5142      0.0341      8.2274     23.0759    114.0590
  1822.5000      8.1656      2.5370      0.0629      6.8492     22.6272    114.8714
  1822.6000      8.1656      2.5582      0.0689      5.5656     21.9604    125.0528
  1822.7000      8.1656      2.5759      0.0620      4.4885     21.4369    135.1843
  1822.8000      8.1641      2.5868      0.0646      3.8273     21.7538    138.8458
  1822.9000      8.1641      2.5840      0.0781      4.0023     22.8323    138.4162
  1823.0000      8.1607      2.5637      0.0745      5.2293     23.5607    137.7853
  1823.1000      8.1607      2.5417      0.0588      6.5610     23.5168    138.2414
  1823.2000      8.1607      2.5345      0.0412      7.0015     23.5939    137.9423
  1823.3000      8.1624      2.5297      0.0743      7.2918     24.2068    135.1138
  1823.4000      8.1624      2.5096      0.0376      8.5117     24.6647    132.0649
  1823.5000      8.1679      2.4804      0.0534     10.2802     24.3890    132.9194
  1823.6000      8.1679      2.4532      0.0051     11.9289     23.4477    135.2227
  1823.7000      8.1679      2.4314     -0.0004     13.2489     22.3724    133.0000
  1823.8000      8.1658      2.4165      0.0192     14.1486     21.7064    128.2919
  1823.9000      8.1658      2.4107      0.0218     14.5004     21.4429    128.1715
  1824.0000      8.1653      2.4177      0.0184     14.0782     20.9705    134.4371
  1824.1000      8.1653      2.4399      0.0381     12.7307     19.9114    143.1564
  1824.2000      8.1653      2.4695      0.0973     10.9413     18.5394    149.0982
  1824.3000      8.1650      2.4922      0.0666      9.5649     16.9884    148.9393
  1824.4000      8.1650      2.5069      0.0976      8.6714     15.3499    142.5807
  1824.5000      8.1667      2.5198      0.1050      7.8920     14.1427    134.8107
  1824.6000      8.1667      2.5323      0.1259      7.1354     13.4211    127.4856
  1824.7000      8.1667      2.5474      0.1077      6.2193     12.6724    116.9642
  1824.8000      8.1557      2.5660      0.0977      5.0889     11.9951    105.2859
  1824.9000      8.1557      2.5764      0.0921      4.4579     11.7821     95.6113
  1825.0000      8.1307      2.5686      0.0645      4.9340     11.7840     86.8583
  1825.1000      8.1307      2.5499      0.0607      6.0648     11.3236     79.5135
  1825.2000      8.1307      2.5305      0.0565      7.2435     10.6058     75.6451
  1825.3000      8.1425      2.5139      0.0572      8.2504     10.4223     74.4383
  1825.4000      8.1425      2.5040      0.0582      8.8468     10.6629     74.4583
  1825.5000      8.1458      2.4966      0.0833      9.2982     10.6182     74.0774
  1825.6000      8.1458      2.4824      0.0582     10.1549     10.2783     72.2609
  1825.7000      8.1458      2.4676      0.0312     11.0560     10.5866     72.0846
  1825.8000      8.1648      2.4619      0.0352     11.4023     12.0588     74.0207
  1825.9000      8.1648      2.4545      0.0446     11.8510     14.1458     74.8386
  1826.0000      8.1683      2.4218      0.0032     13.8313     16.0006     76.3683
  1826.1000      8.1683      2.3618     -0.0209     17.4677     17.3021     79.7244
  1826.2000      8.1683      2.2943     -0.0344     21.5588     18.3638     80.6609
  1826.3000      8.1651      2.2295     -0.0237     25.4852     19.6507     80.4270
  1826.4000      8.1651      2.1614     -0.0352     29.6131     21.1446     82.9982
  1826.5000      8.1652      2.1017     -0.1406     33.2293     22.3460     87.8667
  1826.6000      8.1652      2.0815     -0.0788     34.4519     22.4454     92.2047
  1826.7000      8.1652      2.1009      0.0050     33.2761     21.2004     92.8775
  1826.8000      8.1650      2.1383      0.0422     31.0119     19.6892     92.6501
  1826.9000      8.1650      2.1858      0.0999     28.1348     18.5415     95.2172
  1827.0000      8.1672      2.2387      0.1834     24.9300     17.1525     98.0753
  1827.1000      8.1672      2.2924      0.1743     21.6735     15.2454     99.8608
  1827.2000      8.1672      2.3508      0.1572     18.1362     13.6055    100.3602
  1827.3000      8.1647      2.4135      0.1291     14.3357     12.7529     99.0931
  1827.4000      8.1647      2.4713      0.0722     10.8314     12.4358     98.4076
  1827.5000      8.1684      2.5117      0.0783      8.3845     12.6228    100.7313
  1827.6000      8.1684      2.5293      0.0605      7.3151     13.3478    108.2245
  1827.7000      8.1684      2.5332      0.0450      7.0765     14.2428    121.8784
  1827.8000      8.1688      2.5293      0.0477      7.3177     14.7637    137.0300
  1827.9000      8.1688      2.5230      0.0215      7.6946     15.0451    149.0271
  1828.0000      8.1672      2.5346     -0.0105      6.9919     15.7580    154.8572
  1828.1000      8.1672      2.5707      0.0530      4.8082     16.8498    151.9442
  1828.2000      8.1672      2.6028      0.0782      2.8631     17.8045    145.1989
  1828.3000      8.1654      2.6036      0.0719      2.8134     18.5137    142.2561
  1828.4000      8.1654      2.5798      0.0411      4.2562     19.0468    145.5634
  1828.5000      8.1640      2.5554      0.0166      5.7339     19.3992    153.5823
