~Version Information
VERS.                      2.0: CWLS Log ASCII Standard - VERSION 2.0
WRAP.                       NO: One line per depth step
~Well Information Block
STRT.FT               494.2500: 
STOP.FT              1992.0000: 
STEP.FT                 0.2500: 
NULL.                -999.2500: 
COMP.          Petrogulf Corporation: COMPANY
WELL.               Furu 6-23R: WELL
FLD.           Purgatoire River: FIELD
LOC.           2211' FSL & 1780' FWL--: LOCATION
CNTY.               Las Animas: COUNTY
SRVC.                Patterson: SERVICE COMPANY
DATE.          Wed Jun 21 14:57:59 2006: LOG DATE
UWI.           05 071 08266 00: UNIQUE WELL ID
STAT.                 Colorado: STATE
~Curve Information Block
DEPT.FT            0 000 00 00: Depth
GR.GAPI                       : Gamma Ray
RILD.Ohm-m                    : DIL Deep Resistivity
RILM.Ohm-m                    : DIL Medium Resistivity
RLL3.Ohm-m                    : DIL Shallow Resistivity
SP.mV                         : DIL Spontaneous Potential
~Parameter Information Block
~A  Depth        GR         RILD        RILM        RLL3         SP     
# ...
  1894.2500    157.2785      9.7371     10.3171     10.0518    167.8949
  1894.5000    156.4968      9.8160     10.5216     10.3083    167.5288
  1894.7500    155.7553      9.8870     10.7457     10.7071    167.1031
  1895.0000    153.6913      9.9463     10.9678     11.2303    166.6656
  1895.2500    151.5644      9.9921     11.1603     11.8425    166.2734
  1895.5000    148.0210     10.0242     11.2952     12.4583    165.9774
  1895.7500    146.3622     10.0430     11.3540     12.9246    165.8023
  1896.0000    146.4965     10.0492     11.3347     13.0698    165.7340
  1896.2500    148.4265     10.0453     11.2520     12.8041    165.7303
  1896.5000    152.2573     10.0357     11.1305     12.1940    165.7503
  1896.7500    153.9752     10.0256     10.9952     11.4433    165.7763
  1897.0000    153.9702     10.0185     10.8652     10.7855    165.8121
  1897.2500    152.2937     10.0133     10.7525     10.3567    165.8682
  1897.5000    147.8411     10.0055     10.6637     10.1473    165.9508
  1897.7500    143.9379      9.9885     10.6023     10.0645    166.0569
  1898.0000    137.5566      9.9578     10.5698     10.0411    166.1704
  1898.2500    133.7276      9.9124     10.5652     10.0866    166.2631
  1898.5000    130.0827      9.8550     10.5845     10.2495    166.3059
  1898.7500    129.5549      9.7905     10.6202     10.5454    166.2814
  1899.0000    131.1992      9.7239     10.6613     10.9213    166.1915
  1899.2500    132.9706      9.6589     10.6948     11.2789    166.0553
  1899.5000    134.7939      9.5983     10.7079     11.5261    165.8999
  1899.7500    134.9678      9.5438     10.6911     11.6159    165.7480
  1900.0000    134.3530      9.4973     10.6417     11.5501    165.6098
  1900.2500    134.0697      9.4598     10.5636     11.3615    165.4842
  1900.5000    134.1339      9.4317     10.4652     11.0979    165.3682
  1900.7500    134.1857      9.4124     10.3555     10.8108    165.2616
  1901.0000    134.1434      9.3999     10.2407     10.5419    165.1665
  1901.2500    134.3468      9.3931     10.1239     10.3073    165.0847
  1901.5000    135.1338      9.3917     10.0081     10.0975    165.0173
  1901.7500    135.5632      9.3980      9.8987      9.8949    164.9620
  1902.0000    135.5962      9.4155      9.8040      9.6942    164.9108
  1902.2500    135.7899      9.4490      9.7342      9.5121    164.8519
  1902.5000    138.3830      9.5031      9.6986      9.3842    164.7715
  1902.7500    142.2235      9.5825      9.7051      9.3477    164.6519
  1903.0000    149.3139      9.6906      9.7601      9.4150    164.4751
  1903.2500    152.7860      9.8303      9.8688      9.5616    164.2341
  1903.5000    153.5411     10.0035     10.0362      9.7532    163.9416
  1903.7500    151.0886     10.2121     10.2676      9.9971    163.6253
  1904.0000    144.7109     10.4577     10.5693     10.3713    163.3153
  1904.2500    139.8647     10.7416     10.9489     10.9884    163.0354
  1904.5000    133.4602     11.0644     11.4128     11.9100    162.8008
  1904.7500    130.4915     11.4250     11.9644     13.0825    162.6219
  1905.0000    128.2582     11.8203     12.6014     14.3687    162.5046
  1905.2500    127.7431     12.2438     13.3150     15.6701    162.4512
  1905.5000    126.9930     12.6851     14.0894     17.0098    162.4634
  1905.7500    125.8830     13.1294     14.8997     18.4526    162.5452
  1906.0000    123.3871     13.5573     15.7092     19.9271    162.6946
  1906.2500    121.8591     13.9446     16.4686     21.1793    162.8947
  1906.5000    121.0670     14.2650     17.1197     21.9415    163.1232
  1906.7500    121.8123     14.4933     17.6053     22.1117    163.3753
  1907.0000    124.3984     14.6107     17.8788     21.7542    163.6688
  1907.2500    126.6646     14.6087     17.9139     20.9932    164.0187
  1907.5000    130.1947     14.4900     17.7096     19.9507    164.4074
  1907.7500    132.2734     14.2684     17.2917     18.7389    164.7856
  1908.0000    134.8549     13.9642     16.7085     17.4511    165.1054
  1908.2500    136.7807     13.6000     16.0205     16.1550    165.3510
  1908.5000    141.4801     13.1955     15.2874     14.9058    165.5397
  1908.7500    146.0156     12.7663     14.5579     13.7682    165.6986
  1909.0000    153.0715     12.3247     13.8639     12.8247    165.8456
  1909.2500    156.2681     11.8821     13.2199     12.1488    165.9897
  1909.5000    157.2678     11.4500     12.6274     11.7470    166.1357
  1909.7500    155.9285     11.0376     12.0811     11.5216    166.2843
  1910.0000    153.4903     10.6505     11.5756     11.3162    166.4295
  1910.2500    153.0718     10.2909     11.1085     11.0209    166.5573
  1910.5000    155.0382      9.9601     10.6804     10.6465    166.6502
  1910.7500    157.2001      9.6605     10.2920     10.3004    166.7000
  1911.0000    159.2614      9.3959      9.9415     10.0857    166.7194
  1911.2500    159.1186      9.1704      9.6246     10.0082    166.7386
  1911.5000    157.5986      8.9867      9.3367      9.9723    166.7888
  1911.7500    156.9534      8.8452      9.0753      9.8641    166.8829
  1912.0000    158.0424      8.7452      8.8424      9.6342    167.0063
  1912.2500    160.2426      8.6856      8.6457      9.3110    167.1256
  1912.5000    164.8547      8.6664      8.4961      8.9685    167.2106
  1912.7500    167.9312      8.6893      8.4052      8.7043    167.2530
  1913.0000    171.0085      8.7574      8.3823      8.6215    167.2679
  1913.2500    171.4487      8.8743      8.4336      8.7811    167.2765
  1913.5000    169.5304      9.0431      8.5621      9.1520    167.2834
  1913.7500    166.8056      9.2657      8.7709      9.6219    167.2687
  1914.0000    161.2062      9.5435      9.0660     10.0841    167.2048
  1914.2500    156.8465      9.8791      9.4591     10.5469    167.0797
  1914.5000    149.8560     10.2767      9.9687     11.2011    166.9041
  1914.7500    144.9518     10.7404     10.6194     12.4071    166.7044
  1915.0000    136.9832     11.2711     11.4392     14.6048    166.5124
  1915.2500    131.1308     11.8630     12.4543     18.1985    166.3548
  1915.5000    121.7148     12.5028     13.6818     23.4885    166.2417
  1915.7500    115.4058     13.1732     15.1176     30.6194    166.1636
  1916.0000    107.1214     13.8565     16.7231     39.4055    166.1059
  1916.2500    103.3794     14.5358     18.4130     48.9850    166.0657
  1916.5000    101.9574     15.1924     20.0556     57.5988    166.0578
  1916.7500    103.9102     15.8029     21.4881     63.0073    166.1118
  1917.0000    109.3777     16.3404     22.5493     63.6174    166.2654
  1917.2500    113.0854     16.7803     23.1223     59.4619    166.5513
  1917.5000    117.1957     17.1054     23.1742     52.0303    166.9821
  1917.7500    119.3660     17.3073     22.7733     43.1791    167.5414
  1918.0000    123.3850     17.3843     22.0655     34.3445    168.1814
  1918.2500    126.8772     17.3393     21.2197     26.5585    168.8258
  1918.5000    132.0106     17.1788     20.3758     20.6195    169.3845
  1918.7500    134.1912     16.9130     19.6179     16.9330    169.7813
  1919.0000    134.7153     16.5557     18.9732     15.3199    169.9807
  1919.2500    133.7679     16.1236     18.4260     15.1319    169.9989
  1919.5000    132.2996     15.6374     17.9374     15.5846    169.8915
  1919.7500    132.1991     15.1214     17.4639     16.0598    169.7282
  1920.0000    133.9394     14.6018     16.9729     16.2545    169.5674
  1920.2500    136.2845     14.1035     16.4489     16.1582    169.4463
  1920.5000    141.0527     13.6462     15.8916     15.9017    169.3840
  1920.7500    144.4550     13.2424     15.3115     15.5844    169.3900
  1921.0000    148.3965     12.8963     14.7232     15.1929    169.4691
  1921.2500    149.6361     12.6055     14.1424     14.6482    169.6208
  1921.5000    149.9884     12.3629     13.5838     13.9094    169.8369
  1921.7500    150.3871     12.1591     13.0618     13.0241    170.1001
  1922.0000    152.6106     11.9832     12.5911     12.0949    170.3861
