~Version Information
VERS.                      2.0: CWLS Log ASCII Standard - VERSION 2.0
WRAP.                       NO: One line per depth step
~Well Information Block
STRT.FT               433.5000: 
STOP.FT              1880.2500: 
STEP.FT                 0.2500: 
NULL.                -999.2500: 
COMP.          Pioneer Natural Resources: COMPANY
WELL.           Buckhorn 12-21: WELL
FLD.           Purgatorie River: FIELD
LOC.           2450' FNL & 608' FWL--: LOCATION
PROV.                       CO: PROVINCE
CNTY.               Las Animas: COUNTRY
SRVC.                         : SERVICE COMPANY
DATE.          Fri Dec 03 14:13:08 2004: LOG DATE
UWI.          005 071 08129 : UNIQUE WELL ID
~Curve Information Block
DEPT.FT            0 000 00 00: Depth
NPOR.pu                       : Neutron Porosity
CCL.                          : Casing Collar Locator
TT3.usec                      : CBL 3' Travel Time
AMP3.mV                       : CBL 3' Amplitude
GR.GAPI                       : Gamma Ray
~Parameter Information Block
~A  Depth       NPOR        CCL         TT3         AMP3         GR     
   433.5000   -999.2500   -999.2500   -999.2500   -999.2500     49.5749
   433.7500   -999.2500   -999.2500   -999.2500   -999.2500     51.8507
   434.0000   -999.2500   -999.2500   -999.2500   -999.2500     54.8161
   434.2500   -999.2500   -999.2500   -999.2500   -999.2500     58.3972
   434.5000   -999.2500   -999.2500   -999.2500   -999.2500     62.4775
   434.7500   -999.2500   -999.2500   -999.2500   -999.2500     66.5906
   435.0000   -999.2500   -999.2500   -999.2500   -999.2500     69.7114
   435.2500   -999.2500   -999.2500   -999.2500   -999.2500     71.0245
   435.5000   -999.2500   -999.2500   -999.2500   -999.2500     70.8224
   435.7500   -999.2500   -999.2500   -999.2500   -999.2500     70.1255
   436.0000   -999.2500   -999.2500   -999.2500   -999.2500     69.4776
   436.2500   -999.2500   -999.2500   -999.2500   -999.2500     68.6039
   436.5000   -999.2500   -999.2500   -999.2500   -999.2500     67.1458
   436.7500   -999.2500   -999.2500   -999.2500   -999.2500     65.3045
   437.0000   -999.2500   -999.2500   -999.2500   -999.2500     63.8181
   437.2500   -999.2500   -999.2500   -999.2500   -999.2500     63.5176
   437.5000   -999.2500   -999.2500   -999.2500   -999.2500     64.7799
   437.7500   -999.2500   -999.2500   -999.2500   -999.2500     67.3360
   438.0000   -999.2500   -999.2500   -999.2500   -999.2500     70.5526
   438.2500   -999.2500   -999.2500   -999.2500   -999.2500     73.6271
   438.5000   -999.2500   -999.2500    380.4442     11.2703     75.6928
   438.7500   -999.2500   -999.2500    351.0220     11.4646     76.4205
   439.0000   -999.2500   -999.2500    332.0041     11.6066     76.5468
   439.2500   -999.2500   -999.2500    324.7819     11.6687     77.1853
   439.5000   -999.2500   -999.2500    326.1944     11.6608     78.5880
   439.7500   -999.2500   -999.2500    332.4095     11.6279     80.1075
   440.0000   -999.2500   -999.2500    340.3849     11.6233     81.3431
   440.2500   -999.2500   -999.2500    349.3066     11.6591     82.7320
   440.5000   -999.2500   -999.2500    362.9812     11.6823     84.7909
   440.7500   -999.2500   -999.2500    389.8069     11.6226     87.2821
   441.0000   -999.2500   -999.2500    436.9973     11.4741     89.4970
   441.2500   -999.2500   -999.2500    500.9784     11.3151     91.0904
   441.5000   -999.2500   -999.2500    563.5997     11.2384     92.2569
   441.7500   -999.2500   -999.2500    601.6485     11.2724     93.0844
   442.0000   -999.2500   -999.2500    602.6098     11.3710     93.0458
   442.2500   -999.2500   -999.2500    570.6126     11.4693     91.5252
   442.5000   -999.2500   -999.2500    518.9813     11.5388     88.8406
   442.7500   -999.2500   -999.2500    461.5901     11.5930     86.3360
   443.0000   -999.2500   -999.2500    410.3432     11.6535     85.2630
   443.2500   -999.2500   -999.2500    373.8062     11.7300     85.6889
   443.5000   -999.2500   -999.2500    354.1066     11.8292     86.7520
   443.7500   -999.2500   -999.2500    346.3918     11.9656     88.0081
   444.0000   -999.2500   -999.2500    342.9604     12.1541     90.0252
   444.2500   -999.2500      0.0000    338.4170     12.3937     93.2542
   444.5000   -999.2500      0.0000    331.8015     12.6659     96.7082
   444.7500   -999.2500      0.0000    324.9861     12.9508     98.3978
   445.0000   -999.2500      0.0000    319.8672     13.2462     97.0547
   445.2500   -999.2500      0.0000    316.8770     13.5628     93.1235
   445.5000   -999.2500      0.0000    315.4016     13.8999     88.0230
   445.7500   -999.2500      0.0000    314.6899     14.2384     82.6689
   446.0000   -999.2500      0.0000    314.2886     14.5648     77.0155
   446.2500   -999.2500      0.0000    314.0026     14.8905     70.9954
   446.5000   -999.2500      0.0000    313.7570     15.2346     65.3847
   446.7500   -999.2500      0.0000    313.5267     15.5879     61.4095
   447.0000   -999.2500      0.0000    313.3063     15.9079     59.7295
   447.2500   -999.2500      0.0000    313.0985     16.1523     60.0694
   447.5000   -999.2500      0.0000    312.9134     16.3083     61.6966
   447.7500   -999.2500      0.0000    312.7744     16.3855     63.9485
   448.0000   -999.2500      0.0000    312.7156     16.3896     66.1914
   448.2500   -999.2500      0.0000    312.7632     16.3161     67.5080
   448.5000   -999.2500      0.0000    312.9117     16.1718     66.8798
   448.7500   -999.2500      0.0000    313.1133     15.9984     63.9660
   449.0000   -999.2500      0.0000    313.2974     15.8630     59.6712
   449.2500   -999.2500      0.0000    313.4113     15.8207     55.8205
   449.5000   -999.2500      0.0000    313.4419     15.8837     54.0647
   449.7500   -999.2500      0.0000    313.3977     16.0269     54.8194
   450.0000   -999.2500      0.0000    313.2784     16.2188     57.0298
   450.2500   -999.2500      0.0000    313.0775     16.4454     58.9420
   450.5000     31.3826      0.0000    312.8095     16.7110     59.3507
   450.7500     31.0005      0.0000    312.5189     17.0235     58.2527
   451.0000     30.7237      0.0000    312.2601     17.3808     56.3476
   451.2500     30.6114      0.0000    312.0731     17.7686     54.2269
   451.5000     30.6119      0.0000    311.9670     18.1742     52.3321
   451.7500     30.6184      0.0000    311.9112     18.6019     51.4733
   452.0000     30.5408      0.0000    311.8479     19.0676     52.7604
   452.2500     30.3651      0.0000    311.7275     19.5775     56.6309
   452.5000     30.1452      0.0000    311.5333     20.1155     62.1313
   452.7500     29.9395      0.0000    311.2790     20.6463     67.4661
   453.0000     29.7824      0.0000    310.9976     21.1274     71.2033
   453.2500     29.7039      0.0000    310.7322     21.5269     72.8373
   453.5000     29.7321      0.0000    310.5212     21.8320     72.4691
   453.7500     29.8523      0.0000    310.3849     22.0404     70.3748
   454.0000     29.9802      0.0000    310.3318     22.1472     66.9199
   454.2500     30.0169      0.0000    310.3677     22.1522     62.6154
   454.5000     29.9532      0.0000    310.4855     22.0803     58.0852
   454.7500     29.8881      0.0000    310.6468     21.9867     54.0715
   455.0000     29.9067      0.0000    310.7891     21.9363     51.4842
   455.2500     29.9670      0.0000    310.8618     21.9690     51.0452
   455.5000     29.9589      0.0000    310.8548     22.0752     52.5365
   455.7500     29.8562      0.0000    310.7945     22.2037     54.7064
   456.0000     29.7310      0.0000    310.7167     22.3008     56.3384
   456.2500     29.6229      0.0000    310.6432     22.3454     57.1790
   456.5000     29.4960      0.0000    310.5778     22.3569     57.5396
   456.7500     29.3533      0.0000    310.5131     22.3793     57.4400
   457.0000     29.3011      0.0000    310.4384     22.4603     56.6895
   457.2500     29.4444      0.0000    310.3458     22.6328     55.6634
   457.5000     29.7895      0.0000    310.2345     22.9019     55.6121
   457.7500     30.3036      0.0000    310.1142     23.2403     58.1355
   458.0000     30.9846      0.0000    310.0016     23.5925     64.2686
   458.2500     31.7961      0.0000    309.9132     23.8793     73.6773
   458.5000     32.5974      0.0000    309.8572     24.0087     84.3868
   458.7500     33.2299      0.0000    309.8307     23.9016     93.5182
   459.0000     33.6682      0.0000    309.8212     23.5217     98.8414
   459.2500     34.0389      0.0000    309.8142     22.8803    100.0200
   459.5000     34.4850      0.0000    309.8012     22.0207     98.5311
   459.7500     35.0241      0.0000    309.7849     21.0181     96.3968
   460.0000     35.5504      0.0000    309.7747     19.9955     94.7294
   460.2500     35.9626      0.0000    309.7771     19.1181     93.1720
   460.5000     36.2576      0.0000    309.7870     18.5470     90.6717
   460.7500     36.5160      0.0000    309.7853     18.3886     86.7855
   461.0000     36.8429      0.0000    309.7394     18.6730     82.0865
   461.2500     37.3010      0.0000    309.5755     19.3638     77.3874
