~Version Information
 VERS.                                  2.0 : CWLS LAS VERSION
 WRAP.                                   NO : WRAPING MODE
 SWARE .                 MController 2.5.0J : SOFTWARE VERSION
~Well Information
 WELL.                      Robinson 15-12R : WELL
 COMP.                Petrogulf Corporation : COMPANY
 FLD.                      Purgatoire River : FIELD
 LOC.                SW/NW Sec 15 T33S R67W : LOCATION
 DATE.                          09/12-13/05 : DATE(S) LOGGED
 SRVC.       BLANCO Geological Services LLC : SERVICE COMPANY
 STAT.                                   CO : STATE
 CNTY.                           Las Animas : COUNTY
 CTRY.                                  USA : COUNTRY
 API.                       05-071-08307-00 : API NUMBER
 STRT.FT                               1.00 : START DEPTH
 STOP.FT                            1460.00 : STOP DEPTH
 STEP.FT                               1.00 : DEPTH INCREMENT
 NULL.                                -9999 : NULL VALUE
~Curve information
 DEPTH.FT                                   :
 ROP.MIN/FT                                 :
 GAS.UNITS                                  :
~ASCII Log data
# ...
       601.0         0.23        860.9 
       602.0         0.27        770.1 
       603.0         0.27        688.2 
       604.0         0.32        642.5 
       605.0         0.27        626.7 
       606.0         0.30        617.8 
       607.0         0.30        602.9 
       608.0         0.27        601.9 
       609.0         0.20        598.1 
       610.0         0.17        594.3 
       611.0         0.27        579.7 
       612.0         0.20        572.4 
       613.0         0.27        567.0 
       614.0         0.27        595.6 
       615.0         0.20        612.1 
       616.0         0.23        616.5 
       617.0         0.17        604.8 
       618.0         0.22        603.2 
       619.0         0.20        598.7 
       620.0         0.23        598.1 
       621.0         0.20        588.6 
       622.0         0.20        553.0 
       623.0         0.17        500.7 
       624.0         0.13        464.8 
       625.0         0.13        450.5 
       626.0         0.27        441.9 
       627.0         0.20        440.0 
       628.0         2.02       1383.6 
       629.0         0.27        907.2 
       630.0         0.27        811.7 
       631.0         0.23        748.2 
       632.0         0.20        697.4 
       633.0         0.27        671.7 
       634.0         0.27        640.3 
       635.0         0.27        617.8 
       636.0         0.27        604.1 
       637.0         0.23        594.3 
       638.0         0.27        588.9 
       639.0         0.20        588.6 
       640.0         0.25        587.0 
       641.0         0.20        587.3 
       642.0         0.23        584.8 
       643.0         0.20        583.2 
       644.0         0.20        587.0 
       645.0         0.23        587.3 
       646.0         0.17        576.5 
       647.0         0.23        626.7 
       648.0         0.20        758.4 
       649.0         0.20        800.9 
       650.0         0.20        803.8 
       651.0         0.10        786.0 
       652.0         0.10        765.0 
       653.0         0.10        743.1 
       654.0         0.13        719.7 
       655.0         0.17        694.6 
       656.0         0.17        729.5 
       657.0         0.20        878.0 
       658.0         1.25       2021.9 
       659.0         0.30       1591.5 
       660.0         0.30       1318.6 
       661.0         0.33       1117.0 
       662.0         0.30        986.3 
       663.0         0.30        899.9 
       664.0         0.23        847.9 
       665.0         0.23        827.9 
       666.0         0.28        808.5 
       667.0         0.23        775.5 
       668.0         0.27        757.1 
       669.0         0.27        746.3 
       670.0         0.20        744.4 
       671.0         0.23        752.3 
       672.0         0.20        753.0 
       673.0         0.23        766.6 
       674.0         0.20        785.0 
       675.0         0.20        799.3 
       676.0         0.13        801.5 
       677.0         0.07        799.0 
       678.0         0.13        793.3 
       679.0         0.13        780.6 
       680.0         0.20        770.8 
       681.0         0.25        770.4 
       682.0         0.20        745.4 
       683.0         0.17        674.6 
       684.0         0.20        613.3 
       685.0         0.23        565.1 
       686.0         0.17        559.1 
       687.0         0.23        574.6 
       688.0         4.22       2193.3 
       689.0         0.27       1381.7 
       690.0         0.25       1182.4 
       691.0         0.20       1049.1 
       692.0         0.30        975.5 
       693.0         0.30        891.4 
       694.0         0.30        821.2 
       695.0         0.23        784.7 
       696.0         0.20        763.1 
       697.0         0.20        753.3 
       698.0         0.17        747.0 
       699.0         0.20        738.1 
       700.0         0.17        731.1 
       701.0         0.20        725.1 
       702.0         0.17        718.1 
       703.0         0.17        708.2 
       704.0         0.20        701.6 
       705.0         0.22        696.2 
       706.0         0.17        697.8 
       707.0         0.17        696.5 
       708.0         0.20        694.9 
       709.0         0.17        693.0 
       710.0         0.20        700.9 
       711.0         0.23        700.3 
       712.0         0.23        682.8 
       713.0         0.17        647.9 
       714.0         0.20        605.4 
       715.0         0.17        558.1 
       716.0         0.20        543.8 
       717.0         0.20        649.2 
       718.0         1.55       1745.8 
       719.0         0.37       1180.2 
       720.0         0.33        988.8 
       721.0         0.27        910.7 
       722.0         0.23        850.7 
       723.0         0.23        803.8 
       724.0         0.23        759.3 
       725.0         0.30        723.2 
       726.0         0.23        694.3 
       727.0         0.23        698.4 
       728.0         0.18        698.1 
       729.0         0.17        698.7 
       730.0         0.20        692.7 
       731.0         0.20        687.6 
       732.0         0.20        675.9 
       733.0         0.20        670.5 
       734.0         0.17        653.6 
       735.0         0.23        624.1 
       736.0         0.20        591.8 
       737.0         0.20        563.2 
       738.0         0.23        627.6 
       739.0         0.13        656.5 
       740.0         0.13        674.6 
       741.0         0.17        677.8 
       742.0         0.10        673.0 
       743.0         0.10        660.9 
       744.0         0.13        645.7 
       745.0         0.17        616.8 
       746.0         0.20        635.2 
       747.0         0.15        734.6 
       748.0         1.37       1857.2 
       749.0         0.20       1534.4 
       750.0         0.33       1328.1 
       751.0         0.27       1089.7 
       752.0         0.23        976.7 
       753.0         0.23        909.1 
       754.0         0.13        860.6 
       755.0         0.13        832.0 
       756.0         0.17        803.8 
       757.0         0.25        774.9 
       758.0         0.20        752.0 
       759.0         0.10        740.6 
       760.0         0.10        733.9 
       761.0         0.20        723.8 
       762.0         0.23        703.5 
       763.0         0.20        681.6 
       764.0         0.23        666.7 
       765.0         0.20        661.9 
       766.0         0.13        660.0 
       767.0         0.20        657.5 
       768.0         0.23        656.5 
       769.0         0.20        652.4 
       770.0         0.20        647.0 
       771.0         0.23        645.1 
       772.0         0.20        642.5 
       773.0         0.23        629.5 
       774.0         0.25        608.6 
       775.0         0.20        562.2 
       776.0         0.20        529.5 
       777.0         0.17        551.1 
       778.0         1.13       1722.6 
       779.0         0.27       1695.3 
       780.0         0.30       1525.2 
       781.0         0.33       1292.5 
       782.0         0.30       1070.4 
       783.0         0.38        960.6 
       784.0         0.30        873.9 
       785.0         0.23        801.2 
       786.0         0.23        753.9 
       787.0         0.20        716.5 
       788.0         0.23        695.2 
       789.0         0.20        685.7 
       790.0         0.20        679.0 
       791.0         0.23        678.1 
       792.0         0.27        678.7 
       793.0         0.27        666.7 
       794.0         0.30        645.4 
       795.0         0.27        619.7 
       796.0         0.10        615.2 
       797.0         0.15        640.0 
       798.0         0.10        665.7 
       799.0         0.10        714.6 
       800.0         0.10        759.6 
