~Version Information
VERS.                      2.0: CWLS Log ASCII Standard - VERSION 2.0
WRAP.                       NO: One line per depth step
~Well Information Block
STRT.FT               946.8000: 
STOP.FT              2134.5000: 
STEP.FT                 0.1000: 
NULL.                -999.2500: 
COMP.          Petrogulf Corporation: COMPANY
WELL.             Valejo 8-12R: WELL
FLD.           Purgatorie River: FIELD
LOC.           1351'' FNL & 1562' FWL: LOCATION
CNTY.               Las Animas: COUNTY
SRVC.                         : SERVICE COMPANY
DATE.          Wed Apr 28 13:22:45 2004: LOG DATE
UWI.           05 071 08038 00: UNIQUE WELL ID
STAT.                 Colorado: STATE
~Curve Information Block
DEPT.FT            0 000 00 00: Depth
DCAL.in                       : CDL Caliper
RHOB.g/cc                     : CDL Bulk Density
RHOC.g/cc                     : CDL Density Correction
DPOR.pu                       : CDL Density Porosity
NPOR.pu                       : Neutron Porosity
GR.GAPI                       : Gamma Ray
~Parameter Information Block
~A  Depth       DCAL        RHOB        RHOC        DPOR        NPOR         GR     
# ...
  2098.8000      7.7912      2.5479      0.0474      6.1852     19.7183   -999.2500
  2098.9000      7.7912      2.5532      0.0292      5.8681     18.6095   -999.2500
  2099.0000      7.7923      2.5598      0.0610      5.4688     17.9693   -999.2500
  2099.1000      7.7923      2.5655      0.0547      5.1202     17.9932   -999.2500
  2099.2000      7.7923      2.5663      0.0634      5.0707     20.1569   -999.2500
  2099.3000      7.7886      2.5739      0.0494      4.6113     27.2816   -999.2500
  2099.4000      7.7886      2.5940      0.0846      3.3957     38.0975   -999.2500
  2099.5000      7.7885      2.6073      0.1139      2.5896     45.8567   -999.2500
  2099.6000      7.7885      2.6057      0.0419      2.6874     48.6762   -999.2500
  2099.7000      7.7885      2.6054      0.0765      2.7006     49.2301   -999.2500
  2099.8000      7.7923      2.6131      0.0739      2.2383     49.2886   -999.2500
  2099.9000      7.7923      2.6140      0.0967      2.1835     49.2919   -999.2500
  2100.0000      7.7968      2.5928      0.0705      3.4689   -999.2500   -999.2500
  2100.1000      7.7968      2.5629      0.0090      5.2816   -999.2500   -999.2500
  2100.2000      7.7968      2.5512      0.0411      5.9896   -999.2500   -999.2500
  2100.3000      7.7996      2.5605      0.0089      5.4233   -999.2500   -999.2500
  2100.4000      7.7996      2.5797      0.0489      4.2585   -999.2500   -999.2500
  2100.5000      7.8021      2.5916      0.1088      3.5412   -999.2500   -999.2500
  2100.6000      7.8021      2.5852      0.0592      3.9278   -999.2500   -999.2500
  2100.7000      7.8021      2.5729      0.0744      4.6750   -999.2500   -999.2500
  2100.8000      7.7996      2.5630      0.0711      5.2701   -999.2500   -999.2500
  2100.9000      7.7996      2.5532      0.0765      5.8693   -999.2500   -999.2500
  2101.0000      7.7987      2.5517      0.0491      5.9599   -999.2500   -999.2500
  2101.1000      7.7987      2.5687      0.0627      4.9256   -999.2500   -999.2500
  2101.2000      7.7987      2.5974      0.0649      3.1898   -999.2500   -999.2500
  2101.3000      7.8079      2.6212      0.0727      1.7457   -999.2500   -999.2500
  2101.4000      7.8079      2.6256      0.1044      1.4807   -999.2500   -999.2500
  2101.5000      7.8030      2.6106      0.0491      2.3860   -999.2500   -999.2500
  2101.6000      7.8030      2.6016      0.0607      2.9339   -999.2500   -999.2500
  2101.7000      7.8030      2.6175      0.0596      1.9701   -999.2500   -999.2500
  2101.8000      7.7985      2.6438      0.0826      0.3775   -999.2500   -999.2500
  2101.9000      7.7985      2.6586      0.0925     -0.5234   -999.2500   -999.2500
  2102.0000      7.7981      2.6590      0.1093     -0.5454   -999.2500   -999.2500
  2102.1000      7.7981      2.6467      0.0662      0.2016   -999.2500   -999.2500
  2102.2000      7.7981      2.6233      0.0469      1.6153   -999.2500   -999.2500
  2102.3000      7.7939      2.5997      0.0486      3.0510   -999.2500   -999.2500
  2102.4000      7.7939      2.5906      0.0281      3.5991   -999.2500   -999.2500
  2102.5000      7.7902      2.5981      0.0309      3.1479   -999.2500   -999.2500
  2102.6000      7.7902      2.6065      0.0969      2.6367   -999.2500   -999.2500
  2102.7000      7.7902      2.6075      0.0543      2.5746   -999.2500   -999.2500
  2102.8000      7.7895      2.6091      0.0690      2.4764   -999.2500   -999.2500
  2102.9000      7.7895      2.6129      0.0965      2.2509   -999.2500   -999.2500
  2103.0000      7.7809      2.6089      0.1014      2.4891   -999.2500   -999.2500
  2103.1000      7.7809      2.5984      0.0620      3.1275   -999.2500   -999.2500
  2103.2000      7.7809      2.5950      0.0717      3.3329   -999.2500   -999.2500
  2103.3000      7.7659      2.6025      0.0860      2.8791   -999.2500   -999.2500
  2103.4000      7.7659      2.6128      0.0836      2.2574   -999.2500   -999.2500
  2103.5000      7.7495      2.6167      0.1049      2.0174   -999.2500   -999.2500
  2103.6000      7.7495      2.6094      0.0735      2.4618   -999.2500   -999.2500
  2103.7000      7.7495      2.5959      0.0686      3.2798   -999.2500   -999.2500
  2103.8000      7.7376      2.5863      0.0501      3.8622   -999.2500   -999.2500
  2103.9000      7.7376      2.5767      0.0953      4.4411   -999.2500   -999.2500
  2104.0000      7.7330      2.5556      0.0474      5.7221   -999.2500   -999.2500
  2104.1000      7.7330      2.5374     -0.0113      6.8258   -999.2500   -999.2500
  2104.2000      7.7330      2.5416      0.0157      6.5675   -999.2500   -999.2500
  2104.3000      7.7362      2.5556      0.0472      5.7203   -999.2500   -999.2500
  2104.4000      7.7362      2.5601      0.0480      5.4466   -999.2500   -999.2500
  2104.5000      7.7316      2.5536      0.0594      5.8448   -999.2500   -999.2500
  2104.6000      7.7316      2.5429      0.0359      6.4938   -999.2500   -999.2500
  2104.7000      7.7316      2.5398      0.0121      6.6759   -999.2500   -999.2500
  2104.8000      7.7349      2.5475      0.0586      6.2095   -999.2500   -999.2500
  2104.9000      7.7349      2.5548      0.0171      5.7708   -999.2500   -999.2500
  2105.0000      7.7344      2.5596      0.0597      5.4771   -999.2500   -999.2500
  2105.1000      7.7344      2.5668      0.0683      5.0411   -999.2500   -999.2500
  2105.2000      7.7344      2.5753      0.0815      4.5257   -999.2500   -999.2500
  2105.3000      7.7154      2.5835      0.0509      4.0329   -999.2500   -999.2500
  2105.4000      7.7154      2.5913      0.0807      3.5573   -999.2500   -999.2500
  2105.5000      7.7308      2.5963      0.0817      3.2561   -999.2500   -999.2500
  2105.6000      7.7308      2.5942      0.0895      3.3810   -999.2500   -999.2500
  2105.7000      7.7308      2.5844      0.0778      3.9769   -999.2500   -999.2500
  2105.8000      7.7311      2.5768      0.0405      4.4344   -999.2500   -999.2500
  2105.9000      7.7311      2.5835      0.0615      4.0302   -999.2500   -999.2500
  2106.0000      7.7130      2.5991      0.0587      3.0854   -999.2500   -999.2500
  2106.1000      7.7130      2.6064      0.1052      2.6430   -999.2500   -999.2500
  2106.2000      7.7130      2.6004      0.0630      3.0089   -999.2500   -999.2500
  2106.3000      7.6349      2.5932      0.0695      3.4432   -999.2500   -999.2500
  2106.4000      7.6349      2.5940      0.0546      3.3952   -999.2500   -999.2500
  2106.5000      7.6346      2.5988      0.0741      3.1010   -999.2500   -999.2500
  2106.6000      7.6346      2.5985      0.1084      3.1230   -999.2500   -999.2500
  2106.7000      7.6346      2.6061      0.0592      2.6589   -999.2500   -999.2500
  2106.8000      7.5512      2.6688      0.0600     -1.1403   -999.2500   -999.2500
  2106.9000      7.5512      2.6826      0.0773     -1.9748   -999.2500   -999.2500
  2107.0000      7.4890      2.2360      0.5964     25.0928   -999.2500   -999.2500
  2107.1000      7.4890      1.2669      0.0300     83.8218   -999.2500   -999.2500
  2107.2000      7.4890      0.4291      0.0300    134.6005   -999.2500   -999.2500
  2107.3000      6.8021      0.0814   -999.2500    155.6711   -999.2500   -999.2500
  2107.4000      6.8021      0.0084   -999.2500    160.0976   -999.2500   -999.2500
  2107.5000      2.9766      0.0005   -999.2500    160.5785   -999.2500   -999.2500
  2107.6000      2.9766      0.0000   -999.2500    160.6061   -999.2500   -999.2500
  2107.7000      2.9766      0.0000   -999.2500    160.6061   -999.2500   -999.2500
  2107.8000      2.4619   -999.2500   -999.2500   -999.2500   -999.2500   -999.2500
  2107.9000      2.4619   -999.2500   -999.2500   -999.2500   -999.2500   -999.2500
  2108.0000   -999.2500   -999.2500   -999.2500   -999.2500   -999.2500   -999.2500
  2108.1000   -999.2500   -999.2500   -999.2500   -999.2500   -999.2500   -999.2500
  2108.2000   -999.2500   -999.2500   -999.2500   -999.2500   -999.2500   -999.2500
  2108.3000   -999.2500   -999.2500   -999.2500   -999.2500   -999.2500   -999.2500
