~Version Information
VERS.                      2.0: CWLS Log ASCII Standard - VERSION 2.0
WRAP.                       NO: One line per depth step
~Well Information Block
STRT.FT              2983.0000: 
STOP.FT              3214.7500: 
STEP.FT                 0.0500: 
NULL.                -999.2500: 
COMP.          Pioner Natural Resources: COMPANY
WELL.              Vespar 43-7: WELL
FLD.           Purgatoire River: FIELD
LOC.           2338' FSL & 1141' FEL------: LOCATION
PROV.                 Colorado: PROVINCE
CNTY.               Las Animas: COUNTRY
SRVC.                         : SERVICE COMPANY
DATE.          Fri Apr 15 15:31:19 2005: LOG DATE
UWI.                          : UNIQUE WELL ID
~Curve Information Block
DEPT.FT            0 000 00 00: Depth
GR.GAPI                       : Gamma Ray
CCL.                          : Casing Collar Locator
TT3.usec                      : CBL 3' Travel Time
AMP3.mV                       : CBL 3' Amplitude
AMP5.mV                       : CBL 5' Amplitude
~Parameter Information Block
~A  Depth        GR         CCL         TT3         AMP3        AMP5    
# ...
  3145.4000     34.0661      0.0000    262.1013     70.6953    113.6557
  3145.4500     34.0661      0.0000    262.1013     70.6953    113.6557
  3145.5000     40.1745      0.0000    261.2007     75.2072    117.5939
  3145.5500     40.1745      0.0000    261.2007     75.2072    117.5939
  3145.6000     40.1745      0.0000    261.2007     75.2072    117.5939
  3145.6500     40.1745      0.0000    261.2007     75.2072    117.5939
  3145.7000     40.1745      0.0000    261.2007     75.2072    117.5939
  3145.7500     49.2425      0.0000    260.6344     78.6706    119.4411
  3145.8000     49.2425      0.0000    260.6344     78.6706    119.4411
  3145.8500     49.2425      0.0000    260.6344     78.6706    119.4411
  3145.9000     49.2425      0.0000    260.6344     78.6706    119.4411
  3145.9500     49.2425      0.0000    260.6344     78.6706    119.4411
  3146.0000     60.1855      0.0000    260.3705     80.2057    121.7001
  3146.0500     60.1855      0.0000    260.3705     80.2057    121.7001
  3146.1000     60.1855      0.0000    260.3705     80.2057    121.7001
  3146.1500     60.1855      0.0000    260.3705     80.2057    121.7001
  3146.2000     60.1855      0.0000    260.3705     80.2057    121.7001
  3146.2500     70.7860      0.0000    260.2743     80.1828    125.6517
  3146.3000     70.7860      0.0000    260.2743     80.1828    125.6517
  3146.3500     70.7860      0.0000    260.2743     80.1828    125.6517
  3146.4000     70.7860      0.0000    260.2743     80.1828    125.6517
  3146.4500     70.7860      0.0000    260.2743     80.1828    125.6517
  3146.5000     78.3963      0.0000    260.2405     79.5798    130.6201
  3146.5500     78.3963      0.0000    260.2405     79.5798    130.6201
  3146.6000     78.3963      0.0000    260.2405     79.5798    130.6201
  3146.6500     78.3963      0.0000    260.2405     79.5798    130.6201
  3146.7000     78.3963      0.0000    260.2405     79.5798    130.6201
  3146.7500     81.8976      0.0000    260.2263     79.1108    135.1626
  3146.8000     81.8976      0.0000    260.2263     79.1108    135.1626
  3146.8500     81.8976      0.0000    260.2263     79.1108    135.1626
  3146.9000     81.8976      0.0000    260.2263     79.1108    135.1626
  3146.9500     81.8976      0.0000    260.2263     79.1108    135.1626
  3147.0000     82.6757      0.0000    260.2214     78.9555    138.4404
  3147.0500     82.6757      0.0000    260.2214     78.9555    138.4404
  3147.1000     82.6757      0.0000    260.2214     78.9555    138.4404
  3147.1500     82.6757      0.0000    260.2214     78.9555    138.4404
  3147.2000     82.6757      0.0000    260.2214     78.9555    138.4404
  3147.2500     83.1512      0.0000    260.2221     79.0005    140.4474
  3147.3000     83.1512      0.0000    260.2221     79.0005    140.4474
  3147.3500     83.1512      0.0000    260.2221     79.0005    140.4474
  3147.4000     83.1512      0.0000    260.2221     79.0005    140.4474
  3147.4500     83.1512      0.0000    260.2221     79.0005    140.4474
  3147.5000     84.4261      0.0000    260.2259     79.1107    141.5277
  3147.5500     84.4261      0.0000    260.2259     79.1107    141.5277
  3147.6000     84.4261      0.0000    260.2259     79.1107    141.5277
  3147.6500     84.4261      0.0000    260.2259     79.1107    141.5277
  3147.7000     84.4261      0.0000    260.2259     79.1107    141.5277
  3147.7500     85.5114      0.0000    260.2309     79.2194    142.0221
  3147.8000     85.5114      0.0000    260.2309     79.2194    142.0221
  3147.8500     85.5114      0.0000    260.2309     79.2194    142.0221
  3147.9000     85.5114      0.0000    260.2309     79.2194    142.0221
  3147.9500     85.5114      0.0000    260.2309     79.2194    142.0221
  3148.0000     84.7866      0.0000    260.2365     79.2991    142.1939
  3148.0500     84.7866      0.0000    260.2365     79.2991    142.1939
  3148.1000     84.7866      0.0000    260.2365     79.2991    142.1939
  3148.1500     84.7866      0.0000    260.2365     79.2991    142.1939
  3148.2000     84.7866      0.0000    260.2365     79.2991    142.1939
  3148.2500     82.0321      0.0000    260.2417     79.3284    142.2296
  3148.3000     82.0321      0.0000    260.2417     79.3284    142.2296
  3148.3500     82.0321      0.0000    260.2417     79.3284    142.2296
  3148.4000     82.0321      0.0000    260.2417     79.3284    142.2296
  3148.4500     82.0321      0.0000    260.2417     79.3284    142.2296
  3148.5000     78.6907      0.0000    260.2467     79.2961    142.2317
  3148.5500     78.6907      0.0000    260.2467     79.2961    142.2317
  3148.6000     78.6907      0.0000    260.2467     79.2961    142.2317
  3148.6500     78.6907      0.0000    260.2467     79.2961    142.2317
  3148.7000     78.6907      0.0000    260.2467     79.2961    142.2317
  3148.7500     76.0331      0.0000    260.2532     79.2294    142.2330
  3148.8000     76.0331      0.0000    260.2532     79.2294    142.2330
  3148.8500     76.0331      0.0000    260.2532     79.2294    142.2330
  3148.9000     76.0331      0.0000    260.2532     79.2294    142.2330
  3148.9500     76.0331      0.0000    260.2532     79.2294    142.2330
  3149.0000     73.6026      0.0000    260.2623     79.1945    142.2247
  3149.0500     73.6026      0.0000    260.2623     79.1945    142.2247
  3149.1000     73.6026      0.0000    260.2623     79.1945    142.2247
  3149.1500     73.6026      0.0000    260.2623     79.1945    142.2247
  3149.2000     73.6026      0.0000    260.2623     79.1945    142.2247
  3149.2500     69.8995      0.0000    260.2717     79.2589    142.1926
  3149.3000     69.8995      0.0000    260.2717     79.2589    142.1926
  3149.3500     69.8995      0.0000    260.2717     79.2589    142.1926
  3149.4000     69.8995      0.0000    260.2717     79.2589    142.1926
  3149.4500     69.8995      0.0000    260.2717     79.2589    142.1926
  3149.5000     64.3932      0.0000    260.2782     79.4426    142.1364
  3149.5500     64.3932      0.0000    260.2782     79.4426    142.1364
  3149.6000     64.3932      0.0000    260.2782     79.4426    142.1364
  3149.6500     64.3932      0.0000    260.2782     79.4426    142.1364
  3149.7000     64.3932      0.0000    260.2782     79.4426    142.1364
  3149.7500     58.5769      0.0000    260.2807     79.7043    142.0719
  3149.8000     58.5769      0.0000    260.2807     79.7043    142.0719
  3149.8500     58.5769      0.0000    260.2807     79.7043    142.0719
  3149.9000     58.5769      0.0000    260.2807     79.7043    142.0719
  3149.9500     58.5769      0.0000    260.2807     79.7043    142.0719
  3150.0000     55.1637      0.0000    260.2800     79.9714    142.0238
  3150.0500     55.1637      0.0000    260.2800     79.9714    142.0238
  3150.1000     55.1637      0.0000    260.2800     79.9714    142.0238
  3150.1500     55.1637      0.0000    260.2800     79.9714    142.0238
  3150.2000     55.1637      0.0000    260.2800     79.9714    142.0238
  3150.2500     56.2392      0.0000    260.2754     80.1822    142.0115
  3150.3000     56.2392      0.0000    260.2754     80.1822    142.0115
  3150.3500     56.2392      0.0000    260.2754     80.1822    142.0115
  3150.4000     56.2392      0.0000    260.2754     80.1822    142.0115
  3150.4500     56.2392      0.0000    260.2754     80.1822    142.0115
  3150.5000     61.8193      0.0000    260.2652     80.3067    142.0349
  3150.5500     61.8193      0.0000    260.2652     80.3067    142.0349
  3150.6000     61.8193      0.0000    260.2652     80.3067    142.0349
  3150.6500     61.8193      0.0000    260.2652     80.3067    142.0349
  3150.7000     61.8193      0.0000    260.2652     80.3067    142.0349
  3150.7500     69.7301      0.0000    260.2491     80.3400    142.0754
  3150.8000     69.7301      0.0000    260.2491     80.3400    142.0754
  3150.8500     69.7301      0.0000    260.2491     80.3400    142.0754
  3150.9000     69.7301      0.0000    260.2491     80.3400    142.0754
  3150.9500     69.7301      0.0000    260.2491     80.3400    142.0754
