~Version Information
VERS.                      2.0: CWLS Log ASCII Standard - VERSION 2.0
WRAP.                       NO: One line per depth step
~Well Information Block
STRT.FT               710.0000: 
STOP.FT              2304.5000: 
STEP.FT                 0.2500: 
NULL.                -999.2500: 
COMP.          Pioneer Natural Resources: COMPANY
WELL.           Ogallela 44-12: WELL
FLD.           Purgatoire River: FIELD
LOC.           610' FSL & 671' FEL: LOCATION
PROV.                 Colorado: PROVINCE
CNTY.               Las Animas: COUNTRY
SRVC.                Patterson: SERVICE COMPANY
DATE.          Wed Feb 23 00:14:59 2005: LOG DATE
UWI.           05 071 08283 00: UNIQUE WELL ID
~Curve Information Block
DEPT.FT            0 000 00 00: Depth
SN.Ohm-m                      : IEL Short Normal
SP.mV                         : IEL Spontaneous Potential
DIR.Ohm-m                     : IEL Induction Resistivity
GR.GAPI                       : Gamma Ray
~Parameter Information Block
~A  Depth        SN          SP         DIR          GR     
# ...
  1346.5000     12.4150    -67.2527     14.2013    135.1456
  1346.7500     12.5865    -67.2599     14.1012    134.4724
  1347.0000     12.9467    -67.2552     14.0663    132.0368
  1347.2500     13.3671    -67.2591     14.0963    130.3346
  1347.5000     13.6947    -67.2847     14.1717    128.6332
  1347.7500     13.8407    -67.3317     14.2588    128.2126
  1348.0000     13.8185    -67.3868     14.3189    128.5432
  1348.2500     13.7063    -67.4317     14.3213    129.1571
  1348.5000     13.5797    -67.4483     14.2540    129.7714
  1348.7500     13.4926    -67.4253     14.1262    129.3719
  1349.0000     13.5044    -67.3655     13.9615    127.1466
  1349.2500     13.6525    -67.2913     13.7892    124.9297
  1349.5000     13.9038    -67.2356     13.6372    121.8519
  1349.7500     14.1879    -67.2236     13.5294    120.9050
  1350.0000     14.4472    -67.2586     13.4850    122.6016
  1350.2500     14.6380    -67.3254     13.5166    126.2539
  1350.5000     14.7336    -67.4052     13.6275    134.9221
  1350.7500     14.7257    -67.4887     13.8074    141.6276
  1351.0000     14.5935    -67.5770     14.0294    150.2289
  1351.2500     14.3238    -67.6735     14.2512    153.4675
  1351.5000     13.9973    -67.7730     14.4249    153.1314
  1351.7500     13.7983    -67.8597     14.5178    149.4725
  1352.0000     13.9251    -67.9214     14.5321    140.2614
  1352.2500     14.4994    -67.9636     14.5087    133.0409
  1352.5000     15.5113    -68.0114     14.5051    123.2500
  1352.7500     16.7938    -68.0974     14.5661    118.6211
  1353.0000     18.0527    -68.2467     14.7052    115.3326
  1353.2500     18.9854    -68.4669     14.9039    115.2976
  1353.5000     19.4283    -68.7462     15.1229    117.4430
  1353.7500     19.4012    -69.0613     15.3149    119.8802
  1354.0000     19.0266    -69.3889     15.4387    124.5416
  1354.2500     18.4457    -69.7168     15.4752    127.8182
  1354.5000     17.7964    -70.0478     15.4370    131.6238
  1354.7500     17.1930    -70.3964     15.3621    132.6775
  1355.0000     16.6836    -70.7821     15.2940    131.5017
  1355.2500     16.2475    -71.2229     15.2637    129.2502
  1355.5000     15.8604    -71.7267     15.2862    125.6099
  1355.7500     15.5665    -72.2850     15.3661    124.4232
  1356.0000     15.4671    -72.8724     15.5004    125.7527
  1356.2500     15.6334    -73.4540     15.6757    128.2936
  1356.5000     16.0312    -73.9957     15.8639    132.5304
  1356.7500     16.4929    -74.4698     16.0236    134.2987
  1357.0000     16.7542    -74.8548     16.1115    133.7762
  1357.2500     16.5959    -75.1358     16.1062    131.1498
  1357.5000     16.0215    -75.3115     16.0316    125.0912
  1357.7500     15.2944    -75.3988     15.9544    121.0586
  1358.0000     14.7831    -75.4315     15.9485    117.3784
  1358.2500     14.7715    -75.4465     16.0508    117.1187
  1358.5000     15.3535    -75.4690     16.2417    119.2169
  1358.7500     16.3817    -75.5058     16.4544    121.1037
  1359.0000     17.5344    -75.5499     16.6064    122.9879
  1359.2500     18.5377    -75.5920     16.6321    123.4801
  1359.5000     19.2886    -75.6294     16.5030    124.1435
  1359.7500     19.7678    -75.6674     16.2303    125.1814
  1360.0000     19.9477    -75.7144     15.8557    127.5605
  1360.2500     19.8065    -75.7758     15.4357    129.0298
  1360.5000     19.3465    -75.8498     15.0243    129.9624
  1360.7500     18.5727    -75.9291     14.6590    129.6092
  1361.0000     17.5222    -76.0074     14.3560    128.3530
  1361.2500     16.3285    -76.0847     14.1157    127.7877
  1361.5000     15.1946    -76.1667     13.9335    128.6510
  1361.7500     14.2809    -76.2578     13.8086    130.7107
  1362.0000     13.6248    -76.3525     13.7444    135.2612
  1362.2500     13.1589    -76.4326     13.7427    138.1805
  1362.5000     12.8082    -76.4700     13.7980    140.5801
  1362.7500     12.5738    -76.4367     13.8960    140.3171
  1363.0000     12.5212    -76.3191     14.0197    136.9717
  1363.2500     12.7080    -76.1275     14.1558    132.9580
  1363.5000     13.1366    -75.8913     14.2969    125.1813
  1363.7500     13.7586    -75.6434     14.4360    119.7541
  1364.0000     14.5216    -75.4058     14.5595    112.9526
  1364.2500     15.4156    -75.1825     14.6473    109.9607
  1364.5000     16.4378    -74.9620     14.6835    108.1110
  1364.7500     17.4866    -74.7259     14.6657    108.4856
  1365.0000     18.3390    -74.4622     14.6031    110.7894
  1365.2500     18.7798    -74.1754     14.5029    112.9104
  1365.5000     18.7256    -73.8856     14.3593    115.9717
  1365.7500     18.2218    -73.6195     14.1551    117.6061
  1366.0000     17.3870    -73.4002     13.8762    119.5289
  1366.2500     16.3768    -73.2388     13.5237    120.7445
  1366.5000     15.3221    -73.1277     13.1139    122.9368
  1366.7500     14.2900    -73.0414     12.6685    124.7757
  1367.0000     13.3369    -72.9504     12.2064    128.0822
  1367.2500     12.5350    -72.8387     11.7436    130.4761
  1367.5000     11.9091    -72.7112     11.2963    133.6380
  1367.7500     11.4211    -72.5856     10.8812    134.9390
  1368.0000     11.0279    -72.4791     10.5111    135.3594
  1368.2500     10.7133    -72.4007     10.1912    134.9296
  1368.5000     10.4803    -72.3525      9.9178    133.9727
  1368.7500     10.3313    -72.3361      9.6817    133.3584
  1369.0000     10.2475    -72.3582      9.4729    132.8009
  1369.2500     10.1782    -72.4291      9.2859    133.0943
  1369.5000     10.0464    -72.5546      9.1229    135.3166
  1369.7500      9.7607    -72.7270      8.9930    137.9258
  1370.0000      9.2561    -72.9234      8.9088    142.0457
  1370.2500      8.5795    -73.1112      8.8813    143.7405
  1370.5000      7.9265    -73.2595      8.9162    143.8327
  1370.7500      7.5451    -73.3523      9.0113    142.8570
  1371.0000      7.6079    -73.3948      9.1577    141.7505
  1371.2500      8.1597    -73.4087      9.3414    141.9164
  1371.5000      9.0703    -73.4213      9.5467    142.8982
  1371.7500     10.0264    -73.4573      9.7596    142.9463
  1372.0000     10.7316    -73.5317      9.9703    140.5308
  1372.2500     11.1412    -73.6451     10.1724    137.2395
  1372.5000     11.3856    -73.7834     10.3614    131.3763
  1372.7500     11.5475    -73.9232     10.5339    128.1098
  1373.0000     11.6401    -74.0400     10.6902    125.3600
  1373.2500     11.6845    -74.1128     10.8360    124.7237
  1373.5000     11.7163    -74.1272     10.9810    124.3667
  1373.7500     11.7603    -74.0818     11.1332    124.0927
  1374.0000     11.8176    -73.9974     11.2945    123.7395
  1374.2500     11.8713    -73.9157     11.4602    123.7674
  1374.5000     11.9022    -73.8807     11.6211    124.2505
  1374.7500     11.9003    -73.9157     11.7697    124.7249
  1375.0000     11.8657    -74.0145     11.9037    125.4184
  1375.2500     11.8056    -74.1533     12.0259    125.7158
  1375.5000     11.7382    -74.3090     12.1387    125.5747
  1375.7500     11.7017    -74.4715     12.2395    125.0604
  1376.0000     11.7373    -74.6438     12.3222    124.2596
  1376.2500     11.8569    -74.8365     12.3844    124.1320
  1376.5000     12.0437    -75.0601     12.4320    124.4176
  1376.7500     12.2668    -75.3182     12.4755    124.3495
  1377.0000     12.4863    -75.6036     12.5220    123.0827
  1377.2500     12.6670    -75.8992     12.5705    121.5704
  1377.5000     12.7920    -76.1874     12.6152    119.2633
  1377.7500     12.8684    -76.4586     12.6530    118.3241
  1378.0000     12.9303    -76.7098     12.6875    118.3123
  1378.2500     13.0141    -76.9354     12.7259    119.0147
  1378.5000     13.1167    -77.1224     12.7732    120.1842
  1378.7500     13.1902    -77.2558     12.8300    120.6531
  1379.0000     13.1830    -77.3259     12.8934    121.2547
  1379.2500     13.0883    -77.3308     12.9596    122.1831
  1379.5000     12.9623    -77.2792     13.0261    124.7615
  1379.7500     12.8925    -77.1916     13.0935    126.7167
