~Version Information
VERS.                      2.0: CWLS Log ASCII Standard - VERSION 2.0
WRAP.                       NO: One line per depth step
~Well Information Block
STRT.FT               557.0000: 
STOP.FT              2136.0000: 
STEP.FT                 0.2500: 
NULL.                -999.2500: 
COMP.          Petrogulf Corporation: COMPANY
WELL.           Montoya 12-41R: WELL
FLD.           Purgatorie River: FIELD
LOC.           1086' FNL & 610' FEL: LOCATION
CNTY.               Las Animas: COUNTY
SRVC.                         : SERVICE COMPANY
DATE.          Thu Nov 18 06:03:03 2004: LOG DATE
UWI.           05 071 08241 00: UNIQUE WELL ID
STAT.                 Colorado: STATE
~Curve Information Block
DEPT.FT            0 000 00 00: Depth
SP.mV                         : DIL Spontaneous Potential
RILD.Ohm-m                    : DIL Deep Resistivity
RILM.Ohm-m                    : DIL Medium Resistivity
RLL3.Ohm-m                    : DIL Shallow Resistivity
GR.GAPI                       : Gamma Ray
~Parameter Information Block
~A  Depth        SP         RILD        RILM        RLL3         GR     
# ...
  1985.0000    -55.6404     12.1131     11.2784     11.8021    150.0421
  1985.2500    -55.2191     12.1854     11.3677     11.9362    145.1754
  1985.5000    -54.2610     12.2972     11.5461     12.2096    137.3113
  1985.7500    -52.8688     12.4468     11.8076     12.5976    132.0448
  1986.0000    -51.2072     12.6332     12.1446     13.0768    124.9267
  1986.2500    -49.4578     12.8555     12.5472     13.6206    121.2385
  1986.5000    -47.7694     13.1106     13.0028     14.1965    117.5596
  1986.7500    -46.2155     13.3928     13.4959     14.7679    116.0849
  1987.0000    -44.7827     13.6912     14.0075     15.3003    115.0591
  1987.2500    -43.3898     13.9899     14.5154     15.7675    115.2570
  1987.5000    -41.9451     14.2688     14.9942     16.1542    116.6743
  1987.7500    -40.4019     14.5052     15.4164     16.4538    117.6870
  1988.0000    -38.7962     14.6783     15.7543     16.6614    117.6553
  1988.2500    -37.2532     14.7733     15.9834     16.7661    116.0061
  1988.5000    -35.9464     14.7848     16.0859     16.7482    111.6812
  1988.7500    -35.0415     14.7179     16.0550     16.5847    108.8173
  1989.0000    -34.6372     14.5861     15.8971     16.2601    106.9634
  1989.2500    -34.7296     14.4069     15.6312     15.7803    108.0932
  1989.5000    -35.2100     14.1982     15.2859     15.1786    113.0963
  1989.7500    -35.8935     13.9747     14.8939     14.5139    118.0275
  1990.0000    -36.5663     13.7466     14.4872     13.8581    126.6958
  1990.2500    -37.0307     13.5202     14.0926     13.2803    132.7507
  1990.5000    -37.1495     13.2994     13.7297     12.8324    141.3935
  1990.7500    -36.8681     13.0872     13.4103     12.5395    146.3990
  1991.0000    -36.2267     12.8872     13.1394     12.3980    151.9826
  1991.2500    -35.3408     12.7039     12.9167     12.3787    154.0596
  1991.5000    -34.3794     12.5420     12.7386     12.4355    154.5831
  1991.7500    -33.5250     12.4055     12.6000     12.5181    153.5387
  1992.0000    -32.9406     12.2967     12.4959     12.5847    151.0224
  1992.2500    -32.7437     12.2150     12.4222     12.6136    149.4288
  1992.5000    -32.9953     12.1568     12.3761     12.6067    147.8471
  1992.7500    -33.7073     12.1156     12.3555     12.5873    147.2751
  1993.0000    -34.8531     12.0829     12.3582     12.5898    146.6540
  1993.2500    -36.3718     12.0494     12.3807     12.6454    146.1770
  1993.5000    -38.1660     12.0063     12.4176     12.7706    145.1214
  1993.7500    -40.0945     11.9473     12.4610     12.9594    144.0047
  1994.0000    -41.9683     11.8690     12.5012     13.1835    141.4922
  1994.2500    -43.5645     11.7718     12.5276     13.3987    139.5227
  1994.5000    -44.6585     11.6590     12.5306     13.5567    137.4435
  1994.7500    -45.0647     11.5362     12.5032     13.6175    137.5111
  1995.0000    -44.6721     11.4097     12.4425     13.5607    140.3324
  1995.2500    -43.4681     11.2848     12.3498     13.3908    143.5582
  1995.5000    -41.5368     11.1656     12.2296     13.1346    149.0471
  1995.7500    -39.0396     11.0539     12.0886     12.8319    152.6286
  1996.0000    -36.1884     10.9502     11.9335     12.5218    157.6653
  1996.2500    -33.2208     10.8532     11.7700     12.2315    160.6446
  1996.5000    -30.3728     10.7616     11.6023     11.9709    163.8662
  1996.7500    -27.8593     10.6741     11.4338     11.7364    164.8664
  1997.0000    -25.8537     10.5903     11.2673     11.5196    164.8729
  1997.2500    -24.4774     10.5107     11.1067     11.3163    164.3258
  1997.5000    -23.7836     10.4367     10.9567     11.1303    163.2110
  1997.7500    -23.7555     10.3711     10.8238     10.9696    162.2470
  1998.0000    -24.3125     10.3172     10.7155     10.8418    160.2861
  1998.2500    -25.3246     10.2792     10.6404     10.7481    158.7452
  1998.5000    -26.6330     10.2620     10.6075     10.6879    156.6565
  1998.7500    -28.0783     10.2708     10.6259     10.6701    155.8070
  1999.0000    -29.5210     10.3109     10.7044     10.7293    155.9912
  1999.2500    -30.8667     10.3873     10.8512     10.9422    157.4015
  1999.5000    -32.0810     10.5043     11.0735     11.4405    161.5567
  1999.7500    -33.1870     10.6644     11.3764     12.4098    165.1932
  2000.0000    -34.2511     10.8688     11.7620     14.0693    169.9270
  2000.2500    -35.3546     11.1161     12.2278     16.6219    171.1618
  2000.5000    -36.5573     11.4032     12.7650     20.1773    168.6221
  2000.7500    -37.8774     11.7248     13.3571     24.6633    164.0345
  2001.0000    -39.2797     12.0740     13.9789     29.7609    153.8313
  2001.2500    -40.6916     12.4436     14.5981     34.9024    145.5487
  2001.5000    -42.0266     12.8259     15.1781     39.3611    132.4302
  2001.7500    -43.2051     13.2136     15.6839     42.4195    124.4309
  2002.0000    -44.1673     13.5996     16.0886     43.5652    115.5837
  2002.2500    -44.8686     13.9768     16.3779     42.6410    112.3508
  2002.5000    -45.2670     14.3373     16.5525     39.8879    111.1733
  2002.7500    -45.3172     14.6728     16.6266     35.8646    112.3499
  2003.0000    -44.9720     14.9747     16.6235     31.2791    116.3118
  2003.2500    -44.2011     15.2348     16.5717     26.7994    119.8493
  2003.5000    -43.0102     15.4461     16.5007     22.9171    124.9283
  2003.7500    -41.4587     15.6045     16.4386     19.9002    127.2689
  2004.0000    -39.6535     15.7087     16.4105     17.8298    128.9502
  2004.2500    -37.7360     15.7612     16.4371     16.6854    129.5334
  2004.5000    -35.8514     15.7669     16.5337     16.4294    130.9754
  2004.7500    -34.1282     15.7322     16.7083     17.0532    132.6094
  2005.0000    -32.6543     15.6644     16.9598     18.5687    135.6490
  2005.2500    -31.4719     15.5702     17.2751     20.9523    137.5384
  2005.5000    -30.5740     15.4550     17.6286     24.0724    138.9765
  2005.7500    -29.9100     15.3231     17.9809     27.6342    138.2186
  2006.0000    -29.3938     15.1776     18.2830     31.1794    133.6349
  2006.2500    -28.9192     15.0209     18.4826     34.1562    128.6067
  2006.5000    -28.3856     14.8548     18.5343     36.0464    120.4389
  2006.7500    -27.7175     14.6810     18.4105     36.5025    116.3768
  2007.0000    -26.8800     14.5014     18.1079     35.4439    114.5199
  2007.2500    -25.8876     14.3177     17.6484     33.0701    116.3913
  2007.5000    -24.7825     14.1324     17.0730     29.7882    122.9433
  2007.7500    -23.6194     13.9479     16.4315     26.0909    128.8062
  2008.0000    -22.4471     13.7681     15.7733     22.4329    137.9942
  2008.2500    -21.2949     13.5972     15.1412     19.1482    143.4973
  2008.5000    -20.1765     13.4403     14.5681     16.4241    149.7457
  2008.7500    -19.1055     13.3028     14.0771     14.3212    152.1746
  2009.0000    -18.1071     13.1890     13.6828     12.8175    153.2315
  2009.2500    -17.2313     13.1021     13.3940     11.8623    152.9143
  2009.5000    -16.5477     13.0428     13.2151     11.4310    152.9614
  2009.7500    -16.1312     13.0097     13.1479     11.5663    154.2390
  2010.0000    -16.0353     12.9992     13.1920     12.4036    157.8275
  2010.2500    -16.2682     13.0060     13.3446     14.1727    160.3937
  2010.5000    -16.7713     13.0243     13.5996     17.1561    162.8230
  2010.7500    -17.4206     13.0485     13.9455     21.5961    162.9627
  2011.0000    -18.0443     13.0743     14.3632     27.5560    160.5005
  2011.2500    -18.4623     13.0988     14.8238     34.7752    156.5962
  2011.5000    -18.5311     13.1207     15.2884     42.5791    146.1387
  2011.7500    -18.1814     13.1396     15.7106     49.9172    136.0204
  2012.0000    -17.4393     13.1555     16.0437     55.5654    118.6206
  2012.2500    -16.4219     13.1677     16.2497     58.4527    108.3204
  2012.5000    -15.3082     13.1743     16.3087     57.9977     99.5595
  2012.7500    -14.2976     13.1717     16.2229     54.3088     99.6244
