~Version Information
VERS.                      2.0: CWLS Log ASCII Standard - VERSION 2.0
WRAP.                       NO: One line per depth step
~Well Information Block
STRT.FT                -9.2500: 
STOP.FT              2685.7500: 
STEP.FT                 0.2500: 
NULL.                -999.2500: 
COMP.          Pioneer Natural Resources: COMPANY
WELL.          Beacon 11-18 Tr: WELL
FLD.           Purgatorie River: FIELD
LOC.           409' FNL & 203' FWL--: LOCATION
PROV.                       CO: PROVINCE
CNTY.               Las Animas: COUNTRY
SRVC.                         : SERVICE COMPANY
DATE.          Fri Jan 21 09:45:44 2005: LOG DATE
UWI.        005 071 08251  : UNIQUE WELL ID
~Curve Information Block
DEPT.FT            0 000 00 00: Depth
CCL.                          : Casing Collar Locator
TT3.usec                      : CBL 3' Travel Time
AMP3.mV                       : CBL 3' Amplitude
GR.GAPI                       : Gamma Ray
~Parameter Information Block
~A  Depth       CCL         TT3         AMP3         GR     
# ...
  1766.2500      0.0000    770.9911      6.4195    100.4011
  1766.5000      0.0000    768.9653      6.3875    113.7951
  1766.7500      0.0000    762.4309      6.3876    125.5502
  1767.0000      0.0000    754.2607      6.4115    135.1806
  1767.2500      0.0000    747.8077      6.4460    142.9893
  1767.5000      0.0000    745.2611      6.4582    148.5458
  1767.7500      0.0000    747.0894      6.4067    150.5118
  1768.0000      0.0000    752.2584      6.2710    148.2984
  1768.2500      0.0000    758.4517      6.0699    143.5162
  1768.5000      0.0000    762.7764      5.8454    139.2966
  1768.7500      0.0000    763.2974      5.6310    138.2179
  1769.0000      0.0000    760.0876      5.4363    140.8143
  1769.2500      0.0000    754.7471      5.2598    145.4678
  1769.5000      0.0000    749.1427      5.1119    149.3310
  1769.7500      0.0000    744.4459      5.0198    149.8183
  1770.0000      0.0000    741.0100      5.0025    146.0934
  1770.2500      0.0000    739.1276      5.0440    139.5578
  1770.5000      0.0000    739.5535      5.1017    132.7970
  1770.7500      0.0000    742.7911      5.1465    127.6661
  1771.0000      0.0000    748.1729      5.1875    124.0851
  1771.2500      0.0000    754.2023      5.2554    120.6283
  1771.5000      0.0000    759.4468      5.3625    116.3681
  1771.7500      0.0000    762.6807      5.4798    112.2170
  1772.0000      0.0000    762.9774      5.5538    110.3260
  1772.2500      0.0000    760.6342      5.5493    111.9936
  1772.5000      0.0000    757.7901      5.4837    116.2453
  1772.7500      0.0000    757.2997      5.4193    120.4792
  1773.0000      0.0000    760.4962      5.4180    122.2724
  1773.2500      0.0000    765.8536      5.4913    120.6702
  1773.5000      0.0000    769.6883      5.5907    116.2971
  1773.7500      0.0000    768.2698      5.6428    110.6156
  1774.0000      0.0000    760.0746      5.5972    105.1659
  1774.2500      0.0000    747.1981      5.4520    101.4206
  1774.5000      0.0000    734.8210      5.2466    100.7280
  1774.7500      0.0000    728.2711      5.0340    103.6466
  1775.0000      0.0000    729.4266      4.8587    109.3631
  1775.2500      0.0000    735.5339      4.7453    115.9283
  1775.5000      0.0000    741.4291      4.6943    120.9681
  1775.7500      0.0000    743.0110      4.6899    122.6714
  1776.0000      0.0000    739.3002      4.7203    120.8573
  1776.2500      0.0000    732.4593      4.7868    117.0387
  1776.5000      0.0000    726.4843      4.8924    113.1409
  1776.7500      0.0000    724.9313      5.0273    110.2213
  1777.0000      0.0000    728.4911      5.1695    108.2620
  1777.2500      0.0000    734.4613      5.2959    106.7916
  1777.5000      0.0000    738.9865      5.3951    105.7768
  1777.7500      0.0000    740.0059      5.4731    106.0887
  1778.0000      0.0000    738.3105      5.5442    109.0100
  1778.2500      0.0000    736.4424      5.6163    114.9622
  1778.5000      0.0000    736.7774      5.6860    122.2728
  1778.7500      0.0000    740.0353      5.7473    127.4052
  1779.0000      0.0000    744.8887      5.8004    127.3725
  1779.2500      0.0000    748.9697      5.8498    122.5471
  1779.5000      0.0000    750.7257      5.8909    116.8050
  1779.7500      0.0000    750.4855      5.9031    114.5507
  1780.0000      0.0000    749.5314      5.8594    117.5576
  1780.2500      0.0000    748.3873      5.7509    124.2926
  1780.5000      0.0000    746.7054      5.5983    131.5434
  1780.7500      0.0000    745.0343      5.4388    136.5288
  1781.0000      0.0000    745.7001      5.3024    138.1541
  1781.2500      0.0000    750.8968      5.2011    137.2015
  1781.5000      0.0000    759.9727      5.1335    135.5682
  1781.7500      0.0000    769.0072      5.0974    134.6277
  1782.0000      0.0000    773.1020      5.1012    133.9881
  1782.2500      0.0000    769.5997      5.1584    132.2268
  1782.5000      0.0000    760.1545      5.2658    128.8565
  1782.7500      0.0000    750.0734      5.3922    124.8729
  1783.0000      0.0000    744.8685      5.4978    121.4623
  1783.2500      0.0000    746.4372      5.5635    119.1507
  1783.5000      0.0000    752.3271      5.6009    118.3456
  1783.7500      0.0000    758.4818      5.6376    119.7063
  1784.0000      0.0000    762.1874      5.6928    123.4076
  1784.2500      0.0000    762.3941      5.7542    128.3760
  1784.5000      0.0000    758.0239      5.7753    132.5014
  1784.7500      0.0000    746.3223      5.7121    133.5798
  1785.0000      0.0000    723.1290      5.5767    130.5840
  1785.2500      0.0000    686.8887      5.4441    124.6749
  1785.5000      0.0000    644.8606      5.3850    118.6301
  1785.7500      0.0000    613.5947      5.3979    114.6668
  1786.0000      0.0000    608.0139      5.4261    112.8968
  1786.2500      0.0000    628.2471      5.4269    111.6745
  1786.5000      0.0000    659.7454      5.4008    108.9391
  1786.7500      0.0000    686.5845      5.3686    103.7064
  1787.0000      0.0000    702.2747      5.3458     97.0284
  1787.2500      2.0000    708.3731      5.3407     90.9680
  1787.5000      0.0000    706.1465      5.3726     86.2729
  1787.7500      0.0000    691.6417      5.4959     82.0000
  1788.0000      0.0000    660.1386      5.7760     77.8016
  1788.2500      0.0000    616.7644      6.1962     75.5096
  1788.5000      0.0000    580.6826      6.6048     77.9068
  1788.7500      0.0000    572.9556      6.8209     86.5046
  1789.0000      0.0000    598.1725      6.7992    100.6617
  1789.2500      0.0000    641.0879      6.6438    118.1553
  1789.5000      0.0000    681.3690      6.4717    136.1566
  1789.7500      0.0000    708.2375      6.3222    152.0440
  1790.0000      0.0000    722.1351      6.1860    164.0428
  1790.2500      0.0000    728.1122      6.0603    171.5324
  1790.5000      0.0000    730.3665      5.9524    174.8664
  1790.7500      0.0000    730.9274      5.8613    174.9773
  1791.0000      0.0000    730.5172      5.7761    172.9361
  1791.2500      0.0000    729.4804      5.6837    169.3824
  1791.5000      0.0000    728.0588      5.5755    164.4780
  1791.7500      0.0000    726.2712      5.4514    158.6684
  1792.0000      0.0000    723.9095      5.3178    153.0374
  1792.2500      0.0000    720.8725      5.1768    148.6021
  1792.5000      0.0000    717.6671      5.0226    145.6263
  1792.7500      0.0000    715.4764      4.8570    143.6454
  1793.0000      0.0000    715.5040      4.7045    141.8865
  1793.2500      0.0000    718.0950      4.5992    139.8659
  1793.5000      0.0000    722.4151      4.5556    137.7254
  1793.7500      0.0000    726.9876      4.5531    135.8807
  1794.0000      0.0000    730.7349      4.5471    134.5841
  1794.2500      0.0000    733.7579      4.4899    133.9922
  1794.5000      0.0000    737.2734      4.3465    134.0327
  1794.7500      0.0000    742.6893      4.1068    133.8277
  1795.0000      0.0000    750.1745      3.7912    131.8133
  1795.2500      0.0000    757.6378      3.4485    126.7703
  1795.5000      0.0000    761.5853      3.1368    118.6602
  1795.7500      0.0000    759.9362      2.8918    108.7567
  1796.0000      0.0000    754.0698      2.7097     99.1322
  1796.2500      0.0000    747.4684      2.5645     91.4551
  1796.5000      0.0000    742.5568      2.4398     85.9428
  1796.7500      0.0000    739.6583      2.3396     81.6884
  1797.0000      0.0000    738.5012      2.2735     78.0217
  1797.2500      0.0000    739.1461      2.2438     75.3662
  1797.5000      0.0000    741.2049      2.2481     74.8970
  1797.7500      0.0000    743.7001      2.2906     77.6227
  1798.0000      0.0000    746.5267      2.3855     83.6452
  1798.2500      0.0000    750.9531      2.5460     92.0853
  1798.5000      0.0000    757.7557      2.7624    101.6153
  1798.7500      0.0000    765.5952      2.9942    111.0647
  1799.0000      0.0000    771.9426      3.1940    119.4840
  1799.2500      0.0000    774.9964      3.3391    125.5988
  1799.5000      0.0000    774.2566      3.4343    127.6099
