~Version Information
 VERS.                                  2.0 : CWLS LAS VERSION
 WRAP.                                   NO : WRAPING MODE
 SWARE .                 MController 2.5.0J : SOFTWARE VERSION
~Well Information
 WELL.                           Elmo 14-21 : WELL
 COMP.    PIONEER NATURAL RESOURCES USA INC : COMPANY
 FLD.                      PURGATOIRE RIVER : FIELD
 LOC.               SW/SW Sec 21 T33S  R66W : LOCATION
 DATE.                         5/16-17/2005 : DATE(S) LOGGED
 SRVC.       Blanco Geological Services LLC : SERVICE COMPANY
 STAT.                                   CO : STATE
 CNTY.                           Las Animas : COUNTY
 CTRY.                                  USA : COUNTRY
 API.                       05-071-08360-00 : API NUMBER
 STRT.FT                             300.00 : START DEPTH
 STOP.FT                            1680.00 : STOP DEPTH
 STEP.FT                               1.00 : DEPTH INCREMENT
 NULL.                                -9999 : NULL VALUE
~Curve information
 DEPTH.FT                                   :
 ROP.MIN/FT                                 :
 GAS.UNITS                                  :
~ASCII Log data
# ...
       900.0         0.07         40.8 
       901.0         0.27         40.2 
       902.0         0.20         37.9 
       903.0         0.27         41.0 
       904.0         0.17         42.0 
       905.0         0.20         42.2 
       906.0         0.27         48.2 
       907.0         0.23         50.5 
       908.0         0.27         49.6 
       909.0         0.23         43.1 
       910.0         0.17         43.6 
       911.0         0.17         43.8 
       912.0         0.25         50.6 
       913.0         0.23         57.4 
       914.0         0.17         56.9 
       915.0         0.23         49.0 
       916.0         0.17         43.0 
       917.0         0.13         46.8 
       918.0         0.20         48.1 
       919.0         0.17         45.1 
       920.0         0.27         38.8 
       921.0         0.23         42.5 
       922.0         0.23         45.8 
       923.0         0.20         43.8 
       924.0         0.33         48.1 
       925.0         0.23         48.6 
       926.0         0.20         47.7 
       927.0         0.25         44.1 
       928.0         0.27         42.8 
       929.0         0.17         51.0 
       930.0         0.27         64.2 
       931.0         0.23         64.0 
       932.0         0.13         54.2 
       933.0         0.27         49.6 
       934.0         0.20         50.1 
       935.0         0.17         50.7 
       936.0         0.20         46.7 
       937.0         0.20         42.8 
       938.0         0.20         49.2 
       939.0         0.23         54.0 
       940.0         0.20         60.6 
       941.0         0.20         59.3 
       942.0         0.23         46.4 
       943.0         0.22         45.1 
       944.0         0.27         53.6 
       945.0         0.23         54.8 
       946.0         0.27         53.2 
       947.0         0.17         54.8 
       948.0         0.33         58.0 
       949.0         0.43         56.8 
       950.0         0.27         54.8 
       951.0         0.33         43.7 
       952.0         0.20         44.8 
       953.0         0.33         56.0 
       954.0         0.17         63.1 
       955.0         0.28         64.1 
       956.0         0.30         57.5 
       957.0         0.20         49.0 
       958.0         0.20         44.3 
       959.0         0.13         49.4 
       960.0         0.23         55.4 
       961.0         0.23         52.9 
       962.0         0.13         49.0 
       963.0         0.23         53.2 
       964.0         0.17         52.4 
       965.0         0.23         47.1 
       966.0         0.23         57.4 
       967.0         0.17         57.7 
       968.0         0.23         51.6 
       969.0         0.13         42.4 
       970.0         0.23         39.9 
       971.0         0.25         42.7 
       972.0         0.23         46.9 
       973.0         0.20         50.2 
       974.0         0.17         51.0 
       975.0         0.30         50.2 
       976.0         0.23         46.1 
       977.0         0.23         42.6 
       978.0         0.17         43.5 
       979.0         0.23         50.3 
       980.0         0.20         50.1 
       981.0         0.20         46.6 
       982.0         0.20         39.8 
       983.0         0.17         41.1 
       984.0         0.27         46.1 
       985.0         0.20         49.6 
       986.0         0.23         48.8 
       987.0         0.15         44.1 
       988.0         0.23         44.9 
       989.0         0.27         52.8 
       990.0         0.27         50.7 
       991.0         0.20         42.2 
       992.0         0.17         46.0 
       993.0         0.27         48.2 
       994.0         0.23         48.8 
       995.0         0.27         51.4 
       996.0         0.20         50.8 
       997.0         0.27         51.9 
       998.0         0.17         53.0 
       999.0         0.20         52.9 
      1000.0         0.37         51.7 
      1001.0         0.38         53.0 
      1002.0         0.20         54.6 
      1003.0         0.23         50.1 
      1004.0         0.23         45.8 
      1005.0         0.17         51.0 
      1006.0         0.20         47.0 
      1007.0         0.20         50.3 
      1008.0         0.13         50.5 
      1009.0         0.30         49.6 
      1010.0         0.20         52.6 
      1011.0         0.23         53.1 
      1012.0         0.23         60.3 
      1013.0         0.23         61.2 
      1014.0         0.17         58.2 
      1015.0         0.27         53.0 
      1016.0         0.22         44.8 
      1017.0         0.30         55.7 
      1018.0         0.17         55.1 
      1019.0         0.23         50.3 
      1020.0         0.23         46.9 
      1021.0         0.20         44.5 
      1022.0         0.27         39.1 
      1023.0         0.23         42.4 
      1024.0         0.23         67.3 
      1025.0         0.23         76.7 
      1026.0         0.23         74.6 
      1027.0         0.20         59.3 
      1028.0         0.23         82.2 
      1029.0         0.23        101.3 
      1030.0         0.13        102.1 
      1031.0         0.32        100.7 
      1032.0         0.17         99.6 
      1033.0         0.20         97.1 
      1034.0         0.17        151.5 
      1035.0         0.13        229.8 
      1036.0         0.13        241.5 
      1037.0         0.20        228.5 
      1038.0         0.03        168.0 
      1039.0         0.27        158.6 
      1040.0         0.23        109.1 
      1041.0         0.23         96.6 
      1042.0         0.20         82.8 
      1043.0         0.20         69.5 
      1044.0         0.23         66.4 
      1045.0         0.07         64.4 
      1046.0         0.10         62.0 
      1047.0         0.03         59.4 
      1048.0         0.23         70.6 
      1049.0         0.23         79.7 
      1050.0         0.18         76.8 
      1051.0         0.23         63.5 
      1052.0         0.07         58.0 
      1053.0         0.13         59.2 
      1054.0         0.20         63.8 
      1055.0         0.10         64.3 
      1056.0         0.27         63.1 
      1057.0         0.07         62.9 
      1058.0         0.10         64.3 
      1059.0         0.13         65.4 
      1060.0         0.23         65.4 
      1061.0         0.17         63.6 
      1062.0         0.13         65.4 
      1063.0         0.20         69.2 
      1064.0         0.17         70.6 
      1065.0         0.13         70.5 
      1066.0         0.23         68.8 
      1067.0         0.33         64.2 
      1068.0         0.20         67.9 
      1069.0         0.22         67.8 
      1070.0         0.17         69.5 
      1071.0         0.23         76.1 
      1072.0         0.27         88.3 
      1073.0         0.10         88.1 
      1074.0         0.33         82.4 
      1075.0         0.13         67.9 
      1076.0         0.17         69.5 
      1077.0         0.17         68.5 
      1078.0         0.17         61.2 
      1079.0         0.20         50.5 
      1080.0         0.23         57.0 
      1081.0         0.13         67.4 
      1082.0         0.23         80.5 
      1083.0         0.17         77.5 
      1084.0         0.23         62.2 
      1085.0         0.20         56.5 
      1086.0         0.10         59.3 
      1087.0         0.22         66.0 
      1088.0         0.17         66.1 
      1089.0         0.17         73.8 
      1090.0         0.13         81.9 
      1091.0         0.30         91.9 
      1092.0         0.13         93.6 
      1093.0         0.17         92.4 
      1094.0         0.23         99.2 
      1095.0         0.17        112.4 
      1096.0         0.23        111.6 
      1097.0         0.17         96.3 
      1098.0         0.23         96.6 
      1099.0         0.20        139.8 
