~Version Information
VERS.                      2.0: CWLS Log ASCII Standard - VERSION 2.0
WRAP.                       NO: One line per depth step
~Well Information Block
STRT.FT               -17.7500: 
STOP.FT              1590.5000: 
STEP.FT                 0.2500: 
NULL.                -999.2500: 
COMP.          Petrogulf Corporation: COMPANY
WELL.          Great Plains 22-21V: WELL
FLD.           Purgatorie River: FIELD
LOC.           63' FNL & 1895' FWL--: LOCATION
CNTY.               Las Animas: COUNTY
SRVC.          Superior Well Services: SERVICE COMPANY
DATE.          Fri Dec 08 14:45:19 2006: LOG DATE
UWI.           05 071 08346 00: UNIQUE WELL ID
STAT.                       CO: STATE
~Curve Information Block
DEPT.FT            0 000 00 00: Depth
CCL.                          : Casing Collar Locator
TT3.usec                      : CBL 3' Travel Time
AMP3.mV                       : CBL 3' Amplitude
GR.GAPI                       : Gamma Ray
~Parameter Information Block
~A  Depth       CCL         TT3         AMP3         GR     
# ...
   819.7500      0.0000    687.7100     11.9846    124.4550
   820.0000      0.0000    704.1137     11.6384    130.5710
   820.2500      0.0000    714.4351     11.2290    135.8084
   820.5000      0.0000    719.7059     10.7074    139.3281
   820.7500      0.0000    722.1303     10.0451    140.7942
   821.0000      0.0000    723.7251      9.2630    140.3359
   821.2500      0.0000    725.8632      8.4354    138.1270
   821.5000      0.0000    729.2832      7.6563    134.7378
   821.7500      0.0000    733.8514      6.9956    131.3985
   822.0000      0.0000    738.3184      6.4843    128.9426
   822.2500      0.0000    740.7935      6.1298    126.6198
   822.5000      0.0000    740.0514      5.9276    122.8769
   822.7500      0.0000    736.5444      5.8600    117.7381
   823.0000      0.0000    731.8724      5.9016    113.8748
   823.2500      0.0000    726.9025      6.0348    114.6944
   823.5000      0.0000    720.6708      6.2594    121.3192
   823.7500      0.0000    711.8557      6.5884    131.5972
   824.0000      0.0000    701.2589      7.0343    141.7670
   824.2500      0.0000    691.9628      7.5954    148.7346
   824.5000      0.0000    686.8546      8.2449    151.1592
   824.7500      0.0000    686.5504      8.9251    149.5059
   825.0000      0.0000    689.8168      9.5519    145.6806
   825.2500      0.0000    695.5647     10.0418    141.9910
   825.5000      0.0000    704.0796     10.3610    139.5462
   825.7500      0.0000    716.0314     10.5501    137.6480
   826.0000      0.0000    730.2631     10.6846    135.0037
   826.2500      0.0000    742.8831     10.8033    131.3403
   826.5000      0.0000    748.6872     10.8874    127.5910
   826.7500      0.0000    743.8656     10.9102    124.8513
   827.0000      0.0000    728.7816     10.8842    123.5853
   827.2500      0.0000    709.0741     10.8523    123.7056
   827.5000      0.0000    692.9943     10.8507    124.7587
   827.7500      0.0000    685.9333     10.8889    125.8965
   828.0000      0.0000    686.9879     10.9580    126.2825
   828.2500      0.0000    691.0406     11.0460    125.9367
   828.5000      0.0000    694.1192     11.1483    125.9046
   828.7500      0.0000    696.2302     11.2678    127.1136
   829.0000      0.0000    698.5779     11.4058    128.9154
   829.2500      0.0000    698.4128     11.5478    129.1100
   829.5000      0.0000    688.3812     11.6593    125.9417
   829.7500      0.0000    663.7350     11.6953    120.2057
   830.0000      0.0000    632.1042     11.6149    115.0557
   830.2500      0.0000    613.7556     11.3986    113.5531
   830.5000      0.0000    625.9038     11.0736    116.3516
   830.7500      0.0000    664.4341     10.7239    121.5095
   831.0000      0.0000    705.5800     10.4511    126.1899
   831.2500      0.0000    727.8574     10.3102    128.6484
   831.5000      0.0000    729.1140     10.2840    129.0879
   831.7500     -2.0000    722.3155     10.3161    129.0650
   832.0000      2.0000    720.8156     10.3527    130.1617
   832.2500      0.0000    729.7721     10.3657    132.9126
   832.5000      0.0000    746.5511     10.3664    136.7249
   832.7500      0.0000    763.9999     10.4025    140.7519
   833.0000      0.0000    773.7557     10.5242    144.5220
   833.2500      0.0000    770.7522     10.7493    147.5572
   833.5000      0.0000    757.0797     11.0676    149.0305
   833.7500      0.0000    740.4517     11.4551    148.3985
   834.0000      0.0000    727.9944     11.8586    146.0130
   834.2500      0.0000    721.8732     12.1951    142.4440
   834.5000      0.0000    720.2363     12.3946    137.2602
   834.7500      0.0000    720.6562     12.4383    129.1759
   835.0000      0.0000    722.1476     12.3489    117.7824
   835.2500      0.0000    724.9057     12.1641    104.8569
   835.5000      0.0000    728.8433     11.9219     93.6310
   835.7500      0.0000    732.4799     11.6580     86.6675
   836.0000      0.0000    733.5865     11.4058     84.2374
   836.2500      0.0000    731.1449     11.1963     84.3668
   836.5000      0.0000    726.6229     11.0523     84.3971
   836.7500      0.0000    723.6047     10.9810     82.8538
   837.0000      0.0000    726.1548     10.9703     80.0643
   837.2500      0.0000    735.7875     10.9963     77.1368
   837.5000      0.0000    748.3010     11.0392     74.6235
   837.7500      0.0000    754.6917     11.1010     72.2867
   838.0000      0.0000    747.0686     11.2143     69.8782
   838.2500      0.0000    723.3489     11.4277     67.7589
   838.5000      0.0000    685.2032     11.7675     66.6153
   838.7500      0.0000    633.6633     12.2003     66.7314
   839.0000      0.0000    571.2330     12.6349     67.7797
   839.2500      0.0000    508.6128     12.9761     69.4901
   839.5000      0.0000    463.1483     13.1857     72.5245
   839.7500      0.0000    445.5063     13.2952     78.3504
   840.0000      0.0000    449.1008     13.3640     87.8434
   840.2500      0.0000    456.6003     13.4272    100.0367
   840.5000      0.0000    458.3578     13.4771    112.4980
   840.7500      0.0000    462.5394     13.4850    123.0267
   841.0000      0.0000    485.5237     13.4368    130.9069
   841.2500      0.0000    533.6184     13.3469    136.5430
   841.5000      0.0000    595.5870     13.2368    140.1743
   841.7500      0.0000    652.1223     13.1037    141.1765
   842.0000      0.0000    690.5233     12.9153    138.5990
   842.2500      0.0000    710.2548     12.6394    132.4749
   842.5000      0.0000    717.8095     12.2816    124.7043
   842.7500      0.0000    719.6193     11.8939    118.2417
   843.0000      0.0000    719.1496     11.5462    114.9096
   843.2500      0.0000    717.5922     11.2836    114.0118
   843.5000      0.0000    715.3968     11.1051    113.1647
   843.7500      0.0000    713.3273     10.9795    110.3253
   844.0000      0.0000    712.4951     10.8822    105.1340
   844.2500      0.0000    713.4749     10.8173     98.6401
   844.5000      0.0000    715.7333     10.8078     92.0016
   844.7500      0.0000    718.1523     10.8668     85.8151
   845.0000      0.0000    719.9594     10.9799     80.6164
   845.2500      0.0000    721.0528     11.1119     77.0543
   845.5000      0.0000    721.7621     11.2248     75.0941
   845.7500      0.0000    722.5839     11.2917     73.8099
   846.0000      0.0000    724.0282     11.3031     72.4951
   846.2500      0.0000    726.4291     11.2660     71.3768
   846.5000      0.0000    729.8477     11.1976     70.8548
   846.7500      0.0000    734.2744     11.1188     70.5570
   847.0000      0.0000    739.7488     11.0525     69.5392
   847.2500      0.0000    745.8770     11.0192     67.1261
   847.5000      0.0000    751.1823     11.0292     63.3967
   847.7500      0.0000    753.2905     11.0810     59.1621
   848.0000      0.0000    749.3812     11.1701     55.7057
   848.2500      0.0000    736.8192     11.2939     54.3587
   848.5000      0.0000    715.9456     11.4400     55.9939
   848.7500      0.0000    693.8666     11.5771     60.6033
   849.0000      0.0000    682.2812     11.6646     67.1162
   849.2500      0.0000    687.4498     11.6789     73.6429
   849.5000      0.0000    702.9324     11.6315     78.1562
   849.7500      0.0000    713.8868     11.5669     79.2577
   850.0000      0.0000    707.3281     11.5370     76.7485
   850.2500      0.0000    679.9263     11.5682     71.8782
   850.5000      0.0000    641.8641     11.6472     66.9000
   850.7500      0.0000    613.9637     11.7384     63.7987
   851.0000      0.0000    614.2438     11.8156     63.2178
   851.2500      0.0000    643.1272     11.8785     64.6803
   851.5000      0.0000    683.9637     11.9433     67.6221
   851.7500      0.0000    718.4689     12.0219     71.7768
   852.0000      0.0000    738.8357     12.1118     76.5679
   852.2500      0.0000    746.0953     12.2008     80.8239
   852.5000      0.0000    741.5800     12.2781     83.6308
   852.7500      0.0000    722.6459     12.3426     85.1571
   853.0000      0.0000    687.3561     12.4002     86.2986
