~Version Information
VERS.                      2.0: CWLS Log ASCII Standard - VERSION 2.0
WRAP.                       NO: One line per depth step
~Well Information Block
STRT.FT               451.7500: 
STOP.FT              1387.0000: 
STEP.FT                 0.2500: 
NULL.                -999.2500: 
COMP.          Petrogulf Corporation: COMPANY
WELL.          Great Plains 22-22R: WELL
FLD.           Purgatoire River: FIELD
LOC.           2042' FNL & 1657' FWL--: LOCATION
PROV.                 Colorado: PROVINCE
CNTY.               Las Animas: COUNTRY
SRVC.                Patterson: SERVICE COMPANY
DATE.          Fri Sep 09 10:42:01 2005: LOG DATE
UWI.           05 071 08028 00: UNIQUE WELL ID
~Curve Information Block
DEPT.FT            0 000 00 00: Depth
SP.mV                         : DIL Spontaneous Potential
RILD.Ohm-m                    : DIL Deep Resistivity
RILM.Ohm-m                    : DIL Medium Resistivity
RLL3.Ohm-m                    : DIL Shallow Resistivity
GR.GAPI                       : Gamma Ray
~Parameter Information Block
~A  Depth        SP         RILD        RILM        RLL3         GR     
# ...
  1179.7500     88.9019     11.9880     12.5838     18.6587    137.2843
  1180.0000     88.6642     11.8403     12.1915     17.3191    143.4560
  1180.2500     88.4131     11.7410     11.7994     15.5002    147.0753
  1180.5000     88.1706     11.6945     11.4651     13.6777    151.2421
  1180.7500     87.9550     11.6915     11.2292     12.2041    152.8524
  1181.0000     87.7755     11.7145     11.1147     11.2844    152.4576
  1181.2500     87.6297     11.7448     11.1299     11.0493    149.7061
  1181.5000     87.5053     11.7685     11.2702     11.5937    141.5889
  1181.7500     87.3842     11.7814     11.5194     12.9181    134.0238
  1182.0000     87.2486     11.7912     11.8489     14.8242    121.4288
  1182.2500     87.0849     11.8157     12.2189     16.8845    113.8327
  1182.5000     86.8835     11.8773     12.5848     18.5730    106.3519
  1182.7500     86.6371     11.9949     12.9091     19.5012    104.8114
  1183.0000     86.3418     12.1794     13.1753     19.5965    107.0844
  1183.2500     86.0011     12.4321     13.3943     19.1146    110.3920
  1183.5000     85.6287     12.7479     13.5970     18.5137    115.5695
  1183.7500     85.2453     13.1198     13.8185     18.2448    118.1766
  1184.0000     84.8728     13.5411     14.0843     18.5040    120.3243
  1184.2500     84.5277     14.0045     14.4062     19.0868    120.7683
  1184.5000     84.2181     14.4987     14.7886     19.5554    120.2204
  1184.7500     83.9444     15.0073     15.2371     19.6828    118.9688
  1185.0000     83.7045     15.5121     15.7620     19.7450    115.8861
  1185.2500     83.4980     15.9990     16.3744     20.2748    113.5947
  1185.5000     83.3272     16.4641     17.0815     21.4880    111.0051
  1185.7500     83.1938     16.9129     17.8867     23.0325    109.9791
  1186.0000     83.0956     17.3539     18.7969     24.3778    108.5050
  1186.2500     83.0258     17.7910     19.8287     25.4261    106.8632
  1186.5000     82.9755     18.2211     21.0032     26.6660    102.9615
  1186.7500     82.9390     18.6373     22.3271     28.7151     99.5510
  1187.0000     82.9203     19.0295     23.7700     31.7569     93.7143
  1187.2500     82.9362     19.3828     25.2524     35.4198     89.7609
  1187.5000     83.0113     19.6765     26.6561     39.1605     84.8567
  1187.7500     83.1675     19.8885     27.8499     42.7335     82.9022
  1188.0000     83.4152     20.0043     28.7106     46.2452     82.1523
  1188.2500     83.7492     20.0220     29.1304     49.7501     82.6973
  1188.5000     84.1511     19.9500     29.0275     52.8759     84.5195
  1188.7500     84.5945     19.7970     28.3794     54.7941     86.6146
  1189.0000     85.0526     19.5607     27.2640     54.4004     91.8535
  1189.2500     85.5023     19.2255     25.8568     50.7562     96.7393
  1189.5000     85.9254     18.7724     24.3667     43.9645    104.8338
  1189.7500     86.3071     18.1963     22.9513     35.7629    109.6540
  1190.0000     86.6374     17.5175     21.6709     28.7437    115.0164
  1190.2500     86.9152     16.7774     20.4948     24.6024    117.6044
  1190.5000     87.1489     16.0263     19.3457     23.1441    121.2433
  1190.7500     87.3509     15.3123     18.1583     22.9001    124.0094
  1191.0000     87.5303     14.6779     16.9249     22.4556    128.6428
  1191.2500     87.6879     14.1586     15.7034     21.2079    131.7896
  1191.5000     87.8172     13.7817     14.5873     19.2522    136.1436
  1191.7500     87.9090     13.5620     13.6659     16.9508    138.4183
  1192.0000     87.9584     13.4956     13.0014     14.7067    139.9411
  1192.2500     87.9703     13.5567     12.6290     12.9625    139.2451
  1192.5000     87.9604     13.6993     12.5651     12.2243    135.3105
  1192.7500     87.9503     13.8684     12.8158     13.0416    130.7238
  1193.0000     87.9614     14.0164     13.3769     15.9638    121.1129
  1193.2500     88.0112     14.1165     14.2261     21.4021    113.4160
  1193.5000     88.1112     14.1661     15.3055     29.3102    101.7119
  1193.7500     88.2670     14.1793     16.5035     38.8031     95.1131
  1194.0000     88.4791     14.1759     17.6497     48.0517     89.1137
  1194.2500     88.7431     14.1716     18.5445     54.7257     88.5767
  1194.5000     89.0511     14.1738     19.0239     56.9123     93.3372
  1194.7500     89.3908     14.1815     19.0225     54.0423     99.5391
  1195.0000     89.7453     14.1865     18.5915     47.2091    110.8952
  1195.2500     90.0957     14.1734     17.8607     38.5837    118.3253
  1195.5000     90.4263     14.1202     16.9780     30.2975    127.8875
  1195.7500     90.7277     14.0016     16.0639     23.5932    133.1193
  1196.0000     90.9929     13.7961     15.1959     18.7273    139.4255
  1196.2500     91.2119     13.4931     14.4130     15.4145    142.6671
  1196.5000     91.3697     13.0967     13.7292     13.2811    146.4456
  1196.7500     91.4529     12.6236     13.1433     12.0472    148.5797
  1197.0000     91.4561     12.0996     12.6440     11.5084    151.3527
  1197.2500     91.3840     11.5548     12.2115     11.4802    152.6096
  1197.5000     91.2481     11.0193     11.8201     11.7770    153.0573
  1197.7500     91.0642     10.5193     11.4426     12.2220    152.4059
  1198.0000     90.8518     10.0743     11.0563     12.6594    150.4938
  1198.2500     90.6342      9.6974     10.6493     12.9523    149.0262
  1198.5000     90.4342      9.3957     10.2244     12.9817    147.5144
  1198.7500     90.2679      9.1714      9.7986     12.6662    147.4973
  1199.0000     90.1400      9.0228      9.3976     11.9983    149.0781
  1199.2500     90.0435      8.9438      9.0484     11.0671    150.7794
  1199.5000     89.9618      8.9241      8.7742     10.0476    153.5452
  1199.7500     89.8729      8.9484      8.5921      9.1572    155.3247
  1200.0000     89.7548      8.9977      8.5123      8.6014    157.3023
  1200.2500     89.5915      9.0523      8.5373      8.5360    157.2846
  1200.5000     89.3772      9.0977      8.6601      9.0421    153.4937
  1200.7500     89.1155      9.1289      8.8626     10.0825    148.1624
  1201.0000     88.8173      9.1514      9.1165     11.4439    137.5800
  1201.2500     88.4970      9.1778      9.3885     12.7505    130.5354
  1201.5000     88.1692      9.2220      9.6483     13.6181    122.5967
  1201.7500     87.8456      9.2954      9.8781     13.8679    119.7112
  1202.0000     87.5353      9.4044     10.0773     13.6130    118.3195
  1202.2500     87.2473      9.5490     10.2597     13.1398    118.2137
  1202.5000     86.9911      9.7220     10.4463     12.7162    117.5043
  1202.7500     86.7748      9.9098     10.6548     12.4979    116.6126
  1203.0000     86.6019     10.0934     10.8914     12.5517    116.3328
  1203.2500     86.4711     10.2530     11.1464     12.8907    117.7919
  1203.5000     86.3780     10.3730     11.3945     13.4577    122.2066
  1203.7500     86.3162     10.4476     11.6018     14.1078    125.6705
  1204.0000     86.2779     10.4840     11.7380     14.6455    130.3531
  1204.2500     86.2526     10.5003     11.7905     14.9003    133.0361
  1204.5000     86.2272     10.5195     11.7700     14.7907    136.8198
  1204.7500     86.1877     10.5617     11.7067     14.3575    139.3539
  1205.0000     86.1249     10.6379     11.6394     13.7480    143.1535
  1205.2500     86.0368     10.7469     11.6068     13.1365    145.5460
  1205.5000     85.9290     10.8769     11.6424     12.6434    148.4191
  1205.7500     85.8118     11.0095     11.7717     12.3460    149.2985
  1206.0000     85.6971     11.1258     12.0083     12.3657    147.6436
  1206.2500     85.5961     11.2120     12.3473     12.9000    143.7589
  1206.5000     85.5167     11.2620     12.7582     14.1183    133.6734
  1206.7500     85.4631     11.2771     13.1799     15.9807    125.4135
  1207.0000     85.4340     11.2634     13.5281     18.1255    114.7843
  1207.2500     85.4222     11.2309     13.7181     19.9524    111.0264
  1207.5000     85.4158     11.1923     13.7010     20.8864    111.3660
