~Version Information
VERS.                      2.0: CWLS Log ASCII Standard - VERSION 2.0
WRAP.                       NO: One line per depth step
~Well Information Block
STRT.FT               704.0000: 
STOP.FT              2530.0000: 
STEP.FT                 0.2500: 
NULL.                -999.2500: 
COMP.          Pioneer Natural Resources: COMPANY
WELL.          Aztec Federal 41-15: WELL
FLD.           Purgatorie River: FIELD
LOC.           706' FNL & 1253' FEL: LOCATION
CNTY.               Las Animas: COUNTY
SRVC.          Superior Well Services: SERVICE COMPANY
DATE.          Tue Mar 18 09-04-19 2008: LOG DATE
UWI.           05-071-08342-00: UNIQUE WELL ID
STAT.                       CO: STATE
~Curve Information Block
DEPT.FT            0 000 00 00: Depth
DIR.Ohm-m                     : IEL Induction Resistivity
SN.Ohm-m                      : IEL Short Normal
SP.mV                         : IEL Spontaneous Potential
GR.GAPI                       : Gamma Ray
~Parameter Information Block
~A  Depth       DIR          SN          SP          GR     
# ...
  1575.0000     15.4810     17.2451     32.8394     97.0732
  1575.2500     15.9738     17.5582     32.4299     98.1592
  1575.5000     16.3461     18.0379     31.9083     99.4538
  1575.7500     16.9253     18.3406     31.6225    101.0716
  1576.0000     17.2980     18.7232     31.2645    101.2580
  1576.2500     17.7904     18.9153     31.0597     99.9385
  1576.5000     18.0506     19.1198     30.8033     98.3962
  1576.7500     18.3146     19.2233     30.6835     96.0680
  1577.0000     18.4053     19.3553     30.6268     94.8915
  1577.2500     18.4265     19.4082     30.6946     93.8227
  1577.5000     18.3713     19.3576     30.9670     93.4280
  1577.7500     18.1843     19.2184     31.2488     92.9474
  1578.0000     17.9828     18.9038     31.7644     92.5827
  1578.2500     17.5511     18.6539     32.1243     92.0563
  1578.5000     17.1723     18.1872     32.6150     91.8632
  1578.7500     16.4708     17.7754     32.8858     92.1245
  1579.0000     15.9217     16.9903     33.2116     92.9592
  1579.2500     14.9968     16.3859     33.3946     95.7455
  1579.5000     14.3299     15.4247     33.6515     98.6270
  1579.7500     13.2943     14.7470     33.8221    103.6588
  1580.0000     12.6078     13.6069     34.0810    106.8868
  1580.2500     11.6289     12.7600     34.2524    111.2297
  1580.5000     11.0288     11.4886     34.4968    114.0914
  1580.7500     10.2202     10.7361     34.6444    118.8900
  1581.0000      9.7402      9.8185     34.8374    122.3382
  1581.2500      9.0963      9.3330     34.9511    126.8929
  1581.5000      8.7101      8.7606     35.1170    128.7580
  1581.7500      8.1851      8.4871     35.2354    129.0515
  1582.0000      7.8678      8.2616     35.4279    127.7608
  1582.2500      7.4374      8.2337     35.5544    124.7479
  1582.5000      7.1793      8.3346     35.7090    122.7943
  1582.7500      6.8324      8.4407     35.7722    120.8405
  1583.0000      6.6265      8.5087     35.7926    120.2712
  1583.2500      6.3550      8.4108     35.7555    119.7277
  1583.5000      6.2004      8.0054     35.6373    118.8079
  1583.7500      6.0123      7.6297     35.5362    115.7376
  1584.0000      5.9186      7.1399     35.3978    112.6033
  1584.2500      5.8283      6.9865     35.3376    106.9158
  1584.5000      5.8012      7.1039     35.3125    102.9981
  1584.7500      5.8062      7.3798     35.3403     98.2357
  1585.0000      5.8360      7.9116     35.4537     96.7368
  1585.2500      5.9119      8.2129     35.5808     98.1143
  1585.5000      5.9791      8.4355     35.8354    101.3540
  1585.7500      6.0996      8.4427     36.0242    108.1582
  1586.0000      6.1932      8.4062     36.2869    112.7125
  1586.2500      6.3588      8.4523     36.4285    117.7901
  1586.5000      6.4922      8.6933     36.5800    119.5923
  1586.7500      6.7409      8.9415     36.6424    120.3240
  1587.0000      6.9476      9.3712     36.6853    120.0297
  1587.2500      7.3321      9.6860     36.6855    118.9705
  1587.5000      7.6429     10.2438     36.6592    117.7923
  1587.7500      8.1925     10.7004     36.6390    115.0013
  1588.0000      8.6113     11.5412     36.6304    112.4382
  1588.2500      9.3052     12.2260     36.6445    107.8817
  1588.5000      9.7996     13.4921     36.6818    104.6894
  1588.7500     10.5582     14.5245     36.7052    100.2416
  1589.0000     11.0510     16.3583     36.7351     97.7384
  1589.2500     11.7235     17.7115     36.7665     94.6994
  1589.5000     12.1025     19.7073     36.8740     92.8942
  1589.7500     12.5422     20.8305     37.0092     89.8472
  1590.0000     12.7466     21.8985     37.3244     87.4021
  1590.2500     12.9276     22.0914     37.6038     83.7380
  1590.5000     12.9692     21.6299     38.0945     82.1738
  1590.7500     12.9163     20.9556     38.4422     82.7341
  1591.0000     12.8041     19.6158     38.9479     85.5310
  1591.2500     12.5234     18.4950     39.2585     92.9011
  1591.5000     12.2682     16.3268     39.6905     98.9642
  1591.7500     11.8050     14.6092     39.9764    107.6843
  1592.0000     11.4582     12.0742     40.4421    112.2975
  1592.2500     10.9075     10.7234     40.7865    116.6986
  1592.5000     10.5330      9.5154     41.3273    117.9663
  1592.7500      9.9803      9.2546     41.6669    117.8780
  1593.0000      9.6302      9.4247     42.0794    117.0320
  1593.2500      9.1530      9.6827     42.2729    115.7586
  1593.5000      8.8762      9.9477     42.4683    115.5399
  1593.7500      8.5298      9.9716     42.5751    116.6260
  1594.0000      8.3425      9.8436     42.7741    117.9171
  1594.2500      8.1167      9.7193     42.9588    119.1029
  1594.5000      7.9958      9.5649     43.3107    118.6256
  1594.7500      7.8499      9.5046     43.5674    116.2785
  1595.0000      7.7739      9.4656     43.9240    114.4511
  1595.2500      7.6914      9.4507     44.1171    112.2065
  1595.5000      7.6566      9.4138     44.3266    110.8853
  1595.7500      7.6298      9.3783     44.4171    108.6135
  1596.0000      7.6243      9.3270     44.4904    106.9429
  1596.2500      7.6275      9.3063     44.5055    104.8423
  1596.5000      7.6357      9.3070     44.4980    104.0519
  1596.7500      7.6596      9.3266     44.4867    103.8164
  1597.0000      7.6867      9.3695     44.4695    104.0016
  1597.2500      7.7478      9.3946     44.4500    104.1604
  1597.5000      7.8016      9.4189     44.3851    104.0221
  1597.7500      7.8965      9.4332     44.3130    103.7928
  1598.0000      7.9652      9.4631     44.1801    104.0433
  1598.2500      8.0716      9.4870     44.0944    105.3802
  1598.5000      8.1438      9.5209     43.9957    106.6213
  1598.7500      8.2539      9.5414     43.9517    107.9719
  1599.0000      8.3275      9.5724     43.9005    108.1231
  1599.2500      8.4357      9.5952     43.8591    107.4505
  1599.5000      8.5045      9.6429     43.7599    106.9208
  1599.7500      8.6020      9.6929     43.6599    106.7709
  1600.0000      8.6649      9.7931     43.4608    107.1395
  1600.2500      8.7634      9.8662     43.3095    107.7603
  1600.5000      8.8376      9.9787     43.0946    107.7648
  1600.7500      8.9719     10.0568     42.9804    106.9848
  1601.0000      9.0808     10.1854     42.8630    106.3328
  1601.2500      9.2759     10.2970     42.8107    106.1575
  1601.5000      9.4261     10.5380     42.7420    106.8827
  1601.7500      9.6770     10.7420     42.6910    108.8546
  1602.0000      9.8591     11.0708     42.6101    110.1866
  1602.2500     10.1516     11.3007     42.5658    111.2033
  1602.5000     10.3585     11.7095     42.5388    110.7889
  1602.7500     10.6844     12.0535     42.5561    108.1138
  1603.0000     10.9107     12.6884     42.6295    104.9706
  1603.2500     11.2622     13.1924     42.6942     98.7412
  1603.5000     11.5034     14.0697     42.7788     94.1388
  1603.7500     11.8701     14.6969     42.8117     87.7685
  1604.0000     12.1102     15.5576     42.8188     84.5670
  1604.2500     12.4446     15.9964     42.7985     81.9913
  1604.5000     12.6395     16.3823     42.7370     81.6523
  1604.7500     12.8819     16.4597     42.6734     82.5141
  1605.0000     13.0139     16.3535     42.5298     83.7302
  1605.2500     13.1813     16.1728     42.3932     86.6520
  1605.5000     13.2783     15.8016     42.1237     89.5229
  1605.7500     13.4008     15.5135     41.9089     95.0246
  1606.0000     13.4626     15.0437     41.5603     98.9215
  1606.2500     13.5214     14.7212     41.3289    103.7934
  1606.5000     13.5406     14.2821     41.0111    105.8852
  1606.7500     13.5502     14.0684     40.8289    107.3823
  1607.0000     13.5486     13.9210     40.6023    107.7209
  1607.2500     13.5377     13.9247     40.4766    107.8054
  1607.5000     13.5251     14.0088     40.3087    107.5729
  1607.7500     13.5018     14.0902     40.1998    106.5283
  1608.0000     13.4900     14.2505     40.0332    105.3685
  1608.2500     13.4958     14.3848     39.9270    103.2932
