~Version Information
VERS.                      2.0: CWLS Log ASCII Standard - VERSION 2.0
WRAP.                       NO: One line per depth step
~Well Information Block
STRT.FT               732.2500: 
STOP.FT              2476.0000: 
STEP.FT                 0.2500: 
NULL.                -999.2500: 
COMP.          Petrogulf Corporation: COMPANY
WELL.            Montoya 7-14V: WELL
FLD.           Purgatorie River: FIELD
LOC.           535' FSL & 491' FWL: LOCATION
CNTY.               Las Animas: COUNTY
SRVC.                         : SERVICE COMPANY
DATE.          Mon Aug 23 05:51:43 2004: LOG DATE
UWI.           05 071 08019 00: UNIQUE WELL ID
STAT.                 Colorado: STATE
~Curve Information Block
DEPT.FT            0 000 00 00: Depth
SP.mV                         : DIL Spontaneous Potential
RILD.Ohm-m                    : DIL Deep Resistivity
RILM.Ohm-m                    : DIL Medium Resistivity
RLL3.Ohm-m                    : DIL Shallow Resistivity
GR.GAPI                       : Gamma Ray
~Parameter Information Block
~A  Depth        SP         RILD        RILM        RLL3         GR     
# ...
  1992.2500     -9.3909     13.2872     15.0479     18.3566    145.4996
  1992.5000     -9.4394     13.4749     15.1340     18.6932    150.0155
  1992.7500     -9.7690     13.7422     15.2579     19.3158    152.7945
  1993.0000    -10.3321     14.0700     15.4101     20.2500    154.1912
  1993.2500    -11.0373     14.4421     15.5760     21.3465    152.9140
  1993.5000    -11.7796     14.8486     15.7412     22.3142    149.2853
  1993.7500    -12.4709     15.2848     15.8975     22.8430    147.1796
  1994.0000    -13.0525     15.7491     16.0489     22.7522    146.4519
  1994.2500    -13.4980     16.2425     16.2139     22.0786    147.8790
  1994.5000    -13.8132     16.7682     16.4239     21.0799    151.5438
  1994.7500    -14.0344     17.3316     16.7198     20.2155    153.6008
  1995.0000    -14.2326     17.9369     17.1477     20.2160    154.1340
  1995.2500    -14.4987     18.5837     17.7553     22.3223    152.2912
  1995.5000    -14.9173     19.2648     18.5909     28.6923    146.3238
  1995.7500    -15.5306     19.9680     19.7023     42.8373    140.6083
  1996.0000    -16.3075     20.6805     21.1362     69.7795    130.0520
  1996.2500    -17.1455     21.3954     22.9340    115.4417    121.5553
  1996.5000    -17.8967     22.1128     25.1224    185.2600    105.6047
  1996.7500    -18.4188     22.8328     27.6954    282.0087     92.7129
  1997.0000    -18.6156     23.5365     30.5831    403.5982     72.3385
  1997.2500    -18.4593     24.1693     33.6113    541.4176     60.5926
  1997.5000    -17.9846     24.6416     36.4671    679.5591     49.1978
  1997.7500    -17.2706     24.8583     38.7094    795.4728     46.0353
  1998.0000    -16.4212     24.7598     39.8751    863.4890     45.9707
  1998.2500    -15.5541     24.3434     39.6647    862.5473     47.7967
  1998.5000    -14.7896     23.6503     38.1014    786.3592     52.8124
  1998.7500    -14.2343     22.7378     35.5188    649.7241     58.1473
  1999.0000    -13.9575     21.6632     32.3959    484.6195     69.8013
  1999.2500    -13.9705     20.4827     29.1659    326.7196     79.7208
  1999.5000    -14.2216     19.2547     26.1206    201.0256     96.0843
  1999.7500    -14.6157     18.0363     23.4078    115.6222    106.5766
  2000.0000    -15.0441     16.8758     21.0730     65.1498    119.6178
  2000.2500    -15.4187     15.8062     19.1039     38.6645    125.9786
  2000.5000    -15.6888     14.8454     17.4623     25.9513    132.3877
  2000.7500    -15.8410     13.9989     16.1031     20.0904    135.2282
  2001.0000    -15.8865     13.2640     14.9830     17.3053    138.6707
  2001.2500    -15.8496     12.6339     14.0643     15.8580    141.1221
  2001.5000    -15.7541     12.0995     13.3157     15.0681    145.3501
  2001.7500    -15.6202     11.6516     12.7117     14.6275    147.7008
  2002.0000    -15.4638     11.2821     12.2314     14.3831    147.9389
  2002.2500    -15.2913     10.9839     11.8573     14.2345    145.0399
  2002.5000    -15.0967     10.7510     11.5741     14.1297    137.3599
  2002.7500    -14.8564     10.5769     11.3681     14.0652    131.6544
  2003.0000    -14.5328     10.4539     11.2270     14.0621    124.0175
  2003.2500    -14.0896     10.3738     11.1401     14.1365    119.5618
  2003.5000    -13.5120     10.3305     11.0986     14.2828    113.5087
  2003.7500    -12.8276     10.3230     11.0966     14.4728    110.2118
  2004.0000    -12.1126     10.3570     11.1316     14.6633    107.5532
  2004.2500    -11.4731     10.4441     11.2037     14.8123    107.7938
  2004.5000    -11.0110     10.5978     11.3164     14.9004    111.0390
  2004.7500    -10.7849     10.8286     11.4747     14.9488    114.4564
  2005.0000    -10.7876     11.1397     11.6853     15.0214    119.6633
  2005.2500    -10.9475     11.5260     11.9555     15.2049    122.1811
  2005.5000    -11.1552     11.9761     12.2932     15.5768    123.6463
  2005.7500    -11.2976     12.4786     12.7070     16.1798    123.1657
  2006.0000    -11.2942     13.0283     13.2064     17.0161    121.0909
  2006.2500    -11.1152     13.6300     13.8020     18.0765    119.4061
  2006.5000    -10.7885     14.2959     14.5042     19.4213    116.9701
  2006.7500    -10.3869     15.0389     15.3224     21.2910    115.1317
  2007.0000    -10.0082     15.8641     16.2625     24.1554    110.8169
  2007.2500     -9.7532     16.7617     17.3227     28.5917    106.3764
  2007.5000     -9.7052     17.7033     18.4891     34.9635     97.7946
  2007.7500     -9.9176     18.6392     19.7308     43.0390     91.7233
  2008.0000    -10.4063     19.4997     20.9951     51.7990     83.9429
  2008.2500    -11.1430     20.2028     22.2076     59.6387     80.4673
  2008.5000    -12.0506     20.6730     23.2764     64.9469     78.3666
  2008.7500    -13.0131     20.8638     24.1057     66.7716     78.8007
  2009.0000    -13.8921     20.7716     24.6149     65.1664     81.3660
  2009.2500    -14.5591     20.4326     24.7590     61.0082     84.0879
  2009.5000    -14.9240     19.9058     24.5410     55.4467     89.8019
  2009.7500    -14.9502     19.2569     24.0114     49.3903     94.7534
  2010.0000    -14.6534     18.5521     23.2542     43.3299    103.4636
  2010.2500    -14.0893     17.8551     22.3661     37.4942    109.5995
  2010.5000    -13.3370     17.2236     21.4383     32.0948    118.1996
  2010.7500    -12.4882     16.7034     20.5449     27.4358    123.0024
  2011.0000    -11.6360     16.3244     19.7381     23.8334    128.7665
  2011.2500    -10.8662     16.0975     19.0506     21.4529    132.2371
  2011.5000    -10.2511     16.0129     18.4991     20.2004    137.8284
  2011.7500     -9.8427     16.0384     18.0886     19.7492    141.5244
  2012.0000     -9.6729     16.1231     17.8158     19.6884    145.2727
  2012.2500     -9.7497     16.2121     17.6717     19.7079    145.8790
  2012.5000    -10.0547     16.2672     17.6420     19.7206    144.6924
  2012.7500    -10.5385     16.2828     17.7066     19.8677    143.5809
  2013.0000    -11.1231     16.2810     17.8406     20.4218    142.3814
  2013.2500    -11.7140     16.2898     18.0146     21.6350    141.4583
  2013.5000    -12.2225     16.3228     18.1971     23.5782    138.4502
  2013.7500    -12.5833     16.3733     18.3596     26.0241    134.9347
  2014.0000    -12.7637     16.4244     18.4802     28.4507    127.9996
  2014.2500    -12.7607     16.4628     18.5476     30.2139    123.2369
  2014.5000    -12.5929     16.4868     18.5597     30.8345    117.8818
  2014.7500    -12.2949     16.4998     18.5211     30.2275    116.4193
  2015.0000    -11.9178     16.5002     18.4362     28.7154    117.8473
  2015.2500    -11.5275     16.4743     18.3065     26.8242    120.7381
  2015.5000    -11.2018     16.4011     18.1292     25.0203    126.3242
  2015.7500    -11.0127     16.2661     17.8992     23.5573    129.7736
  2016.0000    -11.0094     16.0729     17.6132     22.4826    132.8725
  2016.2500    -11.2069     15.8448     17.2734     21.7295    132.9702
  2016.5000    -11.5823     15.6140     16.8879     21.2040    130.4554
  2016.7500    -12.0868     15.4067     16.4705     20.8233    127.9772
  2017.0000    -12.6574     15.2344     16.0376     20.5225    124.9737
  2017.2500    -13.2293     15.0940     15.6065     20.2493    123.9266
  2017.5000    -13.7424     14.9749     15.1940     19.9639    123.3104
  2017.7500    -14.1537     14.8679     14.8155     19.6411    122.9956
  2018.0000    -14.4410     14.7708     14.4849     19.2749    122.0498
  2018.2500    -14.6063     14.6882     14.2138     18.8776    121.1088
  2018.5000    -14.6644     14.6271     14.0105     18.4724    120.1876
  2018.7500    -14.6273     14.5922     13.8805     18.0839    120.8353
  2019.0000    -14.4887     14.5837     13.8258     17.7339    124.4057
  2019.2500    -14.2238     14.5998     13.8461     17.4457    127.7256
  2019.5000    -13.8085     14.6412     13.9395     17.2495    131.5694
  2019.7500    -13.2484     14.7112     14.1033     17.1854    132.3811
  2020.0000    -12.6007     14.8138     14.3336     17.3252    131.1282
