~Version Information
VERS.                      2.0: CWLS Log ASCII Standard - VERSION 2.0
WRAP.                       NO: One line per depth step
~Well Information Block
STRT.FT               294.0000: 
STOP.FT              1958.0000: 
STEP.FT                 0.1000: 
NULL.                -999.2500: 
COMP.          Pioneer Natural Resources: COMPANY
WELL.          Commander 43-26 Tr: WELL
FLD.           Purgatoire River: FIELD
LOC.           2439' FSL & 446' FEL: LOCATION
PROV.                 Colorado: PROVINCE
CNTY.               Las Animas: COUNTRY
SRVC.                Patterson: SERVICE COMPANY
DATE.          Fri Apr 15 07:31:08 2005: LOG DATE
UWI.           05 071 08341 00: UNIQUE WELL ID
~Curve Information Block
DEPT.FT            0 000 00 00: Depth
DCAL.in                       : CDL Caliper
RHOB.g/cc                     : CDL Bulk Density
RHOC.g/cc                     : CDL Density Correction
DPOR.pu                       : CDL Density Porosity
GR.GAPI                       : Gamma Ray
NPOR.pu                       : Neutron Porosity
~Parameter Information Block
~A  Depth       DCAL        RHOB        RHOC        DPOR         GR         NPOR    
# ...
   956.4000      8.0711      2.4355      0.0257     13.0024     83.7460     21.6046
   956.5000      8.0551      2.4363     -0.0386     12.9539     83.3855     21.3695
   956.6000      8.0551      2.4566      0.0085     11.7203     80.1756     21.1115
   956.7000      8.0551      2.4912     -0.0034      9.6258     78.2823     21.0598
   956.8000      8.0093      2.5256      0.0225      7.5391     76.9890     20.8155
   956.9000      8.0093      2.5416      0.1107      6.5725     77.4291     20.3607
   957.0000      7.9984      2.5303      0.0361      7.2558     81.9141     20.1768
   957.1000      7.9984      2.5168      0.0583      8.0745     86.7750     20.2801
   957.2000      7.9984      2.5265      0.0420      7.4841     86.7294     20.4607
   957.3000      7.9898      2.5535      0.0905      5.8487     82.2816     20.6315
   957.4000      7.9898      2.5581      0.1520      5.5670     77.8555     20.6603
   957.5000      7.9729      2.5197      0.0496      7.8958     77.4069     20.6968
   957.6000      7.9729      2.4741      0.0583     10.6617     81.5121     20.9655
   957.7000      7.9729      2.4546      0.0090     11.8439     84.1677     21.2195
   957.8000      7.9821      2.4572      0.0191     11.6837     80.3769     21.1171
   957.9000      7.9821      2.4646      0.0552     11.2351     75.8392     20.7619
   958.0000      8.0033      2.4621      0.0469     11.3880     76.6751     20.3872
   958.1000      8.0033      2.4516     -0.0199     12.0244     79.5441     20.0681
   958.2000      8.0033      2.4580     -0.0320     11.6374     82.8444     19.9471
   958.3000      8.0088      2.4948      0.0249      9.4035     90.3391     20.1592
   958.4000      8.0088      2.5430      0.0400      6.4866     98.4830     20.7024
   958.5000      8.0151      2.5745      0.0923      4.5741     98.6776     21.9910
   958.6000      8.0151      2.5763      0.0665      4.4654     93.2047     24.2188
   958.7000      8.0151      2.5608      0.0657      5.4065     89.1929     25.0135
   958.8000      8.0087      2.5421      0.0851      6.5381     87.1390     22.1394
   958.9000      8.0087      2.5200      0.0429      7.8758     87.0672     18.3647
   959.0000      8.0096      2.5036      0.0171      8.8736     89.0161     16.5704
   959.1000      8.0096      2.5038      0.0072      8.8579     91.2613     16.0596
   959.2000      8.0096      2.5018      0.0717      8.9807     93.1200     15.5154
   959.3000      8.0134      2.4762     -0.0161     10.5336     93.6684     14.8619
   959.4000      8.0134      2.4411     -0.0237     12.6577     92.9112     14.5247
   959.5000      8.0129      2.4180      0.0050     14.0582     89.6512     14.3766
   959.6000      8.0129      2.4138     -0.0261     14.3166     82.7596     14.1948
   959.7000      8.0129      2.4293      0.0288     13.3788     77.0283     14.7782
   959.8000      8.0117      2.4572     -0.0051     11.6841     76.4046     17.0670
   959.9000      8.0117      2.4832      0.0780     10.1118     77.8982     21.1035
   960.0000      8.0107      2.4968      0.0856      9.2853     77.7078     25.1831
   960.1000      8.0107      2.4977      0.1118      9.2327     75.0739     27.0487
   960.2000      8.0107      2.4854      0.0858      9.9765     70.3104     27.7731
   960.3000      8.0117      2.4682      0.0226     11.0153     65.4582      2.2178
   960.4000      8.0117      2.4692      0.0012     10.9574     63.4511      3.9770
   960.5000      8.0138      2.4960      0.0393      9.3357     64.5313      4.5785
   960.6000      8.0138      2.5225      0.0899      7.7295     66.6339      8.8787
   960.7000      8.0138      2.5244      0.0862      7.6106     67.2030     12.5080
   960.8000      8.0203      2.5023      0.0928      8.9525     64.9772     10.6954
   960.9000      8.0203      2.4725      0.0397     10.7584     63.0951     -0.4590
   961.0000      8.0145      2.4601      0.0086     11.5099     64.0511    -24.0299
   961.1000      8.0145      2.4776      0.0279     10.4494     66.0390    -43.5648
   961.2000      8.0145      2.5021      0.0338      8.9659     67.8789    -35.8622
   961.3000      8.0263      2.5058      0.0209      8.7384     68.2417     -7.6904
   961.4000      8.0263      2.4958      0.0573      9.3465     67.2418     10.8760
   961.5000      8.0327      2.4954     -0.0249      9.3671     67.4958     17.7578
   961.6000      8.0327      2.5029      0.0696      8.9160     68.0001     21.0978
   961.7000      8.0327      2.4885      0.0882      9.7899     65.9554     21.0895
   961.8000      8.0284      2.4501     -0.0128     12.1154     63.1074     18.7496
   961.9000      8.0284      2.4150      0.0060     14.2417     63.8282     15.2507
   962.0000      8.0358      2.3993     -0.0200     15.1926     68.3296     11.7839
   962.1000      8.0358      2.4137      0.0217     14.3226     73.1133     12.2299
   962.2000      8.0358      2.4526      0.0278     11.9628     75.5092     15.9339
   962.3000      8.0440      2.4833      0.1096     10.1050     74.4947     18.2193
   962.4000      8.0440      2.4836      0.0584     10.0878     70.7017     16.9377
   962.5000      8.0617      2.4615      0.0813     11.4220     66.0738     14.7154
   962.6000      8.0617      2.4310      0.0273     13.2757     63.5695     15.0333
   962.7000      8.0617      2.4121     -0.0042     14.4155     65.0439     16.5522
   962.8000      8.0818      2.4112      0.0796     14.4740     68.2129     15.0691
   962.9000      8.0818      2.4111     -0.0231     14.4793     71.3321     11.3626
   963.0000      8.0836      2.4155      0.0639     14.2125     74.8039     11.9668
   963.1000      8.0836      2.4369      0.0669     12.9123     77.2669     16.6413
   963.2000      8.0836      2.4615      0.1426     11.4216     78.5787     20.1158
   963.3000      8.0852      2.4684      0.0931     11.0040     78.9588     19.4945
   963.4000      8.0852      2.4636      0.1100     11.2991     76.8837     17.4962
   963.5000      8.0874      2.4593      0.1176     11.5579     73.7484     16.7714
   963.6000      8.0874      2.4549      0.1011     11.8247     70.6738     16.2779
   963.7000      8.0874      2.4469      0.0986     12.3063     66.9803     15.9685
   963.8000      8.0859      2.4379      0.0379     12.8523     65.7772     17.4732
   963.9000      8.0859      2.4341      0.0326     13.0835     68.6224     19.4983
   964.0000      8.0887      2.4300      0.0754     13.3342     72.2601     19.6540
   964.1000      8.0887      2.4169      0.0440     14.1243     73.9192     19.3902
   964.2000      8.0887      2.4037      0.0448     14.9281     73.9717     20.3172
   964.3000      8.0829      2.4058      0.0806     14.8029     73.7977     20.7707
   964.4000      8.0829      2.4276      0.0648     13.4770     72.4859     19.6864
   964.5000      8.0692      2.4617      0.0569     11.4141     68.2597     18.5541
   964.6000      8.0692      2.4933      0.0741      9.4961     64.8806     18.6322
   964.7000      8.0692      2.5093      0.1225      8.5260     66.6260     20.7771
   964.8000      8.0574      2.5104      0.0714      8.4612     70.5152     24.6111
   964.9000      8.0574      2.5090      0.0650      8.5465     73.2466     27.1718
   965.0000      8.0529      2.5110      0.0817      8.4241     74.2937     25.0725
   965.1000      8.0529      2.5124      0.0573      8.3382     73.8456     19.5630
   965.2000      8.0529      2.5018      0.0934      8.9803     71.9493     15.1893
   965.3000      8.0452      2.4736     -0.0158     10.6922     68.6964     14.3766
   965.4000      8.0452      2.4463      0.0246     12.3436     65.1997     16.5944
   965.5000      8.0321      2.4346      0.0288     13.0523     63.6841     16.8673
   965.6000      8.0321      2.4317      0.0491     13.2303     67.1262     13.3947
   965.7000      8.0321      2.4309      0.0535     13.2765     72.7832     11.0586
   965.8000      8.0142      2.4402     -0.0083     12.7181     74.4862     15.0537
   965.9000      8.0142      2.4621      0.0662     11.3880     71.5621     20.4739
