~Version Information
VERS.                      2.0: CWLS Log ASCII Standard - VERSION 2.0
WRAP.                       NO: One line per depth step
~Well Information Block
STRT.FT                -7.0000: 
STOP.FT              2730.2500: 
STEP.FT                 0.2500: 
NULL.                -999.2500: 
COMP.          Pioneer Natural Resources: COMPANY
WELL.             Squeal 11-26: WELL
FLD.           Purgatorie River: FIELD
LOC.           1186' FNL & 152' FWL--: LOCATION
PROV.                       CO: PROVINCE
CNTY.               Las Animas: COUNTRY
SRVC.          Patterson Wireline: SERVICE COMPANY
DATE.          Tue Jul 26 11:59:46 2005: LOG DATE
UWI.           05 071 08404 00: UNIQUE WELL ID
~Curve Information Block
DEPT.FT            0 000 00 00: Depth
CCL.                          : Casing Collar Locator
TT3.usec                      : CBL 3' Travel Time
AMP3.mV                       : CBL 3' Amplitude
GR.GAPI                       : Gamma Ray
~Parameter Information Block
~A  Depth       CCL         TT3         AMP3         GR     
# ...
   361.5000      0.0000    391.7936      6.8697     94.6496
   361.7500      0.0000    411.1716      6.8087     95.5090
   362.0000      0.0000    446.9235      6.6970     95.2793
   362.2500      0.0000    498.3986      6.5423     95.0197
   362.5000      0.0000    556.6459      6.3687     95.1394
   362.7500      0.0000    609.8043      6.2009     94.6762
   363.0000      0.0000    651.8539      6.0598     92.2183
   363.2500      0.0000    684.7699      5.9724     87.3660
   363.5000      0.0000    712.5579      5.9620     81.1733
   363.7500      0.0000    735.7612      6.0213     75.1718
   364.0000      0.0000    752.2923      6.1116     70.0778
   364.2500      2.0000    760.5801      6.1952     65.7188
   364.5000      0.0000    759.6576      6.2579     62.0197
   364.7500     -2.0000    748.5563      6.2998     59.1617
   365.0000      0.0000    729.5529      6.3195     56.7490
   365.2500      0.0000    710.8739      6.3148     53.9593
   365.5000      0.0000    701.8231      6.2955     50.8697
   365.7500      0.0000    704.8422      6.2889     48.6970
   366.0000      0.0000    714.7957      6.3282     48.3217
   366.2500      0.0000    725.3336      6.4284     49.2558
   366.5000      0.0000    733.9905      6.5691     50.3771
   366.7500      0.0000    742.3399      6.7045     51.1448
   367.0000      0.0000    753.2938      6.7967     51.7173
   367.2500      0.0000    767.7078      6.8352     52.2132
   367.5000      0.0000    782.2829      6.8319     52.3561
   367.7500      0.0000    790.7935      6.8047     51.9062
   368.0000      0.0000    788.1696      6.7685     51.1142
   368.2500      0.0000    774.2132      6.7328     50.6434
   368.5000      0.0000    754.2763      6.7014     51.1993
   368.7500      0.0000    736.0091      6.6742     53.1146
   369.0000      0.0000    724.2790      6.6485     55.9356
   369.2500      0.0000    718.7367      6.6216     58.3846
   369.5000      0.0000    715.7813      6.5958     59.0976
   369.7500      0.0000    712.0527      6.5789     57.6430
   370.0000      0.0000    706.9727      6.5767     54.8463
   370.2500      0.0000    703.4934      6.5870     52.1522
   370.5000      0.0000    705.7572      6.6009     50.5965
   370.7500      0.0000    715.3262      6.6090     50.1728
   371.0000      0.0000    730.4987      6.6086     50.0843
   371.2500      0.0000    748.5474      6.6063     49.7134
   371.5000      0.0000    766.7954      6.6105     49.3428
   371.7500      0.0000    782.3450      6.6215     49.7730
   372.0000      0.0000    792.9741      6.6269     51.2295
   372.2500      0.0000    798.3195      6.6095     52.8875
   372.5000      0.0000    799.3533      6.5610     53.5407
   372.7500      0.0000    796.8897      6.4879     52.5456
   373.0000      0.0000    791.1359      6.4064     50.1292
   373.2500      0.0000    782.6415      6.3304     47.1882
   373.5000      0.0000    773.2742      6.2648     44.9538
   373.7500      0.0000    765.9192      6.2057     44.4257
   374.0000      0.0000    763.0906      6.1452     45.7895
   374.2500      0.0000    765.7146      6.0778     48.3515
   374.5000      0.0000    772.7602      6.0041     50.9328
   374.7500      0.0000    781.6613      5.9282     52.3988
   375.0000      0.0000    789.3778      5.8551     52.3015
   375.2500      0.0000    793.6165      5.7927     51.1585
   375.5000      0.0000    793.3955      5.7512     49.7810
   375.7500      0.0000    789.1014      5.7354     48.4688
   376.0000      0.0000    782.6223      5.7380     47.3552
   376.2500      0.0000    777.0027      5.7445     47.1710
   376.5000      0.0000    775.2685      5.7404     48.7145
   376.7500      0.0000    780.0607      5.7159     51.5644
   377.0000      0.0000    794.3555      5.6680     54.2201
   377.2500      0.0000    819.9200      5.6046     55.7118
   377.5000      0.0000    853.3773      5.5428     56.4475
   377.7500      0.0000    886.1237      5.4983     57.3586
   378.0000      0.0000    910.1295      5.4749     58.7372
   378.2500      0.0000    922.7094      5.4635     59.9439
   378.5000      0.0000    925.1648      5.4480     59.8915
   378.7500      0.0000    918.7607      5.4143     57.9203
   379.0000      0.0000    903.5496      5.3567     54.5218
   379.2500      0.0000    880.7214      5.2795     51.1170
   379.5000      0.0000    854.6979      5.1933     48.9112
   379.7500      0.0000    831.6942      5.1096     48.0052
   380.0000      0.0000    816.0275      5.0376     47.6922
   380.2500      0.0000    808.3419      4.9818     47.4598
   380.5000      0.0000    807.2209      4.9386     47.5160
   380.7500      0.0000    811.4489      4.8968     48.3745
   381.0000      0.0000    820.2590      4.8456     50.1595
   381.2500      0.0000    832.4878      4.7822     52.3619
   381.5000      0.0000    847.2848      4.7106     54.0927
   381.7500      0.0000    865.7591      4.6352     54.4929
   382.0000      0.0000    889.7025      4.5592     53.1530
   382.2500      0.0000    917.6108      4.4866     50.5217
   382.5000      0.0000    943.8409      4.4233     48.0001
   382.7500      0.0000    962.9135      4.3751     47.2289
   383.0000      0.0000    973.4460      4.3434     48.8492
   383.2500      0.0000    977.4384      4.3226     51.9672
   383.5000      0.0000    977.1550      4.3031     55.0071
   383.7500      0.0000    973.2820      4.2771     56.9551
   384.0000      0.0000    965.4736      4.2433     57.7011
   384.2500      0.0000    954.5032      4.2061     57.5507
   384.5000      0.0000    944.1677      4.1706     56.8329
   384.7500      0.0000    940.0812      4.1405     56.0001
   385.0000      0.0000    945.5389      4.1176     55.6874
   385.2500      0.0000    959.0016      4.1040     56.1375
   385.5000      0.0000    975.8459      4.0994     56.6090
   385.7500      0.0000    991.1674      4.0982     55.8759
   386.0000      0.0000   1000.7510      4.0888     53.5200
   386.2500      0.0000   1001.0405      4.0572     50.5042
   386.5000      0.0000    989.1112      3.9953     48.4322
   386.7500      0.0000    963.9537      3.9078     48.2974
   387.0000      0.0000    930.6213      3.8117     49.7500
   387.2500      0.0000    902.7067      3.7278     51.4237
   387.5000      0.0000    895.6221      3.6687     52.1622
   387.7500      0.0000    914.1864      3.6359     51.9590
   388.0000      0.0000    948.3903      3.6256     51.4929
   388.2500      0.0000    982.3485      3.6346     50.9982
   388.5000      0.0000   1005.9961      3.6612     50.2511
   388.7500      0.0000   1018.3080      3.7040     49.5682
   389.0000      0.0000   1022.4788      3.7627     49.9156
   389.2500      0.0000   1019.6486      3.8365     51.6627
   389.5000      0.0000   1005.9543      3.9211     53.7701
   389.7500      0.0000    975.3853      4.0096     54.6334
   390.0000      0.0000    928.0688      4.0947     53.5995
   390.2500      0.0000    876.0042      4.1701     51.5526
   390.5000      0.0000    836.4529      4.2294     50.1238
   390.7500      0.0000    817.5992      4.2682     50.2997
   391.0000      0.0000    813.3550      4.2886     51.5773
   391.2500      0.0000    812.4296      4.2999     52.3720
   391.5000      0.0000    808.5606      4.3111     51.4689
   391.7500      0.0000    801.0999      4.3218     49.2087
   392.0000      0.0000    790.0380      4.3207     47.0129
   392.2500      0.0000    774.3034      4.2939     45.7677
   392.5000      0.0000    754.9619      4.2363     45.1840
   392.7500      0.0000    737.8621      4.1546     44.7832
   393.0000      0.0000    730.8713      4.0607     44.9247
   393.2500      0.0000    737.1993      3.9631     46.5746
   393.5000      0.0000    751.5369      3.8643     50.2734
   393.7500      0.0000    763.2744      3.7641     55.5590
   394.0000      0.0000    763.9765      3.6639     61.4692
   394.2500      0.0000    752.6830      3.5694     67.4682
   394.5000      0.0000    735.0927      3.4908     73.5308
   394.7500      0.0000    718.0421      3.4395     79.4299
