~Version Information
VERS.                      2.0: CWLS Log ASCII Standard - VERSION 2.0
WRAP.                       NO: One line per depth step
~Well Information Block
STRT.FT               -17.7500: 
STOP.FT              1590.5000: 
STEP.FT                 0.2500: 
NULL.                -999.2500: 
COMP.          Petrogulf Corporation: COMPANY
WELL.          Great Plains 22-21V: WELL
FLD.           Purgatorie River: FIELD
LOC.           63' FNL & 1895' FWL--: LOCATION
CNTY.               Las Animas: COUNTY
SRVC.          Superior Well Services: SERVICE COMPANY
DATE.          Fri Dec 08 14:45:19 2006: LOG DATE
UWI.           05 071 08346 00: UNIQUE WELL ID
STAT.                       CO: STATE
~Curve Information Block
DEPT.FT            0 000 00 00: Depth
CCL.                          : Casing Collar Locator
TT3.usec                      : CBL 3' Travel Time
AMP3.mV                       : CBL 3' Amplitude
GR.GAPI                       : Gamma Ray
~Parameter Information Block
~A  Depth       CCL         TT3         AMP3         GR     
# ...
   618.7500      0.0000    259.1160     75.3557    104.8897
   619.0000      0.0000    259.1138     75.4106    101.4874
   619.2500      0.0000    259.1031     75.4672     99.8795
   619.5000      0.0000    259.0866     75.5303    100.1835
   619.7500      0.0000    259.0696     75.5899    101.7004
   620.0000      0.0000    259.0584     75.6340    103.6677
   620.2500      0.0000    259.0590     75.6612    105.6234
   620.5000      0.0000    259.0736     75.6807    107.0375
   620.7500      0.0000    259.1028     75.7020    106.9205
   621.0000      0.0000    259.1540     75.7272    104.2539
   621.2500      0.0000    259.2443     75.7533     99.0994
   621.5000      0.0000    259.3916     75.7776     93.0311
   621.7500      0.0000    259.5960     75.7989     88.0350
   622.0000      0.0000    259.8297     75.8150     84.8944
   622.2500      0.0000    260.0480     75.8225     82.6908
   622.5000      0.0000    260.2146     75.8214     79.9718
   622.7500      0.0000    260.3193     75.8184     76.4790
   623.0000      0.0000    260.3747     75.8235     73.5410
   623.2500      0.0000    260.4019     75.8403     72.5216
   623.5000      0.0000    260.4192     75.8620     73.1719
   623.7500      0.0000    260.4363     75.8782     73.8401
   624.0000      0.0000    260.4554     75.8853     73.0854
   624.2500      0.0000    260.4737     75.8898     70.8212
   624.5000      0.0000    260.4880     75.9031     68.0859
   624.7500      0.0000    260.4967     75.9286     65.9735
   625.0000      0.0000    260.4999     75.9539     64.7373
   625.2500      0.0000    260.5002     75.9602     63.7698
   625.5000      0.0000    260.5034     75.9388     62.3787
   625.7500      0.0000    260.5141     75.8957     60.5359
   626.0000      0.0000    260.5314     75.8389     58.8197
   626.2500      0.0000    260.5504     75.7598     57.7775
   626.5000      0.0000    260.5760     75.6115     57.6227
   626.7500      0.0000    260.6429     75.2722     58.3843
   627.0000      0.0000    260.8340     74.4934     59.7747
   627.2500      0.0000    261.2764     72.8939     60.8169
   627.5000      0.0000    262.0894     70.0875     60.1672
   627.7500      0.0000    263.2946     65.9760     57.1901
   628.0000      0.0000    264.7541     61.0400     52.5448
   628.2500      0.0000    266.2035     56.3092     47.5533
   628.5000      0.0000    267.3772     52.8621     43.1628
   628.7500      0.0000    268.1447     51.1849     39.6130
   629.0000      0.0000    268.5837     50.9451     36.9114
   629.2500     -2.0000    268.9662     51.3569     35.4260
   629.5000      2.0000    269.6978     51.7492     35.9823
   629.7500      0.0000    271.1442     51.9550     39.4954
   630.0000      0.0000    273.2280     52.4745     46.4674
   630.2500      0.0000    275.0630     54.2876     56.5401
   630.5000      0.0000    275.3199     58.0709     68.2278
   630.7500      0.0000    273.3510     63.2975     79.1070
   631.0000      0.0000    269.8669     68.3768     86.6268
   631.2500      0.0000    266.2934     71.9293     89.3549
   631.5000      0.0000    263.6387     73.7440     88.0790
   631.7500      0.0000    262.0869     74.4855     85.7322
   632.0000      0.0000    261.3407     74.8484     85.5650
   632.2500      0.0000    261.0427     75.1364     88.8100
   632.5000      0.0000    260.9489     75.3657     94.0038
   632.7500      0.0000    260.9340     75.4973     98.6236
   633.0000      0.0000    260.9453     75.5422    101.3187
   633.2500      0.0000    260.9573     75.5484    102.5201
   633.5000      0.0000    260.9560     75.5518    103.1321
   633.7500      0.0000    260.9379     75.5591    103.2732
   634.0000      0.0000    260.9117     75.5605    102.5926
   634.2500      0.0000    260.8911     75.5477    101.2346
   634.5000      0.0000    260.8840     75.5226     99.8235
   634.7500      0.0000    260.8888     75.4920     98.7721
   635.0000      0.0000    260.8990     75.4607     98.0783
   635.2500      0.0000    260.9091     75.4264     97.6235
   635.5000      0.0000    260.9182     75.3813     97.3758
   635.7500      0.0000    260.9297     75.3192     97.4186
   636.0000      0.0000    260.9454     75.2407     97.6940
   636.2500      0.0000    260.9623     75.1521     97.5645
   636.5000      0.0000    260.9728     75.0623     96.0796
   636.7500      0.0000    260.9715     74.9804     93.1063
   637.0000      0.0000    260.9594     74.9140     89.6816
   637.2500      0.0000    260.9432     74.8652     86.8849
   637.5000      0.0000    260.9288     74.8302     84.9698
   637.7500      0.0000    260.9180     74.8031     84.0258
   638.0000      0.0000    260.9102     74.7810     84.7528
   638.2500      0.0000    260.9050     74.7649     87.8120
   638.5000      0.0000    260.9028     74.7589     92.6766
   638.7500      0.0000    260.9034     74.7652     97.8805
   639.0000      0.0000    260.9054     74.7796    102.4559
   639.2500      0.0000    260.9071     74.7939    106.4480
   639.5000      0.0000    260.9072     74.8016    109.8378
   639.7500      0.0000    260.9059     74.8004    111.7481
   640.0000      0.0000    260.9059     74.7864    111.1901
   640.2500      0.0000    260.9107     74.7493    108.1873
   640.5000      0.0000    260.9213     74.6815    103.8022
   640.7500      0.0000    260.9350     74.5922     99.3339
   641.0000      0.0000    260.9468     74.5067     95.7280
   641.2500      0.0000    260.9544     74.4475     93.5482
   641.5000      0.0000    260.9593     74.4188     93.1643
   641.7500      0.0000    260.9644     74.4107     94.7107
   642.0000      0.0000    260.9710     74.4119     97.6643
   642.2500      0.0000    260.9771     74.4176    100.4937
   642.5000      0.0000    260.9802     74.4264    101.2035
   642.7500      0.0000    260.9802     74.4369     98.7064
   643.0000      0.0000    260.9791     74.4455     93.6842
   643.2500      0.0000    260.9787     74.4499     88.0592
   643.5000      0.0000    260.9791     74.4509     83.8152
   643.7500      0.0000    260.9805     74.4501     82.2196
   644.0000      0.0000    260.9856     74.4437     83.6214
   644.2500      0.0000    260.9982     74.4248     87.4982
   644.5000      0.0000    261.0186     74.3948     92.5953
   644.7500      0.0000    261.0406     74.3678     97.2323
   645.0000      0.0000    261.0576     74.3597     99.9409
   645.2500      0.0000    261.0671     74.3745    100.1670
   645.5000      0.0000    261.0704     74.4057     98.4560
   645.7500      0.0000    261.0680     74.4451     95.8992
   646.0000      0.0000    261.0584     74.4838     93.3367
   646.2500      0.0000    261.0421     74.5077     91.0717
   646.5000      0.0000    261.0224     74.5050     89.2252
   646.7500      0.0000    261.0023     74.4802     88.1227
   647.0000      0.0000    260.9833     74.4559     88.1827
   647.2500      0.0000    260.9656     74.4539     89.5604
   647.5000      0.0000    260.9510     74.4777     92.0857
   647.7500      0.0000    260.9411     74.5160     95.3472
   648.0000      0.0000    260.9353     74.5579     98.5582
   648.2500      0.0000    260.9311     74.6037    100.5828
   648.5000      0.0000    260.9261     74.6611    100.4676
   648.7500      0.0000    260.9191     74.7342     97.9320
   649.0000      0.0000    260.9115     74.8148     93.3844
   649.2500      0.0000    260.9059     74.8861     87.8488
   649.5000      0.0000    260.9052     74.9321     82.9081
   649.7500      0.0000    260.9093     74.9489     80.0024
   650.0000      0.0000    260.9155     74.9455     79.3407
   650.2500      0.0000    260.9199     74.9381     79.7675
   650.5000      0.0000    260.9206     74.9387     79.9246
   650.7500      0.0000    260.9194     74.9442     79.4783
   651.0000      0.0000    260.9211     74.9370     79.2001
   651.2500      0.0000    260.9318     74.9002     80.0324
   651.5000      0.0000    260.9535     74.8379     82.1332
   651.7500      0.0000    260.9797     74.7781     84.7934
   652.0000      0.0000    260.9982     74.7526     87.3917
