~Version Information
VERS.                      2.0: CWLS Log ASCII Standard - VERSION 2.0
WRAP.                       NO: One line per depth step
~Well Information Block
STRT.FT               -11.0000: 
STOP.FT              1896.2500: 
STEP.FT                 0.2500: 
NULL.                -999.2500: 
COMP.          Pioneer Natural Resources: COMPANY
WELL.            Summers 21-19: WELL
FLD.           Purgatoire River: FIELD
LOC.           900' FNL & 1950' FWL--: LOCATION
PROV.                 Colorado: PROVINCE
CNTY.               Las Animas: COUNTRY
SRVC.                Patterson: SERVICE COMPANY
DATE.          Thu Oct 20 15:06:00 2005: LOG DATE
UWI.           05 071 08315 00: UNIQUE WELL ID
~Curve Information Block
DEPT.FT            0 000 00 00: Depth
GR.GAPI                       : Gamma Ray
CCL.                          : Casing Collar Locator
TT3.usec                      : CBL 3' Travel Time
AMP3.mV                       : CBL 3' Amplitude
~Parameter Information Block
~A  Depth        GR         CCL         TT3         AMP3    
# ...
  1128.0000     91.1717      0.0000    773.3242      2.6136
  1128.2500     76.5807      0.0000    774.2448      2.4505
  1128.5000     66.9189      0.0000    767.8621      2.2887
  1128.7500     62.5520      0.0000    754.3181      2.1443
  1129.0000     62.5394      0.0000    737.3737      2.0356
  1129.2500     65.8367      0.0000    722.5391      1.9777
  1129.5000     71.7710      0.0000    713.5839      1.9737
  1129.7500     79.7731      0.0000    710.1354      2.0119
  1130.0000     88.8896      0.0000    708.0430      2.0744
  1130.2500     97.5488      0.0000    702.3281      2.1510
  1130.5000    103.9504      0.0000    690.8052      2.2482
  1130.7500    107.0400      0.0000    675.8362      2.3876
  1131.0000    107.1104      0.0000    662.6518      2.5880
  1131.2500    105.2102      0.0000    655.3331      2.8459
  1131.5000    102.1367      0.0000    654.1174      3.1300
  1131.7500     98.3738      0.0000    656.6433      3.3987
  1132.0000     94.7200      0.0000    661.1859      3.6192
  1132.2500     92.3047      0.0000    667.8712      3.7717
  1132.5000     91.7979      0.0000    677.1737      3.8440
  1132.7500     92.9462      0.0000    688.4579      3.8335
  1133.0000     95.1056      0.0000    700.1122      3.7533
  1133.2500     98.1080      0.0000    710.3637      3.6317
  1133.5000    102.3367      0.0000    717.8733      3.5035
  1133.7500    107.9025      0.0000    722.1009      3.4002
  1134.0000    114.0782      0.0000    723.4316      3.3408
  1134.2500    119.7760      0.0000    722.9359      3.3257
  1134.5000    124.2503      0.0000    721.8342      3.3403
  1134.7500    127.0831      0.0000    720.9666      3.3649
  1135.0000    127.9761      0.0000    720.7025      3.3843
  1135.2500    127.0431      0.0000    721.2214      3.3882
  1135.5000    124.9578      0.0000    722.5468      3.3698
  1135.7500    122.5307      0.0000    724.3436      3.3279
  1136.0000    120.4544      0.0000    726.0977      3.2724
  1136.2500    119.4087      0.0000    727.5972      3.2224
  1136.5000    119.7229      0.0000    729.0889      3.1952
  1136.7500    120.8059      0.0000    730.9378      3.1975
  1137.0000    121.4238      0.0000    733.0972      3.2272
  1137.2500    120.6495      0.0000    734.8327      3.2782
  1137.5000    118.2791      0.0000    735.1027      3.3418
  1137.7500    114.5620      0.0000    733.4207      3.4068
  1138.0000    110.0528      0.0000    730.1851      3.4638
  1138.2500    105.6260      0.0000    726.0004      3.5088
  1138.5000    102.1775      0.0000    721.0008      3.5404
  1138.7500    100.3150      0.0000    715.1801      3.5593
  1139.0000    100.3226      0.0000    709.1229      3.5716
  1139.2500    102.0031      0.0000    703.9288      3.5883
  1139.5000    104.4709      0.0000    700.3787      3.6150
  1139.7500    106.6481      0.0000    698.4465      3.6453
  1140.0000    108.3028      0.0000    697.6034      3.6662
  1140.2500    110.4053      0.0000    697.3517      3.6693
  1140.5000    114.2511      0.0000    697.5010      3.6585
  1140.7500    120.1402      0.0000    698.2567      3.6493
  1141.0000    126.7513      0.0000    700.1840      3.6612
  1141.2500    131.8153      0.0000    703.8120      3.7061
  1141.5000    133.8114      0.0000    708.8771      3.7818
  1141.7500    133.2371      0.0000    713.9611      3.8723
  1142.0000    132.0289      0.0000    717.2234      3.9575
  1142.2500    131.6967      0.0000    717.6588      4.0235
  1142.5000    132.2647      0.0000    715.5468      4.0657
  1142.7500    132.8950      0.0000    711.8955      4.0843
  1143.0000    132.9449      0.0000    707.8683      4.0815
  1143.2500    132.3203      0.0000    704.6345      4.0641
  1143.5000    131.3287      0.0000    703.1031      4.0458
  1143.7500    130.4852      0.0000    703.3441      4.0415
  1144.0000    130.2517      0.0000    704.2902      4.0575
  1144.2500    130.8312      0.0000    704.2512      4.0871
  1144.5000    132.3187      0.0000    701.9728      4.1186
  1144.7500    134.9963      0.0000    697.4145      4.1454
  1145.0000    139.1712      0.0000    691.7838      4.1699
  1145.2500    144.3270      0.0000    687.1522      4.2008
  1145.5000    148.5824      0.0000    685.7974      4.2459
  1145.7500    149.4904      0.0000    688.9889      4.3066
  1146.0000    145.5795      0.0000    695.5431      4.3779
  1146.2500    137.2448      0.0000    701.6690      4.4527
  1146.5000    126.7532      0.0000    703.4181      4.5253
  1146.7500    117.5900      0.0000    700.3665      4.5920
  1147.0000    112.9289      0.0000    696.5408      4.6530
  1147.2500    113.7177      0.0000    696.5576      4.7132
  1147.5000    118.0211      0.0000    700.8101      4.7794
  1147.7500    122.5315      0.0000    705.5285      4.8541
  1148.0000    125.0242      0.0000    707.5978      4.9314
  1148.2500    125.5002      0.0000    707.9540      4.9969
  1148.5000    125.1103      0.0000    709.7321      5.0268
  1148.7500    124.4266      0.0000    714.2528      4.9952
  1149.0000    122.9932      0.0000    719.8069      4.8895
  1149.2500    120.0007      0.0000    723.6780      4.7268
  1149.5000    114.9573      0.0000    724.2073      4.5508
  1149.7500    108.1849      0.0000    721.1827      4.4012
  1150.0000    101.2802      0.0000    715.4597      4.2712
  1150.2500     96.8923      0.0000    708.7195      4.0991
  1150.5000     97.4169      0.0000    703.0340      3.8202
  1150.7500    103.4593      0.0000    699.9869      3.4351
  1151.0000    113.3422      0.0000    699.9993      3.0181
  1151.2500    124.0084      0.0000    702.5493      2.6631
  1151.5000    132.6001      0.0000    706.8741      2.4323
  1151.7500    137.6258      0.0000    712.0248      2.3415
  1152.0000    139.0387      0.0000    716.4043      2.3648
  1152.2500    137.5497      0.0000    718.4083      2.4505
  1152.5000    134.1313      0.0000    717.9343      2.5474
  1152.7500    130.0369      0.0000    716.2130      2.6276
  1153.0000    126.7464      0.0000    713.6118      2.7008
  1153.2500    125.5614      0.0000    708.4854      2.8177
  1153.5000    127.2282      0.0000    698.7464      3.0460
  1153.7500    131.7336      0.0000    684.2170      3.4089
  1154.0000    138.1312      0.0000    667.2972      3.8409
  1154.2500    144.6939      0.0000    651.3726      4.2261
  1154.5000    149.7446      0.0000    638.3706      4.4838
  1154.7500    152.6681      0.0000    627.8988      4.6081
  1155.0000    154.0164      0.0000    618.8333      4.6418
  1155.2500    154.5412      0.0000    611.4113      4.6381
  1155.5000    154.4442      0.0000    607.4268      4.6383
  1155.7500    153.6737      0.0000    608.5490      4.6607
  1156.0000    152.5924      0.0000    614.6812      4.7013
  1156.2500    152.0803      0.0000    623.9429      4.7502
  1156.5000    152.9440      0.0000    634.0901      4.8040
  1156.7500    155.2278      0.0000    643.8867      4.8607
  1157.0000    158.3439      0.0000    653.2146      4.9084
  1157.2500    161.9869      0.0000    662.3752      4.9284
  1157.5000    166.4341      0.0000    671.5905      4.9158
  1157.7500    171.4755      0.0000    680.8351      4.8919
  1158.0000    175.4336      0.0000    689.7935      4.8898
  1158.2500    175.9533      0.0000    698.0742      4.9282
  1158.5000    172.0031      0.0000    705.5023      4.9960
  1158.7500    165.1105      0.0000    712.1419      5.0594
  1159.0000    158.6051      0.0000    718.1053      5.0867
  1159.2500    155.2014      0.0000    723.3264      5.0717
  1159.5000    154.7948      0.0000    727.4227      5.0362
  1159.7500    154.6355      0.0000    729.8498      5.0109
  1160.0000    151.9515      0.0000    730.1949      5.0111
  1160.2500    146.4202      0.0000    728.3659      5.0288
  1160.5000    140.1796      0.0000    724.7853      5.0441
  1160.7500    135.8284      0.0000    720.5455      5.0452
  1161.0000    134.6748      0.0000    716.8850      5.0346
  1161.2500    136.6091      0.0000    714.0941      5.0148
