~Version Information
VERS.                      2.0: CWLS Log ASCII Standard - VERSION 2.0
WRAP.                       NO: One line per depth step
~Well Information Block
STRT.FT                12.0000: 
STOP.FT              1671.7500: 
STEP.FT                 0.2500: 
NULL.                -999.2500: 
COMP.          Pioneer Natural Resources: COMPANY
WELL.          Scott Canyon 11-18 Tr: WELL
FLD.           Purgatoire River: FIELD
LOC.           411' FNL & 580' FWL: LOCATION
PROV.                 Colorado: PROVINCE
CNTY.               Las Animas: COUNTRY
SRVC.                Patterson: SERVICE COMPANY
DATE.          Tue Feb 22 09:52:18 2005: LOG DATE
UWI.           05 071 08286 00: UNIQUE WELL ID
~Curve Information Block
DEPT.FT            0 000 00 00: Depth
GR.GAPI                       : Gamma Ray
CCL.                          : Casing Collar Locator
TT3.usec                      : CBL 3' Travel Time
AMP3.mV                       : CBL 3' Amplitude
~Parameter Information Block
~A  Depth        GR         CCL         TT3         AMP3    
# ...
  1553.0000    114.7486      0.0000    823.3999      4.3198
  1553.2500    115.3018      0.0000    824.7607      4.1082
  1553.5000    114.4708      0.0000    830.4383      4.1043
  1553.7500    113.0222      0.0000    842.1984      4.1919
  1554.0000    111.9984      2.0422    858.4647      4.2868
  1554.2500    111.9695      0.0000    874.0920      4.3535
  1554.5000    113.0511      0.0000    882.5191      4.3947
  1554.7500    115.1114      0.0000    879.4670      4.4381
  1555.0000    118.0083      0.0000    865.7782      4.5329
  1555.2500    121.8141      0.0000    847.2026      4.7408
  1555.5000    126.6261      0.0000    830.7312      5.1027
  1555.7500    131.9453      0.0000    820.3090      5.5891
  1556.0000    136.4046      0.0000    815.4904      6.0851
  1556.2500    138.5026      0.0000    813.3266      6.4563
  1556.5000    137.8669      0.0000    811.1437      6.6463
  1556.7500    135.7271      0.0000    808.0472      6.7008
  1557.0000    133.9745      0.0000    804.3615      6.7041
  1557.2500    133.7322      0.0000    800.2692      6.7086
  1557.5000    134.7530      0.0000    795.4601      6.7180
  1557.7500    135.9671      0.0000    789.9132      6.7092
  1558.0000    136.5661      0.0000    784.3824      6.6613
  1558.2500    136.4538      0.0000    780.1505      6.5758
  1558.5000    135.6922      0.0000    778.3431      6.4763
  1558.7500    134.0719      0.0000    779.1493      6.3915
  1559.0000    131.5072      0.0000    781.6451      6.3350
  1559.2500    128.2815      0.0000    784.6987      6.3005
  1559.5000    124.4656      0.0000    787.9962      6.2715
  1559.7500    119.5727      0.0000    791.9915      6.2343
  1560.0000    113.3371      0.0000    797.0262      6.1832
  1560.2500    106.5435      0.0000    802.7515      6.1195
  1560.5000    100.5826      0.0000    808.1409      6.0503
  1560.7500     96.2799      0.0000    811.6448      5.9887
  1561.0000     93.3370      0.0000    811.6239      5.9470
  1561.2500     90.8341      0.0000    807.4789      5.9264
  1561.5000     88.2106      0.0000    800.5630      5.9149
  1561.7500     85.7651      0.0000    793.4998      5.8984
  1562.0000     84.3586      0.0000    788.3785      5.8730
  1562.2500     84.8876      0.0000    785.7391      5.8492
  1562.5000     87.9569      0.0000    785.0781      5.8438
  1562.7500     93.5309      0.0000    785.8761      5.8663
  1563.0000    100.5743      0.0000    787.9688      5.9115
  1563.2500    107.2437      0.0000    791.0773      5.9667
  1563.5000    111.7954      0.0000    794.2112      6.0251
  1563.7500    113.5672      0.0000    795.9295      6.0898
  1564.0000    113.1813      0.0000    795.4810      6.1643
  1564.2500    111.7692      0.0000    793.5552      6.2401
  1564.5000    110.1122      0.0000    791.7045      6.2992
  1564.7500    108.6317      0.0000    791.2625      6.3312
  1565.0000    107.8990      0.0000    792.8853      6.3488
  1565.2500    108.5904      0.0000    796.6323      6.3797
  1565.5000    110.7053      0.0000    802.0232      6.4429
  1565.7500    113.0846      0.0000    808.1340      6.5299
  1566.0000    114.1996      0.0000    813.8710      6.6100
  1566.2500    113.5701      0.0000    818.1970      6.6548
  1566.5000    112.0730      0.0000    820.4036      6.6669
  1566.7500    110.7737      0.0000    820.6020      6.6846
  1567.0000    110.0597      0.0000    819.7578      6.7536
  1567.2500    110.1637      0.0000    818.8789      6.8879
  1567.5000    111.7072      0.0000    818.3332      7.0621
  1567.7500    115.0842      0.0000    818.0527      7.2345
  1568.0000    119.7293      0.0000    818.0065      7.3698
  1568.2500    124.3886      0.0000    818.3925      7.4419
  1568.5000    127.7618      0.0000    819.5791      7.4283
  1568.7500    128.7870      0.0000    821.7211      7.3138
  1569.0000    127.1139      0.0000    824.3533      7.1013
  1569.2500    123.7285      0.0000    826.6601      6.8221
  1569.5000    120.5108      0.0000    828.1569      6.5364
  1569.7500    118.7926      0.0000    828.9198      6.3121
  1570.0000    118.6117      0.0000    829.2567      6.1874
  1570.2500    119.1360      0.0000    829.3458      6.1497
  1570.5000    119.3905      0.0000    829.0743      6.1556
  1570.7500    118.8801      0.0000    827.9468      6.1672
  1571.0000    117.9715      0.0000    825.0988      6.1685
  1571.2500    117.5288      0.0000    819.7319      6.1586
  1571.5000    117.9214      0.0000    811.9968      6.1424
  1571.7500    118.5219      0.0000    803.5246      6.1264
  1572.0000    118.2388      0.0000    796.6413      6.1151
  1572.2500    116.4568      0.0000    792.5369      6.1093
  1572.5000    113.6517      0.0000    790.2547      6.1125
  1572.7500    111.2342      0.0000    787.8936      6.1333
  1573.0000    110.4572      0.0000    784.9834      6.1724
  1573.2500    111.1859      0.0000    783.3504      6.2084
  1573.5000    111.9042      0.0000    785.4937      6.2082
  1573.7500    111.1221      0.0000    792.3347      6.1550
  1574.0000    108.7915      0.0000    802.3780      6.0588
  1574.2500    106.3306      0.0000    812.6468      5.9425
  1574.5000    105.3107      0.0000    820.5609      5.8296
  1574.7500    106.1505      0.0000    825.2657      5.7440
  1575.0000    108.0506      0.0000    827.4418      5.7026
  1575.2500    109.7761      0.0000    828.2307      5.7007
  1575.5000    110.2509      0.0000    828.4745      5.7103
  1575.7500    108.9398      0.0000    828.6016      5.6998
  1576.0000    106.4628      0.0000    828.7797      5.6566
  1576.2500    104.6620      0.0000    829.0304      5.5932
  1576.5000    105.2710      0.0000    829.3061      5.5391
  1576.7500    108.2623      0.0000    829.5300      5.5221
  1577.0000    111.8197      0.0000    829.6525      5.5500
  1577.2500    113.9928      0.0000    829.6938      5.6040
  1577.5000    114.1900      0.0000    829.7366      5.6548
  1577.7500    113.2695      0.0000    829.8599      5.6891
  1578.0000    112.6408      0.0000    830.0753      5.7170
  1578.2500    113.1556      0.0000    830.3246      5.7569
  1578.5000    114.2969      0.0000    830.5203      5.8190
  1578.7500    114.2867      0.0000    830.5765      5.9050
  1579.0000    111.4600      0.0000    830.3951      6.0140
  1579.2500    105.9225      0.0000    829.7953      6.1428
  1579.5000     99.8962      0.0000    828.3735      6.2817
  1579.7500     96.1253      0.0000    825.4355      6.4154
  1580.0000     95.7673      0.0000    820.3159      6.5263
  1580.2500     97.9213      0.0000    813.1387      6.6003
  1580.5000    101.2162      0.0000    805.3161      6.6357
  1580.7500    105.2319      0.0000    798.9866      6.6499
  1581.0000    109.9649      0.0000    795.6716      6.6696
  1581.2500    114.5582      0.0000    795.2915      6.7106
  1581.5000    117.4209      0.0000    796.2640      6.7700
  1581.7500    117.5754      0.0000    796.5983      6.8387
  1582.0000    115.5826      0.0000    795.2855      6.9129
  1582.2500    113.2629      0.0000    792.8292      6.9911
  1582.5000    112.5082      0.0000    790.4290      7.0668
  1582.7500    113.8952      0.0000    788.8276      7.1312
  1583.0000    116.2367      0.0000    788.0056      7.1802
  1583.2500    117.6633      0.0000    787.6216      7.2136
  1583.5000    117.2124      0.0000    787.4139      7.2286
  1583.7500    115.2605      0.0000    787.2652      7.2215
  1584.0000    112.6173      0.0000    787.1372      7.1938
  1584.2500    109.7215      0.0000    787.0439      7.1490
  1584.5000    106.8554      0.0000    787.0571      7.0774
  1584.7500    104.5401      0.0000    787.2294      6.9598
  1585.0000    103.3371      0.0000    787.4528      6.7952
  1585.2500    103.5738      0.0000    787.2750      6.6193
  1585.5000    105.2378      0.0000    785.9843      6.4850
  1585.7500    107.5771      0.0000    783.4503      6.4263
  1586.0000    108.9862      0.0000    781.3340      6.4432
  1586.2500    108.0645      0.0000    782.7578      6.5111
