~Version Information
VERS.                      2.0: CWLS Log ASCII Standard - VERSION 2.0
WRAP.                       NO: One line per depth step
~Well Information Block
STRT.FT               250.0000: 
STOP.FT              1687.7000: 
STEP.FT                 0.1000: 
NULL.                -999.2500: 
COMP.          Pioneer Natural Resources: COMPANY
WELL.          Moneypenny 31-36: WELL
FLD.           Purgatoire River: FIELD
LOC.           280' FNL & 1976' FEL: LOCATION
PROV.                 Colorado: PROVINCE
CNTY.               Las Animas: COUNTRY
SRVC.                Patterson: SERVICE COMPANY
DATE.          Fri Oct 01 13:54:40 2004: LOG DATE
UWI.           05 071 08183 00: UNIQUE WELL ID
~Curve Information Block
DEPT.FT            0 000 00 00: Depth
DCAL.in                       : CDL Caliper
RHOB.g/cc                     : CDL Bulk Density
RHOC.g/cc                     : CDL Density Correction
DPOR.pu                       : CDL Density Porosity
NPOR.pu                       : Neutron Porosity
GR.GAPI                       : Gamma Ray
~Parameter Information Block
~A  Depth       DCAL        RHOB        RHOC        DPOR        NPOR         GR     
# ...
  1382.8000      7.9351      2.5156      0.0751      8.1425     21.2811    128.0246
  1382.9000      7.9351      2.4979      0.0353      9.2190     21.4262    137.8054
  1383.0000      7.9362      2.4804      0.0080     10.2814     21.6230    140.5321
  1383.1000      7.9362      2.4831      0.0085     10.1157     21.7851    134.3923
  1383.2000      7.9362      2.5043      0.0211      8.8302     22.1604    127.3290
  1383.3000      7.9352      2.5284      0.0596      7.3715     22.5784    122.3668
  1383.4000      7.9352      2.5480      0.0363      6.1838     22.5574    114.0048
  1383.5000      7.9337      2.5578      0.1060      5.5895     22.1690    103.6507
  1383.6000      7.9337      2.5480      0.0777      6.1810     21.9754    100.7358
  1383.7000      7.9337      2.5209      0.0637      7.8228     22.3117    106.7432
  1383.8000      7.9340      2.4979      0.0029      9.2160     22.8659    117.5941
  1383.9000      7.9340      2.5060      0.0043      8.7291     22.9650    128.8926
  1384.0000      7.9362      2.5374      0.0779      6.8213     22.4792    132.6126
  1384.1000      7.9362      2.5543      0.0536      5.7989     21.8286    124.8092
  1384.2000      7.9362      2.5443      0.0207      6.4056     21.3780    114.2947
  1384.3000      7.9376      2.5270      0.0373      7.4574     21.2090    109.5914
  1384.4000      7.9376      2.5181      0.0475      7.9949     21.3285    108.7544
  1384.5000      7.9355      2.5237      0.0448      7.6531     21.6178    109.5269
  1384.6000      7.9355      2.5450      0.0409      6.3663     21.8233    110.5488
  1384.7000      7.9355      2.5660      0.1015      5.0912     21.7939    108.3907
  1384.8000      7.9328      2.5653      0.0391      5.1317     21.4586    103.1056
  1384.9000      7.9328      2.5473      0.0210      6.2242     20.9936     98.5626
  1385.0000      7.9360      2.5342      0.0528      7.0191     20.6864     96.2900
  1385.1000      7.9360      2.5384      0.0430      6.7645     20.6870     98.1554
  1385.2000      7.9360      2.5559      0.0614      5.7020     21.0282    107.0489
  1385.3000      7.9402      2.5736      0.0847      4.6313     21.4918    116.8390
  1385.4000      7.9402      2.5843      0.0528      3.9801     21.7882    116.7040
  1385.5000      7.9410      2.5895      0.0842      3.6679     21.7590    109.1445
  1385.6000      7.9410      2.5881      0.0382      3.7507     21.3859    102.1810
  1385.7000      7.9410      2.5860      0.0684      3.8806     20.9557     97.5820
  1385.8000      7.9424      2.5854      0.0727      3.9126     20.6321     94.1708
  1385.9000      7.9424      2.5808      0.0577      4.1930     20.5689     88.8954
  1386.0000      7.9453      2.5758      0.0361      4.4951     21.0382     83.1911
  1386.1000      7.9453      2.5737      0.0371      4.6255     21.7126     81.6218
  1386.2000      7.9453      2.5649      0.0779      5.1589     21.9066     85.3826
  1386.3000      7.9475      2.5463      0.0654      6.2847     21.5069     92.3037
  1386.4000      7.9475      2.5304      0.0202      7.2457     21.1836     96.8457
  1386.5000      7.9477      2.5233      0.0545      7.6816     21.4030     96.1563
  1386.6000      7.9477      2.5204      0.0093      7.8539     21.7454     94.6096
  1386.7000      7.9477      2.5233      0.0297      7.6764     21.6344     93.6227
  1386.8000      7.9445      2.5278      0.0337      7.4047     21.3087     92.1248
  1386.9000      7.9445      2.5261      0.0415      7.5118     21.3368     90.1532
  1387.0000      7.9383      2.5197      0.0385      7.8990     21.5633     88.2226
  1387.1000      7.9383      2.5133      0.0149      8.2851     21.5962     88.1078
  1387.2000      7.9383      2.5072      0.0408      8.6575     21.2049     87.3474
  1387.3000      7.9350      2.5067      0.0010      8.6862     20.3115     85.1020
  1387.4000      7.9350      2.5257      0.0332      7.5343     19.4474     85.5152
  1387.5000      7.9381      2.5563      0.0634      5.6764     19.0560     88.5576
  1387.6000      7.9381      2.5680      0.0471      4.9713     19.0422     92.0204
  1387.7000      7.9381      2.5561      0.0202      5.6879     19.3326     95.2703
  1387.8000      7.9448      2.5485      0.0262      6.1510     19.7087     94.3471
  1387.9000      7.9448      2.5602      0.0426      5.4415     19.7938     87.7832
  1388.0000      7.9465      2.5813      0.0794      4.1615     19.6402     81.5820
  1388.1000      7.9465      2.5952      0.0908      3.3237     19.5693     81.5609
  1388.2000      7.9465      2.5956      0.0533      3.2990     19.6116     86.7960
  1388.3000      7.9413      2.5941      0.0586      3.3873     19.5883     89.3280
  1388.4000      7.9413      2.6040      0.0719      2.7889     19.5903     86.5557
  1388.5000      7.9393      2.6209      0.0986      1.7661     19.7562     84.1809
  1388.6000      7.9393      2.6237      0.1044      1.5911     19.8685     82.0757
  1388.7000      7.9393      2.5991      0.0763      3.0836     19.7133     75.3926
  1388.8000      7.9411      2.5635      0.0251      5.2411     19.4222     68.9340
  1388.9000      7.9411      2.5486      0.0162      6.1476     19.2846     70.2961
  1389.0000      7.9435      2.5618      0.0644      5.3440     19.1800     75.2499
  1389.1000      7.9435      2.5802      0.0730      4.2317     18.9002     76.8630
  1389.2000      7.9435      2.5835      0.0697      4.0280     18.7530     77.2498
  1389.3000      7.9463      2.5737      0.0669      4.6272     18.8519     80.0659
  1389.4000      7.9463      2.5595      0.0917      5.4831     18.8845     80.6312
  1389.5000      7.9465      2.5465      0.0439      6.2754     18.8019     76.3347
  1389.6000      7.9465      2.5410      0.0759      6.6085     18.8486     74.8326
  1389.7000      7.9465      2.5493      0.0480      6.1035     19.1926     77.4482
  1389.8000      7.9434      2.5656      0.1090      5.1173     19.8993     78.5372
  1389.9000      7.9434      2.5702      0.0847      4.8377     20.6629     75.0132
  1390.0000      7.9406      2.5547      0.0989      5.7754     20.8593     67.4886
  1390.1000      7.9406      2.5312      0.0485      7.2002     20.3005     64.6406
  1390.2000      7.9406      2.5150      0.0290      8.1840     19.4733     71.3093
  1390.3000      7.9411      2.5104      0.0236      8.4616     18.9860     80.3403
  1390.4000      7.9411      2.5193      0.0229      7.9184     18.8658     85.8289
  1390.5000      7.9430      2.5382      0.0508      6.7756     18.7676     87.2345
  1390.6000      7.9430      2.5469      0.0572      6.2496     18.6394     87.3924
  1390.7000      7.9430      2.5371      0.0444      6.8394     18.5282     88.1378
  1390.8000      7.9426      2.5268      0.0026      7.4672     18.2895     85.8423
  1390.9000      7.9426      2.5276      0.0456      7.4184     17.9240     80.6425
  1391.0000      7.9413      2.5301     -0.0027      7.2682     17.5625     77.2702
  1391.1000      7.9413      2.5249      0.0395      7.5842     17.5078     75.7378
  1391.2000      7.9413      2.5146      0.0100      8.2034     17.8249     72.8663
  1391.3000      7.9432      2.5086      0.0198      8.5667     17.9441     71.2535
  1391.4000      7.9432      2.5101      0.0453      8.4815     17.6155     74.9206
  1391.5000      7.9477      2.5184      0.0494      7.9771     17.4019     80.9866
  1391.6000      7.9477      2.5344      0.0506      7.0038     17.6182     85.1077
  1391.7000      7.9477      2.5467      0.0986      6.2614     17.8947     87.5249
  1391.8000      7.9514      2.5430      0.0444      6.4855     17.9396     88.1243
  1391.9000      7.9514      2.5330      0.0360      7.0886     17.9732     85.5241
  1392.0000      7.9521      2.5248      0.0284      7.5853     18.2618     81.4841
  1392.1000      7.9521      2.5139      0.0069      8.2507     18.6192     78.2518
  1392.2000      7.9521      2.5013      0.0099      9.0123     18.7833     76.8941
  1392.3000      7.9521      2.4937     -0.0061      9.4723     18.8479     80.0136
