~Version Information
VERS.                      2.0: CWLS Log ASCII Standard - VERSION 2.0
WRAP.                       NO: One line per depth step
~Well Information Block
STRT.FT                -6.7500: 
STOP.FT               983.2500: 
STEP.FT                 0.2500: 
NULL.                -999.2500: 
COMP.          Pioneer Natural Resources: COMPANY
WELL.          Run-Away-Train 43-26: WELL
FLD.           Purgatorie River: FIELD
LOC.           1693' FSL & 1195' FWL------------: LOCATION
PROV.                       CO: PROVINCE
CNTY.               Las Animas: COUNTRY
SRVC.          Patterson Wireline: SERVICE COMPANY
DATE.          Thu Apr 14 12:30:00 2005: LOG DATE
UWI.           05 071 08188 00: UNIQUE WELL ID
~Curve Information Block
DEPT.FT            0 000 00 00: Depth
CCL.                          : Casing Collar Locator
TT3.usec                      : CBL 3' Travel Time
AMP3.mV                       : CBL 3' Amplitude
GR.GAPI                       : Gamma Ray
~Parameter Information Block
~A  Depth       CCL         TT3         AMP3         GR     
# ...
   328.2500      0.0000    870.6039      4.1516     96.6247
   328.5000      0.0000    867.9824      4.1996     97.5504
   328.7500      0.0000    856.0455      4.2993     96.7516
   329.0000      0.0000    835.4457      4.3772     95.1406
   329.2500      0.0000    814.3996      4.4233     93.6292
   329.5000      0.0000    804.0861      4.4726     92.6088
   329.7500      0.0000    810.2422      4.5392     91.9578
   330.0000      0.0000    829.2574      4.5835     91.3528
   330.2500      0.0000    852.0176      4.5507     90.3688
   330.5000      0.0000    870.7014      4.4377     88.4629
   330.7500      0.0000    882.5053      4.3083     85.2370
   331.0000      0.0000    888.9732      4.2368     80.9238
   331.2500      0.0000    893.0272      4.2421     76.5715
   331.5000      0.0000    896.1769      4.2923     73.5339
   331.7500      0.0000    897.9557      4.3632     72.5055
   332.0000      0.0000    897.8339      4.4648     72.9682
   332.2500      0.0000    897.0841      4.5988     73.5796
   332.5000      0.0000    898.4898      4.7151     73.2088
   332.7500      0.0000    904.4673      4.7389     71.7906
   333.0000      0.0000    915.2745      4.6430     70.3737
   333.2500      0.0000    928.0384      4.4840     70.4125
   333.5000      0.0000    936.9709      4.3634     72.9130
   333.7500      0.0000    935.4281      4.3438     78.0031
   334.0000      0.0000    920.1207      4.4009     84.9400
   334.2500      0.0000    895.3047      4.4601     92.3101
   334.5000      0.0000    872.4905      4.4808     98.3549
   334.7500      0.0000    863.8755      4.4830    101.5354
   335.0000      0.0000    873.9999      4.4897    101.2996
   335.2500      0.0000    896.3882      4.4804     98.5116
   335.5000      0.0000    917.5220      4.4305     94.9610
   335.7500      0.0000    925.4963      4.3745     92.2496
   336.0000      0.0000    918.1175      4.3817     91.0618
   336.2500      0.0000    903.5247      4.4628     91.2039
   336.5000      0.0000    890.8428      4.5360     91.9625
   336.7500      0.0000    880.2640      4.5100     92.5924
   337.0000      0.0000    865.3580      4.3834     93.0730
   337.2500      0.0000    844.4291      4.2344     94.3479
   337.5000      0.0000    824.6359      4.1186     97.1131
   337.7500      0.0000    813.7682      4.0098    100.3870
   338.0000      0.0000    812.5546      3.8511    102.2615
   338.2500      0.0000    816.8821      3.6366    102.4392
   338.5000      0.0000    823.3131      3.4220    103.0454
   338.7500      0.0000    829.4273      3.2626    106.0842
   339.0000      0.0000    831.8309      3.1669    110.6453
   339.2500      0.0000    827.4995      3.1128    113.5750
   339.5000      0.0000    816.4987      3.0862    112.8725
   339.7500      0.0000    801.7931      3.0894    109.6482
   340.0000      0.0000    786.9745      3.1270    106.4552
   340.2500      0.0000    774.6405      3.2062    104.4174
   340.5000      0.0000    765.7856      3.3423    102.7229
   340.7500      0.0000    759.8438      3.5347    100.4335
   341.0000      0.0000    755.8480      3.7336     97.8082
   341.2500      0.0000    753.8544      3.8606     95.8568
   341.5000      0.0000    754.7094      3.8887     95.2671
   341.7500      0.0000    758.3129      3.8851     95.9141
   342.0000      0.0000    762.8823      3.9493     97.1339
   342.2500      0.0000    766.1376      4.1088     98.3888
   342.5000      0.0000    766.7271      4.3052     99.7855
   342.7500      0.0000    764.6671      4.4835    101.8256
   343.0000      0.0000    761.2537      4.6504    104.4964
   343.2500      0.0000    758.6572      4.8121    106.7734
   343.5000      0.0000    758.7087      4.9037    107.2959
   343.7500      0.0000    761.5325      4.8459    105.4643
   344.0000      0.0000    765.5800      4.6632    101.6919
   344.2500      0.0000    769.1031      4.4794     96.7290
   344.5000      0.0000    771.3449      4.3825     91.1009
   344.7500      0.0000    772.4892      4.3493     85.2208
   345.0000      0.0000    773.0797      4.3192     79.7805
   345.2500      0.0000    773.9553      4.2824     75.8693
   345.5000      0.0000    776.6255      4.2553     74.4804
   345.7500      0.0000    782.8888      4.2174     75.7085
   346.0000      0.0000    792.8243      4.1311     78.5929
   346.2500      0.0000    802.7253      4.0025     81.7983
   346.5000      0.0000    806.2608      3.8727     84.2941
   346.7500      0.0000    799.3333      3.7626     85.6093
   347.0000      0.0000    784.0575      3.6611     85.9069
   347.2500      0.0000    767.3862      3.5649     85.8001
   347.5000      0.0000    755.8011      3.4914     85.8003
   347.7500      0.0000    751.5134      3.4473     86.0141
   348.0000      0.0000    752.8906      3.4158     86.6077
   348.2500      0.0000    756.9768      3.3861     88.2198
   348.5000      0.0000    761.2919      3.3746     91.2187
   348.7500      0.0000    764.4279      3.3986     94.5912
   349.0000      0.0000    765.9805      3.4479     96.3264
   349.2500      0.0000    766.0799      3.4974     95.2475
   349.5000      0.0000    764.8871      3.5325     92.1803
   349.7500      0.0000    762.5968      3.5554     89.3288
   350.0000      0.0000    759.7805      3.5787     88.6957
   350.2500      0.0000    757.2986      3.6168     90.6092
   350.5000      0.0000    755.6797      3.6716     93.2861
   350.7500      0.0000    754.8608      3.7267     94.2578
   351.0000      0.0000    754.5834      3.7647     92.7252
   351.2500      0.0000    754.7399      3.7844     90.3081
   351.5000      0.0000    755.4253      3.7944     89.3357
   351.7500      0.0000    756.9166      3.8007     90.8038
   352.0000      0.0000    759.3436      3.8001     94.0648
   352.2500      0.0000    762.2399      3.7698     97.8226
   352.5000      0.0000    764.7545      3.6694    100.9101
   352.7500      0.0000    766.3529      3.4825    102.4908
   353.0000      0.0000    767.0703      3.2563    102.2057
   353.2500      0.0000    767.1353      3.0798    100.4111
   353.5000      0.0000    766.5588      3.0235     97.9448
   353.7500      0.0000    765.1371      3.1079     95.1905
   354.0000      0.0000    762.9047      3.3144     91.4535
   354.2500      0.0000    760.5837      3.6036     85.8399
   354.5000      0.0000    759.3112      3.9245     78.7755
   354.7500      0.0000    759.6175      4.2224     72.0747
   355.0000      0.0000    760.9374      4.4471     67.6085
   355.2500      0.0000    762.5025      4.5642     66.4143
   355.5000      0.0000    764.4283      4.5710     68.6397
   355.7500      0.0000    767.3853      4.5013     73.5173
   356.0000      0.0000    771.3055      4.3911     79.4451
   356.2500      0.0000    774.8481      4.2350     84.6839
   356.5000      0.0000    775.9728      4.0030     88.3211
   356.7500      0.0000    772.8167      3.7099     90.6175
   357.0000      0.0000    764.8593      3.4399     92.2200
   357.2500      0.0000    754.2051      3.2839     93.0190
   357.5000      0.0000    745.3139      3.2597     92.1033
   357.7500      0.0000    742.1658      3.3085     88.8865
   358.0000      0.0000    745.1930      3.3601     83.9412
   358.2500      0.0000    751.4808      3.3833     78.7200
   358.5000      0.0000    757.9022      3.3753     74.6151
   358.7500      0.0000    763.1302      3.3333     72.1938
   359.0000      0.0000    766.8847      3.2662     71.1496
   359.2500      0.0000    768.9136      3.2211     70.8805
   359.5000      0.0000    769.4252      3.2557     70.9803
   359.7500      0.0000    769.6566      3.3730     71.2380
   360.0000      0.0000    771.5638      3.5067     71.5463
   360.2500      0.0000    777.2159      3.5892     72.1161
   360.5000      0.0000    788.0294      3.6205     73.6099
   360.7500      0.0000    803.5174      3.6536     76.7104
   361.0000      0.0000    820.5853      3.7195     81.2978
   361.2500      0.0000    834.7281      3.7840     86.0469
   361.5000      0.0000    842.4920      3.7919     88.9691
