~Version Information
VERS.                      2.0: CWLS Log ASCII Standard - VERSION 2.0
WRAP.                       NO: One line per depth step
~Well Information Block
STRT.FT               710.0000: 
STOP.FT              2304.5000: 
STEP.FT                 0.2500: 
NULL.                -999.2500: 
COMP.          Pioneer Natural Resources: COMPANY
WELL.           Ogallela 44-12: WELL
FLD.           Purgatoire River: FIELD
LOC.           610' FSL & 671' FEL: LOCATION
PROV.                 Colorado: PROVINCE
CNTY.               Las Animas: COUNTRY
SRVC.                Patterson: SERVICE COMPANY
DATE.          Wed Feb 23 00:14:59 2005: LOG DATE
UWI.           05 071 08283 00: UNIQUE WELL ID
~Curve Information Block
DEPT.FT            0 000 00 00: Depth
SN.Ohm-m                      : IEL Short Normal
SP.mV                         : IEL Spontaneous Potential
DIR.Ohm-m                     : IEL Induction Resistivity
GR.GAPI                       : Gamma Ray
~Parameter Information Block
~A  Depth        SN          SP         DIR          GR     
# ...
   911.0000   2000.0000   2040.0000     13.6701    117.1652
   911.2500   2000.0000   2040.0000     13.6468    116.0561
   911.5000   2000.0000   2040.0000     13.6094    116.4784
   911.7500   2000.0000   2040.0000     13.5769    117.6618
   912.0000   2000.0000   2040.0000     13.5626    119.7005
   912.2500   2000.0000   2040.0000     13.5619    120.7925
   912.5000   2000.0000   2040.0000     13.5441    121.9116
   912.7500   2000.0000   2040.0000     13.4618    122.5077
   913.0000   2000.0000   2040.0000     13.2755    123.4748
   913.2500   2000.0000   2040.0000     12.9774    124.1471
   913.5000   2000.0000   2040.0000     12.5949    124.8672
   913.7500   2000.0000   2040.0000     12.1723    124.9558
   914.0000   2000.0000   2040.0000     11.7487    124.6023
   914.2500   2000.0000   2040.0000     11.3476    124.5013
   914.5000   2000.0000   2040.0000     10.9811    125.6742
   914.7500   2000.0000   2040.0000     10.6581    127.7474
   915.0000   2000.0000   2040.0000     10.3898    132.3670
   915.2500   2000.0000   2040.0000     10.1866    135.6024
   915.5000   2000.0000   2040.0000     10.0531    139.1572
   915.7500   2000.0000   2040.0000      9.9844    140.3074
   916.0000   2000.0000   2040.0000      9.9678    140.6659
   916.2500   2000.0000   2040.0000      9.9861    140.4554
   916.5000   2000.0000   2040.0000     10.0225    139.8209
   916.7500   2000.0000   2040.0000     10.0652    139.1824
   917.0000   2000.0000   2040.0000     10.1105    138.2401
   917.2500   2000.0000   2040.0000     10.1642    138.1428
   917.5000   2000.0000   2040.0000     10.2375    139.4304
   917.7500   2000.0000   2040.0000     10.3414    140.9816
   918.0000   2000.0000   2040.0000     10.4832    142.9064
   918.2500   2000.0000   2040.0000     10.6666    143.0463
   918.5000   2000.0000   2040.0000     10.8949    141.0708
   918.7500   2000.0000   2040.0000     11.1731    138.8512
   919.0000   2000.0000   2040.0000     11.5061    135.9252
   919.2500   2000.0000   2040.0000     11.8915    135.0173
   919.5000   2000.0000   2040.0000     12.3128    135.2138
   919.7500   2000.0000   2040.0000     12.7383    135.7717
   920.0000   2000.0000   2040.0000     13.1293    136.3100
   920.2500   2000.0000   2040.0000     13.4566    136.3150
   920.5000   2000.0000   2040.0000     13.7112    135.6173
   920.7500   2000.0000   2040.0000     13.9050    134.3001
   921.0000   2000.0000   2040.0000     14.0620    130.6032
   921.2500   2000.0000   2040.0000     14.2135    127.5346
   921.5000   2000.0000   2040.0000     14.3964    124.1345
   921.7500   2000.0000   2040.0000     14.6508    123.6628
   922.0000   2000.0000   2040.0000     15.0104    125.6763
   922.2500   2000.0000   2040.0000     15.4872    128.0471
   922.5000   2000.0000   2040.0000     16.0580    131.4307
   922.7500   2000.0000   2040.0000     16.6659    132.6901
   923.0000   2000.0000   2040.0000     17.2401    132.1168
   923.2500   2000.0000   2040.0000     17.7271    130.0203
   923.5000   2000.0000   2040.0000     18.1122    124.9374
   923.7500   2000.0000   2040.0000     18.4152    120.8859
   924.0000   2000.0000   2040.0000     18.6700    115.1867
   924.2500   2000.0000   2040.0000     18.9065    112.5768
   924.5000   2000.0000   2040.0000     19.1419    111.7936
   924.7500   2000.0000   2040.0000     19.3740    113.5679
   925.0000   2000.0000   2040.0000     19.5791    118.5712
   925.2500   2000.0000   2040.0000     19.7208    122.1595
   925.5000   2000.0000   2040.0000     19.7696    125.5890
   925.7500   2000.0000   2040.0000     19.7186    125.7559
   926.0000   2000.0000   2040.0000     19.5829    122.9543
   926.2500   2000.0000   2040.0000     19.3882    119.9571
   926.5000   2000.0000   2040.0000     19.1623    115.8538
   926.7500   2000.0000   2040.0000     18.9334    114.2253
   927.0000   2000.0000   2040.0000     18.7218    113.5887
   927.2500   2000.0000   2040.0000     18.5280    113.9434
   927.5000   2000.0000   2040.0000     18.3291    115.0347
   927.7500   2000.0000   2040.0000     18.0925    116.1379
   928.0000   2000.0000   2040.0000     17.7982    118.6439
   928.2500   2000.0000   2040.0000     17.4496    120.8443
   928.5000   2000.0000   2040.0000     17.0632    124.4029
   928.7500   2000.0000   2040.0000     16.6532    126.6474
   929.0000   2000.0000   2040.0000     16.2242    129.7214
   929.2500   2000.0000   2040.0000     15.7794    131.6938
   929.5000   2000.0000   2040.0000     15.3307    134.9179
   929.7500   2000.0000   2040.0000     14.8988    137.5881
   930.0000   2000.0000   2040.0000     14.5068    142.7554
   930.2500   2000.0000   2040.0000     14.1725    146.6679
   930.5000   2000.0000   2040.0000     13.9052    151.8907
   930.7500   2000.0000   2040.0000     13.7063    154.3310
   931.0000   2000.0000   2040.0000     13.5721    156.4863
   931.2500   2000.0000   2040.0000     13.4982    157.2873
   931.5000   2000.0000   2040.0000     13.4848    157.7673
   931.7500   2000.0000   2040.0000     13.5355    157.4061
   932.0000   2000.0000   2040.0000     13.6508    155.4761
   932.2500   2000.0000   2040.0000     13.8163    153.3627
   932.5000   2000.0000   2040.0000     13.9988    149.5951
   932.7500   2000.0000   2040.0000     14.1513    146.8215
   933.0000   2000.0000   2040.0000     14.2258    141.3370
   933.2500   2000.0000   2040.0000     14.1839    135.9391
   933.5000   2000.0000   2040.0000     14.0043    124.7792
   933.7500   2000.0000   2040.0000     13.6897    116.0104
   934.0000   2000.0000   2040.0000     13.2712    103.1005
   934.2500   2000.0000   2040.0000     12.8019     95.9818
   934.5000   2000.0000   2040.0000     12.3381     89.2743
   934.7500   2000.0000   2040.0000     11.9191     88.0368
   935.0000   2000.0000   2040.0000     11.5583     91.0451
   935.2500   2000.0000   2040.0000     11.2445     95.6325
   935.5000   2000.0000   2040.0000     10.9523    104.5562
   935.7500   2000.0000   2040.0000     10.6538    110.8871
   936.0000   2000.0000   2040.0000     10.3291    119.9190
   936.2500   2000.0000   2040.0000      9.9701    125.2658
   936.5000   2000.0000   2040.0000      9.5790    131.8266
   936.7500   2000.0000   2040.0000      9.1655    135.1655
   937.0000   2000.0000   2040.0000      8.7457    138.8296
   937.2500   2000.0000   2040.0000      8.3416    140.4059
   937.5000   2000.0000   2040.0000      7.9767    141.1902
   937.7500   2000.0000   2040.0000      7.6712    140.6635
   938.0000   2000.0000   2040.0000      7.4371    139.1566
   938.2500   2000.0000   2040.0000      7.2777    138.3846
   938.5000   2000.0000   2040.0000      7.1894    138.0510
   938.7500   2000.0000   2040.0000      7.1646    138.1082
   939.0000   2000.0000   2040.0000      7.1940    138.1208
   939.2500   2000.0000   2040.0000      7.2684    138.1724
   939.5000   2000.0000   2040.0000      7.3812    138.7498
   939.7500   2000.0000   2040.0000      7.5279    139.4473
   940.0000   2000.0000   2040.0000      7.7054    140.3111
   940.2500   2000.0000   2040.0000      7.9096    140.4029
   940.5000   2000.0000   2040.0000      8.1356    139.8538
   940.7500   2000.0000   2040.0000      8.3804    139.2211
   941.0000   2000.0000   2040.0000      8.6458    137.3767
   941.2500   2000.0000   2040.0000      8.9382    134.7047
   941.5000   2000.0000   2040.0000      9.2644    127.5891
   941.7500   2000.0000   2040.0000      9.6253    121.2102
   942.0000   2000.0000   2040.0000     10.0146    111.2099
   942.2500   2000.0000   2040.0000     10.4229    105.4865
   942.5000   2000.0000   2040.0000     10.8426     99.9588
   942.7500   2000.0000   2040.0000     11.2685     98.9870
   943.0000   2000.0000   2040.0000     11.6904    102.0464
   943.2500   2000.0000   2040.0000     12.0851    106.7617
   943.5000   2000.0000   2040.0000     12.4131    116.3743
   943.7500   2000.0000   2040.0000     12.6289    123.3160
   944.0000   2000.0000   2040.0000     12.6995    132.3783
   944.2500   2000.0000   2040.0000     12.6201    136.4047
