~Version Information
VERS.                      2.0: CWLS Log ASCII Standard - VERSION 2.0
WRAP.                       NO: One line per depth step
~Well Information Block
STRT.FT               898.0000: 
STOP.FT              2360.0000: 
STEP.FT                 0.2500: 
NULL.                -999.2500: 
COMP.          Pioneer Natural Resources: COMPANY
WELL.             Trimax 44-23: WELL
FLD.           Purgatoire River: FIELD
LOC.           527' FSL & 1064' FEL: LOCATION
PROV.                 Colorado: PROVINCE
CNTY.               Las Animas: COUNTRY
SRVC.                Patterson: SERVICE COMPANY
DATE.          Sun Mar 13 04:57:04 2005: LOG DATE
UWI.           05 071 08326 00: UNIQUE WELL ID
~Curve Information Block
DEPT.FT            0 000 00 00: Depth
SN.Ohm-m                      : IEL Short Normal
SP.mV                         : IEL Spontaneous Potential
DIR.Ohm-m                     : IEL Induction Resistivity
GR.GAPI                       : Gamma Ray
~Parameter Information Block
~A  Depth        SN          SP         DIR          GR     
# ...
  1568.0000     25.8853    -92.4274     18.2108    106.1262
  1568.2500     25.7606    -92.4546     17.9969    102.9103
  1568.5000     25.3202    -92.4363     17.7986    101.1977
  1568.7500     24.7273    -92.3875     17.6424    102.5313
  1569.0000     24.1287    -92.3241     17.5348    107.7222
  1569.2500     23.5368    -92.2571     17.4592    112.4113
  1569.5000     22.8274    -92.1994     17.3831    119.4207
  1569.7500     21.8833    -92.1760     17.2701    123.2557
  1570.0000     20.7796    -92.2221     17.0920    127.1196
  1570.2500     19.7850    -92.3631     16.8349    128.2841
  1570.5000     19.1618    -92.5922     16.4962    127.2956
  1570.7500     18.9873    -92.8654     16.0753    124.1598
  1571.0000     19.1491    -93.1226     15.5680    115.0883
  1571.2500     19.4564    -93.3168     14.9720    106.8242
  1571.5000     19.7548    -93.4286     14.3029     94.5241
  1571.7500     19.9844    -93.4657     13.6018     88.9087
  1572.0000     20.1395    -93.4560     12.9228     87.4868
  1572.2500     20.1625    -93.4333     12.3095     91.6737
  1572.5000     19.8944    -93.4205     11.7810    104.1641
  1572.7500     19.1730    -93.4164     11.3338    114.8419
  1573.0000     17.9878    -93.4018     10.9521    130.8759
  1573.2500     16.5071    -93.3573     10.6184    139.8651
  1573.5000     14.9714    -93.2775     10.3203    148.9053
  1573.7500     13.5953    -93.1725     10.0544    151.5073
  1574.0000     12.5230    -93.0565      9.8269    151.0441
  1574.2500     11.8004    -92.9344      9.6502    149.3901
  1574.5000     11.3816    -92.7996      9.5367    148.3169
  1574.7500     11.1820    -92.6492      9.4935    149.6956
  1575.0000     11.1299    -92.4980      9.5209    154.1930
  1575.2500     11.1912    -92.3703      9.6154    157.3126
  1575.5000     11.3749    -92.2801      9.7743    159.5868
  1575.7500     11.7164    -92.2215     10.0003    158.6788
  1576.0000     12.2265    -92.1746     10.3020    153.6368
  1576.2500     12.8708    -92.1214     10.6910    148.3099
  1576.5000     13.6607    -92.0594     11.1778    138.5547
  1576.7500     14.7370    -92.0034     11.7709    131.6298
  1577.0000     16.2820    -91.9735     12.4804    121.7185
  1577.2500     18.3530    -91.9802     13.3210    115.8073
  1577.5000     20.8066    -92.0182     14.3114    108.1849
  1577.7500     23.3716    -92.0713     15.4651    103.8757
  1578.0000     25.8338    -92.1264     16.7779     98.1748
  1578.2500     28.1568    -92.1848     18.2181     94.5468
  1578.5000     30.3781    -92.2595     19.7215     89.2300
  1578.7500     32.4239    -92.3585     21.1913     86.2769
  1579.0000     34.1087    -92.4721     22.5034     84.2514
  1579.2500     35.2928    -92.5776     23.5256     85.1159
  1579.5000     35.9387    -92.6510     24.1547     89.4779
  1579.7500     36.0322    -92.6760     24.3542     93.6554
  1580.0000     35.5498    -92.6463     24.1661    100.3749
  1580.2500     34.5352    -92.5687     23.6919    104.6444
  1580.5000     33.1641    -92.4634     23.0576    110.4846
  1580.7500     31.6588    -92.3535     22.3782    113.9993
  1581.0000     30.1161    -92.2468     21.7326    118.7562
  1581.2500     28.5204    -92.1260     21.1553    121.7209
  1581.5000     26.9212    -91.9595     20.6491    126.0523
  1581.7500     25.4833    -91.7235     20.2077    128.6101
  1582.0000     24.3467    -91.4181     19.8311    130.8871
  1582.2500     23.4870    -91.0667     19.5225    130.9328
  1582.5000     22.7482    -90.7095     19.2749    129.2691
  1582.7500     22.0157    -90.3938     19.0641    127.7484
  1583.0000     21.3161    -90.1558     18.8546    125.6870
  1583.2500     20.7598    -90.0000     18.6128    124.3836
  1583.5000     20.4741    -89.8945     18.3154    121.9615
  1583.7500     20.5768    -89.7904     17.9518    119.8541
  1584.0000     21.0707    -89.6500     17.5243    116.2906
  1584.2500     21.7215    -89.4607     17.0495    114.3519
  1584.5000     22.1784    -89.2319     16.5542    114.1802
  1584.7500     22.2797    -88.9844     16.0650    117.1166
  1585.0000     22.1384    -88.7421     15.5985    126.5088
  1585.2500     21.9212    -88.5256     15.1589    134.8063
  1585.5000     21.6542    -88.3485     14.7433    146.5242
  1585.7500     21.2578    -88.2176     14.3496    152.0437
  1586.0000     20.6850    -88.1371     13.9797    156.2638
  1586.2500     19.9767    -88.1130     13.6382    157.3537
  1586.5000     19.2140    -88.1536     13.3297    158.6216
  1586.7500     18.4472    -88.2603     13.0578    159.7816
  1587.0000     17.6763    -88.4149     12.8268    161.0275
  1587.2500     16.8989    -88.5747     12.6415    160.4005
  1587.5000     16.1522    -88.6887     12.5049    156.0851
  1587.7500     15.5100    -88.7257     12.4163    151.1321
  1588.0000     15.0682    -88.6847     12.3701    141.6192
  1588.2500     14.9404    -88.5785     12.3592    134.3252
  1588.5000     15.2604    -88.4145     12.3795    122.5093
  1588.7500     16.1649    -88.1952     12.4325    114.7607
  1589.0000     17.7075    -87.9317     12.5247    105.5268
  1589.2500     19.7394    -87.6448     12.6634    102.3604
  1589.5000     21.8694    -87.3514     12.8529    103.4818
  1589.7500     23.5858    -87.0501     13.0937    107.9782
  1590.0000     24.4828    -86.7193     13.3847    118.5272
  1590.2500     24.4480    -86.3345     13.7235    126.5770
  1590.5000     23.7175    -85.8945     14.1027    137.6055
  1590.7500     22.7443    -85.4322     14.5028    143.0677
  1591.0000     21.9265    -84.9986     14.8904    147.2370
  1591.2500     21.4225    -84.6331     15.2267    147.1582
  1591.5000     21.1957    -84.3459     15.4863    143.0371
  1591.7500     21.1679    -84.1208     15.6727    138.0035
  1592.0000     21.3130    -83.9298     15.8192    128.0421
  1592.2500     21.6480    -83.7445     15.9762    120.5781
  1592.5000     22.1968    -83.5434     16.1963    109.8486
  1592.7500     22.9929    -83.3179     16.5275    104.2080
  1593.0000     24.0936    -83.0765     17.0103     99.7198
  1593.2500     25.5679    -82.8409     17.6743     99.4949
  1593.5000     27.4506    -82.6348     18.5380    101.5279
  1593.7500     29.6624    -82.4741     19.6141    102.7383
  1594.0000     31.9846    -82.3665     20.9273    101.7963
  1594.2500     34.1772    -82.3160     22.5261     98.8534
  1594.5000     36.1427    -82.3220     24.4674     92.1452
  1594.7500     37.9753    -82.3724     26.7480     87.3804
  1595.0000     39.8570    -82.4391     29.1870     81.3436
  1595.2500     41.8943    -82.4867     31.3312     78.3485
  1595.5000     44.0212    -82.4895     32.5716     75.3567
  1595.7500     46.0133    -82.4433     32.5437     74.3124
  1596.0000     47.5983    -82.3640     31.4226     73.9204
  1596.2500     48.5731    -82.2760     29.7193     73.9843
  1596.5000     48.8216    -82.2056     27.8846     73.5139
  1596.7500     48.2643    -82.1777     26.1486     72.6302
  1597.0000     46.8526    -82.2063     24.5802     71.6911
  1597.2500     44.6247    -82.2798     23.1847     72.7456
  1597.5000     41.7236    -82.3614     21.9651     79.1053
  1597.7500     38.3255    -82.4110     20.9397     87.0534
  1598.0000     34.6108    -82.4101     20.1320    103.5223
  1598.2500     30.8253    -82.3691     19.5458    115.9478
  1598.5000     27.2772    -82.3185     19.1472    133.2929
  1598.7500     24.2619    -82.2920     18.8648    142.2547
  1599.0000     21.9861    -82.3105     18.6176    150.0733
  1599.2500     20.5167    -82.3726     18.3523    151.1151
  1599.5000     19.8341    -82.4594     18.0681    146.2975
  1599.7500     19.9303    -82.5479     17.8087    139.3506
  1600.0000     20.8002    -82.6206     17.6313    125.8180
  1600.2500     22.3775    -82.6665     17.5760    116.7128
  1600.5000     24.5319    -82.6828     17.6524    105.4866
  1600.7500     27.0831    -82.6775     17.8417    100.0141
  1601.0000     29.7638    -82.6698     18.1032     94.0875
  1601.2500     32.2243    -82.6836     18.3809     91.1593
