~Version Information
VERS.                      2.0: CWLS Log ASCII Standard - VERSION 2.0
WRAP.                       NO: One line per depth step
~Well Information Block
STRT.FT               390.0000: 
STOP.FT              2770.2500: 
STEP.FT                 0.2500: 
NULL.                -999.2500: 
COMP.          Pioneer Natural Resources: COMPANY
WELL.              Lynch 43-30: WELL
FLD.           Purgatoire River: FIELD
LOC.           1438' FSL & 429' FEL: LOCATION
PROV.                 Colorado: PROVINCE
CNTY.               Las Animas: COUNTRY
SRVC.                Patterson: SERVICE COMPANY
DATE.          Wed Oct 27 08:06:51 2004: LOG DATE
UWI.           05 071 08170 00: UNIQUE WELL ID
~Curve Information Block
DEPT.FT            0 000 00 00: Depth
DIR.Ohm-m                     : IEL Induction Resistivity
SN.Ohm-m                      : IEL Short Normal
SP.mV                         : IEL Spontaneous Potential
GR.GAPI                       : Gamma Ray
~Parameter Information Block
~A  Depth       DIR          SN          SP          GR     
# ...
  2433.5000     17.0311     19.5065     84.0991     89.2527
  2433.7500     17.2359     19.8309     83.7687     86.5809
  2434.0000     17.4378     20.0745     83.5688     85.3502
  2434.2500     17.6106     20.1867     83.4984     85.6405
  2434.5000     17.6901     20.0901     83.5481     86.6145
  2434.7500     17.5961     19.7471     83.7043     87.4564
  2435.0000     17.2731     19.1869     83.9520     89.1745
  2435.2500     16.7215     18.4809     84.2782     90.5320
  2435.5000     15.9969     17.6981     84.6711     92.4304
  2435.7500     15.1814     16.8811     85.1189     93.5853
  2436.0000     14.3515     16.0551     85.6062     95.9651
  2436.2500     13.5603     15.2437     86.1133     98.7647
  2436.5000     12.8369     14.4640     86.6171    105.5771
  2436.7500     12.1927     13.7165     87.0952    111.3187
  2437.0000     11.6284     12.9939     87.5311    119.0124
  2437.2500     11.1371     12.3026     87.9190    121.8342
  2437.5000     10.7069     11.6705     88.2636    121.6218
  2437.7500     10.3236     11.1321     88.5768    119.4145
  2438.0000      9.9741     10.7045     88.8701    116.1088
  2438.2500      9.6480     10.3743     89.1474    115.6362
  2438.5000      9.3371     10.1069     89.4005    118.5602
  2438.7500      9.0316      9.8745     89.6089    122.0220
  2439.0000      8.7193      9.6811     89.7425    126.4461
  2439.2500      8.3888      9.5646     89.7641    127.3631
  2439.5000      8.0374      9.5765     89.6309    124.9611
  2439.7500      7.6804      9.7530     89.2953    121.6690
  2440.0000      7.3561     10.0923     88.7058    117.3398
  2440.2500      7.1265     10.5490     87.8113    116.8665
  2440.5000      7.0823     11.0592     86.5685    120.7619
  2440.7500      7.3719     11.5901     84.9521    124.6045
  2441.0000      8.3032     12.1803     82.9663    127.0182
  2441.2500     10.7393     12.9523     80.6536    124.4868
  2441.5000     18.5672     14.1090     78.0981    115.0975
  2441.7500    139.0457     15.9067     75.4213    106.6804
  2442.0000 100000.0000     18.5587     72.7688     93.2331
  2442.2500 100000.0000     22.0633     70.2899     84.8599
  2442.5000 100000.0000     26.0581     68.1175     75.1688
  2442.7500 100000.0000     29.8574     66.3519     71.4888
  2443.0000 100000.0000     32.7098     65.0533     69.9562
  2443.2500 100000.0000     34.1236     64.2392     70.3786
  2443.5000 100000.0000     34.0343     63.8865     70.5498
  2443.7500     59.9243     32.7355     63.9325     69.5598
  2444.0000     21.9608     30.6619     64.2783     67.2301
  2444.2500     14.0301     28.1827     64.7954     66.4541
  2444.5000     10.0791     25.5157     65.3378     68.8754
  2444.7500      7.4245     22.7709     65.7561     73.8217
  2445.0000      5.5917     20.0359     65.9113     86.3837
  2445.2500      4.4522     17.4188     65.6821     97.1715
  2445.5000      3.9286     15.0419     64.9656    113.5401
  2445.7500      4.1009     13.0117     63.6728    122.0950
  2446.0000      5.8196     11.3817     61.7228    127.8473
  2446.2500     25.2321     10.1240     59.0398    126.3502
  2446.5000 100000.0000      9.1421     55.5539    118.8819
  2446.7500 100000.0000      8.3274     51.2027    113.5884
  2447.0000 100000.0000      7.6074     45.9275    109.6511
  2447.2500 100000.0000      6.9371     39.6584    110.3176
  2447.5000 100000.0000      6.2542     32.2927    114.4796
  2447.7500      9.1741      5.4572     23.6789    117.9765
  2448.0000      0.9998      4.4418     13.6280    122.8571
  2448.2500      0.3567      3.1794      1.9695    125.5474
  2448.5000      0.1510      1.7693    -11.3494    128.2423
  2448.7500      0.0769      0.4052    -26.1442    128.5592
  2449.0000      0.0547     -0.7308    -41.8945    125.5915
  2449.2500      0.0583     -1.5549    -57.7150    121.0757
  2449.5000      0.0915     -2.0880    -72.4261    111.4632
  2449.7500      0.1898     -2.4029    -84.7235    104.0168
  2450.0000      0.4412     -2.5746    -93.4107     92.1384
  2450.2500      1.1709     -2.6605    -97.6330     84.0977
  2450.5000      6.4578     -2.7005    -97.0526     73.1059
  2450.7500 100000.0000     -2.7187    -91.9214     67.4131
  2451.0000 100000.0000     -2.7263    -83.0294     62.1619
  2451.2500 100000.0000     -2.7252    -71.5347     60.6788
  2451.5000 100000.0000     -2.7113    -58.7095     60.5102
  2451.7500 100000.0000     -2.6769    -45.6714     61.1884
  2452.0000 100000.0000     -2.6114    -33.1897     62.7370
  2452.2500      5.6265     -2.5034    -21.6313     63.8501
  2452.5000      1.3010     -2.3491    -11.0497     65.4600
  2452.7500      0.5368     -2.1616     -1.3489     67.0235
  2453.0000      0.2545     -1.9606      7.5688     72.2818
  2453.2500      0.1297     -1.7254     15.7334     78.7834
  2453.5000      0.0773     -1.3342     23.1154     92.3014
  2453.7500      0.0591     -0.5504     29.6691    102.0837
  2454.0000      0.0605      0.8961     35.3717    115.0300
  2454.2500      0.0831      3.1433     40.2414    121.6055
  2454.5000      0.1471      6.0571     44.3423    127.6374
  2454.7500      0.3069      9.2579     47.7871    128.8694
  2455.0000      0.7310     12.3209     50.7318    126.5503
  2455.2500      2.8680     14.9850     53.3568    122.1094
  2455.5000 100000.0000     17.2205     55.8278    110.3739
  2455.7500 100000.0000     19.1486     58.2500     99.4180
  2456.0000 100000.0000     20.8899     60.6367     81.7526
  2456.2500 100000.0000     22.4246     62.9123     72.3106
  2456.5000 100000.0000     23.5518     64.9543     65.7868
  2456.7500 100000.0000     23.9943     66.6556     67.0990
  2457.0000 100000.0000     23.5869     67.9747     75.5158
  2457.2500     18.6323     22.4023     68.9495     83.3642
  2457.5000      8.6155     20.7284     69.6729     95.9321
  2457.7500      7.1160     18.9329     70.2520    104.6163
  2458.0000      7.3066     17.3258     70.7790    118.2409
  2458.2500      8.4875     16.0822     71.3261    126.7218
  2458.5000     10.8244     15.2219     71.9535    135.5936
  2458.7500     15.6192     14.6385     72.7100    138.3620
  2459.0000     30.3388     14.1785     73.6158    140.0143
  2459.2500 100000.0000     13.7339     74.6372    141.0786
  2459.5000 100000.0000     13.2859     75.6758    142.7755
  2459.7500 100000.0000     12.8794     76.5897    142.7033
  2460.0000 100000.0000     12.5676     77.2420    139.5357
  2460.2500 100000.0000     12.3764     77.5521    136.3423
  2460.5000 100000.0000     12.3012     77.5250    132.7520
  2460.7500 100000.0000     12.3178     77.2447    131.7481
  2461.0000 100000.0000     12.3893     76.8393    130.9065
  2461.2500 100000.0000     12.4661     76.4348    129.5879
  2461.5000     27.3532     12.4947     76.1187    125.4231
  2461.7500     13.9303     12.4406     75.9251    121.3557
  2462.0000     10.0974     12.3083     75.8405    114.7326
  2462.2500      8.5896     12.1372     75.8232    111.0717
  2462.5000      8.0288     11.9758     75.8247    107.9919
  2462.7500      7.9712     11.8600     75.8051    107.6450
  2463.0000      8.2282     11.8111     75.7396    108.9941
  2463.2500      8.6924     11.8455     75.6187    110.3390
  2463.5000      9.2721     11.9778     75.4446    111.1209
  2463.7500      9.8697     12.2179     75.2289    109.9436
  2464.0000     10.3948     12.5643     74.9902    106.0216
  2464.2500     10.7955     12.9959     74.7524    103.2926
  2464.5000     11.0760     13.4640     74.5430    101.2131
  2464.7500     11.2843     13.9025     74.3899    101.3652
  2465.0000     11.4814     14.2571     74.3175    102.5815
  2465.2500     11.7171     14.5018     74.3433    103.3128
  2465.5000     12.0185     14.6243     74.4744    104.3781
  2465.7500     12.3880     14.5951     74.7069    105.6870
  2466.0000     12.8045     14.3584     75.0254    109.5819
  2466.2500     13.2294     13.8694     75.4043    113.7222
  2466.5000     13.6196     13.1615     75.8103    121.4433
  2466.7500     13.9450     12.3903     76.2046    126.1897
