~Version Information
VERS.                      2.0: CWLS Log ASCII Standard - VERSION 2.0
WRAP.                       NO: One line per depth step
~Well Information Block
STRT.FT               530.0000: 
STOP.FT              1825.0000: 
STEP.FT                 0.1000: 
NULL.                -999.2500: 
COMP.          Pioneer Natural Resources: COMPANY
WELL.          Vision 31-11 Tr: WELL
FLD.           Purgatoire River: FIELD
LOC.           742' FNL & 1593' FEL: LOCATION
STAT.                 Colorado: State
CNTY.               Las Animas: COUNTY
CTRY. USA : Country
SECT. 11 : Section
TOWN. 32S : Township
RANG. 66W : Range
SRVC.                Patterson: SERVICE COMPANY
DATE.          Mon Oct 10 07:17:32 2005: LOG DATE
API.           05 071 08305 00: UNIQUE WELL ID
~Curve Information Block
DEPT.FT            0 000 00 00: Depth
DCAL.in                       : CDL Caliper
RHOB.g/cc                     : CDL Bulk Density
RHOC.g/cc                     : CDL Density Correction
DPOR.pu                       : CDL Density Porosity
GR.GAPI                       : Gamma Ray
NPOR.pu                       : Neutron Porosity
~Parameter Information Block
~A  Depth       DCAL        RHOB        RHOC        DPOR         GR         NPOR    
# ...
   866.0000      8.0226      2.5570      0.0379      5.6388    122.9634     26.1946
   866.1000      8.0226      2.5514     -0.0227      5.9738    121.9325     26.0201
   866.2000      8.0226      2.5542      0.0536      5.8089    127.2347     25.6824
   866.3000      8.0720      2.5464      0.0234      6.2786    134.0181     25.7415
   866.4000      8.0720      2.5260     -0.0069      7.5152    136.7377     26.5684
   866.5000      8.1206      2.5076     -0.0049      8.6303    132.4175     27.8579
   866.6000      8.1206      2.5083     -0.0315      8.5863    124.4867     28.7144
   866.7000      8.1206      2.5351      0.0039      6.9665    120.6564     28.8919
   866.8000      8.1739      2.5688      0.0138      4.9213    124.5136     28.9192
   866.9000      8.1739      2.5846      0.0922      3.9607    130.4612     29.0600
   867.0000      8.1803      2.5776      0.0198      4.3851    131.7620     29.1586
   867.1000      8.1803      2.5642     -0.0167      5.1993    129.8554     29.0124
   867.2000      8.1803      2.5574     -0.0256      5.6123    129.5241     28.6696
   867.3000      8.1800      2.5487      0.0301      6.1392    129.7105     28.4562
   867.4000      8.1800      2.5242      0.0082      7.6256    129.6674     28.5011
   867.5000      8.1885      2.4950     -0.0338      9.3931    132.7111     28.6372
   867.6000      8.1885      2.4754      0.0091     10.5801    136.7527     28.7770
   867.7000      8.1885      2.4555     -0.0183     11.7866    135.0825     28.7278
   867.8000      8.1870      2.4373     -0.0534     12.8920    127.9256     28.1125
   867.9000      8.1870      2.4506     -0.0145     12.0839    121.7062     27.0589
   868.0000      8.1523      2.5182     -0.0139      7.9867    118.4805     26.3671
   868.1000      8.1523      2.6195      0.2022      1.8456    116.3659     26.4891
   868.2000      8.1523      2.6983      0.2654     -2.9292    115.5781     27.1681
   868.3000      8.0965      2.7343      0.2364     -5.1100    114.0740     28.0590
   868.4000      8.0965      2.7497      0.3201     -6.0419    109.4108     28.6154
   868.5000      7.9892      2.7494      0.2746     -6.0264    103.7911     28.3175
   868.6000      7.9892      2.7262      0.1867     -4.6171    100.5319     27.3738
   868.7000      7.9892      2.6795      0.1480     -1.7863     99.7446     26.5368
   868.8000      7.9289      2.6157      0.0385      2.0767     99.8495     26.2347
   868.9000      7.9289      2.5623     -0.0283      5.3128     99.8497     26.1431
   869.0000      7.9532      2.5476      0.0063      6.2062    100.3205     25.8788
   869.1000      7.9532      2.5606      0.1508      5.4152    103.7493     25.8340
   869.2000      7.9532      2.5712      0.0906      4.7758    109.7055     26.5242
   869.3000      8.0607      2.5757      0.0832      4.5031    113.5035     27.4453
   869.4000      8.0607      2.5807      0.1252      4.1974    112.5345     27.9492
   869.5000      8.0537      2.5840      0.1266      3.9990    110.0678     28.2008
   869.6000      8.0537      2.5940      0.1439      3.3946    111.2131     28.4729
   869.7000      8.0537      2.6325      0.1889      1.0625    116.3008     28.7627
   869.8000      8.0599      2.6954      0.2731     -2.7541    122.7320     29.1468
   869.9000      8.0599      2.7465      0.2831     -5.8492    128.8513     29.6813
   870.0000      8.0601      2.7678      0.2911     -7.1414    132.2486     30.0855
   870.1000      8.0601      2.7679      0.3206     -7.1457    133.7077     29.8458
   870.2000      8.0601      2.7466      0.2544     -5.8571    137.3040     28.8814
   870.3000      8.0894      2.6990      0.2274     -2.9683    141.2904     27.8985
   870.4000      8.0894      2.6383      0.1335      0.7115    140.3608     27.5023
   870.5000      8.1432      2.5939      0.0405      3.4017    136.7900     27.4436
   870.6000      8.1432      2.5760      0.0518      4.4835    135.1732     27.1818
   870.7000      8.1432      2.5675      0.0215      4.9987    135.7161     26.5175
   870.8000      8.1284      2.5542      0.0408      5.8063    137.2734     25.8389
   870.9000      8.1284      2.5346      0.0730      6.9951    137.8689     25.9020
   871.0000      8.1674      2.5109      0.0476      8.4284    138.1057     26.5155
   871.1000      8.1674      2.4762      0.0912     10.5316    140.3267     26.3969
   871.2000      8.1674      2.4167      0.0859     14.1375    144.0185     25.1379
   871.3000      8.2083      2.3276      0.0634     19.5366    148.3428     23.7374
   871.4000      8.2083      2.2135      0.0270     26.4542    152.1538     23.0401
   871.5000      8.2009      2.0942     -0.0226     33.6824    151.6712     22.8645
   871.6000      8.2009      1.9995     -0.0300     39.4221    148.2561     22.8222
   871.7000      8.2009      1.9408     -0.0199     42.9806    148.6679     22.9937
   871.8000      8.1997      1.9303      0.0250     43.6196    155.5963     23.5278
   871.9000      8.1997      2.0178      0.0787     38.3141    163.6451     24.3788
   872.0000      8.2271      2.2429      0.2367     24.6715    166.8184     25.2272
   872.1000      8.2271      2.5408      0.6582      6.6154    165.0439     25.8710
   872.2000      8.2271      2.7770      0.7527     -7.6956    161.3775     26.7107
   872.3000      8.2924      2.8925      0.7446    -14.6984    157.6803     27.9584
   872.4000      8.2924      2.9189      0.6428    -16.2992    154.8403     28.8693
   872.5000      8.3755      2.8873      0.5420    -14.3826    155.7446     28.8678
   872.6000      8.3755      2.8073      0.3762     -9.5352    162.2450     28.7158
   872.7000      8.3755      2.7108      0.0661     -3.6853    169.9665     29.3106
   872.8000      8.3626      2.6479     -0.0350      0.1254    171.9797     30.2238
   872.9000      8.3626      2.6288     -0.0617      1.2878    168.0841     30.7692
   873.0000      8.2377      2.6283     -0.0679      1.3152    162.1017     30.8977
   873.1000      8.2377      2.6310      0.0003      1.1511    158.2421     30.4422
   873.2000      8.2377      2.6305      0.0137      1.1816    158.6734     29.5744
   873.3000      8.2190      2.6206      0.0327      1.7839    158.0571     29.0749
   873.4000      8.2190      2.5990      0.0411      3.0936    153.0957     29.1305
   873.5000      8.2142      2.5749      0.0476      4.5512    147.1140     29.1301
   873.6000      8.2142      2.5639      0.0567      5.2201    141.3817     28.6147
   873.7000      8.2142      2.5701      0.0226      4.8434    135.7902     27.7214
   873.8000      8.2285      2.5829      0.0245      4.0687    133.1297     26.9987
   873.9000      8.2285      2.5895      0.0177      3.6670    132.9321     26.9794
   874.0000      8.1822      2.5856      0.0241      3.9025    132.2756     27.4055
   874.1000      8.1822      2.5714      0.0410      4.7659    133.6715     27.3371
   874.2000      8.1822      2.5586     -0.0056      5.5377    139.1321     26.5578
   874.3000      8.1555      2.5609     -0.0028      5.3976    141.8124     25.7352
   874.4000      8.1555      2.5696      0.0025      4.8754    137.3595     25.4959
   874.5000      8.1243      2.5677      0.0009      4.9861    130.9374     25.8456
   874.6000      8.1243      2.5545     -0.0070      5.7875    126.5948     26.1167
   874.7000      8.1243      2.5423     -0.0112      6.5276    124.3186     25.8258
   874.8000      8.1031      2.5425      0.0005      6.5154    122.1814     25.3054
   874.9000      8.1031      2.5579     -0.0353      5.5824    118.0807     25.1109
   875.0000      8.1635      2.5787      0.0450      4.3235    114.8304     24.8289
   875.1000      8.1635      2.5918      0.0105      3.5291    115.8522     23.7699
   875.2000      8.1635      2.5923      0.0060      3.4941    118.0872     22.3765
   875.3000      8.1819      2.5643      0.0828      5.1937    115.8466     21.5953
   875.4000      8.1819      2.4914     -0.0201      9.6103    109.1686     21.2630
   875.5000      8.1697      2.3976     -0.1053     15.2983    103.3831     20.4954
