~Version Information
VERS.                      2.0: CWLS Log ASCII Standard - VERSION 2.0
WRAP.                       NO: One line per depth step
~Well Information Block
STRT.FT                -4.0000: 
STOP.FT              2638.2500: 
STEP.FT                 0.2500: 
NULL.                -999.2500: 
COMP.          Petrogulf Corporation: COMPANY
WELL.            Montoya 6-14V: WELL
FLD.           Purgatorie River: FIELD
LOC.           318' FSL & 882' FWL--: LOCATION
PROV.                       CO: PROVINCE
CNTY.               Las Animas: COUNTRY
SRVC.                         : SERVICE COMPANY
DATE.          Mon May 02 08:32:04 2005: LOG DATE
UWI.      005 071 08020: UNIQUE WELL ID
~Curve Information Block
DEPT.FT            0 000 00 00: Depth
AMP3.mV                       : CBL 3' Amplitude
CCL.                          : Casing Collar Locator
GR.GAPI                       : Gamma Ray
TT3.usec                      : CBL 3' Travel Time
~Parameter Information Block
~A  Depth       AMP3        CCL          GR         TT3     
# ...
  1738.0000      7.8770      0.0000    117.7099    625.8968
  1738.2500      7.8023      0.0000    116.5979    624.4524
  1738.5000      7.8785      0.0000    115.0862    610.5061
  1738.7500      7.9898      0.0000    112.4302    594.0066
  1739.0000      8.0362      0.0000    108.2056    584.6732
  1739.2500      7.9668      0.0000    102.6689    584.7939
  1739.5000      7.7880      0.0000     96.5944    588.4014
  1739.7500      7.5452      0.0000     91.1254    589.5156
  1740.0000      7.2869      0.0000     87.3818    588.5702
  1740.2500      7.0428      0.0000     85.7010    589.4825
  1740.5000      6.8280      0.0000     85.3928    593.9145
  1740.7500      6.6618      0.0000     85.4738    600.9253
  1741.0000      6.5730      0.0000     85.6340    609.1806
  1741.2500      6.5857      0.0000     86.4879    616.1277
  1741.5000      6.6987      0.0000     88.8376    617.3445
  1741.7500      6.8786      0.0000     92.7007    610.7643
  1742.0000      7.0683      0.0000     97.3534    600.3217
  1742.2500      7.2084      0.0000    102.1738    592.3557
  1742.5000      7.2654      0.0000    106.7230    588.8614
  1742.7500      7.2552      0.0000    109.9576    586.4692
  1743.0000      7.2423      0.0000    110.3932    581.6971
  1743.2500      7.3037      0.0000    107.8485    575.4742
  1743.5000      7.4758      0.0000    104.7753    571.5979
  1743.7500      7.7194      0.0000    104.8872    571.6844
  1744.0000      7.9292      0.0000    109.9325    574.3158
  1744.2500      7.9881      0.0000    118.0253    580.0768
  1744.5000      7.8323      0.0000    125.3174    593.8596
  1744.7500      7.4816      0.0000    129.0450    618.7956
  1745.0000      7.0136      0.0000    129.1410    649.2122
  1745.2500      6.5165      0.0000    127.6336    672.2713
  1745.5000      6.0629      0.0000    126.7557    676.7516
  1745.7500      5.7062      0.0000    127.3305    660.5862
  1746.0000      5.4725      0.0000    128.6729    632.2535
  1746.2500      5.3525      0.0000    129.7491    606.4249
  1746.5000      5.3150      0.0000    130.1832    595.9930
  1746.7500      5.3384      0.0000    130.3907    604.3004
  1747.0000      5.4256      0.0000    131.0918    623.0385
  1747.2500      5.5902      0.0000    132.6633    637.7307
  1747.5000      5.8309      0.0000    134.9380    636.0194
  1747.7500      6.1209      0.0000    137.6190    613.9954
  1748.0000      6.4211      0.0000    140.4823    578.9793
  1748.2500      6.7034      0.0000    142.7283    545.9035
  1748.5000      6.9716      0.0000    142.7474    526.2178
  1748.7500      7.2655      0.0000    139.5108    519.2739
  1749.0000      7.6400      0.0000    134.0560    518.0311
  1749.2500      8.1324      0.0000    128.8656    521.7953
  1749.5000      8.7564      0.0000    125.8231    536.4606
  1749.7500      9.5291      0.0000    125.1199    560.6808
  1750.0000     10.4909      0.0000    125.8384    577.8943
  1750.2500     11.6910      0.0000    126.8202    566.8335
  1750.5000     13.1472      0.0000    126.7282    519.9675
  1750.7500     14.8157      0.0000    124.0145    450.7375
  1751.0000     16.5921      0.0000    117.7874    382.8490
  1751.2500     18.3208      0.0000    108.9123    333.1840
  1751.5000     19.7825      0.0000     99.9325    304.5354
  1751.7500     20.6985      0.0000     93.5477    291.0295
  1752.0000     20.8242      0.0000     90.7831    286.2687
  1752.2500     20.0973      0.0000     90.4013    286.4129
  1752.5000     18.6955      0.0000     90.2858    289.6999
  1752.7500     16.9430      0.0000     89.4728    296.6669
  1753.0000     15.1588      0.0000     88.6512    311.8909
  1753.2500     13.5584      0.0000     88.8838    344.1988
  1753.5000     12.2359      0.0000     90.2471    401.7069
  1753.7500     11.2009      0.0000     91.6822    482.6935
  1754.0000     10.4292      0.0000     91.9827    571.3165
  1754.2500      9.8958      0.0000     90.8463    645.6367
  1754.5000      9.5813      0.0000     88.9736    691.2759
  1754.7500      9.4656      0.0000     87.3504    707.1456
  1755.0000      9.5262      0.0000     86.5340    701.5212
  1755.2500      9.7436      0.0000     86.1996    686.4366
  1755.5000     10.0998      0.0000     85.1517    673.2769
  1755.7500     10.5568      0.0000     82.3640    668.0608
  1756.0000     11.0363      0.0000     78.4679    668.5934
  1756.2500     11.4372      0.0000     75.7518    666.8052
  1756.5000     11.6865      0.0000     76.1832    655.4935
  1756.7500     11.7873      0.0000     79.5624    634.6298
  1757.0000     11.8249      0.0000     83.7799    611.0615
  1757.2500     11.9225      0.0000     86.6800    590.0273
  1757.5000     12.1748      0.0000     87.4249    567.6168
  1757.7500     12.6126      0.0000     86.2628    533.9462
  1758.0000     13.2124      0.0000     83.7111    483.9745
  1758.2500     13.9237      0.0000     80.5270    424.2386
  1758.5000     14.6954      0.0000     78.2529    368.8221
  1758.7500     15.4960      0.0000     78.9922    328.9367
  1759.0000     16.3153      0.0000     84.1771    306.5482
  1759.2500     17.1414      0.0000     93.6862    296.6076
  1759.5000     17.9394      0.0000    106.2734    292.9517
  1759.7500     18.6535      0.0000    120.4205    291.6781
  1760.0000     19.2198      0.0000    134.4311    291.1432
  1760.2500     19.5750      0.0000    146.1483    290.8866
  1760.5000     19.6690      0.0000    153.4705    290.9031
  1760.7500     19.4736      0.0000    155.6684    291.5909
  1761.0000     18.9768      0.0000    154.2282    294.2486
  1761.2500     18.1764      0.0000    152.0850    301.8370
  1761.5000     17.0926      0.0000    151.4772    318.6380
  1761.7500     15.7909      0.0000    152.1365    347.5507
  1762.0000     14.3792      0.0000    151.7747    386.6027
  1762.2500     12.9718      0.0000    148.5676    429.5727
  1762.5000     11.6556      0.0000    142.7939    471.8382
  1762.7500     10.4984      0.0000    135.9365    514.3794
  1763.0000      9.5768      0.0000    129.0211    559.8643
  1763.2500      8.9668      0.0000    122.3224    605.7850
  1763.5000      8.6957      0.0000    116.1762    644.2695
  1763.7500      8.7185      0.0000    111.5945    668.7968
  1764.0000      8.9549      0.0000    110.0211    678.4576
  1764.2500      9.3525      0.0000    112.4143    675.0416
  1764.5000      9.9180      0.0000    118.5570    658.2032
  1764.7500     10.7031      0.0000    127.3006    624.6685
  1765.0000     11.7742      0.0000    137.2396    571.8776
  1765.2500     13.1840      0.0000    146.8787    503.3265
  1765.5000     14.9355      0.0000    154.4298    430.6252
  1765.7500     16.9268      0.0000    158.2066    368.4362
  1766.0000     18.9220      0.0000    157.8140    325.6441
  1766.2500     20.6132      0.0000    154.8355    301.7297
  1766.5000     21.7536      0.0000    151.8574    291.0568
  1766.7500     22.2392      0.0000    150.4829    288.9178
  1767.0000     22.0538      0.0000    150.3416    293.8836
  1767.2500     21.1571      0.0000    150.0626    306.5892
  1767.5000     19.4955      0.0000    148.8419    327.0539
  1767.7500     17.1738      0.0000    146.7879    352.6242
  1768.0000     14.5774      0.0000    144.1696    379.5954
  1768.2500     12.2236      0.0000    140.8360    408.2318
  1768.5000     10.4499      0.0000    136.2674    443.8333
  1768.7500      9.2503      0.0000    130.0936    489.4538
  1769.0000      8.3858      0.0000    122.8224    538.8163
  1769.2500      7.6093      2.0000    116.1522    579.9902
  1769.5000      6.8095      0.0000    112.1524    605.9712
  1769.7500      6.0124     -2.0000    111.7237    619.1686
  1770.0000      5.2959      0.0000    113.6796    626.1920
  1770.2500      4.7140      0.0000    115.2866    631.3613
  1770.5000      4.2806      0.0000    113.9225    635.7036
  1770.7500      3.9899      0.0000    108.6416    639.1885
  1771.0000      3.8246      0.0000    100.5584    641.7988
  1771.2500      3.7455      0.0000     92.0065    643.2798
