~Version Information
 VERS.                                  2.0 : CWLS LAS VERSION
 WRAP.                                   NO : WRAPING MODE
 SWARE .                 MController 2.5.0E : SOFTWARE VERSION
~Well Information
 WELL.                          Patten 22-2 : WELL
 COMP.           Pionneer Natural Resources : COMPANY
 FLD.                      Purgatoire River : FIELD
 LOC.                 SE/NW Sec 2 T35S R65W : LOCATION
 DATE.                             12/09/04 : DATE(S) LOGGED
 SRVC.                Blanco Geological LLC : SERVICE COMPANY
 STAT.                                   CO : STATE
 CNTY.                           Las Aminas : COUNTY
 CTRY.                                  USA : COUNTRY
 API.                          05-071-08168 : API NUMBER
 STRT.FT                             276.00 : START DEPTH
 STOP.FT                            1707.00 : STOP DEPTH
 STEP.FT                               1.00 : DEPTH INCREMENT
 NULL.                                -9999 : NULL VALUE
~Curve information
 DEPTH.FT                                   :
 ROP.MIN/FT                                 :
 GAS.UNITS                                  :
~ASCII Log data
# ...
      476.00       10.450         34.2 
      477.00        0.267          2.2 
      478.00        0.233          2.3 
      479.00        0.167          2.4 
      480.00        0.133          2.3 
      481.00        0.167          1.7 
      482.00        0.100          2.2 
      483.00        0.183          2.5 
      484.00        0.133          2.6 
      485.00        0.167          2.3 
      486.00        0.133          2.0 
      487.00        0.100          2.4 
      488.00        0.133          2.4 
      489.00        0.200          2.6 
      490.00        0.167          2.3 
      491.00        0.167          2.4 
      492.00        0.167          1.9 
      493.00        0.200          2.4 
      494.00        0.233          2.5 
      495.00        0.133          2.4 
      496.00        0.233          2.6 
      497.00        0.167          2.4 
      498.00        0.167          2.4 
      499.00        0.133          2.3 
      500.00        0.167          2.4 
      501.00        0.183          2.8 
      502.00        0.167          2.4 
      503.00        0.133          1.9 
      504.00        0.100          2.0 
      505.00        0.133          2.5 
      506.00        1.667          2.5 
      507.00        0.150          2.4 
      508.00        0.133          2.1 
      509.00        0.233          2.3 
      510.00        0.133          1.7 
      511.00        0.067          2.3 
      512.00        0.167          2.4 
      513.00        0.233          2.4 
      514.00        0.167          2.0 
      515.00        0.200          2.3 
      516.00        0.133          2.4 
      517.00        0.133          2.4 
      518.00        0.167          2.4 
      519.00        0.167          2.3 
      520.00        0.133          2.3 
      521.00        0.133          2.4 
      522.00        0.100          2.3 
      523.00        0.100          2.3 
      524.00        0.100          2.3 
      525.00        0.100          2.0 
      526.00        0.150          2.3 
      527.00        0.167          2.5 
      528.00        0.200          2.3 
      529.00        0.167          2.3 
      530.00        0.167          2.4 
      531.00        0.200          2.4 
      532.00        0.067          2.2 
      533.00        0.133          2.4 
      534.00        0.167          2.4 
      535.00        0.133          2.4 
      536.00        2.817          2.5 
      537.00        0.200          2.3 
      538.00        0.200          2.2 
      539.00        0.167          2.4 
      540.00        0.267          2.2 
      541.00        0.183          2.5 
      542.00        0.200          2.3 
      543.00        0.200          1.9 
      544.00        0.233          2.4 
      545.00        0.200          2.3 
      546.00        0.200          2.2 
      547.00        0.267          2.2 
      548.00        0.233          2.1 
      549.00        0.200          2.3 
      550.00        0.167          2.1 
      551.00        0.167          2.3 
      552.00        0.133          2.3 
      553.00        0.133          2.2 
      554.00        0.100          2.0 
      555.00        0.133          1.9 
      556.00        0.167          2.3 
      557.00        0.183          2.2 
      558.00        0.200          2.1 
      559.00        0.167          2.2 
      560.00        0.167          2.2 
      561.00        0.233          2.2 
      562.00        0.167          2.2 
      563.00        0.200          2.3 
      564.00        0.133          2.2 
      565.00        0.133          2.3 
      566.00        1.983          2.7 
      567.00        0.200          2.7 
      568.00        0.200          2.4 
      569.00        0.167          2.2 
      570.00        0.233          2.4 
      571.00        0.133          2.0 
      572.00        0.167          2.1 
      573.00        0.133          2.3 
      574.00        0.167          2.2 
      575.00        0.317          2.4 
      576.00        0.167          2.0 
      577.00        0.133          2.4 
      578.00        0.133          2.2 
      579.00        0.133          2.2 
      580.00        0.133          2.1 
      581.00        0.133          1.9 
      582.00        0.100          2.2 
      583.00        0.100          2.4 
      584.00        0.133          2.3 
      585.00        0.200          2.0 
      586.00        0.233          2.2 
      587.00        0.167          2.2 
      588.00        0.133          2.5 
      589.00        0.133          2.4 
      590.00        0.200          2.3 
      591.00        0.167          2.2 
      592.00        0.217          2.4 
      593.00        0.167          2.4 
      594.00        0.167          2.2 
      595.00        0.133          2.4 
      596.00        2.067          2.4 
      597.00        0.217          2.4 
      598.00        0.267          2.4 
      599.00        0.133          2.4 
      600.00        0.133          2.3 
      601.00        0.133          2.4 
      602.00        0.100          2.5 
      603.00        0.067          2.4 
      604.00        0.133          2.2 
      605.00        0.133          2.3 
      606.00        0.133          2.3 
      607.00        0.133          2.3 
      608.00        0.167          2.6 
      609.00        0.167          2.4 
      610.00        0.200          2.0 
      611.00        0.167          2.2 
      612.00        0.133          2.4 
      613.00        0.167          2.3 
      614.00        0.167          2.2 
      615.00        0.167          2.3 
      616.00        0.133          2.4 
      617.00        0.167          2.5 
      618.00        0.183          2.7 
      619.00        0.267          2.7 
      620.00        0.233          2.7 
      621.00        0.133          2.4 
      622.00        0.167          2.6 
      623.00        0.233          2.5 
      624.00        0.200          2.4 
      625.00        0.200          2.2 
      626.00        2.450          2.4 
      627.00        0.333          2.3 
      628.00        0.233          2.4 
      629.00        0.233          2.3 
      630.00        0.200          2.2 
      631.00        0.167          2.2 
      632.00        0.200          2.3 
      633.00        0.233          2.2 
      634.00        0.200          2.3 
      635.00        0.200          2.0 
      636.00        0.233          2.2 
      637.00        0.167          2.3 
      638.00        0.183          2.4 
      639.00        0.133          2.0 
      640.00        0.167          2.2 
      641.00        0.133          2.4 
      642.00        0.167          2.3 
      643.00        0.167          2.4 
      644.00        0.233          2.4 
      645.00        0.200          2.2 
      646.00        0.167          2.2 
      647.00        0.200          2.2 
      648.00        0.200          2.0 
      649.00        0.200          2.4 
      650.00        0.200          2.3 
      651.00        0.200          1.9 
      652.00        0.167          2.2 
      653.00        0.200          2.3 
      654.00        0.167          2.0 
      655.00        0.167          1.9 
      656.00        2.117          2.6 
      657.00        0.233          2.2 
      658.00        0.183          1.9 
      659.00        0.167          2.2 
      660.00        0.133          1.9 
      661.00        0.100          1.9 
      662.00        0.133          2.4 
      663.00        0.233          2.1 
      664.00        0.133          2.2 
      665.00        0.100          2.2 
      666.00        0.133          2.1 
      667.00        0.133          2.4 
      668.00        0.167          2.3 
      669.00        0.167          2.4 
      670.00        0.133          2.3 
      671.00        0.167          2.5 
      672.00        0.100          1.9 
      673.00        0.200          2.4 
      674.00        0.167          2.1 
      675.00        0.250          2.5 
