~Version Information
VERS.                      2.0: CWLS Log ASCII Standard - VERSION 2.0
WRAP.                       NO: One line per depth step
~Well Information Block
STRT.FT                -8.0000: 
STOP.FT              2410.0000: 
STEP.FT                 0.2500: 
NULL.                -999.2500: 
COMP.          Petrogulf Corporation: COMPANY
WELL.            Torcom 17-33V: WELL
FLD.           Purgatorie River: FIELD
LOC.           1544' FSL & 1746' FEL--: LOCATION
PROV.                       CO: PROVINCE
CNTY.               Las Animas: COUNTRY
SRVC.          Patterson Wireline: SERVICE COMPANY
DATE.          Wed Dec 10 17:24:27 2003: LOG DATE
UWI.                          : UNIQUE WELL ID
~Curve Information Block
DEPT.FT            0 000 00 00: Depth
CCL.                          : Casing Collar Locator
TT3.usec                      : CBL 3' Travel Time
AMP3.mV                       : CBL 3' Amplitude
GR.GAPI                       : Gamma Ray
~Parameter Information Block
~A  Depth       CCL         TT3         AMP3         GR     
# ...
  1432.5000      0.0000    778.0165      1.4525     78.2846
  1432.7500      0.0000    767.7568      1.6141     71.2229
  1433.0000      0.0000    755.0424      1.7486     68.2613
  1433.2500      0.0000    740.2255      1.8078     69.4992
  1433.5000      0.0000    724.7319      1.8002     73.8572
  1433.7500      0.0000    711.2757      1.7727     79.0391
  1434.0000      0.0000    702.6075      1.7725     82.8495
  1434.2500      0.0000    700.2981      1.8146     84.6593
  1434.5000      0.0000    704.7631      1.8711     85.3801
  1434.7500      0.0000    716.2131      1.9006     86.2582
  1435.0000      0.0000    734.6091      1.8926     88.0113
  1435.2500      0.0000    757.3378      1.8737     90.8648
  1435.5000      0.0000    777.3702      1.8658     94.7687
  1435.7500      0.0000    786.6620      1.8526     99.3745
  1436.0000      0.0000    782.9460      1.8003    104.1726
  1436.2500      0.0000    771.4769      1.7082    108.9305
  1436.5000      0.0000    759.3265      1.6273    113.8361
  1436.7500      0.0000    749.6139      1.6286    119.0174
  1437.0000      0.0000    741.1636      1.7471    123.8549
  1437.2500      0.0000    731.6216      1.9405    126.9746
  1437.5000      0.0000    720.4177      2.1000    127.3333
  1437.7500      0.0000    709.5761      2.1281    125.4722
  1438.0000      0.0000    701.9729      2.0246    123.3498
  1438.2500      0.0000    699.1513      1.8843    122.6350
  1438.5000      0.0000    701.0851      1.8015    123.4093
  1438.7500      0.0000    707.2330      1.7881    124.8148
  1439.0000      0.0000    716.5406      1.7885    126.6112
  1439.2500      0.0000    726.4242      1.7508    129.5225
  1439.5000      0.0000    732.9133      1.6739    134.1309
  1439.7500      0.0000    732.7390      1.5976    139.9933
  1440.0000      0.0000    725.3811      1.5569    145.9622
  1440.2500      0.0000    713.2368      1.5418    150.8937
  1440.5000      0.0000    700.1943      1.5073    153.9720
  1440.7500      0.0000    689.8167      1.4247    154.8832
  1441.0000      0.0000    684.0287      1.3181    153.9578
  1441.2500      0.0000    682.8334      1.2492    151.7951
  1441.5000      0.0000    684.8193      1.2698    148.4384
  1441.7500      0.0000    687.7781      1.3782    143.2005
  1442.0000      0.0000    689.4785      1.5144    135.6699
  1442.2500      0.0000    688.8076      1.6003    126.8573
  1442.5000      0.0000    686.3969      1.5923    119.0531
  1442.7500      0.0000    683.8185      1.4995    114.2695
  1443.0000      0.0000    682.0973      1.3662    112.6388
  1443.2500      0.0000    680.9168      1.2414    112.2754
  1443.5000      0.0000    678.9479      1.1511    110.7787
  1443.7500      0.0000    675.0107      1.0886    107.0333
  1444.0000      0.0000    669.4541      1.0411    101.9092
  1444.2500      0.0000    664.6334      1.0245     97.5121
  1444.5000      0.0000    663.4810      1.0694     95.7409
  1444.7500      0.0000    666.8984      1.1658     97.1775
  1445.0000      0.0000    672.5664      1.2486    101.0188
  1445.2500      0.0000    676.8734      1.2561    105.8923
  1445.5000      0.0000    678.1440      1.1965    110.8018
  1445.7500      0.0000    677.5461      1.1398    115.6172
  1446.0000      0.0000    677.0429      1.1468    120.9946
  1446.2500      0.0000    677.3796      1.2165    127.7305
  1446.5000      0.0000    678.1624      1.3051    135.7933
  1446.7500      0.0000    678.9241      1.3800    143.8071
  1447.0000      0.0000    679.6178      1.4373    149.5668
  1447.2500      0.0000    680.4724      1.4731    151.2170
  1447.5000      0.0000    681.7996      1.4657    148.3025
  1447.7500      0.0000    683.8142      1.4000    142.1428
  1448.0000      0.0000    686.2821      1.3000    135.2029
  1448.2500      0.0000    688.3137      1.2193    129.6801
  1448.5000      0.0000    689.0497      1.1935    126.3015
  1448.7500      0.0000    689.1874      1.2111    124.1911
  1449.0000      0.0000    691.8210      1.2425    121.7334
  1449.2500      0.0000    701.0498      1.2850    117.7482
  1449.5000      0.0000    718.5208      1.3581    112.2408
  1449.7500      0.0000    740.3628      1.4562    106.2953
  1450.0000      0.0000    758.1940      1.5355    101.3171
  1450.2500      0.0000    765.1176      1.5556     98.2277
  1450.5000      0.0000    761.2648      1.5250     97.1285
  1450.7500      0.0000    752.2711      1.4946     97.7617
  1451.0000      0.0000    742.4987      1.5011    100.2543
  1451.2500      0.0000    731.6429      1.5272    105.0462
  1451.5000      0.0000    718.2708      1.5284    112.0528
  1451.7500      0.0000    704.4048      1.4910    120.4865
  1452.0000      0.0000    695.0995      1.4460    129.6769
  1452.2500      0.0000    694.3779      1.4311    139.5762
  1452.5000      0.0000    702.3796      1.4549    150.0746
  1452.7500      0.0000    715.3938      1.4957    159.8826
  1453.0000      0.0000    727.9743      1.5194    166.5544
  1453.2500      0.0000    736.2551      1.4985    168.1544
  1453.5000      0.0000    740.4021      1.4287    165.0530
  1453.7500      0.0000    743.5062      1.3366    159.7641
  1454.0000      0.0000    747.7346      1.2667    155.0554
  1454.2500      0.0000    752.0439      1.2465    152.4331
  1454.5000      0.0000    753.7119      1.2612    151.8572
  1454.7500      0.0000    751.4564      1.2712    152.1087
  1455.0000      0.0000    746.9368      1.2514    151.6179
  1455.2500      0.0000    743.7086      1.2021    149.4173
  1455.5000      0.0000    744.6219      1.1341    145.2109
  1455.7500      0.0000    749.5635      1.0684    138.8972
  1456.0000      0.0000    755.5726      1.0432    130.8048
  1456.2500      0.0000    758.8422      1.0935    122.2778
  1456.5000      0.0000    756.2633      1.2168    115.4085
  1456.7500      0.0000    746.0919      1.3728    112.1473
  1457.0000      0.0000    729.0300      1.5215    113.6505
  1457.2500      0.0000    709.1813      1.6507    119.8209
  1457.5000      0.0000    692.6718      1.7606    128.9941
  1457.7500      0.0000    683.8459      1.8376    138.2695
  1458.0000      0.0000    682.4609      1.8572    144.7442
  1458.2500      0.0000    684.7549      1.8094    147.0010
  1458.5000      0.0000    687.1073      1.7078    145.8997
  1458.7500      0.0000    688.3696      1.5764    144.0839
  1459.0000      0.0000    688.9391      1.4350    144.2159
  1459.2500      0.0000    688.6072      1.3024    147.1238
  1459.5000      0.0000    686.2076      1.2058    151.5314
  1459.7500      0.0000    681.2398      1.1687    155.5541
  1460.0000      0.0000    675.0989      1.1872    158.1895
  1460.2500      0.0000    670.3597      1.2280    159.4037
  1460.5000      0.0000    669.2534      1.2585    159.4253
  1460.7500      0.0000    672.9362      1.2720    158.3647
  1461.0000      0.0000    681.5625      1.2843    156.2604
  1461.2500      0.0000    694.4711      1.3145    153.1436
  1461.5000      0.0000    710.1494      1.3690    149.0419
  1461.7500      0.0000    725.9528      1.4378    143.9279
  1462.0000      0.0000    738.2365      1.5009    137.6398
  1462.2500      0.0000    743.8124      1.5423    130.0387
  1462.5000      0.0000    741.8248      1.5665    121.4960
  1462.7500      0.0000    733.7761      1.5948    113.2204
  1463.0000      0.0000    721.8317      1.6385    106.7924
  1463.2500      0.0000    707.8405      1.6843    103.1269
  1463.5000      0.0000    693.8484      1.7120    101.8229
  1463.7500      0.0000    682.4463      1.7205    101.5656
  1464.0000      0.0000    675.7015      1.7253    101.0908
  1464.2500      0.0000    673.4930      1.7385     99.6956
  1464.5000      0.0000    673.2739      1.7535     97.0639
  1464.7500      0.0000    672.2784      1.7423     93.0970
  1465.0000      0.0000    670.3185      1.6707     88.2836
  1465.2500      0.0000    670.1365      1.5372     84.0477
  1465.5000      0.0000    674.9360      1.3919     82.2633
  1465.7500      0.0000    685.9515      1.2904     84.1263
