~Version Information
VERS.                      2.0: CWLS Log ASCII Standard - VERSION 2.0
WRAP.                       NO: One line per depth step
~Well Information Block
STRT.FT                -7.0000: 
STOP.FT              1863.5000: 
STEP.FT                 0.2500: 
NULL.                -999.2500: 
COMP.          Pioneer Natural Resources: COMPANY
WELL.            Formula 23-11: WELL
FLD.           Purgatorie River: FIELD
LOC.           1976' FSL & 1935' FWL--: LOCATION
PROV.                       CO: PROVINCE
CNTY.               Las Animas: COUNTRY
SRVC.          Patterson Wireline: SERVICE COMPANY
DATE.          Wed Jun 15 14:44:40 2005: LOG DATE
UWI.           05 071 08399 00: UNIQUE WELL ID
~Curve Information Block
DEPT.FT            0 000 00 00: Depth
CCL.                          : Casing Collar Locator
TT3.usec                      : CBL 3' Travel Time
AMP3.mV                       : CBL 3' Amplitude
GR.GAPI                       : Gamma Ray
~Parameter Information Block
~A  Depth       CCL         TT3         AMP3         GR     
    -7.0000   -999.2500   -999.2500   -999.2500     73.8267
    -6.7500   -999.2500   -999.2500   -999.2500     71.8793
    -6.5000   -999.2500   -999.2500   -999.2500     69.8522
    -6.2500   -999.2500   -999.2500   -999.2500     67.8221
    -6.0000   -999.2500   -999.2500   -999.2500     66.2549
    -5.7500   -999.2500   -999.2500   -999.2500     65.5328
    -5.5000   -999.2500   -999.2500   -999.2500     65.8013
    -5.2500   -999.2500   -999.2500   -999.2500     67.1943
    -5.0000   -999.2500   -999.2500   -999.2500     69.6975
    -4.7500   -999.2500   -999.2500   -999.2500     72.7402
    -4.5000   -999.2500   -999.2500   -999.2500     75.2490
    -4.2500   -999.2500   -999.2500   -999.2500     76.2336
    -4.0000   -999.2500   -999.2500   -999.2500     75.4202
    -3.7500   -999.2500   -999.2500   -999.2500     73.6370
    -3.5000   -999.2500   -999.2500   -999.2500     72.5224
    -3.2500   -999.2500   -999.2500   -999.2500     73.2853
    -3.0000   -999.2500   -999.2500   -999.2500     75.4691
    -2.7500   -999.2500   -999.2500   -999.2500     77.2860
    -2.5000   -999.2500   -999.2500   -999.2500     77.4132
    -2.2500   -999.2500   -999.2500   -999.2500     76.2200
    -2.0000   -999.2500   1170.0000      0.6365     75.0502
    -1.7500   -999.2500   1170.0000      0.6436     74.7203
    -1.5000   -999.2500   1170.0000      0.6498     75.1612
    -1.2500   -999.2500   1170.0000      0.6500     76.0872
    -1.0000   -999.2500   1170.0000      0.6428     77.0962
    -0.7500   -999.2500   1170.0000      0.6331     77.0064
    -0.5000   -999.2500   1170.0000      0.6270     74.0058
    -0.2500   -999.2500   1170.0000      0.6278     67.1250
     0.0000   -999.2500   1170.0000      0.6449     47.0352
     0.2500   -999.2500   1170.0000      0.6567     38.3567
     0.5000   -999.2500   1170.0000      0.6706     32.3255
     0.7500   -999.2500   1170.0000      0.6889     28.7181
     1.0000   -999.2500   1170.0000      0.7095     26.5720
     1.2500   -999.2500   1170.0000      0.7229     24.9304
     1.5000   -999.2500   1170.0000      0.7207     23.5278
     1.7500   -999.2500   1170.0000      0.7038     22.8897
     2.0000   -999.2500   1170.0000      0.6818     23.7170
     2.2500   -999.2500   1170.0000      0.6647     26.1848
     2.5000   -999.2500   1170.0000      0.6590     29.8260
     2.7500   -999.2500   1170.0000      0.6678     33.8925
     3.0000   -999.2500   1170.0000      0.6901     37.6814
     3.2500      0.0000   1170.0000      0.7210     40.6491
     3.5000      0.0000   1170.0000      0.7541     42.5059
     3.7500      0.0000   1170.0000      0.7842     43.4430
     4.0000      0.0000   1170.0000      0.8064     44.2510
     4.2500      0.0000   1170.0000      0.8157     45.8506
     4.5000      0.0000   1170.0000      0.8111     48.4033
     4.7500      0.0000   1170.0000      0.7973     51.0351
     5.0000      0.0000   1170.0000      0.7827     52.6961
     5.2500      0.0000   1170.0000      0.7747     53.1704
     5.5000      0.0000   1170.0000      0.7768     53.0356
     5.7500      0.0000   1170.0000      0.7863     52.7380
     6.0000      0.0000   1170.0000      0.7961     52.1245
     6.2500      0.0000   1170.0000      0.7985     51.1070
     6.5000      0.0000   1170.0000      0.7939     50.3274
     6.7500      0.0000   1170.0000      0.7907     50.4933
     7.0000      0.0000   1170.0000      0.7971     51.3154
     7.2500      0.0000   1170.0000      0.8109     51.8825
     7.5000      0.0000   1170.0000      0.8241     51.9375
     7.7500      0.0000   1170.0000      0.8420     51.9419
     8.0000      0.0000   1170.0000      0.9102     52.0191
     8.2500      0.0000   1170.0000      1.1427     51.6607
     8.5000      0.0000   1170.0000      1.7151     50.5379
     8.7500      0.0000   1170.0000      2.7610     49.0736
     9.0000      0.0000   1170.0000      4.1945     48.0744
     9.2500      0.0000   1170.0000      5.6395     47.9153
     9.5000      0.0000   1170.0000      6.6299     48.1058
     9.7500      0.0000   1170.0000      6.9284     47.6885
    10.0000      0.0000   1170.0000      6.6392     46.2556
    10.2500      0.0000   1170.0000      6.0466     44.6777
    10.5000      0.0000   1170.0000      5.4079     44.6821
    10.7500      0.0000   1170.0000      4.8754     47.3916
    11.0000      0.0000   1170.0000      4.5106     52.1548
    11.2500      0.0000   1170.0000      4.3114     56.9699
    11.5000      0.0000   1170.0000      4.2355     60.1332
    11.7500      0.0000   1170.0000      4.2264     61.3686
    12.0000      0.0000   1170.0000      4.2364     61.4838
    12.2500      0.0000   1170.0000      4.2392     61.2866
    12.5000      0.0000   1170.0000      4.2306     60.9459
    12.7500      0.0000   1170.0000      4.2219     60.1523
    13.0000      0.0000   1170.0000      4.2294     58.6394
    13.2500      0.0000   1170.0000      4.2639     56.4324
    13.5000      0.0000   1170.0000      4.3217     53.7336
    13.7500      0.0000   1170.0000      4.3849     50.8841
    14.0000      0.0000   1170.0000      4.4385     48.5739
    14.2500      0.0000   1170.0000      4.4857     47.7746
    14.5000      0.0000   1170.0000      4.5437     49.0482
    14.7500      0.0000   1169.9977      4.6244     51.8753
    15.0000      0.0000   1169.9824      4.7201     54.9762
    15.2500      0.0000   1169.8909      4.8092     57.4209
    15.5000      0.0000   1169.4934      4.8748     59.2484
    15.7500      0.0000   1168.0878      4.9168     60.9835
    16.0000      0.0000   1163.9980      4.9478     62.8162
    16.2500      0.0000   1154.1418      4.9812     64.2907
    16.5000      0.0000   1134.4796      5.0228     64.6574
    16.7500      0.0000   1102.2487      5.0689     63.7097
    17.0000      0.0000   1059.3198      5.1108     62.3662
    17.2500      0.0000   1013.4039      5.1440     62.0340
    17.5000      0.0000    974.3759      5.1728     63.1878
    17.7500      0.0000    948.2838      5.2032     64.8621
    18.0000      0.0000    935.0125      5.2339     65.7521
    18.2500      0.0000    931.4019      5.2557     65.5056
    18.5000      0.0000    935.9745      5.2617     64.6874
    18.7500      0.0000    950.7193      5.2555     63.8774
    19.0000      0.0000    978.0881      5.2510     63.3343
    19.2500      0.0000   1014.9773      5.2631     63.2855
    19.5000      0.0000   1049.9285      5.2974     63.8306
    19.7500      0.0000   1069.5508      5.3478     64.4539
    20.0000      0.0000   1070.3650      5.4022     64.1842
    20.2500      0.0000   1062.6047      5.4496     62.5725
    20.5000      0.0000   1059.9883      5.4832     60.3132
    20.7500      0.0000   1067.5304      5.5014     58.6030
    21.0000      0.0000   1081.7379      5.5088     57.9404
    21.2500      0.0000   1099.0063      5.5167     57.7467
    21.5000      0.0000   1118.3662      5.5365     56.9868
    21.7500      0.0000   1137.8213      5.5698     54.9660
    22.0000      0.0000   1153.5605      5.6053     51.8241
    22.2500      0.0000   1163.2936      5.6273     48.5740
    22.5000      0.0000   1167.8462      5.6264     46.6023
    22.7500      0.0000   1169.4596      5.6063     46.8239
    23.0000      0.0000   1169.8936      5.5833     49.0676
    23.2500      0.0000   1169.9673      5.5769     52.1363
    23.5000      0.0000   1169.8934      5.5963     54.4147
    23.7500      0.0000   1169.4393      5.6381     54.6097
    24.0000      0.0000   1167.7161      5.6909     52.4322
    24.2500      0.0000   1162.6377      5.7402     48.9453
    24.5000      0.0000   1150.9617      5.7719     46.0052
    24.7500      0.0000   1129.7777      5.7797     44.9372
    25.0000      0.0000   1098.8022      5.7700     45.6776
    25.2500      0.0000   1061.3411      5.7585     47.1750
    25.5000      0.0000   1023.5153      5.7573     48.4915
    25.7500      0.0000    993.6372      5.7657     49.6037
    26.0000      0.0000    981.1946      5.7725     51.3623
    26.2500      0.0000    992.5591      5.7653     54.7293
