~Version Information
 VERS.                                  2.0 : CWLS LAS VERSION
 WRAP.                                   NO : WRAPING MODE
 SWARE .                 MController 2.5.0N : SOFTWARE VERSION
~Well Information
 WELL.                         Vector 33-23 : WELL
 COMP.    Pioneer Natural Resources USA Inc : COMPANY
 FLD.                      Purgatoire River : FIELD
 LOC.                NW/SE Sec 23 T32S R66W : LOCATION
 DATE.                              3/25/05 : DATE(S) LOGGED
 SRVC.       Blanco Geological Services LLC : SERVICE COMPANY
 STAT.                                   CO : STATE
 CNTY.                           Las Animas : COUNTY
 CTRY.                                  USA : COUNTRY
 API.                       05-071-08336-00 : API NUMBER
 STRT.FT                             770.00 : START DEPTH
 STOP.FT                            2300.00 : STOP DEPTH
 STEP.FT                               1.00 : DEPTH INCREMENT
 NULL.                                -9999 : NULL VALUE
~Curve information
 DEPTH.FT                                   :
 ROP.MIN/FT                                 :
 GAS.UNITS                                  :
~ASCII Log data
# ...
       970.0         0.17          6.1 
       971.0         0.17          5.3 
       972.0         0.27          5.8 
       973.0         0.22          6.0 
       974.0         0.13          6.0 
       975.0         0.13          5.9 
       976.0         0.17          5.3 
       977.0         0.17          4.9 
       978.0         0.17          5.4 
       979.0         0.20          5.2 
       980.0         0.23          5.4 
       981.0         0.23          6.2 
       982.0         0.27          5.9 
       983.0         0.13          6.1 
       984.0         0.10          4.9 
       985.0         0.10          5.0 
       986.0         3.55          6.9 
       987.0         0.20          6.0 
       988.0         0.17          5.4 
       989.0         0.10          5.9 
       990.0         0.27          6.9 
       991.0         0.27          6.7 
       992.0         0.22          6.1 
       993.0         0.17          5.7 
       994.0         0.17          5.5 
       995.0         0.17          5.4 
       996.0         0.07          5.7 
       997.0         0.20          6.0 
       998.0         0.17          6.4 
       999.0         0.20          5.5 
      1000.0         0.17          6.3 
      1001.0         0.27          5.7 
      1002.0         0.20          6.7 
      1003.0         0.20          5.5 
      1004.0         0.27          6.7 
      1005.0         0.20          7.0 
      1006.0         0.20          7.3 
      1007.0         0.20          6.6 
      1008.0         0.20          5.9 
      1009.0         0.25          6.5 
      1010.0         0.20          6.2 
      1011.0         0.20          6.5 
      1012.0         0.20          6.5 
      1013.0         0.20          5.3 
      1014.0         0.20          5.2 
      1015.0         0.20          5.6 
      1016.0         2.03          6.5 
      1017.0         0.35          6.9 
      1018.0         0.30          6.0 
      1019.0         0.30          5.9 
      1020.0         0.20          6.7 
      1021.0         0.20          6.3 
      1022.0         0.20          6.3 
      1023.0         0.17          6.1 
      1024.0         0.17          5.4 
      1025.0         0.17          5.5 
      1026.0         0.17          6.4 
      1027.0         0.17          5.8 
      1028.0         0.20          6.6 
      1029.0         0.17          5.7 
      1030.0         0.17          6.3 
      1031.0         0.17          6.9 
      1032.0         0.17          6.0 
      1033.0         0.22          6.2 
      1034.0         0.17          6.3 
      1035.0         0.23          6.4 
      1036.0         0.20          5.9 
      1037.0         0.20          5.7 
      1038.0         0.10          6.4 
      1039.0         0.10          5.7 
      1040.0         0.10          6.5 
      1041.0         0.10          5.4 
      1042.0         0.23          5.8 
      1043.0         0.20          5.5 
      1044.0         0.20          6.6 
      1045.0         0.17          6.5 
      1046.0         1.82          7.4 
      1047.0         0.27          6.0 
      1048.0         0.23          6.0 
      1049.0         0.17          6.4 
      1050.0         0.20          6.5 
      1051.0         0.20          6.4 
      1052.0         0.20          6.3 
      1053.0         0.20          6.0 
      1054.0         0.20          5.9 
      1055.0         0.23          6.2 
      1056.0         0.17          6.7 
      1057.0         0.10          6.9 
      1058.0         0.13          6.5 
      1059.0         0.17          5.8 
      1060.0         0.17          5.9 
      1061.0         0.18          6.0 
      1062.0         0.20          6.3 
      1063.0         0.13          6.3 
      1064.0         0.20          6.5 
      1065.0         0.17          5.9 
      1066.0         0.17          6.8 
      1067.0         0.17          6.5 
      1068.0         0.17          6.5 
      1069.0         0.17          6.4 
      1070.0         0.17          6.3 
      1071.0         0.17          5.6 
      1072.0         0.10          5.7 
      1073.0         0.13          6.7 
      1074.0         0.10          6.8 
      1075.0         0.13          6.8 
      1076.0         3.28          7.6 
      1077.0         0.27          6.0 
      1078.0         0.20          6.0 
      1079.0         0.20          6.0 
      1080.0         0.17          6.0 
      1081.0         0.23          6.7 
      1082.0         0.22          7.5 
      1083.0         0.20          7.1 
      1084.0         0.17          6.3 
      1085.0         0.17          6.6 
      1086.0         0.10          6.1 
      1087.0         0.13          6.1 
      1088.0         0.10          6.1 
      1089.0         0.13          6.9 
      1090.0         0.37          7.1 
      1091.0         0.67          7.6 
      1092.0         0.27          7.0 
      1093.0         0.17          6.5 
      1094.0         0.17          7.6 
      1095.0         0.17          6.7 
      1096.0         0.17          6.7 
      1097.0         0.17          6.4 
      1098.0         0.22          6.3 
      1099.0         0.13          6.1 
      1100.0         0.13          6.4 
      1101.0         0.10          6.2 
      1102.0         0.10          6.2 
      1103.0         0.13          6.8 
      1104.0         0.20          6.9 
      1105.0         0.23          6.7 
      1106.0         2.38          7.6 
      1107.0         0.37          6.2 
      1108.0         0.30          7.5 
      1109.0         0.23          7.4 
      1110.0         0.27          7.4 
      1111.0         0.23          6.8 
      1112.0         0.20          6.5 
      1113.0         0.23          6.9 
      1114.0         0.20          6.4 
      1115.0         0.20          6.3 
      1116.0         0.23          6.7 
      1117.0         0.20          7.0 
      1118.0         0.23          7.2 
      1119.0         0.28          7.7 
      1120.0         0.23          7.5 
      1121.0         0.20          7.0 
      1122.0         0.17          6.6 
      1123.0         0.20          6.4 
      1124.0         0.17          6.7 
      1125.0         0.17          6.7 
      1126.0         0.17          7.1 
      1127.0         0.20          6.5 
      1128.0         0.13          6.8 
      1129.0         0.17          7.5 
      1130.0         0.17          6.8 
      1131.0         0.20          6.9 
      1132.0         0.17          7.0 
      1133.0         0.20          6.5 
      1134.0         0.17          6.3 
      1135.0         0.20          7.1 
      1136.0         1.68          7.4 
      1137.0         0.43          7.4 
      1138.0         0.27          6.3 
      1139.0         0.23          6.1 
      1140.0         0.20          6.2 
      1141.0         0.17          6.2 
      1142.0         0.13          6.1 
      1143.0         0.17          6.6 
      1144.0         0.20          6.5 
      1145.0         0.17          6.7 
      1146.0         0.22          6.5 
      1147.0         0.20          6.3 
      1148.0         0.13          6.1 
      1149.0         0.17          6.5 
      1150.0         0.13          7.1 
      1151.0         0.13          6.6 
      1152.0         0.13          7.2 
      1153.0         0.20          7.0 
      1154.0         0.17          5.8 
      1155.0         0.13          5.6 
      1156.0         0.13          5.5 
      1157.0         0.17          6.0 
      1158.0         0.43          5.8 
      1159.0         0.47          7.0 
      1160.0         0.50          6.5 
      1161.0         0.42          6.8 
      1162.0         0.17          6.6 
      1163.0         0.20          6.3 
      1164.0         0.20          6.5 
      1165.0         0.43          6.5 
      1166.0         1.87          7.3 
      1167.0         0.28          7.0 
      1168.0         0.17          6.7 
      1169.0         0.20          6.6 
