~Version Information
VERS.                      2.0: CWLS Log ASCII Standard - VERSION 2.0
WRAP.                       NO: One line per depth step
~Well Information Block
STRT.FT               765.6000: 
STOP.FT              2431.0000: 
STEP.FT                 0.1000: 
NULL.                -999.2500: 
COMP.          Petrogulf Corporation: COMPANY
WELL.             Norton 9-14V: WELL
FLD.           Purgatorie River: FIELD
LOC.           230' FSL & 225' FWL: LOCATION
CNTY.               Las Animas: COUNTY
SRVC.                         : SERVICE COMPANY
DATE.          Thu Oct 28 06:20:25 2004: LOG DATE
UWI.           05 071 07891 00: UNIQUE WELL ID
STAT.                 Colorado: STATE
~Curve Information Block
DEPT.FT            0 000 00 00: Depth
DCAL.in                       : CDL Caliper
RHOB.g/cc                     : CDL Bulk Density
RHOC.g/cc                     : CDL Density Correction
DPOR.pu                       : CDL Density Porosity
GR.GAPI                       : Gamma Ray
NPOR.pu                       : Neutron Porosity
~Parameter Information Block
~A  Depth       DCAL        RHOB        RHOC        DPOR         GR         NPOR    
# ...
  1658.4000      7.9705      2.4722      0.0193     10.7750     69.8876     15.0103
  1658.5000      7.9716      2.4869      0.0680      9.8830     69.8321     14.9329
  1658.6000      7.9716      2.4803      0.0477     10.2875     68.2320     15.0382
  1658.7000      7.9716      2.4651      0.0203     11.2051     65.5618     14.8935
  1658.8000      7.9703      2.4639      0.0323     11.2783     63.7854     14.6226
  1658.9000      7.9703      2.4738      0.0863     10.6776     64.2883     14.7868
  1659.0000      7.9741      2.4754      0.0529     10.5790     66.7759     15.2908
  1659.1000      7.9741      2.4646      0.0472     11.2351     70.0022     15.5928
  1659.2000      7.9741      2.4499      0.0194     12.1291     70.4809     15.5891
  1659.3000      7.9794      2.4419      0.0095     12.6118     66.2759     15.3770
  1659.4000      7.9794      2.4438      0.0232     12.4974     61.6900     15.1990
  1659.5000      7.9776      2.4497      0.0500     12.1414     62.1588     15.3553
  1659.6000      7.9776      2.4612      0.0175     11.4402     68.0694     15.4157
  1659.7000      7.9776      2.4786      0.0493     10.3907     73.4871     15.0873
  1659.8000      7.9794      2.4848      0.0676     10.0145     73.0742     14.6095
  1659.9000      7.9794      2.4716      0.0370     10.8125     68.3703     14.2264
  1660.0000      7.9784      2.4514      0.0225     12.0391     64.3896     14.4195
  1660.1000      7.9784      2.4373      0.0011     12.8918     64.1302     15.2699
  1660.2000      7.9784      2.4357      0.0342     12.9873     66.1547     15.9916
  1660.3000      7.9781      2.4440      0.0732     12.4878     68.5667     16.1519
  1660.4000      7.9781      2.4554      0.0876     11.7921     67.9236     16.0113
  1660.5000      7.9703      2.4624      0.0881     11.3713     61.0811     15.7184
  1660.6000      7.9703      2.4583      0.0575     11.6184     51.5402     15.3678
  1660.7000      7.9703      2.4481      0.0584     12.2343     45.6327     15.1920
  1660.8000      7.9666      2.4468      0.0028     12.3175     45.9619     14.9139
  1660.9000      7.9666      2.4599      0.0607     11.5219     50.3922     14.1965
  1661.0000      7.9647      2.4671      0.0933     11.0878     54.5056     13.6851
  1661.1000      7.9647      2.4543      0.0108     11.8590     57.0974     13.8877
  1661.2000      7.9647      2.4370      0.0250     12.9067     59.8597     14.3793
  1661.3000      7.9632      2.4353     -0.0036     13.0145     61.8671     14.8175
  1661.4000      7.9632      2.4547      0.0305     11.8382     63.0302     15.1073
  1661.5000      7.9601      2.4782      0.0474     10.4094     66.1923     14.9641
  1661.6000      7.9601      2.4863      0.0375      9.9221     69.6323     14.5890
  1661.7000      7.9601      2.4801      0.0714     10.2976     69.5529     14.4960
  1661.8000      7.9607      2.4795      0.0625     10.3359     66.2222     14.5098
  1661.9000      7.9607      2.4965      0.0955      9.3027     62.0873     14.2849
  1662.0000      7.9715      2.5125      0.1131      8.3321     59.0491     14.0442
  1662.1000      7.9715      2.5087      0.0357      8.5633     57.2963     14.1737
  1662.2000      7.9715      2.4976      0.0403      9.2361     56.7024     14.6466
  1662.3000      7.9760      2.4907      0.0895      9.6543     56.9766     15.0987
  1662.4000      7.9760      2.4785      0.0270     10.3914     58.7932     15.3573
  1662.5000      7.9815      2.4618     -0.0314     11.4083     62.7178     15.5442
  1662.6000      7.9815      2.4574      0.0017     11.6707     66.4372     15.6771
  1662.7000      7.9815      2.4757      0.0413     10.5653     67.6101     15.7673
  1662.8000      7.9857      2.5042      0.0759      8.8350     66.5707     15.9370
  1662.9000      7.9857      2.5173      0.0882      8.0453     65.7426     16.3002
  1663.0000      7.9915      2.5074      0.0238      8.6405     68.5645     16.8683
  1663.1000      7.9915      2.4939      0.0311      9.4597     75.7092     17.4264
  1663.2000      7.9915      2.4993      0.0148      9.1317     85.2155     17.6997
  1663.3000      7.9975      2.5258      0.0487      7.5247     95.2671     17.9911
  1663.4000      7.9975      2.5449      0.0558      6.3680    104.3067     18.8160
  1663.5000      8.0022      2.5357      0.0178      6.9302    112.8108     20.1202
  1663.6000      8.0022      2.5091      0.0074      8.5424    123.0118     21.1671
  1663.7000      8.0022      2.4785     -0.0059     10.3922    136.2933     21.1880
  1663.8000      8.0077      2.4540      0.0153     11.8812    152.6462     20.6629
  1663.9000      8.0077      2.4524      0.0236     11.9756    167.0194     20.5724
  1664.0000      8.0262      2.4745      0.1482     10.6352    172.7744     21.0052
  1664.1000      8.0262      2.4936      0.1953      9.4801    171.6847     21.5833
  1664.2000      8.0262      2.4956      0.0937      9.3549    172.3213     22.0496
  1664.3000      7.9714      2.4948      0.1291      9.4080    174.2591     22.3542
  1664.4000      7.9714      2.4991      0.0785      9.1485    172.8192     22.7494
  1664.5000      7.9741      2.5062      0.1295      8.7178    170.9091     23.4694
  1664.6000      7.9741      2.5233      0.1077      7.6786    173.1627     24.2188
  1664.7000      7.9741      2.5634      0.1861      5.2474    177.9852     24.6896
  1664.8000      7.9745      2.6141      0.2902      2.1738    178.9648     24.9582
  1664.9000      7.9745      2.6458      0.2652      0.2573    171.0707     24.9349
  1665.0000      8.0480      2.6534      0.2126     -0.2091    160.0985     24.3821
  1665.1000      8.0480      2.6500      0.2508      0.0011    154.9736     23.9409
  1665.2000      8.0480      2.6354      0.1622      0.8851    153.6640     24.3492
  1665.3000      7.9742      2.6165      0.0869      2.0326    150.2551     25.0540
  1665.4000      7.9742      2.6067      0.1293      2.6226    143.8999     25.2428
  1665.5000      7.9639      2.6005      0.1113      2.9996    137.5127     25.1385
  1665.6000      7.9639      2.5938      0.0940      3.4091    132.8489     25.2704
  1665.7000      7.9639      2.5958      0.0827      3.2867    128.7884     25.7492
  1665.8000      7.9559      2.6056      0.0897      2.6939    122.6586     26.0680
  1665.9000      7.9559      2.6134      0.0593      2.2208    114.3690     25.5705
  1666.0000      7.9516      2.6172      0.0972      1.9896    107.5600     24.6091
  1666.1000      7.9516      2.6134      0.0881      2.2165    105.1528     23.8354
  1666.2000      7.9516      2.5920      0.1019      3.5141    107.2587     23.4020
  1666.3000      7.9306      2.5587      0.0193      5.5348    110.1843     23.0219
  1666.4000      7.9306      2.5327      0.0125      7.1119    111.3627     22.5704
  1666.5000      7.9227      2.5189      0.0387      7.9466    112.6752     22.4144
  1666.6000      7.9227      2.5167      0.0084      8.0791    114.2992     22.6794
  1666.7000      7.9227      2.5273      0.0331      7.4346    115.6151     22.9199
  1666.8000      7.9298      2.5399      0.0128      6.6707    116.5203     22.7963
  1666.9000      7.9298      2.5428      0.0709      6.4985    115.7565     22.5639
  1667.0000      7.9299      2.5395      0.0382      6.6979    113.4365     22.4271
  1667.1000      7.9299      2.5393      0.0362      6.7070    110.8759     22.3399
  1667.2000      7.9299      2.5453      0.0640      6.3468    108.6952     22.2102
  1667.3000      7.9369      2.5622      0.0192      5.3215    107.4560     21.8675
  1667.4000      7.9369      2.5934      0.0705      3.4284    107.0310     21.4571
  1667.5000      7.9382      2.6238      0.0949      1.5893    106.2670     21.4594
  1667.6000      7.9382      2.6350      0.0948      0.9120    105.8704     22.0201
  1667.7000      7.9382      2.6350      0.0534      0.9102    106.7776     22.5082
  1667.8000      7.9404      2.6418      0.0662      0.4975    108.4891     22.3540
  1667.9000      7.9404      2.6517      0.0542     -0.1051    108.4046     21.6896
