~Version Information
VERS.                      2.0: CWLS Log ASCII Standard - VERSION 2.0
WRAP.                       NO: One line per depth step
~Well Information Block
STRT.FT               492.8000: 
STOP.FT              1992.0000: 
STEP.FT                 0.1000: 
NULL.                -999.2500: 
COMP.          Petrogulf Corporation: COMPANY
WELL.               Furu 6-23R: WELL
FLD.           Purgatoire River: FIELD
LOC.           2211' FSL & 1780' FWL--: LOCATION
CNTY.               Las Animas: COUNTY
SRVC.                Patterson: SERVICE COMPANY
DATE.          Thu Jun 22 14:21:35 2006: LOG DATE
UWI.           05 071 08266 00: UNIQUE WELL ID
STAT.                 Colorado: STATE
~Curve Information Block
DEPT.FT            0 000 00 00: Depth
DCAL.in                       : CDL Caliper
RHOB.g/cc                     : CDL Bulk Density
RHOC.g/cc                     : CDL Density Correction
DPOR.pu                       : CDL Density Porosity
NPOR.pu                       : Neutron Porosity
GR.GAPI                       : Gamma Ray
~Parameter Information Block
~A  Depth       DCAL        RHOB        RHOC        DPOR        NPOR         GR     
# ...
  1280.0000      8.2518      2.5314      0.0336      7.1867     30.5825    122.2313
  1280.1000      8.2518      2.5328      0.0505      7.1015     30.3134    126.9843
  1280.2000      8.2518      2.5186      0.0585      7.9626     30.8524    131.1084
  1280.3000      8.2550      2.4974      0.0401      9.2459     31.7026    131.8625
  1280.4000      8.2550      2.4901      0.0672      9.6898     31.8805    128.9255
  1280.5000      8.2547      2.5036      0.0387      8.8701     31.3836    125.8025
  1280.6000      8.2547      2.5274      0.1082      7.4299     30.9143    126.5015
  1280.7000      8.2547      2.5424      0.1003      6.5212     30.8044    132.1045
  1280.8000      8.2510      2.5470      0.0665      6.2453     30.8273    139.0350
  1280.9000      8.2510      2.5553      0.0947      5.7392     30.9635    139.6044
  1281.0000      8.2458      2.5732      0.0961      4.6574     31.4001    133.2391
  1281.1000      8.2458      2.5985      0.0824      3.1198     31.5984    127.2030
  1281.2000      8.2458      2.6312      0.0876      1.1407     31.0620    127.0495
  1281.3000      8.2419      2.6720      0.0856     -1.3325     30.0825    132.3064
  1281.4000      8.2419      2.7168      0.0993     -4.0456     29.2045    136.4332
  1281.5000      8.2407      2.7517      0.1393     -6.1615     28.9275    131.2002
  1281.6000      8.2407      2.7597      0.1142     -6.6507     29.2780    117.1188
  1281.7000      8.2407      2.7380      0.1017     -5.3323     29.5879    105.6992
  1281.8000      8.2385      2.7052      0.0415     -3.3424     29.2332    104.1987
  1281.9000      8.2385      2.6798      0.0377     -1.8043     28.5129    109.5945
  1282.0000      8.2346      2.6524      0.0464     -0.1443     28.3979    117.6731
  1282.1000      8.2346      2.6138     -0.0492      2.1917     28.7994    126.5473
  1282.2000      8.2346      2.5853     -0.0551      3.9209     28.8603    132.7890
  1282.3000      8.2324      2.5815      0.0148      4.1529     28.4703    132.0488
  1282.4000      8.2324      2.5878      0.0432      3.7675     28.1384    126.4716
  1282.5000      8.2340      2.5860      0.0944      3.8763     28.0611    120.5766
  1282.6000      8.2340      2.5755      0.0772      4.5129     28.1653    116.7549
  1282.7000      8.2340      2.5715      0.0523      4.7581     28.3405    118.9074
  1282.8000      8.2405      2.5793      0.0625      4.2876     28.4459    127.4747
  1282.9000      8.2405      2.5873      0.0844      3.7985     28.6587    132.3475
  1283.0000      8.2506      2.5919      0.0820      3.5227     29.0421    128.2387
  1283.1000      8.2506      2.5993      0.0739      3.0749     29.3170    122.9527
  1283.2000      8.2506      2.6096      0.0703      2.4495     29.3306    120.1491
  1283.3000      8.2592      2.6179      0.1059      1.9476     29.2624    118.2052
  1283.4000      8.2592      2.6234      0.0758      1.6120     29.5775    118.9857
  1283.5000      8.2622      2.6328      0.0807      1.0406     30.1284    121.3444
  1283.6000      8.2622      2.6497      0.0961      0.0178     30.5521    122.3810
  1283.7000      8.2622      2.6696      0.0702     -1.1887     30.9596    120.2865
  1283.8000      8.2599      2.6849      0.0977     -2.1137     31.2574    116.2606
  1283.9000      8.2599      2.6876      0.0882     -2.2790     31.1256    115.2492
  1284.0000      8.2579      2.6781      0.0538     -1.7039     30.4551    117.1865
  1284.1000      8.2579      2.6639      0.0415     -0.8451     29.3000    117.5853
  1284.2000      8.2579      2.6575      0.0249     -0.4522     28.0728    116.6311
  1284.3000      8.2584      2.6657      0.0022     -0.9509     27.2563    117.4491
  1284.4000      8.2584      2.6705      0.1016     -1.2433     26.9895    117.5004
  1284.5000      8.2598      2.6525      0.0360     -0.1518     27.0766    116.0600
  1284.6000      8.2598      2.6237      0.0285      1.5923     27.1602    119.2895
  1284.7000      8.2598      2.6036      0.0247      2.8138     27.2854    126.0621
  1284.8000      8.2602      2.5952      0.0451      3.3228     27.4178    126.2539
  1284.9000      8.2602      2.5925      0.0484      3.4843     26.9793    119.5661
  1285.0000      8.2590      2.5958      0.0467      3.2826     26.0903    114.3685
  1285.1000      8.2590      2.6089      0.0896      2.4904     25.7828    112.6865
  1285.2000      8.2590      2.6270      0.0532      1.3963     26.3725    114.3825
  1285.3000      8.2566      2.6475      0.0749      0.1534     26.8071    117.8403
  1285.4000      8.2566      2.6755      0.0538     -1.5455     26.6567    118.3522
  1285.5000      8.2555      2.7126      0.1161     -3.7937     26.6650    113.7043
  1285.6000      8.2555      2.7550      0.0882     -6.3662     26.8831    107.0642
  1285.7000      8.2555      2.8031      0.1247     -9.2796     26.4409    103.8744
  1285.8000      8.2554      2.8526      0.1375    -12.2771     25.2806    102.8590
  1285.9000      8.2554      2.8918      0.1343    -14.6573     24.4284    101.3988
  1286.0000      8.2545      2.9097      0.1286    -15.7401     24.6452    102.0136
  1286.1000      8.2545      2.8989      0.1005    -15.0865     25.7815    104.1288
  1286.2000      8.2545      2.8631      0.0308    -12.9155     26.9555    105.5805
  1286.3000      8.2562      2.8141      0.0180     -9.9425     27.6219    107.3736
  1286.4000      8.2562      2.7612     -0.0500     -6.7390     28.2109    111.0171
  1286.5000      8.2594      2.7116     -0.0463     -3.7347     28.8952    116.0562
  1286.6000      8.2594      2.6619     -0.0161     -0.7214     29.3339    117.5081
  1286.7000      8.2594      2.6080     -0.0495      2.5464     29.6225    112.3114
  1286.8000      8.2584      2.5668     -0.0612      5.0405     30.0436    108.2922
  1286.9000      8.2584      2.5535     -0.0182      5.8503     30.4313    112.7579
  1287.0000      8.2552      2.5597      0.0098      5.4741     30.3020    119.2150
  1287.1000      8.2552      2.5693      0.0323      4.8904     29.4616    119.0724
  1287.2000      8.2552      2.5676      0.0695      4.9933     28.4971    115.0983
  1287.3000      8.2552      2.5558      0.0059      5.7104     28.2692    113.3356
  1287.4000      8.2552      2.5549     -0.0038      5.7666     28.7849    116.6829
  1287.5000      8.2570      2.5727      0.0759      4.6845     29.3895    122.8626
  1287.6000      8.2570      2.5966      0.0532      3.2348     29.7254    126.2732
  1287.7000      8.2570      2.6208      0.0907      1.7689     29.8754    123.8837
  1287.8000      8.2576      2.6433      0.1253      0.4039     30.0497    117.3642
  1287.9000      8.2576      2.6485      0.1302      0.0896     30.1048    110.9463
  1288.0000      8.2570      2.6290      0.0465      1.2715     29.8191    110.7007
  1288.1000      8.2570      2.6098      0.0258      2.4349     29.3339    117.5045
  1288.2000      8.2570      2.6126      0.0287      2.2673     29.0511    125.1189
  1288.3000      8.2572      2.6230      0.0577      1.6349     29.3243    128.5830
  1288.4000      8.2572      2.6188      0.0441      1.8933     30.0402    126.1915
  1288.5000      8.2578      2.5933      0.0262      3.4346     30.5204    122.6704
  1288.6000      8.2578      2.5601     -0.0240      5.4474     30.4176    123.1187
  1288.7000      8.2578      2.5435      0.0256      6.4546     30.1574    125.9588
  1288.8000      8.2582      2.5500      0.0337      6.0587     30.0609    128.9144
  1288.9000      8.2582      2.5606      0.0752      5.4164     29.7584    131.5340
  1289.0000      8.2583      2.5555      0.0562      5.7284     29.0443    134.4285
  1289.1000      8.2583      2.5373      0.0218      6.8313     28.3008    135.3723
  1289.2000      8.2583      2.5189      0.0824      7.9455     27.9200    128.2268
  1289.3000      8.2598      2.5066      0.0424      8.6888     27.8255    116.9649
  1289.4000      8.2598      2.5032      0.0433      8.8983     27.6133    113.9339
  1289.5000      8.2615      2.5075      0.0471      8.6369     27.1195    119.7371
