~Version Information
VERS.                      2.0: CWLS Log ASCII Standard - VERSION 2.0
WRAP.                       NO: One line per depth step
~Well Information Block
STRT.FT               928.1000: 
STOP.FT              2417.7000: 
STEP.FT                 0.1000: 
NULL.                -999.2500: 
COMP.          Pioneer Natural Resources: COMPANY
WELL.            Chevron 13-13: WELL
FLD.           Purgatoire River: FIELD
LOC.           1560' FSL & 711' FWL--: LOCATION
CNTY.               Las Animas: COUNTY
SRVC.          Superior Well Services: SERVICE COMPANY
DATE.          Mon Feb 12 14:51:53 2007: LOG DATE
UWI.           05 071 08319 00: UNIQUE WELL ID
STAT.                 Colorado: STATE
~Curve Information Block
DEPT.FT            0 000 00 00: Depth
DIR.Ohm-m                     : IEL Induction Resistivity
GR.GAPI                       : Gamma Ray
SN.Ohm-m                      : IEL Short Normal
SP.mV                         : IEL Spontaneous Potential
~Parameter Information Block
~A  Depth       DIR          GR          SN          SP     
# ...
  2013.5000     15.1840     98.9770     17.0953     78.2911
  2013.6000     15.1840    100.5611     17.0953     78.2911
  2013.7000     15.1840    101.9089     17.0953     78.2911
  2013.8000     15.0664    102.9887     16.8204     78.5023
  2013.9000     15.0664    103.7775     16.8204     78.5023
  2014.0000     14.9726    104.2635     16.5498     78.6917
  2014.1000     14.9726    104.4494     16.5498     78.6917
  2014.2000     14.9726    104.3561     16.5498     78.6917
  2014.3000     14.9019    104.0232     16.3511     78.8576
  2014.4000     14.9019    103.5033     16.3511     78.8576
  2014.5000     14.8556    102.8629     16.2187     78.9984
  2014.6000     14.8556    102.1698     16.2187     78.9984
  2014.7000     14.8556    101.4883     16.2187     78.9984
  2014.8000     14.8348    100.8672     16.1484     79.1128
  2014.9000     14.8348    100.3383     16.1484     79.1128
  2015.0000     14.8362     99.9057     16.1522     79.2003
  2015.1000     14.8362     99.5498     16.1522     79.2003
  2015.2000     14.8362     99.2325     16.1522     79.2003
  2015.3000     14.8512     98.9025     16.1707     79.2610
  2015.4000     14.8512     98.5112     16.1707     79.2610
  2015.5000     14.8689     98.0185     16.1634     79.2956
  2015.6000     14.8689     97.4011     16.1634     79.2956
  2015.7000     14.8689     96.6590     16.1634     79.2956
  2015.8000     14.8821     95.8119     16.1696     79.3049
  2015.9000     14.8821     94.8930     16.1696     79.3049
  2016.0000     14.8905     93.9436     16.2069     79.2902
  2016.1000     14.8905     93.0040     16.2069     79.2902
  2016.2000     14.8905     92.1071     16.2069     79.2902
  2016.3000     14.9010     91.2782     16.2971     79.2528
  2016.4000     14.9010     90.5337     16.2971     79.2528
  2016.5000     14.9254     89.8861     16.4490     79.1935
  2016.6000     14.9254     89.3483     16.4490     79.1935
  2016.7000     14.9254     88.9413     16.4490     79.1935
  2016.8000     14.9769     88.6903     16.6535     79.1136
  2016.9000     14.9769     88.6346     16.6535     79.1136
  2017.0000     15.0667     88.8210     16.8445     79.0138
  2017.1000     15.0667     89.2998     16.8445     79.0138
  2017.2000     15.0667     90.1205     16.8445     79.0138
  2017.3000     15.1992     91.3153     16.9775     78.8956
  2017.4000     15.1992     92.8956     16.9775     78.8956
  2017.5000     15.3670     94.8389     17.0667     78.7609
  2017.6000     15.3670     97.0806     17.0667     78.7609
  2017.7000     15.3670     99.5166     17.0667     78.7609
  2017.8000     15.5507    102.0014     17.1571     78.6124
  2017.9000     15.5507    104.3623     17.1571     78.6124
  2018.0000     15.7247    106.4119     17.3002     78.4540
  2018.1000     15.7247    107.9698     17.3002     78.4540
  2018.2000     15.7247    108.8772     17.3002     78.4540
  2018.3000     15.8688    109.0182     17.4547     78.2910
  2018.4000     15.8688    108.3290     17.4547     78.2910
  2018.5000     15.9777    106.8054     17.6183     78.1294
  2018.6000     15.9777    104.5012     17.6183     78.1294
  2018.7000     15.9777    101.5251     17.6183     78.1294
  2018.8000     16.0623     98.0291     17.8089     77.9761
  2018.9000     16.0623     94.1961     17.8089     77.9761
  2019.0000     16.1416     90.2225     17.9631     77.8381
  2019.1000     16.1416     86.3033     17.9631     77.8381
  2019.2000     16.1416     82.6163     17.9631     77.8381
  2019.3000     16.2314     79.3063     18.0958     77.7217
  2019.4000     16.2314     76.4782     18.0958     77.7217
  2019.5000     16.3362     74.1873     18.2455     77.6320
  2019.6000     16.3362     72.4433     18.2455     77.6320
  2019.7000     16.3362     71.2089     18.2455     77.6320
  2019.8000     16.4505     70.4116     18.3511     77.5722
  2019.9000     16.4505     69.9530     18.3511     77.5722
  2020.0000     16.5661     69.7230     18.3903     77.5427
  2020.1000     16.5661     69.6114     18.3903     77.5427
  2020.2000     16.5661     69.5227     18.3903     77.5427
  2020.3000     16.6775     69.3850     18.4513     77.5412
  2020.4000     16.6775     69.1582     18.4513     77.5412
  2020.5000     16.7821     68.8385     18.5101     77.5623
  2020.6000     16.7821     68.4558     18.5101     77.5623
  2020.7000     16.7821     68.0677     18.5101     77.5623
  2020.8000     16.8761     67.7464     18.4753     77.5974
  2020.9000     16.8761     67.5708     18.4753     77.5974
  2021.0000     16.9542     67.6075     18.4306     77.6351
  2021.1000     16.9542     67.9032     18.4306     77.6351
  2021.2000     16.9542     68.4792     18.4306     77.6351
  2021.3000     17.0153     69.3309     18.4670     77.6616
  2021.4000     17.0153     70.4272     18.4670     77.6616
  2021.5000     17.0665     71.7170     18.5491     77.6612
  2021.6000     17.0665     73.1333     18.5491     77.6612
  2021.7000     17.0665     74.5999     18.5491     77.6612
  2021.8000     17.1218     76.0353     18.6954     77.6165
  2021.9000     17.1218     77.3613     18.6954     77.6165
  2022.0000     17.1946     78.5068     18.9839     77.5090
  2022.1000     17.1946     79.4157     18.9839     77.5090
  2022.2000     17.1946     80.0540     18.9839     77.5090
  2022.3000     17.2919     80.4158     19.3693     77.3198
  2022.4000     17.2919     80.5226     19.3693     77.3198
  2022.5000     17.4131     80.4233     19.7155     77.0295
  2022.6000     17.4131     80.1836     19.7155     77.0295
  2022.7000     17.4131     79.8767     19.7155     77.0295
  2022.8000     17.5528     79.5721     20.0674     76.6195
  2022.9000     17.5528     79.3219     20.0674     76.6195
  2023.0000     17.7077     79.1599     20.5182     76.0728
  2023.1000     17.7077     79.0956     20.5182     76.0728
  2023.2000     17.7077     79.1204     20.5182     76.0728
  2023.3000     17.8811     79.2095     21.0181     75.3755
  2023.4000     17.8811     79.3326     21.0181     75.3755
  2023.5000     18.0856     79.4550     21.5558     74.5191
  2023.6000     18.0856     79.5428     21.5558     74.5191
  2023.7000     18.0856     79.5615     21.5558     74.5191
  2023.8000     18.3447     79.4747     22.2208     73.5031
  2023.9000     18.3447     79.2403     22.2208     73.5031
  2024.0000     18.6930     78.8085     23.0957     72.3381
  2024.1000     18.6930     78.1256     23.0957     72.3381
  2024.2000     18.6930     77.1369     23.0957     72.3381
  2024.3000     19.1732     75.7955     24.2270     71.0485
  2024.4000     19.1732     74.0727     24.2270     71.0485
  2024.5000     19.8239     71.9654     25.5553     69.6741
  2024.6000     19.8239     69.5019     25.5553     69.6741
  2024.7000     19.8239     66.7445     25.5553     69.6741
  2024.8000     20.6607     63.7822     26.8796     68.2701
  2024.9000     20.6607     60.7224     26.8796     68.2701
  2025.0000     21.6537     57.6777     28.1073     66.9053
  2025.1000     21.6537     54.7508     28.1073     66.9053
  2025.2000     21.6537     52.0263     28.1073     66.9053
  2025.3000     22.7146     49.5599     29.0710     65.6570
  2025.4000     22.7146     47.3785     29.0710     65.6570
  2025.5000     23.7058     45.4879     29.6536     64.6044
  2025.6000     23.7058     43.8759     29.6536     64.6044
  2025.7000     23.7058     42.5256     29.6536     64.6044
  2025.8000     24.4770     41.4216     30.0182     63.8200
  2025.9000     24.4770     40.5576     30.0182     63.8200
  2026.0000     24.9139     39.9422     30.1806     63.3613
  2026.1000     24.9139     39.5971     30.1806     63.3613
  2026.2000     24.9139     39.5570     30.1806     63.3613
  2026.3000     24.9684     39.8655     30.1185     63.2625
  2026.4000     24.9684     40.5702     30.1185     63.2625
  2026.5000     24.6528     41.7162     29.8152     63.5295
  2026.6000     24.6528     43.3429     29.8152     63.5295
  2026.7000     24.6528     45.4770     29.8152     63.5295
  2026.8000     24.0146     48.1274     29.2077     64.1380
