~Version Information
VERS.                      2.0: CWLS Log ASCII Standard - VERSION 2.0
WRAP.                       NO: One line per depth step
~Well Information Block
STRT.FT               801.5000: 
STOP.FT              2513.0000: 
STEP.FT                 0.2500: 
NULL.                -999.2500: 
COMP.          Petrogulf Corporation: COMPANY
WELL.               YWAM 7-32V: WELL
FLD.           Purgatoire River: FIELD
LOC.           2423' FNL & 2412' FEL: LOCATION
PROV.                 Colorado: PROVINCE
CNTY.               Las Animas: COUNTRY
SRVC.                Patterson: SERVICE COMPANY
DATE.          Sun Dec 14 06:58:17 2003: LOG DATE
UWI.                          : UNIQUE WELL ID
~Curve Information Block
DEPT.FT            0 000 00 00: Depth
SP.mV                         : DIL Spontaneous Potential
RILD.Ohm-m                    : DIL Deep Resistivity
RILM.Ohm-m                    : DIL Medium Resistivity
RLL3.Ohm-m                    : DIL Shallow Resistivity
GR.GAPI                       : Gamma Ray
~Parameter Information Block
~A  Depth        SP         RILD        RILM        RLL3         GR     
# ...
  1389.5000   -479.4519     17.2851     16.9150     35.6026     87.1982
  1389.7500   -480.4133     18.6334     18.3014     43.2421     79.2288
  1390.0000   -481.3223     20.2786     19.8440     50.8817     67.7467
  1390.2500   -482.0909     22.2551     21.5483     57.3323     61.1482
  1390.5000   -482.6872     24.5721     23.4181     62.2343     54.4228
  1390.7500   -483.1386     27.2110     25.4449     66.1431     52.5439
  1391.0000   -483.5145     30.1283     27.5979     69.8964     52.6995
  1391.2500   -483.8944     33.2521     29.8272     73.9134     53.4323
  1391.5000   -484.3283     36.4577     32.0789     77.9741     53.5394
  1391.7500   -484.8103     39.5283     34.3000     81.5400     52.6801
  1392.0000   -485.2878     42.1600     36.4187     84.2374     50.5070
  1392.2500   -485.7057     44.0826     38.3227     86.0830     48.8088
  1392.5000   -486.0485     45.2585     39.8795     87.3799     46.4454
  1392.7500   -486.3424     45.9564     40.9990     88.4979     45.4122
  1393.0000   -486.6161     46.5742     41.6800     89.6733     44.9835
  1393.2500   -486.8579     47.3667     41.9975     90.8394     45.0690
  1393.5000   -487.0017     48.3089     42.0461     91.6195     44.8700
  1393.7500   -486.9494     49.1690     41.8979     91.6501     44.5330
  1394.0000   -486.6165     49.7095     41.5893     91.0354     44.6248
  1394.2500   -485.9805     49.8432     41.1314     90.3663     45.4589
  1394.5000   -485.1061     49.6225     40.5333     90.0769     47.5010
  1394.7500   -484.1268     49.1188     39.8300     89.7732     48.8553
  1395.0000   -483.1930     48.3307     39.0935     88.3961     50.3624
  1395.2500   -482.4156     47.1909     38.4146     85.1963     51.1407
  1395.5000   -481.8308     45.6485     37.8593     80.5652     52.3256
  1395.7500   -481.3910     43.7402     37.4334     75.8933     53.0038
  1396.0000   -480.9768     41.5919     37.0735     72.5537     53.1199
  1396.2500   -480.4314     39.3607     36.6633     70.8868     52.3551
  1396.5000   -479.6153     37.1627     36.0600     70.0684     50.5307
  1396.7500   -478.4654     35.0533     35.1259     68.8830     49.5859
  1397.0000   -477.0289     33.0525     33.7817     66.4868     49.7349
  1397.2500   -475.4444     31.1872     32.0728     62.4560     51.4431
  1397.5000   -473.8792     29.5137     30.1843     56.5503     57.3837
  1397.7500   -472.4613     28.1033     28.3629     48.9672     63.8221
  1398.0000   -471.2424     27.0127     26.8017     40.8403     75.9355
  1398.2500   -470.1982     26.2625     25.5789     34.0028     84.0121
  1398.5000   -469.2480     25.8310     24.6701     29.8927     93.3591
  1398.7500   -468.2923     25.6554     23.9983     28.6639     96.9721
  1399.0000   -467.2699     25.6478     23.4822     29.3296     98.9140
  1399.2500   -466.2011     25.7293     23.0668     30.5782     98.8885
  1399.5000   -465.1783     25.8670     22.7324     31.4237     98.8361
  1399.7500   -464.3138     26.0822     22.4940     31.3925     99.4739
  1400.0000   -463.6874     26.4216     22.3955     30.5072    101.3937
  1400.2500   -463.3249     26.9201     22.5013     29.3242    102.8235
  1400.5000   -463.2102     27.5780     22.8836     28.9800    103.9712
  1400.7500   -463.3214     28.3607     23.6086     30.9862    103.1967
  1401.0000   -463.6621     29.2014     24.7212     36.6157     98.4728
  1401.2500   -464.2581     29.9952     26.2267     46.1787     92.8459
  1401.5000   -465.1127     30.5930     28.0643     58.8211     81.7937
  1401.7500   -466.1488     30.8228     30.0752     73.0984     73.7190
  1402.0000   -467.1963     30.5523     31.9876     87.7388     62.3827
  1402.2500   -468.0525     29.7546     33.4541    101.7709     56.3554
  1402.5000   -468.5629     28.5122     34.1478    113.9463     50.9411
  1402.7500   -468.6571     26.9571     33.8679    122.1977     50.0548
  1403.0000   -468.3438     25.2152     32.5916    123.8885     52.5849
  1403.2500   -467.7017     23.3954     30.4660    117.0122     56.5683
  1403.5000   -466.8647     21.6007     27.7620    101.7474     65.5250
  1403.7500   -465.9902     19.9222     24.8054     81.1504     73.1193
  1404.0000   -465.2157     18.4185     21.8971     59.9869     86.2375
  1404.2500   -464.6174     17.1030     19.2563     42.2757     95.8979
  1404.5000   -464.1877     15.9534     17.0030     29.5732    111.5238
  1404.7500   -463.8492     14.9346     15.1738     21.2742    122.2057
  1405.0000   -463.5034     14.0195     13.7486     16.0693    136.8245
  1405.2500   -463.0751     13.1965     12.6767     12.9523    144.5163
  1405.5000   -462.5264     12.4646     11.8946     11.3042    152.1272
  1405.7500   -461.8525     11.8230     11.3384     10.6398    154.8350
  1406.0000   -461.0778     11.2652     10.9506     10.5207    156.3525
  1406.2500   -460.2575     10.7807     10.6831     10.6273    156.2670
  1406.5000   -459.4807     10.3602     10.4981     10.8230    155.4375
  1406.7500   -458.8644      9.9995     10.3682     11.1408    154.8505
  1407.0000   -458.5173      9.6975     10.2761     11.6888    154.0489
  1407.2500   -458.4771      9.4517     10.2126     12.4891    153.1899
  1407.5000   -458.6673      9.2551     10.1709     13.3494    150.5945
  1407.7500   -458.9262      9.0965     10.1393     13.9188    147.9852
  1408.0000   -459.0911      8.9650     10.0994     13.9209    144.0618
  1408.2500   -459.0694      8.8540     10.0328     13.3485    142.6814
  1408.5000   -458.8525      8.7608      9.9302     12.4356    144.1033
  1408.7500   -458.4871      8.6836      9.7959     11.4715    147.3458
  1409.0000   -458.0446      8.6170      9.6427     10.6477    153.5570
  1409.2500   -457.6061      8.5499      9.4840     10.0403    156.8991
  1409.5000   -457.2487      8.4693      9.3280      9.6683    159.0909
  1409.7500   -457.0284      8.3651      9.1771      9.5184    158.8738
  1410.0000   -456.9692      8.2349      9.0299      9.5215    156.9819
  1410.2500   -457.0732      8.0843      8.8837      9.5548    154.8284
  1410.5000   -457.3329      7.9242      8.7379      9.5032    150.3011
  1410.7500   -457.7332      7.7669      8.5951      9.3250    147.0199
  1411.0000   -458.2473      7.6230      8.4605      9.0599    143.6638
  1411.2500   -458.8357      7.5001      8.3402      8.7877    143.2926
  1411.5000   -459.4356      7.4020      8.2385      8.5851    145.1794
  1411.7500   -459.9519      7.3301      8.1567      8.4994    147.1191
  1412.0000   -460.2900      7.2844      8.0938      8.5365    149.6894
  1412.2500   -460.4239      7.2633      8.0481      8.6665    150.9665
  1412.5000   -460.4285      7.2632      8.0187      8.8474    152.4649
  1412.7500   -460.4362      7.2772      8.0047      9.0346    153.2907
  1413.0000   -460.5600      7.2954      8.0042      9.1782    154.2673
  1413.2500   -460.8433      7.3084      8.0138      9.2400    154.7459
  1413.5000   -461.2499      7.3111      8.0303      9.2189    155.1405
  1413.7500   -461.6845      7.3054      8.0537      9.1474    154.9749
  1414.0000   -462.0311      7.2974      8.0869      9.0672    153.7026
  1414.2500   -462.1952      7.2934      8.1342      9.0222    152.1964
  1414.5000   -462.1302      7.2966      8.1976      9.0603    149.1742
  1414.7500   -461.8432      7.3058      8.2744      9.2124    146.5533
  1415.0000   -461.3896      7.3166      8.3573      9.4565    141.2467
  1415.2500   -460.8625      7.3233      8.4360      9.7192    136.8034
  1415.5000   -460.3634      7.3214      8.5000      9.9303    129.7487
  1415.7500   -459.9554      7.3089      8.5412     10.0680    125.5581
  1416.0000   -459.6310      7.2871      8.5554     10.1442    120.7317
  1416.2500   -459.3171      7.2596      8.5419     10.1605    118.4550
  1416.5000   -458.9144      7.2303      8.5025     10.0964    116.3315
  1416.7500   -458.3513      7.2023      8.4411      9.9319    115.8642
  1417.0000   -457.6220      7.1764      8.3629      9.6742    116.4524
  1417.2500   -456.7856      7.1521      8.2746      9.3674    117.0741
