~Version Information
VERS.                      2.0: CWLS Log ASCII Standard - VERSION 2.0
WRAP.                       NO: One line per depth step
~Well Information Block
STRT.FT               546.2500: 
STOP.FT              2496.7500: 
STEP.FT                 0.2500: 
NULL.                -999.2500: 
COMP.          Petrogulf Corporation: COMPANY
WELL.               Egan 9-11V: WELL
FLD.           Purgatorie River: FIELD
LOC.           724' FNL & 1379' FWL: LOCATION
PROV.                 Colorado: PROVINCE
CNTY.               Las Animas: COUNTRY
SRVC.          Patterson Wireline: SERVICE COMPANY
DATE.          Fri Jul 11 23:32:41 2003: LOG DATE
UWI.           05 071 07875 00: UNIQUE WELL ID
~Curve Information Block
DEPT.FT            0 000 00 00: Depth
SP.mV                         : DIL Spontaneous Potential
RILD.Ohm-m                    : DIL Deep Resistivity
RILM.Ohm-m                    : DIL Medium Resistivity
RLL3.Ohm-m                    : DIL Shallow Resistivity
GR.GAPI                       : Gamma Ray
~Parameter Information Block
~A  Depth        SP         RILD        RILM        RLL3         GR     
# ...
  1078.2500   2000.0000     52.7609     79.5747   2000.0000     42.7516
  1078.5000   2000.0000     53.1656     79.9915   2000.0000     42.9325
  1078.7500   2000.0000     53.3376     79.9628   2000.0000     43.3699
  1079.0000   2000.0000     53.2795     79.5424   2000.0000     43.3241
  1079.2500   2000.0000     53.0597     78.7986   2000.0000     42.4071
  1079.5000   2000.0000     52.7841     77.8064   2000.0000     40.1129
  1079.7500   2000.0000     52.5462     76.6398   2000.0000     38.7110
  1080.0000   2000.0000     52.3795     75.3669   2000.0000     37.7904
  1080.2500   2000.0000     52.2405     74.0475   2000.0000     37.9564
  1080.5000   2000.0000     52.0444     72.7332   2000.0000     38.6847
  1080.7500   2000.0000     51.7320     71.4670   2000.0000     39.1337
  1081.0000   2000.0000     51.3163     70.2831   2000.0000     39.5438
  1081.2500   2000.0000     50.8656     69.2073   2000.0000     39.6477
  1081.5000   2000.0000     50.4411     68.2578   2000.0000     39.5515
  1081.7500   2000.0000     50.0488     67.4441   2000.0000     39.2574
  1082.0000   2000.0000     49.6437     66.7677   2000.0000     38.2805
  1082.2500   2000.0000     49.1719     66.2213   2000.0000     37.2534
  1082.5000   2000.0000     48.6114     65.7889   2000.0000     35.5064
  1082.7500   2000.0000     47.9850     65.4458   2000.0000     34.5320
  1083.0000   2000.0000     47.3514     65.1591   2000.0000     33.7195
  1083.2500   2000.0000     46.7840     64.8865   2000.0000     33.6541
  1083.5000   2000.0000     46.3439     64.5779   2000.0000     34.1573
  1083.7500   2000.0000     46.0488     64.1745   2000.0000     34.7126
  1084.0000   2000.0000     45.8512     63.6096   2000.0000     35.4371
  1084.2500   2000.0000     45.6382     62.8105   2000.0000     35.7189
  1084.5000   2000.0000     45.2589     61.7036   2000.0000     36.1007
  1084.7500   2000.0000     44.5725     60.2224   2000.0000     36.6122
  1085.0000   2000.0000     43.4955     58.3201   2000.0000     37.8882
  1085.2500   2000.0000     42.0251     55.9837   2000.0000     38.8391
  1085.5000   2000.0000     40.2278     53.2442   2000.0000     39.9319
  1085.7500   2000.0000     38.2100     50.1795   2000.0000     40.4294
  1086.0000   2000.0000     36.0896     46.9062   2000.0000     41.4459
  1086.2500   2000.0000     33.9793     43.5608   2000.0000     42.8820
  1086.5000   2000.0000     31.9735     40.2789   2000.0000     47.0696
  1086.7500   2000.0000     30.1389     37.1759   2000.0000     51.4595
  1087.0000   2000.0000     28.5112     34.3368   2000.0000     60.3371
  1087.2500   2000.0000     27.1006     31.8136   2000.0000     67.5400
  1087.5000   2000.0000     25.9024     29.6293   2000.0000     79.6314
  1087.7500   2000.0000     24.9070     27.7846   2000.0000     88.0202
  1088.0000   2000.0000     24.1038     26.2657   2000.0000    100.1010
  1088.2500   2000.0000     23.4791     25.0495   2000.0000    107.4096
  1088.5000   2000.0000     23.0137     24.1082   2000.0000    116.8823
  1088.7500   2000.0000     22.6807     23.4115   2000.0000    121.9064
  1089.0000   2000.0000     22.4471     22.9279   2000.0000    126.5286
  1089.2500   2000.0000     22.2780     22.6242   2000.0000    127.2037
  1089.5000   2000.0000     22.1411     22.4649   2000.0000    125.0966
  1089.7500   2000.0000     22.0086     22.4116   2000.0000    122.6731
  1090.0000   2000.0000     21.8570     22.4228   2000.0000    119.3155
  1090.2500   2000.0000     21.6674     22.4543   2000.0000    117.5711
  1090.5000   2000.0000     21.4299     22.4627   2000.0000    114.9227
  1090.7500   2000.0000     21.1464     22.4084   2000.0000    112.5751
  1091.0000   2000.0000     20.8293     22.2612   2000.0000    108.2573
  1091.2500   2000.0000     20.4936     22.0040   2000.0000    105.6179
  1091.5000   2000.0000     20.1493     21.6349   2000.0000    103.6874
  1091.7500   2000.0000     19.7978     21.1663   2000.0000    104.3640
  1092.0000   2000.0000     19.4334     20.6203   2000.0000    108.3139
  1092.2500   2000.0000     19.0470     20.0242   2000.0000    112.2943
  1092.5000   2000.0000     18.6278     19.4046   2000.0000    118.4684
  1092.7500   2000.0000     18.1665     18.7842   2000.0000    121.6462
  1093.0000   2000.0000     17.6593     18.1793   2000.0000    124.3048
  1093.2500   2000.0000     17.1123     17.6000   2000.0000    125.0283
  1093.5000   2000.0000     16.5433     17.0509   2000.0000    125.2767
  1093.7500   2000.0000     15.9781     16.5325   2000.0000    124.8134
  1094.0000   2000.0000     15.4422     16.0423   2000.0000    122.7121
  1094.2500   2000.0000     14.9540     15.5768   2000.0000    120.5153
  1094.5000   2000.0000     14.5206     15.1325   2000.0000    117.0739
  1094.7500   2000.0000     14.1386     14.7065   2000.0000    115.3408
  1095.0000   2000.0000     13.7967     14.2972   2000.0000    114.2038
  1095.2500   2000.0000     13.4821     13.9048   2000.0000    114.3819
  1095.5000   2000.0000     13.1866     13.5312   2000.0000    115.4747
  1095.7500   2000.0000     12.9100     13.1798   2000.0000    116.5055
  1096.0000   2000.0000     12.6602     12.8556   2000.0000    118.9173
  1096.2500   2000.0000     12.4476     12.5645   2000.0000    121.6948
  1096.5000   2000.0000     12.2806     12.3128   2000.0000    128.2639
  1096.7500   2000.0000     12.1629     12.1075   2000.0000    134.1041
  1097.0000   2000.0000     12.0952     11.9551   2000.0000    144.0462
  1097.2500   2000.0000     12.0787     11.8618   2000.0000    150.6093
  1097.5000   2000.0000     12.1154     11.8333   2000.0000    158.8749
  1097.7500   2000.0000     12.2068     11.8744   2000.0000    162.7914
  1098.0000   2000.0000     12.3512     11.9888   2000.0000    166.1485
  1098.2500   2000.0000     12.5426     12.1789   2000.0000    166.8334
  1098.5000   2000.0000     12.7718     12.4451   2000.0000    165.4935
  1098.7500   2000.0000     13.0296     12.7851   2000.0000    162.8465
  1099.0000   2000.0000     13.3096     13.1931   2000.0000    156.0227
  1099.2500   2000.0000     13.6085     13.6582   2000.0000    149.6650
  1099.5000   2000.0000     13.9223     14.1637   2000.0000    138.2143
  1099.7500   2000.0000     14.2417     14.6864   2000.0000    130.1707
  1100.0000   2000.0000     14.5503     15.1973   2000.0000    119.2635
  1100.2500   2000.0000     14.8286     15.6633   2000.0000    113.6380
  1100.5000   2000.0000     15.0596     16.0522   2000.0000    108.5037
  1100.7500   2000.0000     15.2329     16.3374   2000.0000    107.3744
  1101.0000   2000.0000     15.3453     16.5036   2000.0000    108.8243
  1101.2500   2000.0000     15.4009     16.5505   2000.0000    111.6264
  1101.5000   2000.0000     15.4105     16.4925   2000.0000    118.0204
  1101.7500   2000.0000     15.3897     16.3555   2000.0000    123.1320
  1102.0000   2000.0000     15.3553     16.1720   2000.0000    130.4845
  1102.2500   2000.0000     15.3217     15.9751   2000.0000    134.4862
  1102.5000   2000.0000     15.2969     15.7942   2000.0000    139.3674
  1102.7500   2000.0000     15.2825     15.6523   2000.0000    142.4544
  1103.0000   2000.0000     15.2729     15.5648   2000.0000    146.8515
  1103.2500   2000.0000     15.2583     15.5393   2000.0000    148.8575
  1103.5000   2000.0000     15.2267     15.5755   2000.0000    149.2117
  1103.7500   2000.0000     15.1686     15.6659   2000.0000    147.5863
  1104.0000   2000.0000     15.0795     15.7959   2000.0000    143.0419
  1104.2500   2000.0000     14.9624     15.9451   2000.0000    139.1092
  1104.5000   2000.0000     14.8281     16.0886   2000.0000    132.6262
  1104.7500   2000.0000     14.6917     16.1999   2000.0000    128.2897
  1105.0000   2000.0000     14.5685     16.2542   2000.0000    122.3273
  1105.2500   2000.0000     14.4683     16.2330   2000.0000    119.0809
  1105.5000   2000.0000     14.3932     16.1267   2000.0000    115.9904
  1105.7500   2000.0000     14.3367     15.9368   2000.0000    115.3279
  1106.0000   2000.0000     14.2867     15.6751   2000.0000    116.1777
