~Version Information
VERS.                      2.0: CWLS Log ASCII Standard - VERSION 2.0
WRAP.                       NO: One line per depth step
~Well Information Block
STRT.FT                -8.8000: 
STOP.FT              2006.2000: 
STEP.FT                 0.1000: 
NULL.                -999.2500: 
COMP.          Petrogulf Corporation: COMPANY
WELL.             J & P 12-33V: WELL
FLD.           Purgatorie River: FIELD
LOC.           2005' FSL & 1928' FEL: LOCATION
CNTY.               Las Animas: COUNTY
SRVC.                         : SERVICE COMPANY
DATE.          Fri Jul 29 13:37:28 2005: LOG DATE
UWI.                          : UNIQUE WELL ID
STAT.                 Colorado: STATE
~Curve Information Block
DEPT.FT            0 000 00 00: Depth
GR.GAPI                       : Gamma Ray
CCL.                          : Casing Collar Locator
TT3.usec                      : CBL 3' Travel Time
AMP3.mV                       : CBL 3' Amplitude
~Parameter Information Block
~A  Depth        GR         CCL         TT3         AMP3    
# ...
  1585.8000    125.2133      0.0000    261.9817     58.5446
  1585.9000    125.2133      0.0000    261.9817     58.5446
  1586.0000    122.1480      0.0000    260.4888     64.3513
  1586.1000    122.1480      0.0000    260.4888     64.3513
  1586.2000    122.1480      0.0000    260.4888     64.3513
  1586.3000    119.3967      0.0000    258.8997     69.2922
  1586.4000    119.3967      0.0000    258.8997     69.2922
  1586.5000    117.2030      0.0000    257.5589     72.1066
  1586.6000    117.2030      0.0000    257.5589     72.1066
  1586.7000    117.2030      0.0000    257.5589     72.1066
  1586.8000    114.2138      0.0000    256.7164     73.2475
  1586.9000    114.2138      0.0000    256.7164     73.2475
  1587.0000    109.1771      0.0000    256.3488     73.5852
  1587.1000    109.1771      0.0000    256.3488     73.5852
  1587.2000    109.1771      0.0000    256.3488     73.5852
  1587.3000    102.4623      0.0000    256.2390     73.6641
  1587.4000    102.4623      0.0000    256.2390     73.6641
  1587.5000     95.7814      0.0000    256.2062     73.6988
  1587.6000     95.7814      0.0000    256.2062     73.6988
  1587.7000     95.7814      0.0000    256.2062     73.6988
  1587.8000     90.7408      0.0000    256.1865     73.7280
  1587.9000     90.7408      0.0000    256.1865     73.7280
  1588.0000     87.8384      0.0000    256.1723     73.7457
  1588.1000     87.8384      0.0000    256.1723     73.7457
  1588.2000     87.8384      0.0000    256.1723     73.7457
  1588.3000     86.5761      0.0000    256.1629     73.7598
  1588.4000     86.5761      0.0000    256.1629     73.7598
  1588.5000     86.2690      0.0000    256.1567     73.7779
  1588.6000     86.2690      0.0000    256.1567     73.7779
  1588.7000     86.2690      0.0000    256.1567     73.7779
  1588.8000     86.6609      0.0000    256.1498     73.7885
  1588.9000     86.6609      0.0000    256.1498     73.7885
  1589.0000     87.7925      0.0000    256.1380     73.7869
  1589.1000     87.7925      0.0000    256.1380     73.7869
  1589.2000     87.7925      0.0000    256.1380     73.7869
  1589.3000     89.5638      0.0000    256.1253     73.7880
  1589.4000     89.5638      0.0000    256.1253     73.7880
  1589.5000     91.6598      0.0000    256.1205     73.8015
  1589.6000     91.6598      0.0000    256.1205     73.8015
  1589.7000     91.6598      0.0000    256.1205     73.8015
  1589.8000     93.6882      0.0000    256.1245     73.8201
  1589.9000     93.6882      0.0000    256.1245     73.8201
  1590.0000     95.1409      0.0000    256.1308     73.8318
  1590.1000     95.1409      0.0000    256.1308     73.8318
  1590.2000     95.1409      0.0000    256.1308     73.8318
  1590.3000     95.2773      0.0000    256.1311     73.8345
  1590.4000     95.2773      0.0000    256.1311     73.8345
  1590.5000     93.2201      0.0000    256.1185     73.8398
  1590.6000     93.2201      0.0000    256.1185     73.8398
  1590.7000     93.2201      0.0000    256.1185     73.8398
  1590.8000     88.4545      0.0000    256.0929     73.8551
  1590.9000     88.4545      0.0000    256.0929     73.8551
  1591.0000     81.4780      0.0000    256.0633     73.8728
  1591.1000     81.4780      0.0000    256.0633     73.8728
  1591.2000     81.4780      0.0000    256.0633     73.8728
  1591.3000     73.7436      0.0000    256.0386     73.8847
  1591.4000     73.7436      0.0000    256.0386     73.8847
  1591.5000     66.7692      0.0000    256.0255     73.8935
  1591.6000     66.7692      0.0000    256.0255     73.8935
  1591.7000     66.7692      0.0000    256.0255     73.8935
  1591.8000     61.5410      0.0000    256.0281     73.9064
  1591.9000     61.5410      0.0000    256.0281     73.9064
  1592.0000     58.7504      0.0000    256.0385     73.9189
  1592.1000     58.7504      0.0000    256.0385     73.9189
  1592.2000     58.7504      0.0000    256.0385     73.9189
  1592.3000     59.0559      0.0000    256.0425     73.9095
  1592.4000     59.0559      0.0000    256.0425     73.9095
  1592.5000     62.8921      0.0000    256.0389     73.8652
  1592.6000     62.8921      0.0000    256.0389     73.8652
  1592.7000     62.8921      0.0000    256.0389     73.8652
  1592.8000     70.1191      0.0000    256.0327     73.8099
  1592.9000     70.1191      0.0000    256.0327     73.8099
  1593.0000     79.7823      0.0000    256.0287     73.7813
  1593.1000     79.7823      0.0000    256.0287     73.7813
  1593.2000     79.7823      0.0000    256.0287     73.7813
  1593.3000     90.3063      0.0000    256.0338     73.7887
  1593.4000     90.3063      0.0000    256.0338     73.7887
  1593.5000    100.2374      0.0000    256.0475     73.8152
  1593.6000    100.2374      0.0000    256.0475     73.8152
  1593.7000    100.2374      0.0000    256.0475     73.8152
  1593.8000    108.8972      0.0000    256.0607     73.8400
  1593.9000    108.8972      0.0000    256.0607     73.8400
  1594.0000    116.2897      0.0000    256.0709     73.8443
  1594.1000    116.2897      0.0000    256.0709     73.8443
  1594.2000    116.2897      0.0000    256.0709     73.8443
  1594.3000    122.6040      0.0000    256.0786     73.8181
  1594.4000    122.6040      0.0000    256.0786     73.8181
  1594.5000    127.9599      0.0000    256.0807     73.7695
  1594.6000    127.9599      0.0000    256.0807     73.7695
  1594.7000    127.9599      0.0000    256.0807     73.7695
  1594.8000    132.3187      0.0000    256.0766     73.7185
  1594.9000    132.3187      0.0000    256.0766     73.7185
  1595.0000    135.3048      0.0000    256.0684     73.6854
  1595.1000    135.3048      0.0000    256.0684     73.6854
  1595.2000    135.3048      0.0000    256.0684     73.6854
  1595.3000    136.2411      0.0000    256.0543     73.6812
  1595.4000    136.2411      0.0000    256.0543     73.6812
  1595.5000    134.7032      0.0000    256.0340     73.6945
  1595.6000    134.7032      0.0000    256.0340     73.6945
  1595.7000    134.7032      0.0000    256.0340     73.6945
  1595.8000    131.0340      0.0000    256.0145     73.6999
  1595.9000    131.0340      0.0000    256.0145     73.6999
  1596.0000    126.2832      0.0000    256.0050     73.6907
  1596.1000    126.2832      0.0000    256.0050     73.6907
  1596.2000    126.2832      0.0000    256.0050     73.6907
  1596.3000    122.0391      0.0000    256.0061     73.6838
  1596.4000    122.0391      0.0000    256.0061     73.6838
  1596.5000    120.3167      0.0000    256.0116     73.6956
  1596.6000    120.3167      0.0000    256.0116     73.6956
  1596.7000    120.3167      0.0000    256.0116     73.6956
  1596.8000    122.7578      0.0000    256.0117     73.7291
  1596.9000    122.7578      0.0000    256.0117     73.7291
  1597.0000    129.3459      0.0000    255.9980     73.7735
  1597.1000    129.3459      0.0000    255.9980     73.7735
  1597.2000    129.3459      0.0000    255.9980     73.7735
  1597.3000    137.9992      0.0000    255.9774     73.8040
  1597.4000    137.9992      0.0000    255.9774     73.8040
  1597.5000    145.4881      0.0000    255.9714     73.8000
  1597.6000    145.4881      0.0000    255.9714     73.8000
  1597.7000    145.4881      0.0000    255.9714     73.8000
  1597.8000    148.9130      0.0000    255.9886     73.7693
  1597.9000    148.9130      0.0000    255.9886     73.7693
  1598.0000    147.0582      0.0000    256.0130     73.7411
  1598.1000    147.0582      0.0000    256.0130     73.7411
  1598.2000    147.0582      0.0000    256.0130     73.7411
  1598.3000    140.9545      0.0000    256.0274     73.7339
  1598.4000    140.9545      0.0000    256.0274     73.7339
  1598.5000    132.9330      0.0000    256.0295     73.7444
  1598.6000    132.9330      0.0000    256.0295     73.7444
  1598.7000    132.9330      0.0000    256.0295     73.7444
  1598.8000    125.0373      0.0000    256.0251     73.7572
  1598.9000    125.0373      0.0000    256.0251     73.7572
  1599.0000    118.5639      0.0000    256.0203     73.7497
  1599.1000    118.5639      0.0000    256.0203     73.7497
