~Version Information
VERS.                      2.0: CWLS Log ASCII Standard - VERSION 2.0
WRAP.                       NO: One line per depth step
~Well Information Block
STRT.FT               741.2000: 
STOP.FT              2461.0000: 
STEP.FT                 0.1000: 
NULL.                -999.2500: 
COMP.          Petrogulf Corporation: COMPANY
WELL.           Montoya 12-44V: WELL
FLD.           Purgatorie River: FIELD
LOC.           698' FSL & 599' FEL: LOCATION
CNTY.               Las Animas: COUNTY
SRVC.                         : SERVICE COMPANY
DATE.          Mon Aug 09 06:09:04 2004: LOG DATE
UWI.           05 071 08094 00: UNIQUE WELL ID
STAT.                 Colorado: STATE
~Curve Information Block
DEPT.FT            0 000 00 00: Depth
DCAL.in                       : CDL Caliper
RHOB.g/cc                     : CDL Bulk Density
RHOC.g/cc                     : CDL Density Correction
DPOR.pu                       : CDL Density Porosity
GR.GAPI                       : Gamma Ray
NPOR.pu                       : Neutron Porosity
~Parameter Information Block
~A  Depth       DCAL        RHOB        RHOC        DPOR         GR         NPOR    
# ...
  2114.0000      7.7989      1.9198     -0.0862     44.2552    100.6257     30.0191
  2114.1000      7.7989      1.8635     -0.0331     47.6654    102.8628     30.2127
  2114.2000      7.7989      1.7812     -0.0832     52.6534    105.2818     30.9541
  2114.3000      7.8131      1.7094     -0.0638     57.0084    106.0313     31.6651
  2114.4000      7.8131      1.6961      0.0210     57.8092    100.0081     32.0587
  2114.5000      7.8261      1.7313      0.1249     55.6794     88.8586     32.5604
  2114.6000      7.8261      1.7875      0.1201     52.2755     79.6298     33.4179
  2114.7000      7.8261      1.8758      0.1195     46.9222     74.9648     33.4660
  2114.8000      7.8564      2.0044      0.2100     39.1256     72.3459     32.2347
  2114.9000      7.8564      2.1389      0.2403     30.9728     68.1257     30.9921
  2115.0000      7.9063      2.2459      0.2574     24.4895     62.4715     30.2513
  2115.1000      7.9063      2.3368      0.2012     18.9813     58.6803     29.5785
  2115.2000      7.9063      2.4337      0.2270     13.1103     58.0792     29.1417
  2115.3000      7.7550      2.5114      0.2537      8.3981     61.9898     28.8925
  2115.4000      7.7550      2.5364      0.1099      6.8822     70.5938     28.5345
  2115.5000      7.7170      2.5283      0.0842      7.3778     79.3348     28.1251
  2115.6000      7.7170      2.5221      0.0928      7.7486     86.7742     27.6643
  2115.7000      7.7170      2.5288      0.0920      7.3471     96.2666     26.7888
  2115.8000      7.7116      2.5452      0.1293      6.3516    103.6236     25.2366
  2115.9000      7.7116      2.5637      0.1319      5.2296    102.2532     23.4700
  2116.0000      7.7096      2.5813      0.0856      4.1633     97.1422     22.3795
  2116.1000      7.7096      2.5969      0.1012      3.2179     92.9607     22.3693
  2116.2000      7.7096      2.5999      0.1493      3.0335     88.9015     22.9399
  2116.3000      7.7098      2.5855      0.1082      3.9103     86.8851     23.2045
  2116.4000      7.7098      2.5660      0.0639      5.0918     87.1192     22.9692
  2116.5000      7.7164      2.5471      0.0762      6.2352     86.6271     22.6121
  2116.6000      7.7164      2.5238      0.0627      7.6512     83.7006     22.2602
  2116.7000      7.7164      2.4981      0.0613      9.2080     79.4034     22.1054
  2116.8000      7.7090      2.4757      0.0568     10.5631     77.8439     22.2680
  2116.9000      7.7090      2.4661      0.0223     11.1428     81.5144     22.5826
  2117.0000      7.7165      2.4796      0.0266     10.3301     87.2435     23.2955
  2117.1000      7.7165      2.5031      0.0956      8.9029     89.6881     24.3321
  2117.2000      7.7165      2.5158      0.0720      8.1308     88.3452     25.2307
  2117.3000      7.7039      2.5215      0.0870      7.7875     87.3610     25.8377
  2117.4000      7.7039      2.5283      0.1225      7.3751     88.3321     25.8694
  2117.5000      7.7020      2.5318      0.1551      7.1622     88.3088     25.2158
  2117.6000      7.7020      2.5364      0.0750      6.8840     85.9079     24.3249
  2117.7000      7.7020      2.5501      0.1413      6.0526     84.3853     23.6354
  2117.8000      7.6996      2.5606      0.1117      5.4170     85.9202     23.1235
  2117.9000      7.6996      2.5535      0.1219      5.8476     86.5113     22.9349
  2118.0000      7.7064      2.5294      0.0812      7.3099     83.5383     23.3728
  2118.1000      7.7064      2.5014      0.0618      9.0063     80.6819     23.6077
  2118.2000      7.7064      2.4846      0.0749     10.0215     78.9688     22.9428
  2118.3000      7.7360      2.4829      0.0581     10.1267     77.6167     22.1074
  2118.4000      7.7360      2.4888      0.0363      9.7695     79.8742     21.6563
  2118.5000      7.7431      2.4980      0.0245      9.2094     85.0297     21.5457
  2118.6000      7.7431      2.5065      0.1073      8.6975     87.2594     21.6459
  2118.7000      7.7431      2.5056      0.0586      8.7514     85.7258     21.7838
  2118.8000      7.7467      2.5057      0.0147      8.7461     82.9623     21.9848
  2118.9000      7.7467      2.5231      0.0583      7.6885     81.8597     22.4429
  2119.0000      7.7598      2.5479      0.0993      6.1903     85.0599     22.8679
  2119.1000      7.7598      2.5606      0.0988      5.4203     90.8484     23.1441
  2119.2000      7.7598      2.5593      0.0804      5.4956     94.2021     23.5756
  2119.3000      7.7571      2.5522      0.0750      5.9294     93.2919     23.7881
  2119.4000      7.7571      2.5422      0.0693      6.5327     91.1574     23.4531
  2119.5000      7.7242      2.5316      0.0602      7.1772     89.1711     22.8674
  2119.6000      7.7242      2.5228      0.0791      7.7071     86.6199     22.0901
  2119.7000      7.7242      2.5160      0.0595      8.1212     84.6446     21.4666
  2119.8000      7.7194      2.5120      0.0652      8.3628     85.3448     21.5255
  2119.9000      7.7194      2.5112      0.0688      8.4107     87.8834     22.0394
  2120.0000      7.7186      2.5082      0.1209      8.5967     92.3232     22.6627
  2120.1000      7.7186      2.4948      0.0767      9.4090    100.1647     23.4304
  2120.2000      7.7186      2.4737      0.0638     10.6855    106.7596     24.1425
  2120.3000      7.7159      2.4537      0.0728     11.8980    105.9632     24.2870
  2120.4000      7.7159      2.4419      0.0629     12.6103    100.6625     23.9402
  2120.5000      7.7156      2.4408      0.0870     12.6818     98.8034     23.7770
  2120.6000      7.7156      2.4437      0.0788     12.5055    101.6464     23.9450
  2120.7000      7.7156      2.4494      0.0528     12.1566    104.6533     24.0699
  2120.8000      7.7168      2.4683      0.0500     11.0146    107.4556     24.0688
  2120.9000      7.7168      2.5001      0.1044      9.0851    111.0222     23.8272
  2121.0000      7.7021      2.5292      0.1733      7.3188    112.8943     23.3698
  2121.1000      7.7021      2.5487      0.1584      6.1412    110.6339     23.0964
  2121.2000      7.7021      2.5600      0.1965      5.4558    106.1393     23.5617
  2121.3000      7.7022      2.5581      0.1813      5.5694    103.5669     24.8904
  2121.4000      7.7022      2.5440      0.1352      6.4222    103.5958     26.0989
  2121.5000      7.7073      2.5289      0.1308      7.3418    105.1188     26.7941
  2121.6000      7.7073      2.5136      0.1312      8.2686    106.0416     27.3305
  2121.7000      7.7073      2.4958      0.1126      9.3475    103.0608     27.2663
  2121.8000      7.7367      2.4856      0.0721      9.9617     98.0928     26.3088
  2121.9000      7.7367      2.4930      0.0694      9.5158     96.1036     25.0714
  2122.0000      7.7187      2.5113      0.1105      8.4067     98.4013     24.1040
  2122.1000      7.7187      2.5236      0.0996      7.6628    102.0620     23.2987
  2122.2000      7.7187      2.5245      0.1138      7.6060    103.1195     22.7511
  2122.3000      7.7172      2.5263      0.1187      7.4961    100.2729     22.9249
  2122.4000      7.7172      2.5356      0.1494      6.9337     94.6752     23.5411
  2122.5000      7.7049      2.5454      0.1681      6.3366     88.2128     23.6505
  2122.6000      7.7049      2.5512      0.1560      5.9850     83.3580     23.1104
  2122.7000      7.7049      2.5544      0.1757      5.7928     79.4870     22.5442
  2122.8000      7.7019      2.5510      0.1802      5.9977     75.9592     22.2222
  2122.9000      7.7019      2.5357      0.1103      6.9272     75.8758     21.9629
  2123.0000      7.7046      2.5227      0.0562      7.7164     78.7081     21.7957
  2123.1000      7.7046      2.5259      0.1298      7.5185     80.0321     21.9880
  2123.2000      7.7046      2.5305      0.1282      7.2450     79.3574     22.2664
  2123.3000      7.7181      2.5171      0.1224      8.0574     79.1909     22.3666
  2123.4000      7.7181      2.4911      0.1117      9.6326     80.3353     22.5947
  2123.5000      7.7202      2.4756      0.1004     10.5717     84.7670     22.7782
