~Version Information
VERS.                      2.0: CWLS Log ASCII Standard - VERSION 2.0
WRAP.                       NO: One line per depth step
~Well Information Block
STRT.FT               440.0000: 
STOP.FT              1001.5000: 
STEP.FT                 0.1000: 
NULL.                -999.2500: 
COMP.          Pioneer Natural Resources: COMPANY
WELL.              Dylan 42-25: WELL
FLD.           Purgatoire River: FIELD
LOC.           2160' FNL & 855' FEL: LOCATION
PROV.                 Colorado: PROVINCE
CNTY.               Las Animas: COUNTRY
SRVC.                Patterson: SERVICE COMPANY
DATE.          Mon Apr 25 09:31:16 2005: LOG DATE
UWI.           05 071 08229 00: UNIQUE WELL ID
~Curve Information Block
DEPT.FT            0 000 00 00: Depth
DCAL.in                       : CDL Caliper
RHOB.g/cc                     : CDL Bulk Density
RHOC.g/cc                     : CDL Density Correction
DPOR.pu                       : CDL Density Porosity
GR.GAPI                       : Gamma Ray
NPOR.pu                       : Neutron Porosity
~Parameter Information Block
~A  Depth       DCAL        RHOB        RHOC        DPOR         GR         NPOR    
# ...
   804.8000      7.9207      2.5919      0.1148      3.5205     47.0172     14.7223
   804.9000      7.9207      2.6131      0.1189      2.2355     48.0380     14.8957
   805.0000      7.9211      2.6101      0.1147      2.4176     45.9110     15.4606
   805.1000      7.9211      2.5826      0.0868      4.0865     45.2815     15.9489
   805.2000      7.9211      2.5588      0.0717      5.5295     45.2227     16.3939
   805.3000      7.9162      2.5557      0.0585      5.7143     42.7175     16.2716
   805.4000      7.9162      2.5589      0.0575      5.5210     38.3945     15.0957
   805.5000      7.9114      2.5510      0.0151      6.0020     34.4643     13.9615
   805.6000      7.9114      2.5343      0.0414      7.0105     32.0635     13.8971
   805.7000      7.9114      2.5223     -0.0146      7.7417     30.9954     14.6609
   805.8000      7.9167      2.5188      0.0431      7.9502     30.9151     15.4342
   805.9000      7.9167      2.5037      0.0807      8.8683     32.7022     15.9809
   806.0000      7.9338      2.4632     -0.0051     11.3197     36.0556     16.5251
   806.1000      7.9338      2.4223     -0.0079     13.7991     38.9868     16.8498
   806.2000      7.9338      2.4107     -0.0614     14.5042     40.1897     16.9808
   806.3000      7.9409      2.4312      0.0032     13.2592     40.0239     17.2334
   806.4000      7.9409      2.4617      0.0520     11.4092     39.9889     17.7347
   806.5000      7.9411      2.4794      0.0778     10.3382     41.3501     18.4245
   806.6000      7.9411      2.4835      0.0660     10.0931     41.4403     18.7912
   806.7000      7.9411      2.4867      0.0576      9.8948     38.3865     18.6163
   806.8000      7.9252      2.4965      0.0749      9.3035     35.5535     18.3810
   806.9000      7.9252      2.5083      0.0731      8.5854     35.1393     18.4571
   807.0000      7.9340      2.5096      0.0733      8.5091     36.4188     18.6809
   807.1000      7.9340      2.4971      0.0452      9.2659     37.1504     18.5121
   807.2000      7.9340      2.4906      0.0148      9.6588     36.5394     17.8082
   807.3000      7.9453      2.5102      0.0242      8.4716     36.9749     17.0986
   807.4000      7.9453      2.5427      0.1029      6.5028     37.2160     16.9168
   807.5000      7.9230      2.5603      0.0708      5.4342     34.7388     17.6356
   807.6000      7.9230      2.5637      0.0324      5.2318     33.0006     18.9671
   807.7000      7.9230      2.5679      0.0163      4.9753     34.1498     19.9704
   807.8000      7.9151      2.5704      0.0906      4.8247     34.9543     20.0108
   807.9000      7.9151      2.5613      0.0993      5.3762     34.4319     19.4273
   808.0000      7.9186      2.5478      0.0315      6.1909     35.7080     19.3493
   808.1000      7.9186      2.5355      0.0755      6.9415     38.9758     20.0808
   808.2000      7.9186      2.5181      0.0903      7.9913     41.4465     20.3951
   808.3000      7.9426      2.5059      0.0375      8.7351     42.1042     19.7811
   808.4000      7.9426      2.5081      0.0562      8.5989     41.9652     19.0915
   808.5000      7.9007      2.5115      0.0506      8.3952     41.7010     18.8932
   808.6000      7.9007      2.5080      0.0464      8.6069     42.8820     19.1216
   808.7000      7.9007      2.5026      0.0836      8.9317     47.6170     19.4804
   808.8000      7.9087      2.5010      0.0841      9.0303     54.2976     19.6123
   808.9000      7.9087      2.5152      0.0137      8.1723     58.2879     19.3518
   809.0000      7.9149      2.5486      0.0954      6.1431     58.1950     19.0010
   809.1000      7.9149      2.5748      0.1587      4.5547     55.4983     18.8685
   809.2000      7.9149      2.5722      0.1019      4.7134     51.9693     19.3111
   809.3000      7.8950      2.5563      0.0674      5.6794     50.6307     19.9705
   809.4000      7.8950      2.5513      0.1050      5.9845     50.0289     20.0762
   809.5000      7.8621      2.5633      0.0785      5.2516     48.4233     19.8978
   809.6000      7.8621      2.5709      0.1658      4.7958     49.0633     20.3431
   809.7000      7.8621      2.5539      0.0560      5.8251     50.5543     21.3299
   809.8000      7.8676      2.5347      0.0581      6.9873     49.2474     22.0740
   809.9000      7.8676      2.5367      0.0439      6.8687     48.7401     22.8013
   810.0000      7.8757      2.5519      0.0708      5.9450     52.7034     23.5966
   810.1000      7.8757      2.5561      0.0706      5.6892     57.4062     23.6696
   810.2000      7.8757      2.5224      0.0348      7.7337     59.0962     23.1425
   810.3000      7.8887      2.4408     -0.0103     12.6772     59.8689     22.5342
   810.4000      7.8887      2.3308     -0.0717     19.3465     60.9330     22.4408
   810.5000      7.9580      2.2131     -0.0337     26.4780     60.6921     23.6524
   810.6000      7.9580      2.0915     -0.0928     33.8490     58.5005     25.6751
   810.7000      7.9580      1.9650     -0.0677     41.5143     54.3042     27.0300
   810.8000      7.9501      1.8288     -0.0954     49.7706     50.9293     27.0764
   810.9000      7.9501      1.6828     -0.1419     58.6160     51.8182     26.8692
   811.0000      7.9641      1.5566     -0.2042     66.2637     53.8943     28.1820
   811.1000      7.9641      1.4996     -0.1681     69.7196     50.9037     30.7299
   811.2000      7.9641      1.5345     -0.0951     67.6063     43.6114     32.5327
   811.3000      7.9319      1.6326      0.0854     61.6587     38.3782     32.8211
   811.4000      7.9319      1.7427      0.1297     54.9894     36.7936     32.3788
   811.5000      7.9946      1.8469      0.0977     48.6709     37.3036     32.2627
   811.6000      7.9946      1.9608      0.1346     41.7702     39.6225     32.6548
   811.7000      7.9946      2.0818      0.2135     34.4362     43.1864     32.5258
   811.8000      8.1062      2.1848      0.1682     28.1958     48.6053     31.4508
   811.9000      8.1062      2.2510      0.1715     24.1805     56.3304     30.6864
   812.0000      8.1683      2.2843      0.0632     22.1610     64.0754     31.3100
   812.1000      8.1683      2.3091      0.0480     20.6586     69.7272     32.3316
   812.2000      8.1683      2.3373      0.0610     18.9545     75.1093     32.1096
   812.3000      8.0987      2.3628      0.0540     17.4031     83.1723     30.8575
   812.4000      8.0987      2.3864      0.0542     15.9763     90.2472     29.7855
   812.5000      8.0657      2.4084      0.0479     14.6415     93.0985     29.4813
   812.6000      8.0657      2.4209      0.0703     13.8832     94.8348     29.8991
   812.7000      8.0657      2.4189      0.0650     14.0082     95.8521     30.2817
   812.8000      8.0515      2.4140      0.0299     14.3017     95.6938     29.7776
   812.9000      8.0515      2.4260      0.0287     13.5731     96.3195     29.1010
   813.0000      8.0096      2.4493      0.0828     12.1640     95.1782     29.3853
   813.1000      8.0096      2.4561      0.1023     11.7514     91.1619     29.8633
   813.2000      8.0096      2.4450      0.0319     12.4269     89.3940     29.9070
   813.3000      7.9499      2.4405      0.0531     12.6990     90.5277     30.2616
   813.4000      7.9499      2.4504      0.0653     12.0976     90.8001     30.9241
   813.5000      7.9276      2.4655      0.0698     11.1837     90.9080     30.6246
   813.6000      7.9276      2.4790      0.0533     10.3614     91.7488     28.8103
   813.7000      7.9276      2.4874      0.0802      9.8534     92.0859     26.9467
   813.8000      7.9048      2.4929      0.0650      9.5208     92.4255     26.5955
   813.9000      7.9048      2.4988      0.0972      9.1648     94.2605     27.4091
   814.0000      7.9060      2.4914      0.1111      9.6149     98.1705     27.8619
   814.1000      7.9060      2.4603      0.0108     11.4966    102.2329     27.4207
   814.2000      7.9060      2.4244      0.0088     13.6721    103.4142     27.4293
   814.3000      7.9362      2.4051      0.0014     14.8453    101.1603     28.4948
