~Version Information
 VERS.                                  2.0 : CWLS LAS VERSION
 WRAP.                                   NO : WRAPING MODE
 SWARE .                 MController 2.5.0E : SOFTWARE VERSION
~Well Information
 WELL.                          Nomad 32-10 : WELL
 COMP.            EVERGREEN OPERATING CORP. : COMPANY
 FLD.                      PURGATOIRE RIVER : FIELD
 LOC.                    SW/NE 26 T32S R66W : LOCATION
 DATE.                              6/11/04 : DATE(S) LOGGED
 SRVC.       BLANCO GEOLOGICAL SERVICES LLC : SERVICE COMPANY
 STAT.                             COLORADO : STATE
 CNTY.                           LAS ANIMAS : COUNTY
 CTRY.                                  USA : COUNTRY
 API.                       05-071-08127-00 : API NUMBER
 STRT.FT                             446.00 : START DEPTH
 STOP.FT                            2455.00 : STOP DEPTH
 STEP.FT                               1.00 : DEPTH INCREMENT
 NULL.                                -9999 : NULL VALUE
~Curve information
 DEPTH.FT                                   :
 ROP.MIN/FT                                 :
 GAS.UNITS                                  :
~ASCII Log data
# ...
     1646.00        2.883        222.2 
     1647.00        0.100        195.9 
     1648.00        0.200        195.9 
     1649.00        0.167        193.1 
     1650.00        0.167        171.0 
     1651.00        0.133        164.0 
     1652.00        0.433        163.4 
     1653.00        0.367        157.1 
     1654.00        0.333        149.9 
     1655.00        0.367        153.8 
     1656.00        0.300        152.2 
     1657.00        0.333        151.9 
     1658.00        0.383        149.3 
     1659.00        0.400        144.8 
     1660.00        0.367        143.1 
     1661.00        0.300        141.5 
     1662.00        0.367        141.5 
     1663.00        0.300        140.1 
     1664.00        0.367        138.5 
     1665.00        0.300        151.6 
     1666.00        0.300        202.1 
     1667.00        0.333        236.5 
     1668.00        0.317        205.0 
     1669.00        0.367        157.8 
     1670.00        0.300        107.3 
     1671.00        0.333        102.2 
     1672.00        0.300         90.9 
     1673.00        0.233         97.4 
     1674.00        0.200        103.6 
     1675.00        0.233        133.3 
     1676.00        1.550        214.6 
     1677.00        0.267        221.1 
     1678.00        0.267        229.2 
     1679.00        0.267        221.2 
     1680.00        0.267        196.2 
     1681.00        0.200        172.3 
     1682.00        0.167        164.9 
     1683.00        0.300        177.2 
     1684.00        0.267        174.0 
     1685.00        0.233        171.8 
     1686.00        0.167        171.8 
     1687.00        0.267        167.9 
     1688.00        0.317        177.2 
     1689.00        0.300        180.4 
     1690.00        0.267        176.6 
     1691.00        0.267        172.5 
     1692.00        0.267        169.7 
     1693.00        0.233        165.5 
     1694.00        0.267        164.6 
     1695.00        0.267        165.3 
     1696.00        0.200        165.3 
     1697.00        0.267        163.6 
     1698.00        0.267        157.9 
     1699.00        0.267        157.5 
     1700.00        0.267        161.1 
     1701.00        0.283        164.2 
     1702.00        0.267        169.0 
     1703.00        0.267        162.3 
     1704.00        0.267        153.9 
     1705.00        0.267        138.0 
     1706.00        7.700        264.2 
     1707.00        0.600        187.1 
     1708.00        0.450        159.8 
     1709.00        0.633        137.8 
     1710.00        0.067        123.2 
     1711.00        0.433        142.4 
     1712.00        0.367        163.0 
     1713.00        0.300        165.6 
     1714.00        0.300        161.7 
     1715.00        0.267        160.9 
     1716.00        0.233        164.0 
     1717.00        0.233        164.5 
     1718.00        0.333        162.4 
     1719.00        0.383        170.7 
     1720.00        0.367        176.8 
     1721.00        0.267        176.2 
     1722.00        0.267        145.9 
     1723.00        0.300        144.8 
     1724.00        0.367        164.0 
     1725.00        0.267        222.4 
     1726.00        0.233        284.4 
     1727.00        0.233        268.3 
     1728.00        0.233        253.3 
     1729.00        0.233        172.2 
     1730.00        0.167        172.2 
     1731.00        0.183        161.5 
     1732.00        0.200        160.9 
     1733.00        0.167        160.9 
     1734.00        0.133        166.8 
     1735.00        0.267        178.7 
     1736.00        6.533        267.2 
     1737.00        0.233        193.4 
     1738.00        0.433        172.7 
     1739.00        0.200        157.9 
     1740.00        0.167        157.9 
     1741.00        0.167        156.7 
     1742.00        0.400        164.4 
     1743.00        0.667        203.3 
     1744.00        0.433        204.4 
     1745.00        0.283        210.3 
     1746.00        0.333        213.0 
     1747.00        0.300        211.0 
     1748.00        0.567        205.4 
     1749.00        0.600        209.9 
     1750.00        0.533        193.8 
     1751.00        0.467        183.7 
     1752.00        0.350        193.7 
     1753.00        0.367        218.2 
     1754.00        0.367        232.0 
     1755.00        0.200        232.0 
     1756.00        0.200        197.8 
     1757.00        0.367        147.8 
     1758.00        0.200        111.2 
     1759.00        0.200         97.3 
     1760.00        0.167         90.9 
     1761.00        0.300         91.2 
     1762.00        0.200         91.2 
     1763.00        0.200        138.9 
     1764.00        0.167        138.9 
     1765.00        0.167        171.4 
     1766.00        2.850        229.0 
     1767.00        0.133        190.4 
     1768.00        0.500        187.6 
     1769.00        0.083        147.2 
     1770.00        0.633        144.0 
     1771.00        0.500        148.5 
     1772.00        0.267        152.2 
     1773.00        0.233        152.0 
     1774.00        0.233        154.6 
     1775.00        0.333        152.3 
     1776.00        0.300        152.2 
     1777.00        0.233        151.8 
     1778.00        0.267        135.5 
     1779.00        0.683        134.2 
     1780.00        0.233        126.1 
     1781.00        0.600        139.2 
     1782.00        0.400        144.0 
     1783.00        0.300        148.0 
     1784.00        0.267        146.6 
     1785.00        0.233        145.1 
     1786.00        0.267        157.5 
     1787.00        0.300        204.7 
     1788.00        0.300        223.5 
     1789.00        0.283        183.2 
     1790.00        0.300        142.1 
     1791.00        0.233        127.7 
     1792.00        0.267        119.0 
     1793.00        0.267         82.8 
     1794.00        0.233         78.3 
     1795.00        0.300         84.3 
     1796.00        2.950        211.2 
     1797.00        0.167        186.5 
     1798.00        0.800        181.1 
     1799.00        0.433        153.1 
     1800.00        0.267        156.8 
     1801.00        0.317        158.1 
     1802.00        0.300        156.0 
     1803.00        0.267        157.7 
     1804.00        0.267        162.2 
     1805.00        0.267        162.5 
     1806.00        0.300        159.4 
     1807.00        0.300        158.1 
     1808.00        0.267        156.4 
     1809.00        0.200        157.3 
     1810.00        0.267        159.9 
     1811.00        0.267        157.0 
     1812.00        0.200        156.2 
     1813.00        0.267        153.3 
     1814.00        0.283        150.1 
     1815.00        0.233        158.8 
     1816.00        0.200        158.8 
     1817.00        0.233        216.1 
     1818.00        0.267        238.9 
     1819.00        0.267        200.0 
     1820.00        0.300        154.2 
     1821.00        0.267        125.4 
     1822.00        0.267        103.7 
     1823.00        0.267         87.8 
     1824.00        0.233         83.5 
     1825.00        0.300         80.4 
     1826.00        3.683        166.7 
     1827.00        0.117        166.7 
     1828.00        0.100        160.8 
     1829.00        0.600        154.3 
     1830.00        0.633        138.3 
     1831.00        0.467        129.5 
     1832.00        0.400        126.0 
     1833.00        0.367        129.2 
     1834.00        0.467        135.4 
     1835.00        0.450        136.7 
     1836.00        0.333        136.1 
     1837.00        0.267        136.7 
     1838.00        0.400        143.4 
     1839.00        0.400        145.5 
     1840.00        0.267        140.4 
     1841.00        0.300        138.2 
     1842.00        0.400        135.8 
     1843.00        0.333        135.7 
     1844.00        0.400        134.5 
     1845.00        0.550        153.1 
