~Version Information
VERS.                      2.0: CWLS Log ASCII Standard - VERSION 2.0
WRAP.                       NO: One line per depth step
~Well Information Block
STRT.FT               425.0000: 
STOP.FT              2461.0000: 
STEP.FT                 0.2500: 
NULL.                -999.2500: 
COMP.          Evergreen Operating Corporation: COMPANY
WELL.              Nomad 32-10: WELL
FLD.           Purgatorie River: FIELD
LOC.           2281' FNL & 1585' FEL: LOCATION
PROV.                 Colorado: PROVINCE
CNTY.               Las Animas: COUNTRY
SRVC.                Patterson: SERVICE COMPANY
DATE.          Thu Aug 12 02:01:07 2004: LOG DATE
UWI.           05 071 08127 00: UNIQUE WELL ID
~Curve Information Block
DEPT.FT            0 000 00 00: Depth
SN.Ohm-m                      : IEL Short Normal
SP.mV                         : IEL Spontaneous Potential
DIR.Ohm-m                     : IEL Induction Resistivity
GR.GAPI                       : Gamma Ray
~Parameter Information Block
~A  Depth        SN          SP         DIR          GR     
# ...
  1899.0000      9.6164    137.7576      8.4532    106.5875
  1899.2500     10.1348    137.9406      8.6816    105.9937
  1899.5000     10.6265    138.1000      8.8672    104.1523
  1899.7500     11.0755    138.1533      9.0057    102.7190
  1900.0000     11.4141    138.0677      9.1058    101.0204
  1900.2500     11.5522    137.8844      9.1843    100.4575
  1900.5000     11.4559    137.6905      9.2567    100.9052
  1900.7500     11.1710    137.5691      9.3314    102.3991
  1901.0000     10.7666    137.5654      9.4094    106.7693
  1901.2500     10.3031    137.6800      9.4873    110.7886
  1901.5000      9.8463    137.8826      9.5601    116.8460
  1901.7500      9.4788    138.1298      9.6227    119.7300
  1902.0000      9.2934    138.3752      9.6693    121.3643
  1902.2500      9.3685    138.5759      9.6926    121.1199
  1902.5000      9.7042    138.7058      9.6851    120.5937
  1902.7500     10.1693    138.7670      9.6416    121.0206
  1903.0000     10.5597    138.7823      9.5615    122.9969
  1903.2500     10.7382    138.7732      9.4498    124.5053
  1903.5000     10.7121    138.7450      9.3161    125.2979
  1903.7500     10.6034    138.6922      9.1721    124.1577
  1904.0000     10.5521    138.6150      9.0295    120.3030
  1904.2500     10.6159    138.5297      8.8982    117.3941
  1904.5000     10.7487    138.4626      8.7850    114.6334
  1904.7500     10.8620    138.4354      8.6935    114.4425
  1905.0000     10.8756    138.4534      8.6238    116.2075
  1905.2500     10.7342    138.5027      8.5739    118.0911
  1905.5000     10.4183    138.5613      8.5401    120.6753
  1905.7500      9.9576    138.6167      8.5186    121.4969
  1906.0000      9.4404    138.6750      8.5059    120.7906
  1906.2500      8.9900    138.7522      8.4987    119.4208
  1906.5000      8.7194    138.8546      8.4923    117.3910
  1906.7500      8.7001    138.9671      8.4791    116.5242
  1907.0000      8.9312    139.0591      8.4488    115.6754
  1907.2500      9.3052    139.1046      8.3912    115.0034
  1907.5000      9.6158    139.1005      8.2998    113.5687
  1907.7500      9.6429    139.0695      8.1746    112.4011
  1908.0000      9.2818    139.0479      8.0214    110.2514
  1908.2500      8.6259    139.0697      7.8505    108.3500
  1908.5000      7.9299    139.1561      7.6737    104.9627
  1908.7500      7.4639    139.3095      7.5022    103.0452
  1909.0000      7.3740    139.5108      7.3447    102.2807
  1909.2500      7.6152    139.7243      7.2055    103.5719
  1909.5000      7.9641    139.9152      7.0852    107.1188
  1909.7500      8.1668    140.0686      6.9818    109.2806
  1910.0000      8.1155    140.1957      6.8926    110.7449
  1910.2500      7.8604    140.3228      6.8149    110.7196
  1910.5000      7.5281    140.4777      6.7472    110.6344
  1910.7500      7.2710    140.6796      6.6887    111.1435
  1911.0000      7.2040    140.9292      6.6381    112.3575
  1911.2500      7.3398    141.1976      6.5939    112.7603
  1911.5000      7.6069    141.4282      6.5546    112.2138
  1911.7500      7.9075    141.5614      6.5196    111.5355
  1912.0000      8.1390    141.5721      6.4899    111.3539
  1912.2500      8.2120    141.4962      6.4670    112.1997
  1912.5000      8.0797    141.4196      6.4518    114.6167
  1912.7500      7.7559    141.4233      6.4439    116.4883
  1913.0000      7.3120    141.5247      6.4425    118.8516
  1913.2500      6.8575    141.6669      6.4464    119.8402
  1913.5000      6.4966    141.7686      6.4549    120.4161
  1913.7500      6.2948    141.7889      6.4677    120.3841
  1914.0000      6.2923    141.7493      6.4852    119.8443
  1914.2500      6.5107    141.7037      6.5079    118.9339
  1914.5000      6.9030    141.6957      6.5357    116.4161
  1914.7500      7.3268    141.7379      6.5675    114.2505
  1915.0000      7.6205    141.8175      6.6006    111.4078
  1915.2500      7.6975    141.9125      6.6315    110.3589
  1915.5000      7.5553    142.0046      6.6566    110.3545
  1915.7500      7.2619    142.0820      6.6740    111.1842
  1916.0000      6.9529    142.1371      6.6852    112.8789
  1916.2500      6.7794    142.1646      6.6958    113.8168
  1916.5000      6.8277    142.1641      6.7135    114.5340
  1916.7500      7.0775    142.1419      6.7449    114.6961
  1917.0000      7.4261    142.1090      6.7933    115.0203
  1917.2500      7.7577    142.0757      6.8590    115.4603
  1917.5000      8.0056    142.0486      6.9411    116.2681
  1917.7500      8.1648    142.0306      7.0389    116.7268
  1918.0000      8.2632    142.0209      7.1519    117.3047
  1918.2500      8.3253    142.0184      7.2804    117.7282
  1918.5000      8.3708    142.0269      7.4244    118.3792
  1918.7500      8.4306    142.0538      7.5836    118.6436
  1919.0000      8.5285    142.0978      7.7576    118.6203
  1919.2500      8.6411    142.1384      7.9452    118.4429
  1919.5000      8.6990    142.1462      8.1447    118.2688
  1919.7500      8.6282    142.1067      8.3545    118.3708
  1920.0000      8.4014    142.0352      8.5723    118.9463
  1920.2500      8.0806    141.9683      8.7953    119.4072
  1920.5000      7.8211    141.9404      9.0183    119.3744
  1920.7500      7.8147    141.9659      9.2341    118.5110
  1921.0000      8.2071    142.0337      9.4326    116.2952
  1921.2500      9.0165    142.1126      9.6026    114.7361
  1921.5000     10.0785    142.1658      9.7337    112.7520
  1921.7500     11.1103    142.1709      9.8184    111.5566
  1922.0000     11.8702    142.1347      9.8547    109.6192
  1922.2500     12.2547    142.0880      9.8470    108.2060
  1922.5000     12.2959    142.0628      9.8066    106.2436
  1922.7500     12.1018    142.0725      9.7501    105.4203
  1923.0000     11.7827    142.1110      9.6947    105.6739
  1923.2500     11.4080    142.1598      9.6530    107.1001
  1923.5000     11.0231    142.1927      9.6299    110.7466
  1923.7500     10.6873    142.1774      9.6225    113.4399
  1924.0000     10.4605    142.0874      9.6245    116.5420
  1924.2500     10.3577    141.9188      9.6327    117.7266
  1924.5000     10.3450    141.6962      9.6525    118.5967
  1924.7500     10.3820    141.4592      9.6977    118.7808
  1925.0000     10.4611    141.2444      9.7840    118.2220
  1925.2500     10.6239    141.0792      9.9235    117.0519
  1925.5000     10.9242    140.9852     10.1232    114.1873
  1925.7500     11.3779    140.9720     10.3887    112.0007
  1926.0000     11.9798    141.0216     10.7272    109.4710
  1926.2500     12.7188    141.0867     11.1465    108.7729
  1926.5000     13.5386    141.1158     11.6503    109.0766
  1926.7500     14.3434    141.0838     12.2337    109.5987
  1927.0000     15.0713    141.0006     12.8821    109.7970
  1927.2500     15.7350    140.8882     13.5741    109.2505
  1927.5000     16.3894    140.7518     14.2875    107.4831
  1927.7500     17.0697    140.5696     15.0013    105.7139
  1928.0000     17.7667    140.3183     15.6934    101.7218
  1928.2500     18.4486    140.0137     16.3366     97.8240
  1928.5000     19.0736    139.7231     16.8970     90.4889
  1928.7500     19.5869    139.5248     17.3397     85.5432
  1929.0000     19.9352    139.4485     17.6395     79.8290
  1929.2500     20.1029    139.4566     17.7893     77.6849
  1929.5000     20.1378    139.4813     17.7989     76.9550
  1929.7500     20.0987    139.4770     17.6847     77.9462
  1930.0000     19.9763    139.4416     17.4583     81.4023
  1930.2500     19.7261    139.3986     17.1217     84.7646
  1930.5000     19.3339    139.3661     16.6719     90.4719
  1930.7500     18.7694    139.3458     16.1105     94.0565
  1931.0000     17.9698    139.3413     15.4543     98.4139
  1931.2500     16.9399    139.3849     14.7375    100.6485
  1931.5000     15.7853    139.5403     14.0062    103.4309
  1931.7500     14.6426    139.8697     13.3044    105.1363
  1932.0000     13.6369    140.3815     12.6623    107.5165
  1932.2500     12.8736    141.0040     12.0921    108.8891
