~Version Information
VERS.                      2.0: CWLS Log ASCII Standard - VERSION 2.0
WRAP.                       NO: One line per depth step
~Well Information Block
STRT.FT               533.0000: 
STOP.FT              1578.0000: 
STEP.FT                 0.2500: 
NULL.                -999.2500: 
COMP.          Pioneer Natural Resources: COMPANY
WELL.           Telna 24-22 Tr: WELL
FLD.           Purgatoire River: FIELD
LOC.           748' FSL & 1931' FWL: LOCATION
PROV.                 Colorado: PROVINCE
CNTY.               Las Animas: COUNTRY
SRVC.                Patterson: SERVICE COMPANY
DATE.          Sun May 01 14:14:42 2005: LOG DATE
UWI.           05 071 08304 00: UNIQUE WELL ID
~Curve Information Block
DEPT.FT            0 000 00 00: Depth
SN.Ohm-m                      : IEL Short Normal
SP.mV                         : IEL Spontaneous Potential
DIR.Ohm-m                     : IEL Induction Resistivity
GR.GAPI                       : Gamma Ray
~Parameter Information Block
~A  Depth        SN          SP         DIR          GR     
# ...
  1337.0000      8.1231     35.5909      7.0029    130.1242
  1337.2500      8.2154     35.3331      7.0902    128.8608
  1337.5000      8.2884     35.0168      7.1998    125.8378
  1337.7500      8.4012     34.6170      7.3434    123.3632
  1338.0000      8.5520     34.1182      7.5349    120.1744
  1338.2500      8.7091     33.5106      7.7880    119.0199
  1338.5000      8.8782     32.7834      8.1131    118.8969
  1338.7500      9.1127     31.9270      8.5147    119.2526
  1339.0000      9.4635     30.9443      8.9906    118.2891
  1339.2500      9.9238     29.8598      9.5322    115.2323
  1339.5000     10.4486     28.7187     10.1264    105.5592
  1339.7500     11.0933     27.5769     10.7584     95.9388
  1340.0000     12.1248     26.4913     11.4162     79.0351
  1340.2500     13.9782     25.5116     12.0977     68.0554
  1340.5000     17.1753     24.6745     12.8180     55.0048
  1340.7500     22.0945     24.0001     13.6095     49.6091
  1341.0000     28.4344     23.4941     14.5158     46.9445
  1341.2500     34.8962     23.1506     15.5783     48.6342
  1341.5000     39.7466     22.9537     16.8207     55.8838
  1341.7500     41.9317     22.8848     18.2282     63.3606
  1342.0000     41.6438     22.9316     19.7312     76.7781
  1342.2500     39.7990     23.0866     21.2072     85.6399
  1342.5000     37.2217     23.3272     22.5129     96.2181
  1342.7500     34.4856     23.6022     23.5299    100.6156
  1343.0000     32.0833     23.8471     24.1899    103.3196
  1343.2500     30.2973     24.0210     24.4739    103.2432
  1343.5000     29.0517     24.1246     24.4154    101.9777
  1343.7500     28.0880     24.1842     24.1087    101.2676
  1344.0000     27.2293     24.2215     23.6902    101.3214
  1344.2500     26.4499     24.2418     23.2795    102.1376
  1344.5000     25.7683     24.2445     22.9249    103.9024
  1344.7500     25.1484     24.2378     22.5967    104.8920
  1345.0000     24.5323     24.2408     22.2389    105.2214
  1345.2500     23.9281     24.2714     21.8352    104.4126
  1345.5000     23.4230     24.3325     21.4352    101.9680
  1345.7500     23.0985     24.4075     21.1180    100.0570
  1346.0000     22.9522     24.4700     20.9363     97.7002
  1346.2500     22.9099     24.4998     20.8899     96.7584
  1346.5000     22.8564     24.4962     20.9333     96.3199
  1346.7500     22.6644     24.4778     21.0057     96.5202
  1347.0000     22.3050     24.4658     21.0564     97.1701
  1347.2500     21.9250     24.4625     21.0561     97.6609
  1347.5000     21.6919     24.4455     20.9933     98.5939
  1347.7500     21.5978     24.3829     20.8680     99.7287
  1348.0000     21.5166     24.2552     20.6926    102.8866
  1348.2500     21.3849     24.0661     20.4935    105.8317
  1348.5000     21.2516     23.8353     20.3083    109.9805
  1348.7500     21.1766     23.5846     20.1734    111.4029
  1349.0000     21.1600     23.3290     20.1123    110.4861
  1349.2500     21.1626     23.0747     20.1289    108.1026
  1349.5000     21.1433     22.8224     20.2095    103.1524
  1349.7500     21.0918     22.5740     20.3307     99.6551
  1350.0000     21.0428     22.3394     20.4689     94.9905
  1350.2500     21.0414     22.1361     20.6053     92.7478
  1350.5000     21.0908     21.9800     20.7247     91.5281
  1350.7500     21.1505     21.8767     20.8155     92.3156
  1351.0000     21.1810     21.8213     20.8763     95.1307
  1351.2500     21.1754     21.8060     20.9259     97.3711
  1351.5000     21.1572     21.8238     21.0053    100.9170
  1351.7500     21.1688     21.8660     21.1607    104.0306
  1352.0000     21.2612     21.9196     21.4164    111.6121
  1352.2500     21.4548     21.9720     21.7517    119.4491
  1352.5000     21.7044     22.0175     22.1017    135.7379
  1352.7500     21.9369     22.0577     22.3895    148.9275
  1353.0000     22.1139     22.0996     22.5717    169.0879
  1353.2500     22.2403     22.1530     22.6589    179.9856
  1353.5000     22.3332     22.2245     22.6943    187.6080
  1353.7500     22.4215     22.3077     22.7142    185.1602
  1354.0000     22.5294     22.3859     22.7261    170.8576
  1354.2500     22.6075     22.4464     22.7170    156.6935
  1354.5000     22.5851     22.4909     22.6773    134.4251
  1354.7500     22.5172     22.5317     22.6237    121.8041
  1355.0000     22.5440     22.5841     22.6019    108.2548
  1355.2500     22.7265     22.6613     22.6660    102.4429
  1355.5000     23.0009     22.7696     22.8462     97.0728
  1355.7500     23.2581     22.8979     23.1222     95.1324
  1356.0000     23.4399     23.0097     23.4144     94.2448
  1356.2500     23.5518     23.0473     23.6018     94.7906
  1356.5000     23.5925     22.9543     23.5678     96.7122
  1356.7500     23.5259     22.7013     23.2604     98.3422
  1357.0000     23.3183     22.2970     22.7224    101.0180
  1357.2500     22.9469     21.7816     22.0624    103.1486
  1357.5000     22.3999     21.2084     21.3948    107.7629
  1357.7500     21.6982     20.6270     20.7991    112.4080
  1358.0000     20.8657     20.0732     20.3162    122.1535
  1358.2500     19.8843     19.5703     19.9601    129.9445
  1358.5000     18.7493     19.1341     19.7256    141.1025
  1358.7500     17.5857     18.7785     19.5846    146.3899
  1359.0000     16.6409     18.5125     19.4852    149.1460
  1359.2500     16.1380     18.3309     19.3651    147.7667
  1359.5000     16.1697     18.2074     19.1786    143.3066
  1359.7500     16.6748     18.1009     18.9214    140.4641
  1360.0000     17.4207     17.9716     18.6330    138.4033
  1360.2500     18.0776     17.7981     18.3741    138.8824
  1360.5000     18.4396     17.5883     18.1996    141.9506
  1360.7500     18.5345     17.3774     18.1416    144.8395
  1361.0000     18.5031     17.2102     18.2070    148.6462
  1361.2500     18.4612     17.1153     18.3833    149.7459
  1361.5000     18.4713     17.0901     18.6481    147.9819
  1361.7500     18.5767     17.1079     18.9763    144.3668
  1362.0000     18.8225     17.1389     19.3426    135.8726
  1362.2500     19.2209     17.1673     19.7212    128.7530
  1362.5000     19.7446     17.1917     20.0912    117.0004
  1362.7500     20.3620     17.2175     20.4441    109.1952
  1363.0000     21.0326     17.2502     20.7917     99.0574
  1363.2500     21.7055     17.2926     21.1656     94.1287
  1363.5000     22.3363     17.3411     21.6058     89.8693
  1363.7500     22.8859     17.3867     22.1455     88.6344
  1364.0000     23.3383     17.4239     22.7981     87.7134
  1364.2500     23.7275     17.4597     23.5553     87.0067
  1364.5000     24.1219     17.5154     24.3948     85.3332
  1364.7500     24.5808     17.6221     25.2922     83.8567
  1365.0000     25.1315     17.8113     26.2257     81.4143
  1365.2500     25.7805     18.1001     27.1679     79.9637
  1365.5000     26.5226     18.4790     28.0686     78.9250
  1365.7500     27.3196     18.9074     28.8474     79.4345
  1366.0000     28.0925     19.3228     29.4126     81.9062
  1366.2500     28.7734     19.6593     29.7047     84.0870
  1366.5000     29.3769     19.8740     29.7261     87.1443
  1366.7500     29.9880     19.9687     29.5270     89.0604
  1367.0000     30.6219     19.9900     29.1659     92.8814
  1367.2500     31.1286     20.0038     28.6854     96.8195
  1367.5000     31.2971     20.0590     28.1195    105.2893
  1367.7500     31.0054     20.1660     27.5100    112.2898
  1368.0000     30.2767     20.3042     26.9065    123.5207
  1368.2500     29.2342     20.4513     26.3521    130.6372
  1368.5000     27.9894     20.6052     25.8654    139.4471
  1368.7500     26.6165     20.7830     25.4336    143.4898
  1369.0000     25.2251     21.0048     25.0113    146.2315
  1369.2500     23.9654     21.2775     24.5311    145.7817
  1369.5000     22.9556     21.5866     23.9322    141.9939
  1369.7500     22.2397     21.8955     23.1974    137.8575
  1370.0000     21.8006     22.1582     22.3708    130.7615
  1370.2500     21.5776     22.3436     21.5350    126.7214
