~Version Information
VERS.                      2.0: CWLS Log ASCII Standard - VERSION 2.0
WRAP.                       NO: One line per depth step
~Well Information Block
STRT.FT               840.0000: 
STOP.FT              2266.0000: 
STEP.FT                 0.1000: 
NULL.                -999.2500: 
COMP.          Pioneer Natural Resources: COMPANY
WELL.              Tonto 42-23: WELL
FLD.           Purgatoire River: FIELD
LOC.           2217' FNL & 423' FEL: LOCATION
PROV.                 Colorado: PROVINCE
CNTY.               Las Animas: COUNTRY
SRVC.                Patterson: SERVICE COMPANY
DATE.          Mon Apr 18 07:15:48 2005: LOG DATE
UWI.           05 071 08335 00: UNIQUE WELL ID
~Curve Information Block
DEPT.FT            0 000 00 00: Depth
DCAL.in                       : CDL Caliper
RHOB.g/cc                     : CDL Bulk Density
RHOC.g/cc                     : CDL Density Correction
DPOR.pu                       : CDL Density Porosity
GR.GAPI                       : Gamma Ray
NPOR.pu                       : Neutron Porosity
~Parameter Information Block
~A  Depth       DCAL        RHOB        RHOC        DPOR         GR         NPOR    
# ...
  1214.4000      8.0714      2.4785      0.0208     10.3949     55.2477     23.1515
  1214.5000      8.0620      2.4615      0.0511     11.4265     53.0565     22.0381
  1214.6000      8.0620      2.4526      0.0327     11.9608     51.1013     22.0029
  1214.7000      8.0620      2.4494      0.0357     12.1600     49.7038     22.2124
  1214.8000      8.0370      2.4546      0.0652     11.8402     51.1215     22.4376
  1214.9000      8.0370      2.4545      0.0695     11.8477     54.2689     23.5664
  1215.0000      8.0248      2.4380     -0.0046     12.8472     54.9448     25.1243
  1215.1000      8.0248      2.4265     -0.0083     13.5434     53.8299     25.6430
  1215.2000      8.0248      2.4368      0.0382     12.9210     54.1168     25.2891
  1215.3000      8.0202      2.4528      0.0373     11.9516     56.9615     25.1066
  1215.4000      8.0202      2.4541      0.0481     11.8729     61.1118     25.2008
  1215.5000      8.0274      2.4444      0.0439     12.4604     64.7001     25.2605
  1215.6000      8.0274      2.4315      0.0771     13.2412     66.2488     25.6756
  1215.7000      8.0274      2.4092      0.0236     14.5960     64.6463     26.4177
  1215.8000      8.0408      2.3868     -0.0065     15.9544     61.9364     26.5447
  1215.9000      8.0408      2.3869     -0.0005     15.9436     60.5945     26.2095
  1216.0000      8.0492      2.4010      0.0581     15.0931     58.7666     26.3767
  1216.1000      8.0492      2.4036      0.0155     14.9360     53.1241     26.9657
  1216.2000      8.0492      2.3978      0.0140     15.2831     45.0615     27.0027
  1216.3000      8.0478      2.3934      0.0718     15.5518     40.4515     26.1707
  1216.4000      8.0478      2.3884      0.0416     15.8564     42.8389     25.3718
  1216.5000      8.0150      2.3925      0.0303     15.6076     49.0741     25.4308
  1216.6000      8.0150      2.4176      0.0160     14.0822     53.6200     25.7724
  1216.7000      8.0150      2.4572      0.0531     11.6862     54.7151     25.1868
  1216.8000      7.9932      2.4873      0.1035      9.8593     53.1146     23.7469
  1216.9000      7.9932      2.4937      0.0737      9.4713     51.3485     22.5838
  1217.0000      7.9755      2.4922      0.0647      9.5624     51.4500     22.1252
  1217.1000      7.9755      2.5003      0.0424      9.0736     52.1361     21.8749
  1217.2000      7.9755      2.5083      0.0991      8.5903     53.2094     21.3126
  1217.3000      7.9744      2.4971      0.0800      9.2671     56.1266     20.8219
  1217.4000      7.9744      2.4729      0.0263     10.7345     58.7057     20.8721
  1217.5000      7.9914      2.4593      0.0252     11.5583     58.8893     21.1423
  1217.6000      7.9914      2.4596      0.0424     11.5411     58.5002     20.9558
  1217.7000      7.9914      2.4588      0.0195     11.5897     58.3598     20.4386
  1217.8000      8.0172      2.4510     -0.0026     12.0597     56.3721     20.0589
  1217.9000      8.0172      2.4404     -0.0121     12.7016     52.1203     19.4385
  1218.0000      8.0285      2.4344     -0.0015     13.0660     48.1655     18.4943
  1218.1000      8.0285      2.4351      0.0031     13.0255     47.0314     17.9779
  1218.2000      8.0285      2.4382     -0.0059     12.8336     50.2038     18.1460
  1218.3000      8.0446      2.4425      0.0105     12.5736     55.8697     18.6534
  1218.4000      8.0446      2.4518     -0.0020     12.0143     58.9332     19.3917
  1218.5000      8.0676      2.4772     -0.0156     10.4746     57.1182     20.6039
  1218.6000      8.0676      2.5163      0.0876      8.1043     53.4929     22.0031
  1218.7000      8.0676      2.5397      0.0882      6.6860     52.3002     22.6255
  1218.8000      8.0682      2.5286      0.0461      7.3595     53.5857     22.2514
  1218.9000      8.0682      2.4936      0.0425      9.4777     55.2919     21.5516
  1219.0000      8.0893      2.4599      0.0266     11.5221     56.6681     21.0978
  1219.1000      8.0893      2.4505      0.0105     12.0924     57.5347     21.0697
  1219.2000      8.0893      2.4610      0.0384     11.4538     58.5381     21.6312
  1219.3000      8.0766      2.4658      0.0591     11.1655     58.7976     22.4374
  1219.4000      8.0766      2.4579     -0.0285     11.6444     56.7105     22.7893
  1219.5000      8.0707      2.4494      0.0086     12.1551     53.2996     22.9280
  1219.6000      8.0707      2.4429     -0.0160     12.5541     50.5630     23.4661
  1219.7000      8.0707      2.4416     -0.0246     12.6324     50.7597     23.9268
  1219.8000      8.0891      2.4486      0.0074     12.2042     55.2873     23.5938
  1219.9000      8.0891      2.4520      0.0133     12.0024     60.4740     23.0371
  1220.0000      8.0910      2.4487     -0.0247     12.1976     61.8368     22.9860
  1220.1000      8.0910      2.4449      0.0028     12.4320     61.4636     23.0186
  1220.2000      8.0910      2.4311      0.0176     13.2695     63.1907     22.8142
  1220.3000      8.1086      2.4050      0.0112     14.8513     66.7637     22.8321
  1220.4000      8.1086      2.3907     -0.0113     15.7169     70.2256     23.4317
  1220.5000      8.0981      2.4112     -0.0103     14.4713     73.0212     24.0294
  1220.6000      8.0981      2.4604      0.0071     11.4896     75.5294     24.2027
  1220.7000      8.0981      2.5081      0.0372      8.6005     78.2595     24.6066
  1220.8000      8.0418      2.5365      0.0380      6.8795     80.9885     25.3971
  1220.9000      8.0418      2.5616      0.0450      5.3606     83.7800     25.5999
  1221.0000      8.0244      2.6012      0.0697      2.9580     86.6724     24.8260
  1221.1000      8.0244      2.6484      0.0951      0.0986     88.8002     24.3426
  1221.2000      8.0244      2.6826      0.1346     -1.9762     88.8921     24.8336
  1221.3000      8.0105      2.6836      0.0989     -2.0367     86.8559     25.1830
  1221.4000      8.0105      2.6623      0.0008     -0.7457     84.6896     24.6674
  1221.5000      8.0035      2.6649      0.0067     -0.9024     85.5116     23.6430
  1221.6000      8.0035      2.7034      0.0941     -3.2337     89.3713     22.6132
  1221.7000      8.0035      2.7410      0.0535     -5.5172     92.5338     22.1817
  1221.8000      8.0016      2.7654      0.0645     -6.9953     92.6589     22.6522
  1221.9000      8.0016      2.7891      0.0865     -8.4306     90.1531     23.5207
  1222.0000      7.9053      2.8013      0.1148     -9.1677     86.0174     23.7757
  1222.1000      7.9053      2.7842      0.0628     -8.1350     82.5089     23.3025
  1222.2000      7.9053      2.7485      0.0239     -5.9667     81.1438     22.9404
  1222.3000      7.8873      2.7191      0.0452     -4.1865     82.0422     22.8783
  1222.4000      7.8873      2.7090     -0.0225     -3.5739     85.3573     22.4106
  1222.5000      7.9028      2.7121      0.0258     -3.7636     88.0042     21.5092
  1222.6000      7.9028      2.7119      0.0005     -3.7493     85.7924     20.9501
  1222.7000      7.9028      2.7034     -0.0128     -3.2393     81.9741     20.7685
  1222.8000      7.9296      2.6909      0.0048     -2.4800     82.8174     20.5749
  1222.9000      7.9296      2.6841     -0.0761     -2.0672     89.5486     20.5200
  1223.0000      7.9410      2.6896      0.0141     -2.4004     99.3395     21.1657
  1223.1000      7.9410      2.7025     -0.0269     -3.1818    106.5708     22.4256
  1223.2000      7.9410      2.7169      0.0603     -4.0563    105.9474     23.4141
  1223.3000      7.9426      2.7214      0.0037     -4.3300     99.8050     23.3859
  1223.4000      7.9426      2.6989      0.0093     -2.9626     94.8523     22.5330
  1223.5000      7.9348      2.6576     -0.0750     -0.4581     93.6306     21.9791
  1223.6000      7.9348      2.6447     -0.0412      0.3187     94.1264     22.4651
  1223.7000      7.9348      2.6694      0.0451     -1.1777     92.3333     23.3442
  1223.8000      7.9481      2.6873      0.0236     -2.2608     89.7972     23.8045
  1223.9000      7.9481      2.6815     -0.0009     -1.9117     91.6209     23.5366
