~Version Information
 VERS.                                  2.0 : CWLS LAS VERSION
 WRAP.                                   NO : WRAPING MODE
 SWARE .                 MController 2.5.0E : SOFTWARE VERSION
~Well Information
 WELL.                            Eric 42-9 : WELL
 COMP.         Pioneer Natural Resources Inc: COMPANY
 FLD.                      Purgatorie River : FIELD
 LOC.                 SE/NE Sec 9 T32S R65W : LOCATION
 DATE.                            10/310/04 : DATE(S) LOGGED
 SRVC.       Blanco Geological Services LLC : SERVICE COMPANY
 STAT.                                   CO : STATE
 CNTY.                           Las Animas : COUNTY
 CTRY.                                  USA : COUNTRY
 API.                       05-071-07999-00 : API NUMBER
 STRT.FT                             346.00 : START DEPTH
 STOP.FT                            1616.00 : STOP DEPTH
 STEP.FT                               1.00 : DEPTH INCREMENT
 NULL.                                -9999 : NULL VALUE
~Curve information
 DEPTH.FT                                   :
 ROP.MIN/FT                                 :
 GAS.UNITS                                  :
~ASCII Log data
# ...
      946.00        0.167          9.2 
      947.00        0.167         15.8 
      948.00        0.200         36.4 
      949.00        0.200         64.9 
      950.00        0.167         96.5 
      951.00        0.133        121.2 
      952.00        0.167        164.5 
      953.00        0.167        207.4 
      954.00        0.133        226.1 
      955.00        0.200        245.3 
      956.00        3.117        305.6 
      957.00        0.267        315.0 
      958.00        0.233        445.9 
      959.00        0.233       1473.8 
      960.00        0.233       1814.3 
      961.00        0.200       1972.1 
      962.00        0.217       2012.7 
      963.00        0.167       1996.2 
      964.00        0.200       1861.6 
      965.00        0.167       1608.6 
      966.00        0.167       1356.0 
      967.00        0.167       1125.9 
      968.00        0.167        960.6 
      969.00        0.200        837.7 
      970.00        0.200        730.8 
      971.00        0.200        661.9 
      972.00        0.167        605.7 
      973.00        0.200        570.5 
      974.00        0.167        547.0 
      975.00        0.167        535.6 
      976.00        0.233        522.6 
      977.00        0.200        510.8 
      978.00        0.200        500.3 
      979.00        0.167        491.1 
      980.00        0.183        489.2 
      981.00        0.167        482.3 
      982.00        0.167        488.6 
      983.00        0.167        488.0 
      984.00        0.200        508.0 
      985.00        0.200        529.9 
      986.00        3.250        601.9 
      987.00        0.233        221.9 
      988.00        0.333        355.3 
      989.00        0.367       1017.0 
      990.00        0.367       1838.4 
      991.00        0.333       2490.7 
      992.00        0.233       2684.9 
      993.00        0.200       2699.8 
      994.00        0.200       2646.5 
      995.00        0.167       2353.9 
      996.00        0.183       1996.2 
      997.00        0.200       1618.8 
      998.00        0.167       1218.3 
      999.00        0.167        972.0 
     1000.00        0.200        816.8 
     1001.00        0.167        685.4 
     1002.00        0.167        628.9 
     1003.00        0.167        590.2 
     1004.00        0.233        571.8 
     1005.00        0.200        547.6 
     1006.00        0.167        509.6 
     1007.00        0.133        493.4 
     1008.00        0.167        481.0 
     1009.00        0.133        456.9 
     1010.00        0.133        446.1 
     1011.00        0.167        448.0 
     1012.00        0.133        440.0 
     1013.00        0.200        440.0 
     1014.00        0.167        220.8 
     1015.00        0.217        214.4 
     1016.00        2.100        240.9 
     1017.00        0.400        132.0 
     1018.00        0.300        218.0 
     1019.00        0.300        443.1 
     1020.00        0.350       1087.5 
     1021.00        0.267       1142.1 
     1022.00        0.300       1127.5 
     1023.00        0.367        896.1 
     1024.00        0.333        636.8 
     1025.00        0.367        503.8 
     1026.00        0.300        481.0 
     1027.00        0.267        485.7 
     1028.00        0.367        454.0 
     1029.00        0.300        225.2 
     1030.00        0.283        207.6 
     1031.00        0.300        195.9 
     1032.00        0.400        187.4 
     1033.00        0.367        176.5 
     1034.00        0.300        174.7 
     1035.00        0.400        183.3 
     1036.00        0.400        188.4 
     1037.00        0.300        186.6 
     1038.00        0.233        195.5 
     1039.00        0.267        199.5 
     1040.00        0.200        185.6 
     1041.00        0.217        182.2 
     1042.00        0.133        168.0 
     1043.00        0.200        157.1 
     1044.00        0.200        146.2 
     1045.00        0.167        150.0 
     1046.00        2.583        216.0 
     1047.00        0.233        242.2 
     1048.00        0.233        365.5 
     1049.00        0.200        465.3 
     1050.00        0.167        959.9 
     1051.00        0.200        978.0 
     1052.00        0.167        958.0 
     1053.00        0.233        885.7 
     1054.00        0.200        745.7 
     1055.00        0.200        635.9 
     1056.00        0.200        556.8 
     1057.00        0.233        508.0 
     1058.00        0.233        458.8 
     1059.00        0.233        440.0 
     1060.00        0.200        205.7 
     1061.00        0.267        213.3 
     1062.00        0.250        233.6 
     1063.00        0.233        288.1 
     1064.00        0.233        384.8 
     1065.00        0.233        941.5 
     1066.00        0.233       1100.2 
     1067.00        0.233       1189.1 
     1068.00        0.200       1262.4 
     1069.00        0.200       1307.1 
     1070.00        0.200       1337.9 
     1071.00        0.233       1354.7 
     1072.00        0.167       1373.8 
     1073.00        0.167       1443.3 
     1074.00        0.133       1440.8 
     1075.00        0.333       1419.2 
     1076.00        6.700       3638.0 
     1077.00        0.200        862.5 
     1078.00        0.383        825.3 
     1079.00        0.333        759.0 
     1080.00        0.267        738.4 
     1081.00        0.233        761.2 
     1082.00        0.200        788.5 
     1083.00        0.200        819.3 
     1084.00        0.200        841.2 
     1085.00        0.200        859.3 
     1086.00        0.167        861.5 
     1087.00        0.200        859.0 
     1088.00        0.200        833.6 
     1089.00        0.167        793.6 
     1090.00        0.167        769.2 
     1091.00        0.133        744.7 
     1092.00        0.167        712.7 
     1093.00        0.167        672.4 
     1094.00        0.250        633.3 
     1095.00        0.200        584.5 
     1096.00        0.200        564.8 
     1097.00        0.033        559.1 
     1098.00        0.267        559.1 
     1099.00        0.333        552.7 
     1100.00        0.333        535.9 
     1101.00        0.300        527.3 
     1102.00        0.233        528.0 
     1103.00        0.267        520.0 
     1104.00        0.267        511.1 
     1105.00        0.167        482.6 
     1106.00        3.200        510.2 
     1107.00        0.367       1105.9 
     1108.00        0.333       1497.6 
     1109.00        0.267       1719.7 
     1110.00        0.300       1829.2 
     1111.00        0.317       1828.6 
     1112.00        0.267       1711.8 
     1113.00        0.233       1446.5 
     1114.00        0.200       1206.8 
     1115.00        0.233       1056.4 
     1116.00        0.200        940.9 
     1117.00        0.233        868.2 
     1118.00        0.200        798.1 
     1119.00        0.200        740.9 
     1120.00        0.167        690.1 
     1121.00        0.167        655.9 
     1122.00        0.167        622.9 
     1123.00        0.200        592.4 
     1124.00        0.167        549.5 
     1125.00        0.167        516.2 
     1126.00        0.167        483.8 
     1127.00        0.167        440.0 
     1128.00        0.183        440.0 
     1129.00        0.167        187.4 
     1130.00        0.167        165.4 
     1131.00        0.167        156.4 
     1132.00        0.200        152.3 
     1133.00        0.200        148.8 
     1134.00        0.200        154.9 
     1135.00        0.200        165.1 
     1136.00        3.950        483.7 
     1137.00        0.333       1398.9 
     1138.00        0.333       1630.2 
     1139.00        0.300       1706.1 
     1140.00        0.300       1696.6 
     1141.00        0.283       1498.5 
     1142.00        0.300       1169.4 
     1143.00        0.233        898.7 
     1144.00        0.267        791.4 
     1145.00        0.267        743.5 
