~Version Information
VERS.                      2.0: CWLS Log ASCII Standard - VERSION 2.0
WRAP.                       NO: One line per depth step
~Well Information Block
STRT.FT                -3.0000: 
STOP.FT              1679.2500: 
STEP.FT                 0.2500: 
NULL.                -999.2500: 
COMP.          Evergreen Operating Corp.: COMPANY
WELL.            Rimrock 14-29: WELL
FLD.           Purgatorie River: FIELD
LOC.           945' FSL & 604' FWL--: LOCATION
PROV.                       CO: PROVINCE
CNTY.               Las Animas: COUNTRY
SRVC.                         : SERVICE COMPANY
DATE.          Mon Oct 04 13:02:21 2004: LOG DATE
UWI.           05 071 08136 00: UNIQUE WELL ID
~Curve Information Block
DEPT.FT            0 000 00 00: Depth
GR.GAPI                       : Gamma Ray
CCL.                          : Casing Collar Locator
TT3.usec                      : CBL 3' Travel Time
AMP3.mV                       : CBL 3' Amplitude
~Parameter Information Block
~A  Depth        GR         CCL         TT3         AMP3    
# ...
   667.0000    136.1600      0.0000    763.9639     11.8997
   667.2500    135.1944      0.0000    763.9667     12.0135
   667.5000    132.8184      0.0000    764.0179     12.0890
   667.7500    129.2387      0.0000    764.0740     12.1106
   668.0000    125.4693      0.0000    764.1065     12.0913
   668.2500    122.3941      0.0000    764.0829     12.0736
   668.5000    120.3115      0.0000    763.9728     12.1070
   668.7500    118.9241      0.0000    763.7297     12.2061
   669.0000    117.5415      0.0000    763.2207     12.3316
   669.2500    115.8086      0.0000    762.1230     12.4151
   669.5000    114.4286      0.0000    759.9454     12.4002
   669.7500    114.6085      0.0000    756.3277     12.2620
   670.0000    116.4568      0.0000    751.4600     12.0093
   670.2500    118.5431      0.0000    746.1716     11.6769
   670.5000    119.4905      0.0000    741.5370     11.3013
   670.7500    119.5597      0.0000    738.3425     10.8933
   671.0000    120.1923      0.0000    736.7846     10.4458
   671.2500    122.2178      0.0000    736.5699      9.9760
   671.5000    124.8112      0.0000    737.5079      9.5409
   671.7500    126.2599      0.0000    740.0907      9.1951
   672.0000    125.7110      0.0000    745.4108      8.9468
   672.2500    124.0059      0.0000    754.4193      8.7737
   672.5000    122.5508      0.0000    766.7698      8.6658
   672.7500    121.4089      0.0000    779.9859      8.6288
   673.0000    118.8478      0.0000    790.6669      8.6519
   673.2500    113.2021      0.0000    797.9272      8.6981
   673.5000    105.1938      0.0000    805.3776      8.7280
   673.7500     97.9571      0.0000    817.8262      8.7251
   674.0000     94.4574      0.0000    835.2149      8.6980
   674.2500     95.0311      0.0000    851.1829      8.6672
   674.5000     97.4458      0.0000    858.8225      8.6470
   674.7500     99.0924      0.0000    856.7511      8.6313
   675.0000     99.0862      0.0000    848.1833      8.5967
   675.2500     98.5640      0.0000    835.7322      8.5176
   675.5000     99.2213      0.0000    819.9682      8.3832
   675.7500    101.6916      0.0000    802.3564      8.2026
   676.0000    105.2640      0.0000    786.4363      8.0019
   676.2500    108.7589      0.0000    775.2628      7.8185
   676.5000    111.2608      0.0000    769.1829      7.6931
   676.7500    112.1361      0.0000    766.5292      7.6478
   677.0000    110.8684      0.0000    765.5078      7.6641
   677.2500    107.2511      0.0000    765.1285      7.6876
   677.5000    101.7749      0.0000    765.0551      7.6596
   677.7500     95.7919      0.0000    765.2012      7.5481
   678.0000     91.3502      0.0000    765.5133      7.3606
   678.2500     90.6721      0.0000    765.9070      7.1396
   678.5000     94.9498      0.0000    766.2670      6.9457
   678.7500    102.9427      0.0000    766.4904      6.8345
   679.0000    111.2132      0.0000    766.5438      6.8336
   679.2500    116.6877      0.0000    766.4683      6.9287
   679.5000    119.2979      0.0000    766.3253      7.0701
   679.7500    121.9537      0.0000    766.1392      7.1998
   680.0000    127.7464      0.0000    765.8929      7.2844
   680.2500    137.0084      0.0000    765.5826      7.3299
   680.5000    146.8464      0.0000    765.2800      7.3712
   680.7500    153.3758      0.0000    765.1703      7.4480
   681.0000    154.4669      0.0000    765.6762      7.5902
   681.2500    150.8317      0.0000    767.7296      7.8101
   681.5000    145.1867      0.0000    773.1234      8.0953
   681.7500    140.4382      0.0000    784.3557      8.4048
   682.0000    137.8245      0.0000    803.4042      8.6773
   682.2500    136.2062      0.0000    829.5991      8.8548
   682.5000    133.3569      0.0000    858.0013      8.9100
   682.7500    128.1906      0.0000    880.1902      8.8607
   683.0000    121.7776      0.0000    888.3536      8.7547
   683.2500    116.3578      0.0000    880.5908      8.6420
   683.5000    113.6175      0.0000    862.5856      8.5552
   683.7500    113.6813      0.0000    843.4680      8.5048
   684.0000    115.1976      0.0000    830.0876      8.4843
   684.2500    116.3295      0.0000    825.0131      8.4807
   684.5000    116.1008      0.0000    828.1154      8.4795
   684.7500    115.0571      0.0000    837.7886      8.4658
   685.0000    114.5449      0.0000    850.1262      8.4290
   685.2500    115.3623      0.0000    858.8492      8.3691
   685.5000    117.1122      0.0000    858.8232      8.2971
   685.7500    118.7409      0.0000    850.4142      8.2296
   686.0000    119.5364      0.0000    839.1978      8.1837
   686.2500    119.5864      0.0000    830.8611      8.1696
   686.5000    119.3756      0.0000    827.1327      8.1855
   686.7500    119.0929      0.0000    826.4141      8.2197
   687.0000    118.4938      0.0000    826.8885      8.2575
   687.2500    117.4207      0.0000    828.0636      8.2874
   687.5000    116.2629      0.0000    829.7490      8.3050
   687.7500    115.6652      0.0000    830.8026      8.3112
   688.0000    115.8156      0.0000    829.7453      8.3044
   688.2500    116.1994      0.0000    826.3708      8.2766
   688.5000    116.0845      0.0000    822.0545      8.2189
   688.7500    115.2274      0.0000    818.4241      8.1330
   689.0000    114.1330      0.0000    816.1481      8.0311
   689.2500    113.6158      0.0000    814.9442      7.9268
   689.5000    114.1337      0.0000    814.2542      7.8257
   689.7500    115.6264      0.0000    813.7274      7.7272
   690.0000    117.7912      0.0000    813.2856      7.6328
   690.2500    120.2648      0.0000    812.9808      7.5493
   690.5000    122.7340      0.0000    812.8398      7.4833
   690.7500    125.2060      0.0000    812.8052      7.4347
   691.0000    128.0498      0.0000    812.7828      7.3994
   691.2500    131.3934      0.0000    812.7211      7.3761
   691.5000    134.5901      0.0000    812.6367      7.3649
   691.7500    136.7133      0.0000    812.5749      7.3576
   692.0000    137.5766      0.0000    812.5760      7.3403
   692.2500    137.9057      0.0000    812.7339      7.3092
   692.5000    138.5614      0.0000    813.3137      7.2792
   692.7500    139.9428      0.0000    814.8045      7.2702
   693.0000    142.0003      0.0000    817.5795      7.2898
   693.2500    144.4142      0.0000    820.9398      7.3304
   693.5000    146.8025      0.0000    822.3502      7.3742
   693.7500    149.1156      0.0000    818.5850      7.4015
   694.0000    151.7235      0.0000    808.7801      7.3989
   694.2500    154.6273      0.0000    796.2557      7.3660
   694.5000    156.7209      0.0000    786.5615      7.3133
   694.7500    156.4327      0.0000    783.6174      7.2584
   695.0000    153.0085      0.0000    787.8080      7.2250
   695.2500    146.5986      0.0000    797.3302      7.2399
   695.5000    137.3069      0.0000    811.0730      7.3195
   695.7500    125.1335      0.0000    829.4894      7.4558
   696.0000    111.0885      0.0000    851.1322      7.6185
   696.2500     97.4927      0.0000    868.5723      7.7736
   696.5000     86.6571      0.0000    871.4483      7.8990
   696.7500     79.6125      0.0000    856.1797      7.9888
   697.0000     76.1733      0.0000    830.4553      8.0468
   697.2500     75.7109      0.0000    806.0423      8.0767
   697.5000     77.8648      0.0000    789.2091      8.0759
   697.7500     82.9749      0.0000    779.3232      8.0322
   698.0000     91.7672      0.0000    773.6656      7.9211
   698.2500    104.1223      0.0000    770.9738      7.7075
   698.5000    118.0564      0.0000    771.8135      7.3768
   698.7500    130.1691      0.0000    777.8618      6.9814
   699.0000    137.2193      0.0000    790.7408      6.6324
   699.2500    137.4451      0.0000    809.9717      6.4068
   699.5000    130.8310      0.0000    831.5139      6.2761
   699.7500    118.6380      0.0000    849.2036      6.1612
   700.0000    102.7589      0.0000    858.8329      6.0330
   700.2500     85.2227      0.0000    861.2431      5.9208
