~Version Information
VERS.                      2.0: CWLS Log ASCII Standard - VERSION 2.0
WRAP.                       NO: One line per depth step
~Well Information Block
STRT.FT               -10.0000: 
STOP.FT              2544.2500: 
STEP.FT                 0.2500: 
NULL.                -999.2500: 
COMP.          Pioneer Natural Resources: COMPANY
WELL.            Cortina 23-25: WELL
FLD.           Purgatorie River: FIELD
LOC.           2344' FWL  & 2526' FSL------: LOCATION
PROV.                       CO: PROVINCE
CNTY.               Las Animas: COUNTRY
SRVC.          Patterson Wireline: SERVICE COMPANY
DATE.          Fri Apr 01 11:50:55 2005: LOG DATE
UWI.           05 071 08340 00: UNIQUE WELL ID
~Curve Information Block
DEPT.FT            0 000 00 00: Depth
CCL.                          : Casing Collar Locator
TT3.usec                      : CBL 3' Travel Time
AMP3.mV                       : CBL 3' Amplitude
GR.GAPI                       : Gamma Ray
~Parameter Information Block
~A  Depth       CCL         TT3         AMP3         GR     
# ...
   325.0000      0.0000    830.1269      6.6209     59.9830
   325.2500      0.0000    830.0738      6.6323     55.5406
   325.5000      0.0000    830.5458      6.6522     52.8455
   325.7500      0.0000    831.9222      6.6718     51.8903
   326.0000      0.0000    834.7037      6.6858     51.7528
   326.2500      0.0000    839.1376      6.6914     51.7065
   326.5000      0.0000    844.5299      6.6853     51.8170
   326.7500      0.0000    849.0043      6.6637     52.5705
   327.0000      0.0000    850.4660      6.6276     54.1573
   327.2500      0.0000    848.3017      6.5876     56.2500
   327.5000      0.0000    844.3732      6.5582     58.3573
   327.7500      0.0000    842.2000      6.5447     60.1465
   328.0000      0.0000    844.4219      6.5406     61.4899
   328.2500      0.0000    850.3802      6.5384     62.5670
   328.5000      0.0000    856.3586      6.5389     63.9801
   328.7500      0.0000    858.5442      6.5492     66.4478
   329.0000      0.0000    855.7760      6.5742     70.1985
   329.2500      0.0000    849.7087      6.6114     74.7178
   329.5000      0.0000    842.8024      6.6514     79.1806
   329.7500      0.0000    836.0855      6.6851     83.0537
   330.0000      0.0000    828.3698      6.7115     86.0209
   330.2500      0.0000    817.4543      6.7341     87.4206
   330.5000      0.0000    802.6326      6.7511     86.3157
   330.7500      0.0000    786.6470      6.7534     82.3214
   331.0000      0.0000    775.0923      6.7381     76.1079
   331.2500      0.0000    773.2549      6.7185     69.1092
   331.5000      0.0000    782.9521      6.7159     62.9239
   331.7500      0.0000    801.7701      6.7443     58.6872
   332.0000      0.0000    824.5694      6.8002     56.5603
   332.2500      0.0000    845.8268      6.8645     55.7373
   332.5000      0.0000    861.7638      6.9143     54.9945
   332.7500      0.0000    871.3610      6.9383     53.3466
   333.0000      0.0000    875.7917      6.9411     50.5939
   333.2500      0.0000    877.0043      6.9319     47.5569
   333.5000      0.0000    876.7243      6.9117     45.6156
   333.7500      0.0000    876.2245      6.8750     45.7557
   334.0000      0.0000    876.3873      6.8173     47.8935
   334.2500      0.0000    877.3092      6.7323     50.9990
   334.5000      0.0000    877.4224      6.6029     53.8751
   334.7500      0.0000    873.8728      6.4113     55.9831
   335.0000      0.0000    865.8665      6.1733     57.5339
   335.2500      0.0000    858.0232      5.9497     58.7352
   335.5000      0.0000    857.6572      5.7975     59.1936
   335.7500      0.0000    866.9179      5.7130     58.2394
   336.0000      0.0000    879.4942      5.6489     55.6573
   336.2500      0.0000    886.5458      5.5783     52.0547
   336.5000      0.0000    884.4476      5.5111     48.7217
   336.7500      0.0000    876.2032      5.4624     46.9417
   337.0000      0.0000    867.4722      5.4349     47.0003
   337.2500      2.0000    862.3483      5.4303     47.9418
   337.5000      0.0000    861.1847      5.4622     48.5788
   337.7500      0.0000    860.8429      5.5583     48.7023
   338.0000      0.0000    857.7296      5.7427     49.1792
   338.2500      0.0000    851.7112      6.0008     50.9717
   338.5000      0.0000    846.8626      6.2679     54.1190
   338.7500      0.0000    847.5901      6.4789     57.6217
   339.0000      0.0000    854.2396      6.6202     60.2150
   339.2500      0.0000    863.1518      6.7162     61.2837
   339.5000      0.0000    870.4147      6.7823     61.1731
   339.7500      0.0000    874.5781      6.8174     60.7899
   340.0000      0.0000    876.2914      6.8238     61.1345
   340.2500      0.0000    876.7188      6.8150     63.1881
   340.5000      0.0000    876.6987      6.8076     67.5973
   340.7500      0.0000    876.6785      6.8142     73.7221
   341.0000      0.0000    876.7110      6.8379     79.2466
   341.2500      0.0000    876.2941      6.8666     81.7015
   341.5000      0.0000    874.3712      6.8780     80.6200
   341.7500      0.0000    869.8937      6.8550     77.7554
   342.0000      0.0000    862.7898      6.7999     75.3382
   342.2500      0.0000    854.4706      6.7339     74.5947
   342.5000      0.0000    847.1227      6.6803     75.5209
   342.7500      0.0000    842.2874      6.6478     77.3130
   343.0000      0.0000    840.0685      6.6285     79.0814
   343.2500      0.0000    839.5149      6.6088     80.5977
   343.5000      0.0000    839.5046      6.5808     82.1998
   343.7500      0.0000    839.3362      6.5454     83.7621
   344.0000      0.0000    838.8424      6.5081     84.0601
   344.2500      0.0000    838.2080      6.4782     81.5280
   344.5000      0.0000    837.6898      6.4703     75.7865
   344.7500      0.0000    837.4091      6.4987     68.4071
   345.0000      0.0000    837.3346      6.5639     62.0222
   345.2500      0.0000    837.4364      6.6464     58.5254
   345.5000      0.0000    837.8510      6.7189     57.9643
   345.7500      0.0000    838.9097      6.7656     58.8736
   346.0000      0.0000    840.9181      6.7909     59.4798
   346.2500      0.0000    843.6940      6.8105     58.9042
   346.5000      0.0000    846.2881      6.8361     57.6449
   346.7500      0.0000    847.5592      6.8672     56.8655
   347.0000      0.0000    847.4521      6.8969     57.1246
   347.2500      0.0000    847.5259      6.9241     57.9443
   347.5000      0.0000    849.7021      6.9582     58.4058
   347.7500      0.0000    854.2481      7.0087     57.7386
   348.0000      0.0000    859.1001      7.0760     55.5537
   348.2500      0.0000    861.4418      7.1532     52.0955
   348.5000      0.0000    860.2949      7.2318     48.2790
   348.7500      0.0000    857.6433      7.3024     45.2237
   349.0000      0.0000    856.7892      7.3553     43.7156
   349.2500      0.0000    859.4119      7.3881     44.0305
   349.5000      0.0000    864.2755      7.4093     45.9707
   349.7500      0.0000    868.8314      7.4316     48.9196
   350.0000      0.0000    871.7861      7.4607     52.0301
   350.2500      0.0000    873.8112      7.4913     54.6227
   350.5000      0.0000    875.9854      7.5104     56.4616
   350.7500      0.0000    878.1471      7.5059     57.5550
   351.0000      0.0000    878.8329      7.4730     57.8046
   351.2500      0.0000    876.3682      7.4203     57.1242
   351.5000      0.0000    870.2398      7.3688     55.8268
   351.7500      0.0000    862.2578      7.3383     54.4970
   352.0000      0.0000    856.3365      7.3330     53.4250
   352.2500      0.0000    855.9328      7.3443     52.4758
   352.5000      0.0000    861.1157      7.3658     51.4479
   352.7500      0.0000    868.6434      7.4000     50.2689
   353.0000      0.0000    874.9906      7.4489     48.9259
   353.2500      0.0000    878.7732      7.5058     47.5646
   353.5000      0.0000    880.5859      7.5557     46.7021
   353.7500      0.0000    881.5632      7.5824     47.0023
   354.0000      0.0000    882.5762      7.5746     48.5374
   354.2500      0.0000    884.4291      7.5297     50.3901
   354.5000      0.0000    888.3328      7.4559     51.3287
   354.7500      0.0000    895.4650      7.3681     50.9403
   355.0000      0.0000    904.7633      7.2824     49.8819
   355.2500      0.0000    910.6135      7.2118     48.9744
   355.5000      0.0000    904.7184      7.1631     48.3368
   355.7500      0.0000    883.0635      7.1330     47.6279
   356.0000      0.0000    850.9974      7.1106     46.8600
   356.2500      0.0000    819.5748      7.0868     46.4637
   356.5000      0.0000    797.0063      7.0643     46.5277
   356.7500      0.0000    784.6257      7.0548     46.4713
   357.0000      0.0000    779.7196      7.0660     45.7360
   357.2500      0.0000    780.0955      7.0931     44.5630
   357.5000      0.0000    785.9640      7.1229     43.7565
   357.7500      0.0000    798.6334      7.1466     43.7596
   358.0000      0.0000    817.7717      7.1686     44.2724
   358.2500      0.0000    839.8912      7.2022     44.8189
