~Version Information
 VERS.                                  2.0 : CWLS LAS VERSION
 WRAP.                                   NO : WRAPING MODE
 SWARE .                 MController 2.5.0J : SOFTWARE VERSION
~Well Information
 WELL.                          Tonto 42-23 : WELL
 COMP.    Pioneer Natural Resources USA Inc : COMPANY
 FLD.                      Purgatoire River : FIELD
 LOC.                SE/NE Sec 23 T32S R66W : LOCATION
 DATE.                              4/16/05 : DATE(S) LOGGED
 SRVC.       Blanco Geological Services LLC : SERVICE COMPANY
 STAT.                                   CO : STATE
 CNTY.                           Las Animas : COUNTY
 CTRY.                                  USA : COUNTRY
 API.                       05-071-08335-00 : API NUMBER
 STRT.FT                             892.00 : START DEPTH
 STOP.FT                            2270.00 : STOP DEPTH
 STEP.FT                               1.00 : DEPTH INCREMENT
 NULL.                                -9999 : NULL VALUE
~Curve information
 DEPTH.FT                                   :
 ROP.MIN/FT                                 :
 GAS.UNITS                                  :
~ASCII Log data
       892.0     -9999.00          7.0 
       893.0         4.35          8.8 
       894.0         0.30          7.9 
       895.0         0.25          8.2 
       896.0         0.23          7.7 
       897.0         0.20          7.8 
       898.0         0.20          6.8 
       899.0         0.17          6.9 
       900.0         0.20          6.8 
       901.0         0.23          7.1 
       902.0         0.28          7.6 
       903.0         0.17          7.2 
       904.0         0.20          7.4 
       905.0         0.17          7.4 
       906.0         0.17          5.9 
       907.0         0.17          6.5 
       908.0         0.17          7.9 
       909.0         0.28          7.8 
       910.0         0.23          8.1 
       911.0         0.17          8.0 
       912.0         0.17          7.7 
       913.0         0.17          6.7 
       914.0         0.17          4.0 
       915.0         0.13          4.5 
       916.0         0.17          4.4 
       917.0         0.17          3.8 
       918.0         0.13         10.7 
       919.0         0.15         21.8 
       920.0         0.17         21.8 
       921.0         0.33         18.6 
       922.0         0.30         18.0 
       923.0         0.40         54.9 
       924.0         0.15         39.4 
       925.0         0.33         23.4 
       926.0         0.23          3.3 
       927.0         0.23         -0.1 
       928.0         0.13         -0.2 
       929.0         0.20         -0.3 
       930.0         0.17         -0.1 
       931.0         0.22          0.0 
       932.0         0.27          0.4 
       933.0         0.17          0.4 
       934.0         0.20          0.6 
       935.0         0.17          0.0 
       936.0         0.17         -0.1 
       937.0         0.17          0.1 
       938.0         0.17         -0.2 
       939.0         0.17         -0.1 
       940.0         0.15         -0.6 
       941.0         0.17         -0.4 
       942.0         0.17          0.7 
       943.0         0.17          1.3 
       944.0         0.13          1.7 
       945.0         0.17          2.3 
       946.0         0.17          2.3 
       947.0         0.13          2.7 
       948.0         0.17          2.5 
       949.0         0.13          1.7 
       950.0         0.22          2.2 
       951.0         0.13          2.4 
       952.0         0.13          3.4 
       953.0         0.17          3.4 
       954.0         0.20          4.3 
       955.0         0.23          9.2 
       956.0         0.43          9.9 
       957.0         0.20          7.7 
       958.0         0.20          5.8 
       959.0         0.28          3.8 
       960.0         0.27          2.5 
       961.0         0.10          2.0 
       962.0         0.13          2.3 
       963.0         0.13          1.0 
       964.0         0.10          0.6 
       965.0         0.20          1.1 
       966.0         0.23          1.6 
       967.0         0.20          1.8 
       968.0         0.17          1.8 
       969.0         0.17          2.0 
       970.0         0.10          2.2 
       971.0         0.10          2.0 
       972.0         0.18          2.7 
       973.0         0.13          5.0 
       974.0         0.40         10.3 
       975.0         0.20         10.9 
       976.0         0.17         13.0 
       977.0         0.20         21.1 
       978.0         0.13         28.9 
       979.0         0.13         36.1 
       980.0         0.25         57.5 
       981.0         0.10         73.7 
       982.0         0.30        100.9 
       983.0         0.03         99.6 
       984.0         0.03         97.9 
       985.0         0.10         95.5 
       986.0         1.42         85.4 
       987.0         0.23         16.6 
       988.0         0.20         14.6 
       989.0         0.27         13.9 
       990.0         0.25         14.5 
       991.0         0.20         14.7 
       992.0         0.20         14.2 
       993.0         0.20         13.2 
       994.0         0.23         12.6 
       995.0         0.20         12.7 
       996.0         0.23         13.4 
       997.0         0.17         13.7 
       998.0         0.15         13.2 
       999.0         0.17         13.0 
      1000.0         0.20         13.0 
      1001.0         0.17         12.7 
      1002.0         0.23         12.4 
      1003.0         0.13         11.6 
      1004.0         0.13          9.7 
      1005.0         0.13          8.2 
      1006.0         0.17          7.0 
      1007.0         0.17          8.2 
      1008.0         0.22         13.1 
      1009.0         0.17         17.6 
      1010.0         0.13         21.0 
      1011.0         0.17         30.5 
      1012.0         0.17         50.7 
      1013.0         0.17         65.3 
      1014.0         0.23         67.6 
      1015.0         0.37         61.1 
      1016.0         0.53         38.2 
      1017.0         0.43         38.9 
      1018.0         0.32         34.9 
      1019.0         0.23         30.8 
      1020.0         0.23         28.9 
      1021.0         0.23         27.9 
      1022.0         0.17         26.6 
      1023.0         0.20         26.7 
      1024.0         0.17         26.7 
      1025.0         0.17         26.2 
      1026.0         0.17         25.4 
      1027.0         0.17         24.0 
      1028.0         0.23         23.4 
      1029.0         0.17         23.4 
      1030.0         0.20         24.0 
      1031.0         0.17         24.3 
      1032.0         0.17         24.4 
      1033.0         0.13         24.4 
      1034.0         0.17         24.6 
      1035.0         0.17         24.0 
      1036.0         0.13         21.3 
      1037.0         0.18         17.4 
      1038.0         0.17         16.7 
      1039.0         0.17         21.9 
      1040.0         0.17         30.7 
      1041.0         0.17         37.9 
      1042.0         0.17         49.9 
      1043.0         0.27         91.8 
      1044.0         0.17        124.1 
      1045.0         0.13        136.8 
      1046.0         0.77        174.3 
      1047.0         0.20        164.7 
      1048.0         0.10        150.6 
      1049.0         0.43        144.0 
      1050.0         0.20        123.8 
      1051.0         0.22        113.7 
      1052.0         0.27        108.3 
      1053.0         0.20        106.2 
      1054.0         0.23        104.1 
      1055.0         0.33        102.6 
      1056.0         0.17         99.3 
      1057.0         0.13         96.7 
      1058.0         0.10         94.2 
      1059.0         0.13         93.1 
      1060.0         0.27         91.5 
      1061.0         0.17         89.4 
      1062.0         0.17         88.6 
      1063.0         0.17         87.6 
      1064.0         0.23         87.6 
      1065.0         0.17         78.2 
      1066.0         0.17         63.0 
      1067.0         0.17         56.7 
      1068.0         0.22         81.3 
      1069.0         0.20        113.5 
      1070.0         0.20        156.5 
      1071.0         0.17        234.6 
      1072.0         0.13        301.0 
      1073.0         0.13        375.2 
      1074.0         0.17        397.1 
      1075.0         0.43        388.9 
      1076.0         1.03        240.5 
      1077.0         0.20        104.5 
      1078.0         0.33         98.2 
      1079.0         0.28         91.0 
      1080.0         0.30         84.5 
      1081.0         0.23         80.9 
      1082.0         0.23         79.0 
      1083.0         0.17         78.1 
      1084.0         0.17         77.9 
      1085.0         0.17         77.3 
      1086.0         0.17         76.9 
      1087.0         0.20         76.9 
      1088.0         0.20         76.7 
      1089.0         0.20         76.9 
      1090.0         0.13         76.7 
      1091.0         0.17         76.4 
