~Version Information
VERS.                      2.0: CWLS Log ASCII Standard - VERSION 2.0
WRAP.                       NO: One line per depth step
~Well Information Block
STRT.FT               -19.2500: 
STOP.FT              2421.5000: 
STEP.FT                 0.2500: 
NULL.                -999.2500: 
COMP.          Petrogulf Corporation: COMPANY
WELL.           Montoya 13-41V: WELL
FLD.           Purgatorie River: FIELD
LOC.           449' FNL & 891' FEL: LOCATION
CNTY.               Las Animas: COUNTY
SRVC.                         : SERVICE COMPANY
DATE.          Mon Sep 13 13:48:36 2004: LOG DATE
UWI.                       N/A: UNIQUE WELL ID
STAT.                 Colorado: STATE
~Curve Information Block
DEPT.FT            0 000 00 00: Depth
TT3.usec                      : CBL 3' Travel Time
AMP3.mV                       : CBL 3' Amplitude
GR.GAPI                       : Gamma Ray
CCL.                          : Casing Collar Locator
~Parameter Information Block
~A  Depth       TT3         AMP3         GR         CCL     
# ...
   148.2500    273.7587     87.2384     87.7292      0.0000
   148.5000    273.7823     87.1407     81.6395      0.0000
   148.7500    273.7500     87.0110     77.4731      0.0000
   149.0000    273.7178     86.9476     74.1936      0.0000
   149.2500    273.7423     86.9888     71.4491      0.0000
   149.5000    273.7441     87.0738     69.2474      0.0000
   149.7500    273.6331     87.1392     67.3791      0.0000
   150.0000    273.4699     87.1592     65.4265      0.0000
   150.2500    273.3747     87.1241     63.3664      0.0000
   150.5000    273.3552     87.0729     62.2061      0.0000
   150.7500    273.3746     87.0702     63.8911      0.0000
   151.0000    273.4688     87.0922     70.2494      0.0000
   151.2500    273.6254     87.0550     81.5326      0.0000
   151.5000    273.7071     86.9705     95.7015      0.0000
   151.7500    273.6254     86.9235    109.3186      0.0000
   152.0000    273.4688     86.9308    119.5738      0.0000
   152.2500    273.3735     86.9685    125.6331      0.0000
   152.5000    273.3466     87.0493    128.1038      0.0000
   152.7500    273.3310     87.1689    127.7443      0.0000
   153.0000    273.3233     87.2632    125.3686      0.0000
   153.2500    273.3010     87.2786    122.5801      0.0000
   153.5000    273.2129     87.2344    121.2365      0.0000
   153.7500    273.0733     87.1838    121.6163      0.0000
   154.0000    272.9192     87.1572    121.9144      0.0000
   154.2500    272.7597     87.1552    120.0644      0.0000
   154.5000    272.6333     87.1640    115.4770      0.0000
   154.7500    272.6101     87.1781    108.9240      0.0000
   155.0000    272.7340     87.1961    101.8342      0.0000
   155.2500    272.9641     87.1958     96.2461      0.0000
   155.5000    273.1501     87.1649     94.5895      0.0000
   155.7500    273.1847     87.1254     98.4921      0.0000
   156.0000    273.1464     87.0939    107.4817      0.0000
   156.2500    273.1890     87.0746    118.8600      0.0000
   156.5000    273.3745     87.0826    129.0222      0.0000
   156.7500    273.6330     87.1217    135.3991      0.0000
   157.0000    273.8383     87.1743    137.6803      0.0000
   157.2500    273.9182     87.2278    137.4318      0.0000
   157.5000    273.8732     87.2672    136.6535      0.0000
   157.7500    273.7413     87.2670    136.6070      0.0000
   158.0000    273.5811     87.2355    137.3806      0.0000
   158.2500    273.4297     87.2216    137.8589      0.0000
   158.5000    273.3102     87.2534    136.2570      0.0000
   158.7500    273.3102     87.3165    131.4495      0.0000
   159.0000    273.5299     87.3938    124.0983      0.0000
   159.2500    273.9354     87.4749    116.2066      0.0000
   159.5000    274.3840     87.5186    109.5311      0.0000
   159.7500    274.7854     87.4744    104.6693      0.0000
   160.0000    275.1176     87.3578    101.4897      0.0000
   160.2500    275.3516     87.2403     99.8608      0.0000
   160.5000    275.4930     87.1784     99.7885      0.0000
   160.7500    275.6169     87.1958    101.0794      0.0000
   161.0000    275.8057     87.2792    102.9877      0.0000
   161.2500    276.1894     87.3738    104.1634      0.0000
   161.5000    277.2541     87.4189    103.2533      0.0000
   161.7500    279.9360     87.3979     99.9232      0.0000
   162.0000    284.4698     87.3519     95.2400      0.0000
   162.2500    289.2379     87.3398     91.0324      0.0000
   162.5000    292.5040     87.3698     89.0496      0.0000
   162.7500    294.5812     87.3882     90.4967      0.0000
   163.0000    296.7560     87.3524     95.6193      0.0000
   163.2500    298.9477     87.2861    103.2985      0.0000
   163.5000    300.0627     87.2323    111.2567      0.0000
   163.7500    301.1053     87.2034    117.0396      0.0000
   164.0000    303.8474     87.2012    119.1411      0.0000
   164.2500    306.4982     87.2345    117.5027      0.0000
   164.5000    305.2206     87.3010    113.1300      0.0000
   164.7500    298.6406     87.3665    107.1823      0.0000
   165.0000    289.4626     87.3832    100.3691      0.0000
   165.2500    282.1914     87.3480     93.1154      0.0000
   165.5000    279.3301     87.3106     86.0180      0.0000
   165.7500    280.6167     87.3077     79.8543      0.0000
   166.0000    283.9125     87.3325     75.1618      0.0000
   166.2500    285.5506     87.3700     71.9694      0.0000
   166.5000    283.3890     87.4159     70.0185      0.0000
   166.7500    279.5000     87.4649     69.3033      0.0000
   167.0000    276.9196     87.5066     70.2909      0.0000
   167.2500    276.1283     87.5335     73.4353      0.0000
   167.5000    276.0514     87.5401     78.3744      0.0000
   167.7500    275.9958     87.5232     83.6634      0.0000
   168.0000    276.1027     87.4985     87.4839      0.0000
   168.2500    277.1000     87.4944     88.8832      0.0000
   168.5000    279.8363     87.5155     88.4951      0.0000
   168.7500    283.9436     87.5523     88.1474      0.0000
   169.0000    287.2996     87.6024     89.7210      0.0000
   169.2500    289.4126     87.6457     94.1062      0.0000
   169.5000    293.2089     87.6610    100.9046      0.0000
   169.7500    299.8514     87.6579    108.9408      0.0000
   170.0000    306.2207     87.6377    116.9143      0.0000
   170.2500    309.5865     87.5810    123.6292      0.0000
   170.5000    309.9090     87.4888    128.2034      0.0000
   170.7500    307.7661     87.3834    130.6704      0.0000
   171.0000    304.2765     87.2840    132.2877      0.0000
   171.2500    302.3593     87.1945    134.8072      0.0000
   171.5000    303.8582     87.1288    139.1870      0.0000
   171.7500    306.2042     87.1361    144.9117      0.0000
   172.0000    305.2000     87.2335    150.4527      0.0000
   172.2500    299.9641     87.3563    154.2203      0.0000
   172.5000    294.6384     87.3814    155.2399      0.0000
   172.7500    294.8365     87.0574    153.5507      0.0000
   173.0000    301.1853     85.9391    150.2507      0.0000
   173.2500    309.0220     83.6659    146.7605      0.0000
   173.5000    314.4074     80.3607    143.7490      0.0000
   173.7500    316.8860     76.8386    140.9780      0.0000
   174.0000    317.6736     74.5617    138.1455      0.0000
   174.2500    317.8834     74.3896    135.4440      0.0000
   174.5000    318.0302     75.3760    133.1810      0.0000
   174.7500    318.1843     76.1217    131.3191      1.8509
   175.0000    318.2581     76.2793    129.6990      2.8046
   175.2500    318.1887     76.1146    128.3968     -4.1336
   175.5000    317.8913     75.7949    127.6084      0.0000
   175.7500    316.8390     75.3259    127.4293      0.0000
   176.0000    313.8496     74.9388    127.7970      0.0000
   176.2500    308.2689     75.3523    128.2335      0.0000
   176.5000    301.2044     77.0909    127.8184      0.0000
   176.7500    294.1179     79.7192    126.0258      0.0000
   177.0000    288.0560     82.3835    123.5181      0.0000
   177.2500    285.0157     84.5930    121.6099      0.0000
   177.5000    285.6454     86.1352    120.9886      0.0000
   177.7500    286.7423     86.9483    121.2571      0.0000
   178.0000    285.8715     87.2060    121.4852      0.0000
   178.2500    285.8518     87.1901    120.8714      0.0000
   178.5000    290.3116     87.1030    119.1690      0.0000
   178.7500    297.3308     87.0284    116.9351      0.0000
   179.0000    300.7727     86.9803    115.3467      0.0000
   179.2500    297.0889     86.9525    115.4989      0.0000
   179.5000    289.0673     86.9475    117.6628      0.0000
   179.7500    282.7294     86.9739    121.0370      0.0000
   180.0000    281.7936     87.0198    124.2455      0.0000
   180.2500    285.5983     87.0548    126.2284      0.0000
   180.5000    291.1104     87.0607    126.7145      0.0000
   180.7500    296.5870     87.0394    125.9811      0.0000
   181.0000    302.0917     86.9931    124.4197      0.0000
   181.2500    306.6883     86.9331    122.3786      0.0000
   181.5000    308.5952     86.8902    120.3239      0.0000
