~Version Information
VERS.                      2.0: CWLS Log ASCII Standard - VERSION 2.0
WRAP.                       NO: One line per depth step
~Well Information Block
STRT.FT                 0.0000: 
STOP.FT              2384.7500: 
STEP.FT                 0.2500: 
NULL.                -999.2500: 
COMP.          Petrogulf Corporation: COMPANY
WELL.           McDaniel 9-34V: WELL
FLD.           Purgatorie River: FIELD
LOC.           620' FSL & 1800' FEL: LOCATION
STAT.                 Colorado: State
CNTY.               Las Animas: COUNTY
CTRY. USA : Country
SECT. 9 : Section
TOWN. 33S : Township
RANG. 67W : Range
SRVC.                Patterson: SERVICE COMPANY
DATE.          Thu Nov 10 12:28:18 2005: LOG DATE
API. 05-071-08333                         : UNIQUE WELL ID
~Curve Information Block
DEPT.FT            0 000 00 00: Depth
AMP3.mV                       : CBL 3' Amplitude
CCL.                          : Casing Collar Locator
GR.GAPI                       : Gamma Ray
TT3.usec                      : CBL 3' Travel Time
~Parameter Information Block
~A  Depth       AMP3        CCL          GR         TT3     
     0.0000      0.8488      0.0000     37.8466   1197.0000
     0.2500      0.7293      0.0000     43.1776   1197.0000
     0.5000      0.7233      0.0000     46.1586   1197.0000
     0.7500      0.7594      0.0000     49.4739   1197.0000
     1.0000      0.8009      0.0000     51.9618   1197.0000
     1.2500      0.7970      0.0000     53.0067   1197.0000
     1.5000      0.7528      0.0000     53.4225   1197.0000
     1.7500      0.7157      0.0000     54.7307   1197.0000
     2.0000      0.7067      0.0000     57.5948   1197.0000
     2.2500      0.7219      0.0000     61.1156   1197.0000
     2.5000      0.7739      0.0000     63.8078   1197.0000
     2.7500      0.8754      0.0000     65.0948   1197.0000
     3.0000      0.9914      0.0000     65.5151   1197.0000
     3.2500      1.0446      0.0000     65.6023   1197.0000
     3.5000      0.9886      0.0000     65.1105   1197.0000
     3.7500      0.8644      0.0000     63.5549   1197.0000
     4.0000      0.7574      0.0000     61.1755   1197.0000
     4.2500      0.7156      0.0000     59.0026   1197.0000
     4.5000      0.7369      0.0000     58.0005   1197.0000
     4.7500      0.8031      0.0000     58.3204   1197.0000
     5.0000      0.8870      0.0000     59.2303   1197.0000
     5.2500      0.9495      2.0000     59.5757   1197.0000
     5.5000      0.9614      0.0000     58.5700   1197.0000
     5.7500      0.9262      0.0000     56.4019   1197.0000
     6.0000      0.8599      0.0000     54.0047   1197.0000
     6.2500      0.7769      0.0000     52.2222   1197.0000
     6.5000      0.7056      0.0000     51.3427   1197.0000
     6.7500      0.6795      0.0000     51.2585   1197.0000
     7.0000      0.7092      0.0000     51.6784   1197.0000
     7.2500      0.7781      0.0000     52.1665   1197.0000
     7.5000      0.8573      0.0000     52.2890   1197.0000
     7.7500      0.9219      0.0000     51.9512   1197.0000
     8.0000      0.9567      0.0000     51.5714   1197.0000
     8.2500      0.9525      0.0000     51.6980   1197.0000
     8.5000      0.9048      0.0000     52.2870   1197.0000
     8.7500      0.8324      0.0000     52.6285   1197.0000
     9.0000      0.7746      0.0000     52.3465   1197.0000
     9.2500      0.7595      0.0000     52.3002   1197.0000
     9.5000      0.7909      0.0000     53.9226   1197.0000
     9.7500      0.8554      0.0000     57.4649   1197.0000
    10.0000      0.9280      0.0000     61.3023   1197.0000
    10.2500      0.9824      0.0000     63.1924   1197.0000
    10.5000      0.9966      0.0000     62.0631   1197.0000
    10.7500      0.9511      0.0000     58.6367   1197.0000
    11.0000      0.8485      0.0000     54.5993   1197.0000
    11.2500      0.7299      0.0000     51.2329   1196.9545
    11.5000      0.6578      0.0000     48.7405   1196.3912
    11.7500      0.7218      0.0000     46.7951   1192.0723
    12.0000      1.3022      0.0000     45.4253   1170.4453
    12.2500      3.8336      0.0000     44.9905   1099.2302
    12.5000     11.2207      0.0000     45.4159    943.7619
    12.7500     25.3033      0.0000     46.0104    716.9692
    13.0000     42.6029      0.0000     46.2953    494.6219
    13.2500     56.2220      0.0000     46.7486    347.8478
    13.5000     63.0874      0.0000     48.4226    282.7871
    13.7500     65.3310      0.0000     51.7887    263.5407
    14.0000     65.8570      0.0000     56.0751    259.7668
    14.2500     66.0106      0.0000     59.7267    259.2702
    14.5000     66.1277      0.0000     61.5718    259.2151
    14.7500     66.2655      0.0000     61.7458    259.1958
    15.0000     66.3997      0.0000     61.5748    259.1702
    15.2500     66.4857      0.0000     62.4192    259.1400
    15.5000     66.5401      0.0000     64.5749    259.1211
    15.7500     66.6210      0.0000     67.2523    259.1266
    16.0000     66.7281      0.0000     69.3514    259.1491
    16.2500     66.7803      0.0000     70.1148    259.1743
    16.5000     66.7534      0.0000     69.4406    259.1973
    16.7500     66.7433      0.0000     68.0204    259.2205
    17.0000     66.8200      0.0000     67.0502    259.2484
    17.2500     66.9816      0.0000     67.4867    259.2785
    17.5000     67.2261      0.0000     69.4997    259.2994
    17.7500     67.5186      0.0000     72.5332    259.3070
    18.0000     67.7877      0.0000     75.6814    259.3091
    18.2500     67.9990      0.0000     78.0988    259.3095
    18.5000     68.1453      0.0000     79.4102    259.3059
    18.7500     68.2145      0.0000     79.7960    259.3029
    19.0000     68.2077      0.0000     79.4469    259.3090
    19.2500     68.1360      0.0000     78.0427    259.3281
    19.5000     68.0138      0.0000     75.1517    259.3574
    19.7500     67.8806      0.0000     71.1169    259.3851
    20.0000     67.8091      0.0000     67.3547    259.3967
    20.2500     67.8705      0.0000     65.7091    259.3898
    20.5000     68.0779      0.0000     67.2680    259.3755
    20.7500     68.3814      0.0000     71.5319    259.3626
    21.0000     68.7150      0.0000     76.8395    259.3535
    21.2500     69.0109      0.0000     81.6866    259.3513
    21.5000     69.2180      0.0000     85.5282    259.3534
    21.7500     69.3474      0.0000     88.5269    259.3459
    22.0000     69.4574      0.0000     91.0282    259.3191
    22.2500     69.5922      0.0000     93.3151    259.2771
    22.5000     69.7539      0.0000     95.4601    259.2307
    22.7500     69.9021      0.0000     97.2511    259.1953
    23.0000     69.9742      0.0000     98.3960    259.1916
    23.2500     69.9377      0.0000     98.8909    259.2287
    23.5000     69.8435      0.0000     99.1033    259.2885
    23.7500     69.7738      0.0000     99.3717    259.3429
    24.0000     69.7376      0.0000     99.7078    259.3750
    24.2500     69.6880      0.0000    100.0851    259.3845
    24.5000     69.6085      0.0000    100.7328    259.3853
    24.7500     69.5325      0.0000    101.9109    259.3887
    25.0000     69.5093      0.0000    103.7087    259.3938
    25.2500     69.5493      0.0000    106.0997    259.3943
    25.5000     69.6058      0.0000    108.7170    259.3864
    25.7500     69.6386      0.0000    110.5645    259.3680
    26.0000     69.6701      0.0000    110.5182    259.3404
    26.2500     69.7476      0.0000    108.2956    259.3117
    26.5000     69.8621      0.0000    104.6336    259.2977
    26.7500     69.9785      0.0000    100.4433    259.3117
    27.0000     70.1458      0.0000     96.0581    259.3423
    27.2500     70.4464      0.0000     91.3481    259.3572
    27.5000     70.8321      0.0000     86.1523    259.3396
    27.7500     71.1544      0.0000     80.4349    259.3039
    28.0000     71.3449      0.0000     74.4283    259.2747
    28.2500     71.4487      0.0000     68.8817    259.2617
    28.5000     71.5180      0.0000     64.8480    259.2591
    28.7500     71.5753      0.0000     62.8349    259.2615
    29.0000     71.6534      0.0000     62.1927    259.2658
    29.2500     71.7893      0.0000     61.6001    259.2697
    29.5000     71.9841      0.0000     60.3728    259.2730
    29.7500     72.1956      0.0000     59.2439    259.2739
    30.0000     72.3531      0.0000     59.5998    259.2688
    30.2500     72.3707      0.0000     62.0264    259.2656
    30.5000     72.0933      0.0000     65.9283    259.3031
    30.7500     70.9796      0.0000     70.4079    259.5826
    31.0000     67.6960      0.0000     75.0232    260.7997
    31.2500     61.0803      0.0000     79.7026    264.1433
    31.5000     52.9157      0.0000     84.2916    269.8847
    31.7500     47.5452      0.0000     88.2156    275.9896
    32.0000     46.2897      0.0000     90.4696    279.6758
    32.2500     46.3564      0.0000     90.2382    279.6018
    32.5000     46.0500      0.0000     87.8002    276.3694
    32.7500     45.7842      0.0000     84.6367    272.4068
    33.0000     45.7861      0.0000     82.4921    269.8927
    33.2500     45.9396     -2.0000     82.4732    268.9677
