~Version Information
VERS.                      2.0: CWLS Log ASCII Standard - VERSION 2.0
WRAP.                       NO: One line per depth step
~Well Information Block
STRT.FT               185.2500: 
STOP.FT              2109.7500: 
STEP.FT                 0.2500: 
NULL.                -999.2500: 
COMP.    Petrogulf Corporation: COMPANY
WELL.             State 16-44V: WELL
FLD.          Purgatorie River: FIELD
LOC.       320' FSL & 320' FEL: LOCATION
PROV.                 Colorado: PROVINCE
CNTY.               Las Animas: COUNTRY
SRVC.                Patterson: SERVICE COMPANY
DATE. Thu Aug 11 12:58:04 2005: LOG DATE
UWI.               071-08263  : UNIQUE WELL ID
~Curve Information Block
DEPT.FT            0 000 00 00: Depth
GR.GAPI                       : Gamma Ray
CCL.                          : Casing Collar Locator
TT3.usec                      : CBL 3' Travel Time
AMP3.mV                       : CBL 3' Amplitude
~Parameter Information Block
~A  Depth        GR         CCL         TT3         AMP3    
# ...
  1692.7500    135.1382      0.0000    684.4578      2.8120
  1693.0000    131.8781      0.0000    682.0807      2.5938
  1693.2500    127.6467      0.0000    674.5358      2.4255
  1693.5000    123.3526      0.0000    660.4093      2.2714
  1693.7500    119.7033      0.0000    643.2695      2.0865
  1694.0000    117.1339      0.0000    630.1193      1.8862
  1694.2500    115.7029      0.0000    624.5978      1.7380
  1694.5000    114.7987      0.0000    626.4229      1.6804
  1694.7500    112.8990      0.0000    634.7400      1.6911
  1695.0000    108.0982      0.0000    647.2125      1.7135
  1695.2500     99.5110      0.0000    658.5752      1.7005
  1695.5000     88.1135      0.0000    663.7746      1.6514
  1695.7500     75.9646      0.0000    661.4253      1.5961
  1696.0000     64.8641      0.0000    654.1125      1.5635
  1696.2500     55.9053      0.0000    647.0190      1.5715
  1696.5000     49.7009      0.0000    645.0491      1.6167
  1696.7500     46.3541      0.0000    650.5472      1.6653
  1697.0000     45.2719      0.0000    661.3575      1.6746
  1697.2500     45.5307      0.0000    669.0757      1.6341
  1697.5000     46.6121      0.0000    666.3643      1.5679
  1697.7500     48.5025      0.0000    657.2065      1.5044
  1698.0000     51.1150      0.0000    652.0543      1.4690
  1698.2500     54.1085      0.0000    655.7839      1.4863
  1698.5000     57.5185      0.0000    665.9549      1.5649
  1698.7500     62.1993      0.0000    676.3516      1.6879
  1699.0000     69.0887      0.0000    681.2196      1.8289
  1699.2500     77.8081      0.0000    681.1043      1.9795
  1699.5000     86.2998      0.0000    681.0618      2.1596
  1699.7500     92.3848      0.0000    683.6160      2.4135
  1700.0000     95.7153      0.0000    688.1935      2.7942
  1700.2500     97.8346      0.0000    692.4748      3.3180
  1700.5000    100.4344      0.0000    692.1676      3.9198
  1700.7500    104.0113      0.0000    685.9346      4.4850
  1701.0000    108.0295      0.0000    678.4468      4.9482
  1701.2500    111.6858      0.0000    672.6596      5.3511
  1701.5000    114.3990      0.0000    665.0323      5.8128
  1701.7500    116.0823      0.0000    653.0668      6.4367
  1702.0000    117.2076      0.0000    639.1982      7.2189
  1702.2500    118.2073      0.0000    624.9229      8.0458
  1702.5000    118.5447      0.0000    614.2290      8.7550
  1702.7500    116.9170      0.0000    617.5605      9.2043
  1703.0000    112.9399      0.0000    636.2620      9.3537
  1703.2500    108.2946      0.0000    657.2604      9.2855
  1703.5000    105.5313      0.0000    671.8239      9.1210
  1703.7500    105.7106      0.0000    683.4869      8.9385
  1704.0000    107.6045      0.0000    695.4453      8.7717
  1704.2500    109.0615      0.0000    703.1680      8.6272
  1704.5000    108.6215      0.0000    705.0798      8.4867
  1704.7500    105.9983      0.0000    707.7811      8.3431
  1705.0000    101.8840      0.0000    712.8503      8.2051
  1705.2500     97.7165      0.0000    714.6740      8.0406
  1705.5000     95.0891      0.0000    713.1909      7.7985
  1705.7500     94.6514      0.0000    714.3041      7.5088
  1706.0000     95.5583      0.0000    720.2377      7.2881
  1706.2500     96.3478      0.0000    725.6660      7.2471
  1706.5000     96.2706      0.0000    723.3272      7.4120
  1706.7500     95.5246      0.0000    713.9395      7.6860
  1707.0000     94.5011      0.0000    704.7714      7.8856
  1707.2500     93.3442      0.0000    699.6437      7.8511
  1707.5000     92.2348      0.0000    697.2518      7.5530
  1707.7500     91.7297      0.0000    695.6580      7.1031
  1708.0000     92.6070      0.0000    693.5938      6.6575
  1708.2500     95.3213      0.0000    688.9000      6.3027
  1708.5000     99.5108      0.0000    678.6281      6.0177
  1708.7500    103.8108      0.0000    663.0284      5.7224
  1709.0000    106.1535      0.0000    648.9716      5.3830
  1709.2500    104.8167      0.0000    644.9462      5.0511
  1709.5000     99.7293      0.0000    651.3234      4.7790
  1709.7500     92.7621      0.0000    660.0590      4.5532
  1710.0000     86.5493      0.0000    664.1869      4.3272
  1710.2500     82.9437      0.0000    662.4697      4.0754
  1710.5000     82.2698      0.0000    656.9740      3.8165
  1710.7500     83.5434      0.0000    651.0587      3.5993
  1711.0000     85.2702      0.0000    647.0433      3.4492
  1711.2500     86.3173      0.0000    644.7474      3.3429
  1711.5000     86.3688      0.0000    643.0975      3.2427
  1711.7500     85.8872      0.0000    641.5406      3.1327
  1712.0000     85.8471      0.0000    640.1042      3.0233
  1712.2500     87.2194      0.0000    639.4252      2.9306
  1712.5000     90.2003      0.0000    640.3607      2.8479
  1712.7500     93.8784      0.0000    642.3706      2.7451
  1713.0000     97.0006      0.0000    644.0209      2.6097
  1713.2500     99.0685      0.0000    646.6262      2.4745
  1713.5000    100.4656      0.0000    651.7195      2.3825
  1713.7500    101.7461      0.0000    654.8693      2.3501
  1714.0000    103.1164      0.0000    650.7014      2.3744
  1714.2500    104.4078      0.0000    641.3168      2.4387
  1714.5000    105.2389      0.0000    633.2565      2.5197
  1714.7500    105.2534      0.0000    629.5920      2.6079
  1715.0000    104.3523      0.0000    628.9030      2.7106
  1715.2500    102.8637      0.0000    629.1576      2.8398
  1715.5000    101.5075      0.0000    629.5492      2.9954
  1715.7500    100.8038      0.0000    629.7596      3.1541
  1716.0000    100.3127      0.0000    628.7683      3.2853
  1716.2500     98.7881      0.0000    624.5627      3.3775
  1716.5000     95.3397      0.0000    617.1392      3.4521
  1716.7500     90.3825      0.0000    613.1077      3.5362
  1717.0000     85.5458      0.0000    621.7286      3.6144
  1717.2500     82.7479      0.0000    642.3882      3.6441
  1717.5000     83.1350      0.0000    663.0984      3.6117
  1717.7500     86.5976      0.0000    674.6683      3.5313
  1718.0000     92.0059      0.0000    678.8982      3.4112
  1718.2500     97.6333      0.0000    681.3358      3.2605
  1718.5000    101.5310      0.0000    683.4709      3.1073
  1718.7500    102.2932      0.0000    684.3446      2.9810
  1719.0000    100.1188      0.0000    684.5963      2.8810
  1719.2500     96.9025      0.0000    687.2963      2.7747
  1719.5000     94.6536      0.0000    696.1898      2.6395
  1719.7500     93.7934      0.0000    709.4825      2.4902
  1720.0000     93.2970      0.0000    715.3904      2.3374
  1720.2500     92.0954      0.0000    704.0838      2.1635
  1720.5000     89.7941      0.0000    682.2217      1.9668
  1720.7500     86.4840      0.0000    663.8108      1.7791
  1721.0000     82.7033      0.0000    653.9040      1.6328
  1721.2500     79.5359      0.0000    649.7653      1.5402
  1721.5000     78.1125      0.0000    650.2290      1.4948
  1721.7500     78.8933      0.0000    656.7814      1.4832
  1722.0000     81.6811      0.0000    665.9691      1.5052
  1722.2500     86.1125      0.0000    668.9291      1.5778
  1722.5000     91.8073      0.0000    662.8293      1.7042
  1722.7500     98.2361      0.0000    653.4563      1.8514
  1723.0000    104.7393      0.0000    645.2084      1.9753
  1723.2500    110.6099      0.0000    638.5900      2.0451
  1723.5000    115.2231      0.0000    635.7528      2.0427
  1723.7500    118.4593      0.0000    639.2590      1.9855
  1724.0000    121.0268      0.0000    647.8776      1.9279
  1724.2500    123.8235      0.0000    659.5806      1.9064
  1724.5000    126.7837      0.0000    674.1949      1.9177
  1724.7500    128.8000      0.0000    689.6398      1.9465
  1725.0000    128.9013      0.0000    699.2355      1.9712
  1725.2500    126.9880      0.0000    696.7634      1.9626
  1725.5000    123.3007      0.0000    683.6428      1.9091
  1725.7500    117.8676      0.0000    667.7511      1.8308
  1726.0000    110.9107      0.0000    656.0298      1.7612
