~Version Information
VERS.                      2.0: CWLS Log ASCII Standard - VERSION 2.0
WRAP.                       NO: One line per depth step
~Well Information Block
STRT.FT               440.0000: 
STOP.FT              2735.2000: 
STEP.FT                 0.1000: 
NULL.                -999.2500: 
COMP.          Pioneer Natural Resources: COMPANY
WELL.              Cluck 21-25: WELL
FLD.           Purgatoire River: FIELD
LOC.           91' FNL & 1834' FWL--: LOCATION
PROV.                 Colorado: PROVINCE
CNTY.               Las Animas: COUNTRY
SRVC.                Patterson: SERVICE COMPANY
DATE.          Tue Jun 07 07:26:19 2005: LOG DATE
UWI.           05 071 08397 00: UNIQUE WELL ID
~Curve Information Block
DEPT.FT            0 000 00 00: Depth
DCAL.in                       : CDL Caliper
RHOB.g/cc                     : CDL Bulk Density
RHOC.g/cc                     : CDL Density Correction
DPOR.pu                       : CDL Density Porosity
NPOR.pu                       : Neutron Porosity
GR.GAPI                       : Gamma Ray
~Parameter Information Block
SNDERRM.mmho-m          0.0000: Medium Sonde Error Correction
~A  Depth       DCAL        RHOB        RHOC        DPOR        NPOR         GR     
# ...
  2705.6000      7.8796      2.5917      0.1081      3.5363     21.7360   -999.2500
  2705.7000      7.8796      2.6011      0.0541      2.9651     22.4639   -999.2500
  2705.8000      7.8756      2.6149      0.0805      2.1245     23.8985   -999.2500
  2705.9000      7.8756      2.6320      0.0921      1.0901     25.1902   -999.2500
  2706.0000      7.8818      2.6310      0.1083      1.1492     25.6076   -999.2500
  2706.1000      7.8818      2.6026      0.0838      2.8710     25.6228   -999.2500
  2706.2000      7.8818      2.5681      0.0225      4.9635     25.7842   -999.2500
  2706.3000      7.8918      2.5563      0.0471      5.6791     25.8990   -999.2500
  2706.4000      7.8918      2.5677      0.0490      4.9872     25.5833   -999.2500
  2706.5000      7.8942      2.5817      0.0662      4.1381     24.6436   -999.2500
  2706.6000      7.8942      2.5866      0.0515      3.8411     23.6042   -999.2500
  2706.7000      7.8942      2.5845      0.0727      3.9684     23.0505   -999.2500
  2706.8000      7.8867      2.5784      0.0841      4.3391     22.8437   -999.2500
  2706.9000      7.8867      2.5684      0.0521      4.9465     22.5878   -999.2500
  2707.0000      7.8774      2.5521      0.0487      5.9314     21.6979   -999.2500
  2707.1000      7.8774      2.5303      0.0422      7.2546     20.2058   -999.2500
  2707.2000      7.8774      2.5132      0.0201      8.2933     19.1315   -999.2500
  2707.3000      7.8767      2.5076      0.0373      8.6321     18.9987   -999.2500
  2707.4000      7.8767      2.5091     -0.0012      8.5387     19.2608   -999.2500
  2707.5000      7.8834      2.5163      0.0009      8.1058     19.4373   -999.2500
  2707.6000      7.8834      2.5244      0.0285      7.6150     19.5790   -999.2500
  2707.7000      7.8834      2.5232      0.0522      7.6821     19.9288   -999.2500
  2707.8000      7.8899      2.5169      0.0294      8.0669     20.4818   -999.2500
  2707.9000      7.8899      2.5181      0.0232      7.9962     20.6956   -999.2500
  2708.0000      7.8936      2.5225      0.0610      7.7273     20.2080   -999.2500
  2708.1000      7.8936      2.5127      0.0422      8.3236     19.7773   -999.2500
  2708.2000      7.8936      2.4884      0.0273      9.7953     20.0483   -999.2500
  2708.3000      7.8954      2.4711      0.0100     10.8440     20.9680   -999.2500
  2708.4000      7.8954      2.4708      0.0394     10.8622     23.6827   -999.2500
  2708.5000      7.8967      2.4735      0.0413     10.6971     30.8059   -999.2500
  2708.6000      7.8967      2.4660      0.0514     11.1485     41.1684   -999.2500
  2708.7000      7.8967      2.4552     -0.0112     11.8046     48.5151   -999.2500
  2708.8000      7.8985      2.4565      0.0346     11.7279     51.1760   -999.2500
  2708.9000      7.8985      2.4697      0.0296     10.9287     51.7000   -999.2500
  2709.0000      7.8979      2.4809      0.0756     10.2483     51.7556   -999.2500
  2709.1000      7.8979      2.4826      0.0567     10.1465     51.7587   -999.2500
  2709.2000      7.8979      2.4854      0.0243      9.9748   -999.2500   -999.2500
  2709.3000      7.8943      2.4962      0.0733      9.3241   -999.2500   -999.2500
  2709.4000      7.8943      2.5040      0.0761      8.8506   -999.2500   -999.2500
  2709.5000      7.8919      2.5035      0.0546      8.8792   -999.2500   -999.2500
  2709.6000      7.8919      2.4968      0.0677      9.2857   -999.2500   -999.2500
  2709.7000      7.8919      2.4876      0.0446      9.8454   -999.2500   -999.2500
  2709.8000      7.8926      2.4853      0.0416      9.9847   -999.2500   -999.2500
  2709.9000      7.8926      2.4888      0.0807      9.7698   -999.2500   -999.2500
  2710.0000      7.8932      2.4893      0.0447      9.7405   -999.2500   -999.2500
  2710.1000      7.8932      2.4892      0.0486      9.7447   -999.2500   -999.2500
  2710.2000      7.8932      2.4903      0.0557      9.6761   -999.2500   -999.2500
  2710.3000      7.8885      2.4927      0.0374      9.5330   -999.2500   -999.2500
  2710.4000      7.8885      2.5022      0.0492      8.9556   -999.2500   -999.2500
  2710.5000      7.8798      2.5183      0.0615      7.9838   -999.2500   -999.2500
  2710.6000      7.8798      2.5331      0.0802      7.0872   -999.2500   -999.2500
  2710.7000      7.8798      2.5397      0.0776      6.6841   -999.2500   -999.2500
  2710.8000      7.8753      2.5355      0.0854      6.9375   -999.2500   -999.2500
  2710.9000      7.8753      2.5274      0.0599      7.4299   -999.2500   -999.2500
  2711.0000      7.8744      2.5235      0.0797      7.6671   -999.2500   -999.2500
  2711.1000      7.8744      2.5227      0.0532      7.7160   -999.2500   -999.2500
  2711.2000      7.8744      2.5246      0.0532      7.5978   -999.2500   -999.2500
  2711.3000      7.8744      2.5280      0.0802      7.3939   -999.2500   -999.2500
  2711.4000      7.8744      2.5229      0.0597      7.7040   -999.2500   -999.2500
  2711.5000      7.8745      2.5029      0.0548      8.9168   -999.2500   -999.2500
  2711.6000      7.8745      2.4757      0.0170     10.5643   -999.2500   -999.2500
  2711.7000      7.8745      2.4564     -0.0036     11.7306   -999.2500   -999.2500
  2711.8000      7.8739      2.4510      0.0227     12.0593   -999.2500   -999.2500
  2711.9000      7.8739      2.4542      0.0259     11.8661   -999.2500   -999.2500
  2712.0000      7.8736      2.4620      0.0395     11.3943   -999.2500   -999.2500
  2712.1000      7.8736      2.4738      0.0305     10.6766   -999.2500   -999.2500
  2712.2000      7.8736      2.4877      0.0632      9.8388   -999.2500   -999.2500
  2712.3000      7.8742      2.4992      0.0554      9.1423   -999.2500   -999.2500
  2712.4000      7.8742      2.5063      0.0435      8.7111   -999.2500   -999.2500
  2712.5000      7.8749      2.5081      0.0820      8.5992   -999.2500   -999.2500
  2712.6000      7.8749      2.5049      0.0637      8.7911   -999.2500   -999.2500
  2712.7000      7.8749      2.4971      0.0648      9.2689   -999.2500   -999.2500
  2712.8000      7.8738      2.4822      0.0332     10.1683   -999.2500   -999.2500
  2712.9000      7.8738      2.4659      0.0169     11.1595   -999.2500   -999.2500
  2713.0000      7.8721      2.4587      0.0335     11.5938   -999.2500   -999.2500
  2713.1000      7.8721      2.4625      0.0440     11.3654   -999.2500   -999.2500
  2713.2000      7.8721      2.4770      0.0263     10.4861   -999.2500   -999.2500
  2713.3000      7.8690      2.5021      0.0503      8.9625   -999.2500   -999.2500
  2713.4000      7.8690      2.5222      0.0879      7.7437   -999.2500   -999.2500
  2713.5000      7.8580      2.5239      0.0665      7.6404   -999.2500   -999.2500
  2713.6000      7.8580      2.5177      0.0658      8.0153   -999.2500   -999.2500
  2713.7000      7.8580      2.5160      0.0725      8.1208   -999.2500   -999.2500
  2713.8000      7.8396      2.5162      0.0546      8.1091   -999.2500   -999.2500
  2713.9000      7.8396      2.5097      0.0478      8.5009   -999.2500   -999.2500
  2714.0000      7.8236      2.4923      0.0348      9.5578   -999.2500   -999.2500
  2714.1000      7.8236      2.4710      0.0109     10.8488   -999.2500   -999.2500
  2714.2000      7.8236      2.4639      0.0120     11.2814   -999.2500   -999.2500
  2714.3000      7.8168      2.4842     -0.0057     10.0464   -999.2500   -999.2500
  2714.4000      7.8168      2.5186      0.0705      7.9652   -999.2500   -999.2500
  2714.5000      7.8153      2.5370      0.0629      6.8494   -999.2500   -999.2500
  2714.6000      7.8153      2.5350      0.0764      6.9724   -999.2500   -999.2500
  2714.7000      7.8153      2.5308      0.0731      7.2222   -999.2500   -999.2500
  2714.8000      7.8156      2.5346      0.0753      6.9933   -999.2500   -999.2500
  2714.9000      7.8156      2.5428      0.0801      6.4998   -999.2500   -999.2500
  2715.0000      7.8173      2.5473      0.0761      6.2265   -999.2500   -999.2500
  2715.1000      7.8173      2.5439      0.0664      6.4275   -999.2500   -999.2500
