~Version Information
VERS.                      2.0: CWLS Log ASCII Standard - VERSION 2.0
WRAP.                       NO: One line per depth step
~Well Information Block
STRT.FT               962.7000: 
STOP.FT              2435.5000: 
STEP.FT                 0.1000: 
NULL.                -999.2500: 
COMP.          Petrogulf Corporation: COMPANY
WELL.              Hand 8-44 V: WELL
FLD.           Purgatorie River: FIELD
LOC.           1076' FEL & 820' FSL: LOCATION
CNTY.               Las Animas: COUNTY
SRVC.                         : SERVICE COMPANY
DATE.          Fri Nov 21 14:12:41 2003: LOG DATE
UWI.                          : UNIQUE WELL ID
STAT.                 Colorado: STATE
~Curve Information Block
DEPT.FT            0 000 00 00: Depth
DCAL.in                       : CDL Caliper
RHOB.g/cc                     : CDL Bulk Density
RHOC.g/cc                     : CDL Density Correction
DPOR.pu                       : CDL Density Porosity
GR.GAPI                       : Gamma Ray
NPOR.pu                       : Neutron Porosity
~Parameter Information Block
~A  Depth       DCAL        RHOB        RHOC        DPOR         GR         NPOR    
# ...
  2325.9000      8.1318      2.5201      0.0572      7.8755     98.4403     24.2883
  2326.0000      8.1194      2.5313      0.0925      7.1920    101.5793     23.9900
  2326.1000      8.1194      2.5515      0.1205      5.9725    102.4564     24.0002
  2326.2000      8.1194      2.5696      0.0945      4.8727    102.1326     24.0154
  2326.3000      8.1153      2.5760      0.1450      4.4858     99.7730     23.6303
  2326.4000      8.1153      2.5762      0.0664      4.4721     95.6658     23.0969
  2326.5000      8.1359      2.5795      0.0920      4.2744     94.7686     22.7303
  2326.6000      8.1359      2.5704      0.1374      4.8264     98.9706     22.4624
  2326.7000      8.1359      2.5398      0.0350      6.6793    102.3620     22.2383
  2326.8000      8.1437      2.5168      0.0724      8.0701     98.8914     22.3689
  2326.9000      8.1437      2.5223      0.0446      7.7393     91.2521     22.8833
  2327.0000      8.1430      2.5428      0.1014      6.4981     85.8537     23.1595
  2327.1000      8.1430      2.5606      0.0369      5.4197     84.4696     23.0739
  2327.2000      8.1430      2.5698      0.1339      4.8618     85.3839     23.4060
  2327.3000      8.1328      2.5721      0.1211      4.7227     87.7345     24.2378
  2327.4000      8.1328      2.5796      0.0930      4.2638     92.2492     24.8120
  2327.5000      8.0839      2.5886      0.0664      3.7202     98.3516     25.0201
  2327.6000      8.0839      2.5741      0.1296      4.6019    102.1138     25.1721
  2327.7000      8.0839      2.5359      0.0453      6.9138     99.4504     25.2631
  2327.8000      8.0320      2.5048      0.0240      8.7971     92.2030     25.2724
  2327.9000      8.0320      2.4899      0.0888      9.7040     85.6549     25.4255
  2328.0000      8.0192      2.4853      0.0182      9.9818     83.5529     25.5906
  2328.1000      8.0192      2.5012      0.0370      9.0176     86.2020     25.1423
  2328.2000      8.0192      2.5279      0.1208      7.3995     89.2436     24.0988
  2328.3000      8.0954      2.5446      0.0555      6.3849     89.7887     23.2693
  2328.4000      8.0954      2.5587      0.0881      5.5359     93.9646     23.1929
  2328.5000      8.1611      2.5695      0.1296      4.8817    105.3360     23.5726
  2328.6000      8.1611      2.5532      0.1326      5.8661    113.5377     23.6022
  2328.7000      8.1611      2.5138     -0.0120      8.2529    110.7900     23.1703
  2328.8000      8.1688      2.4863      0.0492      9.9219    103.4465     22.7862
  2328.9000      8.1688      2.4857      0.0200      9.9601     97.9842     22.7471
  2329.0000      8.1714      2.5079      0.0143      8.6096     94.1295     22.8714
  2329.1000      8.1714      2.5407      0.0192      6.6213     89.5106     22.9088
  2329.2000      8.1714      2.5658      0.0555      5.1004     83.2888     22.9426
  2329.3000      8.1861      2.5728      0.0800      4.6818     79.5012     23.4522
  2329.4000      8.1861      2.5592      0.1246      5.5042     83.1607     24.5471
  2329.5000      8.2003      2.5359      0.0358      6.9159     93.3776     25.3410
  2329.6000      8.2003      2.5267      0.0738      7.4709    101.6922     25.1427
  2329.7000      8.2003      2.5344      0.0639      7.0086    100.9734     24.4476
  2329.8000      8.2031      2.5364      0.0929      6.8822     94.0728     23.9673
  2329.9000      8.2031      2.5286      0.0187      7.3556     88.6237     23.4506
  2330.0000      8.1933      2.5270      0.0883      7.4516     88.0192     22.7076
  2330.1000      8.1933      2.5311      0.0609      7.2035     91.0917     22.1723
  2330.2000      8.1933      2.5329      0.0426      7.0947     96.0921     22.2277
  2330.3000      8.1918      2.5375      0.0390      6.8178    101.1233     22.8227
  2330.4000      8.1918      2.5485      0.0613      6.1496    104.3280     23.4353
  2330.5000      8.1846      2.5583      0.0743      5.5584    102.4076     23.6199
  2330.6000      8.1846      2.5592      0.0873      5.5026     94.9990     23.4300
  2330.7000      8.1846      2.5539      0.0818      5.8264     88.8667     23.3648
  2330.8000      8.1828      2.5525      0.0660      5.9081     88.4948     23.5354
  2330.9000      8.1828      2.5542      0.0985      5.8081     91.9623     23.4919
  2331.0000      8.1929      2.5451      0.0501      6.3593     93.7234     23.3501
  2331.1000      8.1929      2.5285      0.0204      7.3667     91.2513     23.6334
  2331.2000      8.1929      2.5258      0.0441      7.5264     89.5494     24.0034
  2331.3000      8.1835      2.5435      0.0321      6.4535     91.6285     23.9220
  2331.4000      8.1835      2.5528      0.1249      5.8927     90.8646     23.7740
  2331.5000      8.1907      2.5297      0.0574      7.2885     81.3057     23.9429
  2331.6000      8.1907      2.5038     -0.0193      8.8623     69.3182     24.2540
  2331.7000      8.1907      2.5105     -0.0011      8.4570     65.2581     24.5376
  2331.8000      8.1930      2.5369      0.0905      6.8569     69.4123     24.8104
  2331.9000      8.1930      2.5627      0.0918      5.2931     73.8789     24.7997
  2332.0000      8.1432      2.5900      0.0826      3.6366     75.7251     24.1703
  2332.1000      8.1432      2.6080      0.1370      2.5427     79.5090     23.3926
  2332.2000      8.1432      2.6016      0.0805      2.9354     87.3482     23.0939
  2332.3000      8.1678      2.5907      0.0897      3.5965     94.9328     23.2220
  2332.4000      8.1678      2.5922      0.0976      3.5007     96.5954     23.3307
  2332.5000      8.1678      2.5864      0.1460      3.8516     90.3314     23.1702
  2332.6000      8.1678      2.5701      0.0189      4.8443     86.0656     23.0375
  2332.7000      8.1678      2.5624      0.1147      5.3120     95.4241     23.2456
  2332.8000      8.1335      2.5606      0.0417      5.4185    108.3191     23.2638
  2332.9000      8.1335      2.5605      0.0596      5.4232    110.7969     22.5385
  2333.0000      8.1557      2.5640      0.1022      5.2106    107.5233     22.0245
  2333.1000      8.1557      2.5720      0.0716      4.7250    103.0422     22.5327
  2333.2000      8.1557      2.5860      0.0822      3.8758     98.3267     23.1223
  2333.3000      8.1710      2.5992      0.0693      3.0787     97.8190     22.7850
  2333.4000      8.1710      2.6032      0.0992      2.8368    100.3809     21.9731
  2333.5000      8.1766      2.5941      0.0695      3.3900     99.3880     21.8826
  2333.6000      8.1766      2.5646      0.1045      5.1738     93.2960     22.7086
  2333.7000      8.1766      2.5157      0.0267      8.1417     86.8519     23.4522
  2333.8000      8.1750      2.4715      0.0377     10.8175     82.6016     23.5846
  2333.9000      8.1750      2.4573     -0.0253     11.6779     78.8575     23.5421
  2334.0000      8.1705      2.4772      0.0009     10.4700     75.7458     23.6438
  2334.1000      8.1705      2.5134      0.0442      8.2759     76.2428     23.7927
  2334.2000      8.1705      2.5397      0.1001      6.6863     80.5016     23.9481
  2334.3000      8.1660      2.5368      0.0948      6.8613     84.9235     24.1662
  2334.4000      8.1660      2.5098      0.0362      8.4978     88.6453     24.1852
  2334.5000      8.1802      2.4856      0.0123      9.9634     92.3140     23.9578
  2334.6000      8.1802      2.4757      0.0339     10.5618     94.7465     24.0785
  2334.7000      8.1802      2.4716     -0.0335     10.8094     94.6382     24.5258
  2334.8000      8.1822      2.4706     -0.0021     10.8716     92.1990     24.4777
  2334.9000      8.1822      2.4734      0.0248     10.7016     88.2417     23.8174
  2335.0000      8.1655      2.4852     -0.0017      9.9860     84.3108     23.3288
  2335.1000      8.1655      2.5127      0.1196      8.3218     82.3235     23.5189
  2335.2000      8.1655      2.5486      0.0948      6.1480     82.8624     24.1710
  2335.3000      8.1772      2.5796      0.0806      4.2659     84.0841     24.5713
  2335.4000      8.1772      2.5896      0.1321      3.6610     84.1966     24.1775
