~Version Information
VERS.                      2.0: CWLS Log ASCII Standard - VERSION 2.0
WRAP.                       NO: One line per depth step
~Well Information Block
STRT.FT               -12.0000: 
STOP.FT              2137.5000: 
STEP.FT                 0.2500: 
NULL.                -999.2500: 
COMP.          Pioneer Natural Resources: COMPANY
WELL.           Ogallela 44-12: WELL
FLD.           Purgatorie River: FIELD
LOC.           610' FSL & 671' FEL------------: LOCATION
PROV.                       CO: PROVINCE
CNTY.               Las Animas: COUNTRY
SRVC.          Patterson Wireline: SERVICE COMPANY
DATE.          Thu Apr 07 14:25:46 2005: LOG DATE
UWI.           05 071 08283 00: UNIQUE WELL ID
~Curve Information Block
DEPT.FT            0 000 00 00: Depth
CCL.                          : Casing Collar Locator
TT3.usec                      : CBL 3' Travel Time
AMP3.mV                       : CBL 3' Amplitude
ATT3.db/ft                    : CBL 3' Attenuation
GR.GAPI                       : Gamma Ray
~Parameter Information Block
~A  Depth       CCL         TT3         AMP3        ATT3         GR     
# ...
   968.0000      0.0000    747.1320      4.8040     -8.6350    104.8249
   968.2500      0.0000    745.3195      4.8721     -8.5943    100.4074
   968.5000      0.0000    752.4102      4.9386     -8.5550     94.2937
   968.7500      0.0000    766.5289      4.9855     -8.5277     87.9241
   969.0000      0.0000    781.2000      4.9904     -8.5248     82.5557
   969.2500      0.0000    787.6502      4.9433     -8.5522     78.9622
   969.5000      0.0000    779.4289      4.8500     -8.6075     77.1389
   969.7500      0.0000    757.4274      4.7283     -8.6810     76.6279
   970.0000      0.0000    731.7446      4.6095     -8.7547     77.1760
   970.2500      0.0000    716.7435      4.5312     -8.8043     78.8354
   970.5000      0.0000    720.9963      4.5170     -8.8134     81.4985
   970.7500      0.0000    741.5129      4.5602     -8.7858     84.5993
   971.0000      0.0000    768.0406      4.6309     -8.7413     87.3901
   971.2500      0.0000    790.5649      4.6993     -8.6988     89.4467
   971.5000      0.0000    802.0685      4.7537     -8.6655     90.7131
   971.7500      0.0000    798.9634      4.7966     -8.6395     90.9989
   972.0000      0.0000    783.1034      4.8282     -8.6204     89.7617
   972.2500      0.0000    761.6428      4.8431     -8.6116     86.7872
   972.5000      0.0000    741.6339      4.8437     -8.6112     82.9044
   972.7500      0.0000    725.0833      4.8474     -8.6090     79.5886
   973.0000      0.0000    711.2816      4.8714     -8.5947     77.7862
   973.2500      0.0000    702.8004      4.9162     -8.5682     77.2563
   973.5000      0.0000    706.2783      4.9639     -8.5402     76.9819
   973.7500      0.0000    725.9980      4.9895     -8.5253     76.1876
   974.0000      0.0000    757.5588      4.9714     -8.5359     75.0350
   974.2500      0.0000    789.3013      4.8981     -8.5788     74.2103
   974.5000      0.0000    810.3195      4.7732     -8.6536     73.8710
   974.7500      0.0000    816.5078      4.6203     -8.7479     73.4029
   975.0000      0.0000    810.1636      4.4837     -8.8348     72.3448
   975.2500      0.0000    796.6324      4.4072     -8.8846     71.2052
   975.5000      0.0000    781.4774      4.4037     -8.8869     71.1528
   975.7500      0.0000    767.9483      4.4516     -8.8556     73.0949
   976.0000      0.0000    755.6924      4.5217     -8.8104     77.2270
   976.2500      0.0000    742.9909      4.5957     -8.7634     83.2956
   976.5000      0.0000    730.5966      4.6657     -8.7196     90.9580
   976.7500      0.0000    722.3296      4.7274     -8.6815     99.8243
   977.0000      0.0000    721.4642      4.7728     -8.6539    109.2176
   977.2500      0.0000    726.7169      4.7889     -8.6441    117.8489
   977.5000      0.0000    732.1682      4.7756     -8.6522    124.0736
   977.7500      0.0000    731.8301      4.7658     -8.6581    127.0703
   978.0000      0.0000    724.5764      4.8087     -8.6322    127.6921
   978.2500      0.0000    714.3967      4.9240     -8.5636    127.6791
   978.5000      0.0000    706.4796      5.0813     -8.4726    128.2474
   978.7500      0.0000    704.2365      5.2240     -8.3923    129.8741
   979.0000      0.0000    709.6356      5.3076     -8.3464    133.0912
   979.2500      0.0000    724.1311      5.3219     -8.3386    138.7413
   979.5000      0.0000    747.4883      5.2905     -8.3557    147.0705
   979.7500      0.0000    775.8341      5.2482     -8.3790    156.7788
   980.0000      0.0000    802.2745      5.2104     -8.3999    165.4522
   980.2500      0.0000    820.6227      5.1640     -8.4258    171.0968
   980.5000      0.0000    828.8438      5.0878     -8.4689    172.9324
   980.7500      0.0000    829.4081      4.9798     -8.5310    170.9349
   981.0000      0.0000    827.6602      4.8712     -8.5948    165.5162
   981.2500      0.0000    830.4102      4.8112     -8.6307    157.8663
   981.5000      0.0000    844.2864      4.8288     -8.6201    149.6277
   981.7500      0.0000    872.6415      4.9038     -8.5755    141.5886
   982.0000      0.0000    913.2238      4.9823     -8.5295    133.3689
   982.2500      0.0000    959.8669      5.0261     -8.5042    124.9421
   982.5000      0.0000   1006.9108      5.0418     -8.4951    117.7124
   982.7500      0.0000   1051.2367      5.0633     -8.4828    113.2400
   983.0000      0.0000   1090.2350      5.1104     -8.4560    111.2770
   983.2500      0.0000   1120.0447      5.1647     -8.4254    109.9651
   983.5000      0.0000   1137.1239      5.1875     -8.4127    107.9865
   983.7500      0.0000   1139.7063      5.1657     -8.4249    105.7159
   984.0000      0.0000   1126.4888      5.1301     -8.4448    104.0740
   984.2500      0.0000   1096.1433      5.1276     -8.4463    103.2729
   984.5000      0.0000   1050.4891      5.1840     -8.4146    103.4090
   984.7500      0.0000    997.2203      5.2944     -8.3536    105.5264
   985.0000      0.0000    947.3609      5.4307     -8.2800    110.8600
   985.2500      0.0000    909.5540      5.5476     -8.2184    118.9566
   985.5000      0.0000    886.5501      5.6017     -8.1902    127.3563
   985.7500      0.0000    875.6948      5.5796     -8.2017    133.4989
   986.0000      0.0000    871.8347      5.5046     -8.2409    136.7073
   986.2500      0.0000    870.1508      5.4175     -8.2870    138.3098
   986.5000      0.0000    867.3301      5.3559     -8.3201    140.0718
   986.7500      0.0000    861.3593      5.3410     -8.3282    142.7523
   987.0000      0.0000    851.4749      5.3676     -8.3139    146.0162
   987.2500      0.0000    838.6705      5.4092     -8.2915    149.1830
   987.5000      0.0000    825.3293      5.4401     -8.2750    151.6613
   987.7500      0.0000    812.8849      5.4460     -8.2719    152.9248
   988.0000      0.0000    799.7322      5.4122     -8.2899    152.6508
   988.2500      0.0000    782.6341      5.3186     -8.3404    151.1580
   988.5000      0.0000    760.8496      5.1549     -8.4309    149.4556
   988.7500      0.0000    738.3954      4.9396     -8.5545    148.4349
   989.0000      0.0000    722.3477      4.7178     -8.6874    148.0007
   989.2500      0.0000    719.0191      4.5416     -8.7976    147.1754
   989.5000      0.0000    730.3640      4.4487     -8.8575    144.8488
   989.7500      0.0000    752.6890      4.4560     -8.8528    140.2249
   990.0000      0.0000    778.9855      4.5719     -8.7784    132.9569
   990.2500      0.0000    803.0311      4.8052     -8.6343    123.4867
   990.5000      0.0000    821.7259      5.1528     -8.4321    113.5089
   990.7500      0.0000    834.2527      5.5855     -8.1986    105.8833
   991.0000      0.0000    840.2428      6.0597     -7.9627    103.2405
   991.2500      0.0000    839.8921      6.5401     -7.7418    105.9130
   991.5000      0.0000    836.2623      6.9884     -7.5498    111.3510
   991.7500      0.0000    835.9521      7.3532     -7.4025    115.9675
   992.0000      0.0000    844.9515      7.6069     -7.3043    117.5928
   992.2500      0.0000    862.4383      7.7725     -7.2420    116.4625
   992.5000      0.0000    879.6147      7.8707     -7.2056    114.5275
   992.7500      0.0000    886.3940      7.8580     -7.2103    114.0081
   993.0000     -2.0000    879.7925      7.6491     -7.2883    116.1149
   993.2500     -2.0000    865.1696      7.1977     -7.4644    120.4782
   993.5000      0.0000    849.5881      6.5513     -7.7369    125.4048
   993.7500      0.0000    835.5535      5.8434     -8.0679    128.8208
   994.0000      0.0000    821.1639      5.2287     -8.3897    129.4561
   994.2500      0.0000    803.1849      4.7981     -8.6386    127.4501
   994.5000      0.0000    778.0740      4.5396     -8.7989    123.9564
   994.7500      0.0000    742.9225      4.3839     -8.9000    120.2350
   995.0000      0.0000    699.9272      4.2816     -8.9684    117.0152
   995.2500      0.0000    660.2756      4.2272     -9.0053    114.5179
   995.5000      0.0000    639.8828      4.2220     -9.0089    112.8860
   995.7500      0.0000    648.0702      4.2399     -8.9967    112.5851
