~Version Information
VERS.                      2.0: CWLS Log ASCII Standard - VERSION 2.0
WRAP.                       NO: One line per depth step
~Well Information Block
STRT.FT               241.5000: 
STOP.FT              2340.7500: 
STEP.FT                 0.2500: 
NULL.                -999.2500: 
COMP.          Petrogulf Corporation: COMPANY
WELL.            Montoya 1-24V: WELL
FLD.           Purgatorie River: FIELD
LOC.           605' FSL & 2557' FWL: LOCATION
CNTY.               Las Animas: COUNTY
SRVC.                         : SERVICE COMPANY
DATE.          Tue Nov 30 10:28:39 2004: LOG DATE
UWI.           05 071 08194 00: UNIQUE WELL ID
STAT.                 Colorado: STATE
~Curve Information Block
DEPT.FT            0 000 00 00: Depth
GR.GAPI                       : Gamma Ray
CCL.                          : Casing Collar Locator
TT3.usec                      : CBL 3' Travel Time
AMP3.mV                       : CBL 3' Amplitude
~Parameter Information Block
~A  Depth        GR         CCL         TT3         AMP3    
# ...
  2318.5000     75.1594      0.0000    712.5289      1.8479
  2318.7500     72.3028      0.0000    712.1047      1.8613
  2319.0000     70.2110      0.0000    708.4429      1.8742
  2319.2500     70.4635      0.0000    701.1959      1.8792
  2319.5000     73.5585      0.0000    689.9349      1.8781
  2319.7500     78.3345      0.0000    675.2266      1.8771
  2320.0000     82.6844      0.0000    659.4878      1.8772
  2320.2500     85.1878      0.0000    646.2102      1.8733
  2320.5000     85.9502      0.0000    637.8983      1.8615
  2320.7500     85.8778      0.0000    634.6869      1.8437
  2321.0000     85.5024      0.0000    634.8188      1.8264
  2321.2500     84.7187      0.0000    636.2133      1.8146
  2321.5000     83.5148      0.0000    637.6237      1.8073
  2321.7500     82.7219      0.0000    638.7479      1.7966
  2322.0000     83.7916      0.0000    639.7380      1.7760
  2322.2500     87.6051      0.0000    640.7845      1.7463
  2322.5000     93.4325      0.0000    642.0347      1.7133
  2322.7500     99.2166      0.0000    643.7367      1.6835
  2323.0000    103.1322      0.0000    646.2266      1.6657
  2323.2500    104.8512      0.0000    649.4556      1.6728
  2323.5000    105.1967      0.0000    652.4528      1.7127
  2323.7500    104.8478      0.0000    653.7025      1.7756
  2324.0000    103.7713      0.0000    652.4615      1.8330
  2324.2500    101.6890      0.0000    649.4642      1.8556
  2324.5000     98.4992      0.0000    646.0462      1.8361
  2324.7500     94.2386      0.0000    642.8997      1.7945
  2325.0000     89.2155      0.0000    640.0790      1.7583
  2325.2500     84.3856      0.0000    637.8268      1.7390
  2325.5000     81.2011      0.0000    636.5222      1.7327
  2325.7500     80.7161      0.0000    635.0806      1.7371
  2326.0000     82.8312      0.0000    629.1776      1.7516
  2326.2500     86.5209      0.0000    610.3834      1.7548
  2326.5000     90.6516      0.0000    566.8329      1.6965
  2326.7500     94.6001      0.0000    488.2166      1.5281
  2327.0000     98.3699      0.0000    376.0970      1.2488
  2327.2500    102.1282      0.0000    250.3176      0.9199
  2327.5000    105.4794      0.0000    139.9050      0.6274
  2327.7500    107.4875      0.0000     64.2803      0.4268
  2328.0000    107.7090      0.0000     23.9113      0.3199
  2328.2500    106.8447      0.0000      7.1222      0.2755
  2328.5000    105.9887      0.0000      1.6838      0.2611
  2328.7500    105.5566      0.0000      0.3112      0.2575
  2329.0000    105.1297      0.0000      0.0411      0.2567
  2329.2500    103.9769      0.0000   -999.2500   -999.2500
  2329.5000    101.6526      0.0000   -999.2500   -999.2500
  2329.7500     98.4723      0.0000   -999.2500   -999.2500
  2330.0000     95.5202      0.0000   -999.2500   -999.2500
  2330.2500     93.9826      0.0000   -999.2500   -999.2500
  2330.5000     94.3200      0.0000   -999.2500   -999.2500
  2330.7500     96.0177      0.0000   -999.2500   -999.2500
  2331.0000     97.8811      0.0000   -999.2500   -999.2500
  2331.2500     98.4683      0.0000   -999.2500   -999.2500
  2331.5000     96.6771      0.0000   -999.2500   -999.2500
  2331.7500     92.4485      0.0000   -999.2500   -999.2500
  2332.0000     86.8910      0.0000   -999.2500   -999.2500
  2332.2500     81.5673      0.0000   -999.2500   -999.2500
  2332.5000     77.5971      0.0000   -999.2500   -999.2500
  2332.7500     75.1873      0.0000   -999.2500   -999.2500
  2333.0000     73.7818      0.0000   -999.2500   -999.2500
  2333.2500     72.9117      0.0000   -999.2500   -999.2500
  2333.5000     73.0827      0.0000   -999.2500   -999.2500
  2333.7500     75.3348      0.0000   -999.2500   -999.2500
  2334.0000     79.5794      0.0000   -999.2500   -999.2500
  2334.2500     84.0455      0.0000   -999.2500   -999.2500
  2334.5000     86.9701      0.0000   -999.2500   -999.2500
  2334.7500     88.2875   -999.2500   -999.2500   -999.2500
  2335.0000     89.0397   -999.2500   -999.2500   -999.2500
  2335.2500     89.6677   -999.2500   -999.2500   -999.2500
  2335.5000     89.6174   -999.2500   -999.2500   -999.2500
  2335.7500     88.2900   -999.2500   -999.2500   -999.2500
  2336.0000     85.5893   -999.2500   -999.2500   -999.2500
  2336.2500     81.3644   -999.2500   -999.2500   -999.2500
  2336.5000     74.6955   -999.2500   -999.2500   -999.2500
  2336.7500     64.2290   -999.2500   -999.2500   -999.2500
  2337.0000     49.7366   -999.2500   -999.2500   -999.2500
  2337.2500     33.3815   -999.2500   -999.2500   -999.2500
  2337.5000     18.8243   -999.2500   -999.2500   -999.2500
  2337.7500      8.7188   -999.2500   -999.2500   -999.2500
  2338.0000      3.2651   -999.2500   -999.2500   -999.2500
  2338.2500      0.9778   -999.2500   -999.2500   -999.2500
  2338.5000      0.2321   -999.2500   -999.2500   -999.2500
  2338.7500      0.0431   -999.2500   -999.2500   -999.2500
  2339.0000      0.0057   -999.2500   -999.2500   -999.2500
  2339.2500      0.0000   -999.2500   -999.2500   -999.2500
  2339.5000   -999.2500   -999.2500   -999.2500   -999.2500
  2339.7500   -999.2500   -999.2500   -999.2500   -999.2500
  2340.0000   -999.2500   -999.2500   -999.2500   -999.2500
  2340.2500   -999.2500   -999.2500   -999.2500   -999.2500
  2340.5000   -999.2500   -999.2500   -999.2500   -999.2500
  2340.7500   -999.2500   -999.2500   -999.2500   -999.2500
