~Version Information
 VERS.                      2.0: CWLS Log ASCII Standard - VERSION 2.0
 WRAP.                       NO: One line per depth step
 ~Well Information Block
 STRT.FT               130.0000: 
 STOP.FT              1766.9000: 
 STEP.FT                 0.1000: 
 NULL.                -999.2500: 
 COMP.          Petrogulf Corporation: COMPANY
 WELL.           Parsons 23-15V: WELL
 FLD.           Purgatorie River: FIELD
 LOC.           2095' FSL & 1817' FWL--API 05 071 07556 00----: LOCATION
 CNTY.               Las Animas: COUNTY
 SRVC.                         : SERVICE COMPANY
 DATE.          Fri Apr 19 17:40:55 2002: LOG DATE
 UWI.                          : UNIQUE WELL ID
 STAT.                       CO: STATE
 PROV.                         :Province
 ~Curve Information Block
 DEPT.FT            0 000 00 00: Depth
 DCAL.in                       : CDL Caliper
 RHOB.g/cc                     : CDL Bulk Density
 RHOC.g/cc                     : CDL Density Correction
 DPOR.pu                       : CDL Density Porosity
 GR.GAPI                       : Gamma Ray
 NPOR.pu                       : Neutron Porosity
 ~Parameter Information Block
 ~A  Depth       DCAL        RHOB        RHOC        DPOR         GR         NPOR    
# ...
   466.0000      8.0382      2.5422      0.0302      6.5354    133.6517     29.4198
   466.1000      8.0382      2.5420      0.0344      6.5458    134.0957     29.5232
   466.2000      8.0382      2.5421      0.0391      6.5419    134.5229     29.6302
   466.3000      8.0384      2.5423      0.0438      6.5269    134.8792     29.7212
   466.4000      8.0384      2.5426      0.0481      6.5070    135.1230     29.7781
   466.5000      8.0384      2.5429      0.0517      6.4905    135.2341     29.7867
   466.6000      8.0384      2.5430      0.0543      6.4878    135.2172     29.7397
   466.7000      8.0384      2.5426      0.0555      6.5100    135.1055     29.6356
   466.8000      8.0382      2.5416      0.0552      6.5685    134.9579     29.4801
   466.9000      8.0382      2.5399      0.0533      6.6740    134.8543     29.2846
   467.0000      8.0378      2.5372      0.0500      6.8354    134.8841     29.0632
   467.1000      8.0378      2.5335      0.0453      7.0590    135.1376     28.8316
   467.2000      8.0378      2.5288      0.0396      7.3478    135.6931     28.6054
   467.3000      8.0376      2.5229      0.0332      7.7012    136.5965     28.3981
   467.4000      8.0376      2.5161      0.0266      8.1146    137.8661     28.2214
   467.5000      8.0378      2.5084      0.0203      8.5794    139.4824     28.0853
   467.6000      8.0378      2.5001      0.0147      9.0836    141.3908     27.9978
   467.7000      8.0378      2.4914      0.0102      9.6120    143.5115     27.9656
   467.8000      8.0397      2.4826      0.0073     10.1475    145.7526     27.9936
   467.9000      8.0397      2.4739      0.0061     10.6721    148.0243     28.0842
   468.0000      8.0458      2.4657      0.0066     11.1675    150.2475     28.2378
   468.1000      8.0458      2.4583      0.0087     11.6168    152.3625     28.4506
   468.2000      8.0458      2.4519      0.0121     12.0051    154.3329     28.7158
   468.3000      8.0549      2.4467      0.0165     12.3201    156.1383     29.0214
   468.4000      8.0549      2.4429      0.0214     12.5535    157.7665     29.3514
   468.5000      8.0611      2.4405      0.0265     12.6999    159.2055     29.6866
   468.6000      8.0611      2.4395      0.0315     12.7580    160.4350     30.0057
   468.7000      8.0611      2.4400      0.0361     12.7296    161.4260     30.2874
   468.8000      8.0655      2.4418      0.0402     12.6193    162.1406     30.5132
   468.9000      8.0655      2.4448      0.0435     12.4339    162.5450     30.6702
   469.0000      8.0687      2.4490      0.0462     12.1813    162.6162     30.7515
   469.1000      8.0687      2.4542      0.0482     11.8696    162.3540     30.7585
   469.2000      8.0687      2.4601      0.0499     11.5067    161.7862     30.6985
   469.3000      8.0670      2.4669      0.0513     11.0989    160.9668     30.5839
   469.4000      8.0670      2.4743      0.0526     10.6512    159.9662     30.4290
   469.5000      8.0600      2.4823      0.0542     10.1658    158.8568     30.2478
   469.6000      8.0600      2.4909      0.0564      9.6428    157.6985     30.0511
   469.7000      8.0600      2.5002      0.0592      9.0802    156.5263     29.8457
   469.8000      8.0453      2.5102      0.0629      8.4743    155.3383     29.6345
   469.9000      8.0453      2.5210      0.0677      7.8202    154.1015     29.4169
   470.0000      8.0245      2.5326      0.0736      7.1128    152.7588     29.1910
   470.1000      8.0245      2.5453      0.0805      6.3480    151.2380     28.9555
   470.2000      8.0245      2.5589      0.0883      5.5233    149.4724     28.7094
   470.3000      8.0001      2.5735      0.0967      4.6393    147.4041     28.4544
   470.4000      8.0001      2.5890      0.1052      3.6999    144.9976     28.1936
   470.5000      7.9835      2.6052      0.1134      2.7140    142.2426     27.9315
   470.6000      7.9835      2.6220      0.1207      1.6950    139.1514     27.6733
   470.7000      7.9835      2.6391      0.1267      0.6615    135.7583     27.4240
   470.8000      7.9838      2.6560      0.1309     -0.3631    132.1200     27.1888
   470.9000      7.9838      2.6723      0.1330     -1.3514    128.3122     26.9724
   471.0000      8.0066      2.6875      0.1327     -2.2731    124.4298     26.7798
   471.1000      8.0066      2.7011      0.1298     -3.0966    120.5837     26.6171
   471.2000      8.0066      2.7126      0.1244     -3.7909    116.9030     26.4906
   471.3000      8.0592      2.7214      0.1166     -4.3275    113.5253     26.4075
   471.4000      8.0592      2.7273      0.1066     -4.6831    110.5951     26.3754
   471.5000      8.1145      2.7299      0.0950     -4.8409    108.2468     26.4008
   471.6000      8.1145      2.7291      0.0822     -4.7925    106.6004     26.4875
   471.7000      8.1145      2.7249      0.0692     -4.5390    105.7547     26.6364
   471.8000      8.1015      2.7175      0.0567     -4.0905    105.7742     26.8434
   471.9000      8.1015      2.7072      0.0458     -3.4661    106.6845     27.1001
   472.0000      8.0234      2.6944      0.0372     -2.6919    108.4736     27.3941
   472.1000      8.0234      2.6797      0.0313     -1.7996    111.0866     27.7099
   472.2000      8.0234      2.6636      0.0282     -0.8236    114.4284     28.0307
   472.3000      7.9721      2.6467      0.0275      0.2012    118.3607     28.3401
   472.4000      7.9721      2.6295      0.0288      1.2414    122.7169     28.6246
   472.5000      7.9719      2.6126      0.0311      2.2678    127.2975     28.8732
   472.6000      7.9719      2.5963      0.0339      3.2558    131.8908     29.0778
   472.7000      7.9719      2.5809      0.0365      4.1870    136.2807     29.2333
   472.8000      7.9966      2.5667      0.0386      5.0490    140.2679     29.3364
   472.9000      7.9966      2.5537      0.0401      5.8350    143.6836     29.3850
   473.0000      8.0266      2.5420      0.0409      6.5439    146.4109     29.3782
   473.1000      8.0266      2.5316      0.0413      7.1786    148.3948     29.3170
   473.2000      8.0266      2.5222      0.0414      7.7460    149.6481     29.2059
   473.3000      8.0516      2.5138      0.0415      8.2552    150.2522     29.0534
   473.4000      8.0516      2.5062      0.0419      8.7172    150.3434     28.8738
   473.5000      8.0654      2.4991      0.0426      9.1436    150.0977     28.6860
   473.6000      8.0654      2.4925      0.0437      9.5463    149.7036     28.5127
   473.7000      8.0654      2.4861      0.0451      9.9363    149.3412     28.3780
   473.8000      8.0706      2.4797      0.0467     10.3232    149.1576     28.3035
   473.9000      8.0706      2.4732      0.0482     10.7149    149.2485     28.3059
   474.0000      8.0724      2.4666      0.0496     11.1167    149.6523     28.3937
   474.1000      8.0724      2.4597      0.0506     11.5312    150.3459     28.5665
   474.2000      8.0724      2.4527      0.0511     11.9580    151.2559     28.8148
   474.3000      8.0740      2.4455      0.0509     12.3937    152.2710     29.1223
   474.4000      8.0740      2.4383      0.0502     12.8317    153.2655     29.4664
   474.5000      8.0805      2.4312      0.0490     13.2629    154.1173     29.8234
   474.6000      8.0805      2.4243      0.0475     13.6764    154.7221     30.1698
   474.7000      8.0805      2.4180      0.0460     14.0594    155.0092     30.4845
   474.8000      8.0919      2.4124      0.0446     14.3984    154.9489     30.7510
   474.9000      8.0919      2.4078      0.0436     14.6807    154.5477     30.9565
   475.0000      8.0932      2.4042      0.0431     14.8942    153.8431     31.0940
   475.1000      8.0932      2.4020      0.0432     15.0290    152.8944     31.1601
   475.2000      8.0932      2.4012      0.0439     15.0779    151.7661     31.1562
   475.3000      8.0781      2.4019      0.0452     15.0372    150.5097     31.0883
   475.4000      8.0781      2.4040      0.0470     14.9068    149.1611     30.9655
   475.5000      8.0520      2.4076      0.0491     14.6907    147.7254     30.8002
