~Version Information
VERS.                      2.0: CWLS Log ASCII Standard - VERSION 2.0
WRAP.                       NO: One line per depth step
~Well Information Block
STRT.FT               757.3000: 
STOP.FT              2418.0000: 
STEP.FT                 0.1000: 
NULL.                -999.2500: 
COMP.          Petrogulf Corporation: COMPANY
WELL.            Montoya 7-21V: WELL
FLD.           Purgatorie River: FIELD
LOC.           738' FSL & 2070' FWL: LOCATION
CNTY.               Las Animas: COUNTY
SRVC.                         : SERVICE COMPANY
DATE.          Fri Aug 20 14:08:15 2004: LOG DATE
UWI.           05 071 08018 00: UNIQUE WELL ID
STAT.                 Colorado: STATE
~Curve Information Block
DEPT.FT            0 000 00 00: Depth
DCAL.in                       : CDL Caliper
RHOB.g/cc                     : CDL Bulk Density
RHOC.g/cc                     : CDL Density Correction
DPOR.pu                       : CDL Density Porosity
GR.GAPI                       : Gamma Ray
NPOR.pu                       : Neutron Porosity
~Parameter Information Block
~A  Depth       DCAL        RHOB        RHOC        DPOR         GR         NPOR    
# ...
  2187.7000      7.8030      2.5135      0.0871      8.2720     90.1267     22.6742
  2187.8000      7.7995      2.5296      0.0697      7.2964     78.0074     22.3202
  2187.9000      7.7995      2.5495      0.0159      6.0931     70.0995     21.3883
  2188.0000      7.8063      2.5621      0.1051      5.3272     72.9711     20.1176
  2188.1000      7.8063      2.5576      0.0336      5.6001     80.6354     18.7485
  2188.2000      7.8063      2.5563      0.0255      5.6799     83.4273     17.9167
  2188.3000      7.8100      2.5690      0.0561      4.9091     78.8650     17.9573
  2188.4000      7.8100      2.5777      0.0690      4.3820     73.3814     18.2418
  2188.5000      7.8095      2.5725      0.0430      4.6957     70.4823     18.0002
  2188.6000      7.8095      2.5635      0.0391      5.2431     68.9906     17.2512
  2188.7000      7.8095      2.5628     -0.0088      5.2859     68.0009     16.5800
  2188.8000      7.8082      2.5684      0.0350      4.9427     66.3416     16.2331
  2188.9000      7.8082      2.5655      0.0408      5.1198     65.2313     15.9739
  2189.0000      7.8097      2.5470      0.0059      6.2439     66.1767     15.4109
  2189.1000      7.8097      2.5205      0.0040      7.8479     66.8275     14.6385
  2189.2000      7.8097      2.5004     -0.0011      9.0658     67.1184     14.4940
  2189.3000      7.8107      2.5008     -0.0336      9.0441     70.2475     15.1301
  2189.4000      7.8107      2.5155      0.0432      8.1543     74.3752     15.7184
  2189.5000      7.8096      2.5233      0.0466      7.6779     74.0097     16.0516
  2189.6000      7.8096      2.5275     -0.0060      7.4224     68.4783     16.3759
  2189.7000      7.8096      2.5477      0.0087      6.2010     62.2634     16.1777
  2189.8000      7.8142      2.5757      0.0676      4.5058     60.0653     15.4258
  2189.9000      7.8142      2.5834      0.0575      4.0369     60.3611     15.1140
  2190.0000      7.8187      2.5624      0.0364      5.3103     59.4552     15.4554
  2190.1000      7.8187      2.5274      0.0148      7.4306     57.6483     15.7886
  2190.2000      7.8187      2.4937     -0.0106      9.4746     55.0147     16.0176
  2190.3000      7.8082      2.4659     -0.0112     11.1578     53.7647     16.7676
  2190.4000      7.8082      2.4370     -0.0131     12.9067     56.9666     18.1691
  2190.5000      7.7906      2.3844      0.0143     16.0992     61.3388     19.5452
  2190.6000      7.7906      2.2841     -0.0320     22.1751     61.7923     20.3963
  2190.7000      7.7906      2.1501     -0.0908     30.2978     58.4412     21.1164
  2190.8000      7.7829      2.0266     -0.0953     37.7818     54.4558     22.2592
  2190.9000      7.7829      1.9418     -0.0854     42.9202     52.4345     23.7877
  2191.0000      7.7891      1.8927     -0.0708     45.8995     55.0302     25.4431
  2191.1000      7.7891      1.8663     -0.0791     47.4986     61.8160     27.0425
  2191.2000      7.7891      1.8636     -0.0405     47.6608     66.5215     28.3524
  2191.3000      7.7965      1.8968     -0.0035     45.6475     66.3409     29.1302
  2191.4000      7.7965      1.9638      0.1289     41.5869     63.7353     29.4656
  2191.5000      7.7883      2.0403      0.1884     36.9495     61.7496     29.7781
  2191.6000      7.7883      2.1162      0.1950     32.3487     65.3417     30.1636
  2191.7000      7.7883      2.1986      0.2225     27.3573     72.8273     30.2253
  2191.8000      7.7621      2.2741      0.2252     22.7808     74.2125     29.9320
  2191.9000      7.7621      2.3245      0.1123     19.7247     70.1357     29.3735
  2192.0000      7.7419      2.3550      0.1169     17.8806     71.4002     28.6877
  2192.1000      7.7419      2.3788      0.0954     16.4363     80.4422     28.4522
  2192.2000      7.7419      2.4066      0.1046     14.7510     91.5785     28.8060
  2192.3000      7.7369      2.4366      0.1291     12.9307     98.9125     29.0675
  2192.4000      7.7369      2.4515      0.1393     12.0287    100.5008     28.9056
  2192.5000      7.7341      2.4468      0.0841     12.3139    102.0670     28.5821
  2192.6000      7.7341      2.4418      0.0599     12.6198    108.5387     28.3911
  2192.7000      7.7341      2.4401      0.0771     12.7240    114.3560     28.2480
  2192.8000      7.7211      2.4217      0.1020     13.8370    112.2048     27.7353
  2192.9000      7.7211      2.3814      0.0615     16.2783    104.5126     26.7160
  2193.0000      7.7106      2.3397      0.0015     18.8080     98.2491     25.7233
  2193.1000      7.7106      2.3168     -0.0036     20.1928     98.4305     25.2817
  2193.2000      7.7106      2.3115     -0.0064     20.5148    102.4933     25.1300
  2193.3000      7.7258      2.3099      0.0256     20.6144    104.1474     25.0425
  2193.4000      7.7258      2.3095     -0.0021     20.6387    105.3301     25.2772
  2193.5000      7.7650      2.3180      0.0158     20.1186    108.8571     25.4824
  2193.6000      7.7650      2.3296      0.0661     19.4176    107.2615     25.2016
  2193.7000      7.7650      2.3251      0.0966     19.6902     95.7790     25.0444
  2193.8000      7.7969      2.2991      0.0430     21.2648     84.5088     25.4741
  2193.9000      7.7969      2.2748     -0.0177     22.7370     83.0120     26.0883
  2194.0000      7.7998      2.2754      0.0094     22.7018     86.3468     26.4652
  2194.1000      7.7998      2.2928      0.0410     21.6515     85.3075     26.6236
  2194.2000      7.7998      2.3082      0.0493     20.7141     79.1645     26.6078
  2194.3000      7.7891      2.3149      0.1006     20.3086     74.6082     26.3098
  2194.4000      7.7891      2.3156      0.0696     20.2671     73.4991     25.6667
  2194.5000      7.7902      2.3233      0.0528     19.8007     73.5389     25.2213
  2194.6000      7.7902      2.3466      0.0449     18.3905     74.8393     25.3036
  2194.7000      7.7902      2.3826      0.0666     16.2036     74.8960     25.1136
  2194.8000      7.8025      2.4230      0.0703     13.7551     71.3697     24.4287
  2194.9000      7.8025      2.4517      0.1034     12.0199     69.4189     24.1571
  2195.0000      7.8111      2.4605      0.0654     11.4823     72.4200     24.5044
  2195.1000      7.8111      2.4627      0.0574     11.3508     75.2726     24.4390
  2195.2000      7.8111      2.4647      0.1066     11.2313     73.9173     23.3256
  2195.3000      7.8155      2.4639      0.0244     11.2788     69.7321     21.5880
  2195.4000      7.8155      2.4703      0.0340     10.8931     65.4517     20.0796
  2195.5000      7.8192      2.4870      0.0585      9.8807     64.0140     19.7457
  2195.6000      7.8192      2.5052      0.0575      8.7754     62.4015     20.3792
  2195.7000      7.8192      2.5261      0.0226      7.5119     54.5768     20.8102
  2195.8000      7.8206      2.5556      0.0260      5.7209     43.6888     20.9536
  2195.9000      7.8206      2.5832      0.1053      4.0460     36.6876     21.3396
  2196.0000      7.8132      2.5931      0.1221      3.4472     36.7116     21.6421
  2196.1000      7.8132      2.5890      0.0859      3.6966     44.8838     21.3269
  2196.2000      7.8132      2.5801      0.1097      4.2367     57.1244     21.0219
  2196.3000      7.8077      2.5627      0.0927      5.2892     66.6121     21.4386
  2196.4000      7.8077      2.5320      0.0659      7.1513     70.6591     22.1482
  2196.5000      7.8089      2.4952      0.0050      9.3823     73.0304     22.6262
  2196.6000      7.8089      2.4699     -0.0057     10.9144     77.2756     23.1552
  2196.7000      7.8089      2.4638     -0.0148     11.2866     82.1678     23.7042
  2196.8000      7.8124      2.4669      0.0246     11.0962     88.2309     23.6691
  2196.9000      7.8124      2.4644      0.0739     11.2480     94.9865     23.2978
  2197.0000      7.8176      2.4539      0.0006     11.8845     98.7377     23.3913
  2197.1000      7.8176      2.4465      0.0170     12.3322     96.6576     24.3080
  2197.2000      7.8176      2.4408      0.0227     12.6810     91.9119     25.2224
