~Version Information
VERS.                      2.0: CWLS Log ASCII Standard - VERSION 2.0
WRAP.                       NO: One line per depth step
~Well Information Block
STRT.FT               970.5000: 
STOP.FT              2720.0000: 
STEP.FT                 0.1000: 
NULL.                -999.2500: 
COMP.          Petrogulf Corporation: COMPANY
WELL.             Burson 8-31V: WELL
FLD.           Purgatorie River: FIELD
LOC.           1113' FNL & 2152' FEL: LOCATION
CNTY.               Las Animas: COUNTY
SRVC.                         : SERVICE COMPANY
DATE.          Wed Nov 12 14:59:14 2003: LOG DATE
UWI.                          : UNIQUE WELL ID
STAT.                 Colorado: STATE
~Curve Information Block
DEPT.FT            0 000 00 00: Depth
DCAL.in                       : CDL Caliper
DPOR.pu                       : CDL Density Porosity
NEU.NAPI                      : Neutron
NPOR.pu                       : Neutron Porosity
RHOB.g/cc                     : CDL Bulk Density
RHOC.g/cc                     : CDL Density Correction
GR.GAPI                       : Gamma Ray
~Parameter Information Block
~A  Depth       DCAL        DPOR        NEU         NPOR        RHOB        RHOC         GR     
# ...
  2138.1000      8.1812      0.3657   1057.0691     29.8380      2.6440      0.0840    136.6033
  2138.2000      8.1812      0.7243   1044.0240     30.5483      2.6380      0.0566    136.6033
  2138.3000      8.1583      1.7274   1039.8264     30.7778      2.6215      0.1117    129.2727
  2138.4000      8.1583      3.7454   1050.1356     30.2150      2.5882      0.0564    129.2727
  2138.5000      8.1302      5.8881   1066.2095     29.3428      2.5528      0.0326    156.3788
  2138.6000      8.1302      6.3339   1074.9805     28.8697      2.5455     -0.0233    156.3788
  2138.7000      8.1302      4.3361   1074.0804     28.9182      2.5785      0.0263    156.3788
  2138.8000      8.1631      2.0326   1073.4532     28.9519      2.6165      0.1224    134.2430
  2138.9000      8.1631      2.3655   1082.3104     28.4760      2.6110      0.0864    134.2430
  2139.0000      8.1714      4.5530   1096.5059     27.7178      2.5749     -0.0702    132.7986
  2139.1000      8.1714      5.2847   1103.5778     27.3424      2.5628     -0.0062    132.7986
  2139.2000      8.1714      3.7941   1099.8280     27.5412      2.5874      0.0505    132.7986
  2139.3000      8.1754      1.9366   1099.2665     27.5711      2.6180      0.0636    138.1670
  2139.4000      8.1754      1.4040   1112.9375     26.8479      2.6268      0.0598    138.1670
  2139.5000      8.2215      2.1366   1130.2661     25.9401      2.6147     -0.0004    128.0674
  2139.6000      8.2215      2.7142   1135.7407     25.6555      2.6052      0.0501    128.0674
  2139.7000      8.2215      2.4529   1128.6207     26.0259      2.6095      0.0565    128.0674
  2139.8000      8.2254      1.3889   1125.9150     26.1671      2.6271      0.0592    126.5288
  2139.9000      8.2254     -0.2953   1141.8763     25.3378      2.6549      0.0539    126.5288
  2140.0000      8.2302     -1.2993   1169.3018     23.9349      2.6714      0.1166    114.9054
  2140.1000      8.2302     -0.2001   1190.8683     22.8531      2.6533      0.1083    114.9054
  2140.2000      8.2302      2.1000   1203.1345     22.2467      2.6153      0.0130    114.9054
  2140.3000      8.2495      4.0664   1215.5881     21.6380      2.5829      0.1426    106.2752
  2140.4000      8.2495      5.6742   1234.7532     20.7155      2.5564      0.0298    106.2752
  2140.5000      8.2517      6.8883   1260.7996     19.4912      2.5363      0.0037     85.8328
  2140.6000      8.2517      7.5679   1285.3060     18.3722      2.5251      0.0262     85.8328
  2140.7000      8.2517      7.7640   1299.2557     17.7502      2.5219     -0.0334     85.8328
  2140.8000      8.1844      7.2821   1307.3268     17.3955      2.5298      0.0130     80.6132
  2140.9000      8.1844      6.5388   1322.7428     16.7289      2.5421      0.0897     80.6132
  2141.0000      8.1368      6.2830   1346.4264     15.7334      2.5463      0.0620     81.4378
  2141.1000      8.1368      6.5007   1361.6816     15.1108      2.5427      0.0510     81.4378
  2141.2000      8.1368      6.9841   1357.2021     15.2921      2.5348      0.0815     81.4378
  2141.3000      8.1059      7.5421   1348.0483     15.6665      2.5256      0.0454     68.7166
  2141.4000      8.1059      7.8826   1349.8479     15.5925      2.5199      0.0938     68.7166
  2141.5000      8.0952      7.7108   1357.1436     15.2945      2.5228      0.0174     64.1037
  2141.6000      8.0952      7.2156   1365.7671     14.9464      2.5309      0.0952     64.1037
  2141.7000      8.0952      7.5340   1378.5970     14.4364      2.5257      0.0721     64.1037
  2141.8000      8.0839      9.1494   1396.1935     13.7516      2.4990      0.1130     52.9508
  2141.9000      8.0839     11.0722   1411.9669     13.1513      2.4673      0.0686     52.9508
  2142.0000      8.0952     12.3216   1421.3562     12.7996      2.4467      0.0493     57.8792
  2142.1000      8.0952     12.9888   1433.8448     12.3381      2.4357      0.0853     57.8792
  2142.2000      8.0952     12.9061   1444.9332     11.9338      2.4370      0.0354     57.8792
  2142.3000      8.1025     12.1870   1444.0558     11.9656      2.4489      0.0770     52.9603
  2142.4000      8.1025     12.3744   1437.5753     12.2015      2.4458      0.0727     52.9603
  2142.5000      8.1149     13.8471   1434.6333     12.3091      2.4215      0.0340     45.2607
  2142.6000      8.1149     15.1024   1440.9324     12.0791      2.4008      0.0389     45.2607
  2142.7000      8.1149     14.9287   1451.1993     11.7076      2.4037      0.0046     45.2607
  2142.8000      8.1892     13.4875   1455.5808     11.5503      2.4275      0.0943     42.4128
  2142.9000      8.1892     12.4611   1456.0057     11.5351      2.4444      0.1442     42.4128
  2143.0000      8.1144     13.1471   1466.2070     11.1717      2.4331      0.1048     45.2575
  2143.1000      8.1144     14.4857   1481.2339     10.6432      2.4110      0.0158     45.2575
  2143.2000      8.1144     14.8736   1483.8693     10.5512      2.4046      0.0546     45.2575
  2143.3000      8.1083     14.7295   1481.8137     10.6229      2.4070      0.0914     51.6794
  2143.4000      8.1083     14.7099   1484.4254     10.5319      2.4073      0.0624     51.6794
  2143.5000      8.1147     14.0845   1485.3555     10.4995      2.4176      0.0210     48.4439
  2143.6000      8.1147     13.1512   1477.0236     10.7905      2.4330      0.0929     48.4439
  2143.7000      8.1147     13.5093   1465.7441     11.1882      2.4271      0.0764     48.4439
  2143.8000      8.1099     15.1365   1463.4393     11.2699      2.4002      0.0339     50.2962
  2143.9000      8.1099     16.8461   1463.5834     11.2648      2.3720      0.0069     50.2962
  2144.0000      8.1098     18.1560   1460.0857     11.3893      2.3504      0.0602     50.2811
  2144.1000      8.1098     18.4802   1464.7814     11.2223      2.3451     -0.0473     50.2811
  2144.2000      8.1098     17.2023   1480.3304     10.6747      2.3662      0.0469     50.2811
  2144.3000      8.1145     15.3088   1496.5637     10.1113      2.3974     -0.0004     49.2995
  2144.4000      8.1145     14.3466   1504.4929      9.8389      2.4133      0.0492     49.2995
  2144.5000      8.1155     14.8470   1505.0095      9.8212      2.4050      0.0822     48.0371
  2144.6000      8.1155     15.9204   1501.9358      9.9266      2.3873      0.0065     48.0371
  2144.7000      8.1155     16.1225   1494.9240     10.1679      2.3840      0.0541     48.0371
  2144.8000      8.1194     15.2808   1492.7987     10.2413      2.3979      0.0809     48.7743
  2144.9000      8.1194     14.7953   1499.7150     10.0028      2.4059      0.0819     48.7743
  2145.0000      8.1271     16.0041   1501.9908      9.9247      2.3859      0.0589     37.4522
  2145.1000      8.1271     18.3841   1494.5513     10.1807      2.3467      0.0430     37.4522
  2145.2000      8.1271     19.9455   1484.5732     10.5267      2.3209      0.0075     37.4522
  2145.3000      8.1211     19.5234   1478.9911     10.7216      2.3279      0.0074     34.9497
  2145.4000      8.1211     17.9352   1479.9049     10.6896      2.3541      0.0130     34.9497
  2145.5000      8.1300     16.7357   1488.2970     10.3973      2.3739      0.0857     39.7052
  2145.6000      8.1300     16.3179   1505.8826      9.7913      2.3808      0.0343     39.7052
  2145.7000      8.1300     16.2797   1524.8199      9.1478      2.3814      0.0516     39.7052
  2145.8000      8.1356     16.8200   1533.0205      8.8716      2.3725      0.0840     46.9636
  2145.9000      8.1356     17.5947   1526.1406      9.1032      2.3597      0.0421     46.9636
  2146.0000      8.1342     17.4519   1512.2233      9.5749      2.3620      0.0597     44.9448
  2146.1000      8.1342     16.3610   1501.6248      9.9372      2.3800      0.0616     44.9448
  2146.2000      8.1342     14.7358   1495.9288     10.1332      2.4069      0.0044     44.9448
  2146.3000      8.1334     13.0270   1490.3401     10.3264      2.4351      0.1152     48.6749
  2146.4000      8.1334     12.1696   1486.8829     10.4464      2.4492      0.0706     48.6749
