~Version Information
VERS.                      2.0: CWLS Log ASCII Standard - VERSION 2.0
WRAP.                       NO: One line per depth step
~Well Information Block
STRT.FT               743.8000: 
STOP.FT              1975.8000: 
STEP.FT                 0.1000: 
NULL.                -999.2500: 
COMP.          Petrogulf Corporation: COMPANY
WELL.            Montoya 6-14V: WELL
FLD.           Purgatorie River: FIELD
LOC.           318' FSL & 882' FWL: LOCATION
CNTY.               Las Animas: COUNTY
SRVC.                         : SERVICE COMPANY
DATE.          Sat Aug 14 09:19:43 2004: LOG DATE
UWI.           05 071 08020 00: UNIQUE WELL ID
STAT.                 Colorado: STATE
~Curve Information Block
DEPT.FT            0 000 00 00: Depth
DCAL.in                       : CDL Caliper
RHOB.g/cc                     : CDL Bulk Density
RHOC.g/cc                     : CDL Density Correction
DPOR.pu                       : CDL Density Porosity
GR.GAPI                       : Gamma Ray
NPOR.pu                       : Neutron Porosity
~Parameter Information Block
~A  Depth       DCAL        RHOB        RHOC        DPOR         GR         NPOR    
# ...
   782.2000   -999.2500   -999.2500   -999.2500   -999.2500     74.6907     43.2735
   782.3000   -999.2500   -999.2500   -999.2500   -999.2500     69.4345     42.8619
   782.4000   -999.2500   -999.2500   -999.2500   -999.2500     64.9657     42.7725
   782.5000   -999.2500   -999.2500   -999.2500   -999.2500     66.7439     42.8662
   782.6000   -999.2500   -999.2500   -999.2500   -999.2500     72.9597     43.0102
   782.7000   -999.2500   -999.2500   -999.2500   -999.2500     82.3443     43.0845
   782.8000   -999.2500   -999.2500   -999.2500   -999.2500     91.1157     42.9908
   782.9000   -999.2500   -999.2500   -999.2500   -999.2500     93.2142     42.8158
   783.0000      8.1514   -999.2500   -999.2500   -999.2500     90.3983     42.8339
   783.1000      8.1514   -999.2500     -0.6534   -999.2500     88.5337     43.0100
   783.2000      8.1514   -999.2500     -0.6647   -999.2500     88.0375     43.0629
   783.3000      8.1297   -999.2500     -0.6241   -999.2500     87.6829     43.0364
   783.4000      8.1297   -999.2500     -0.6108   -999.2500     86.7301     43.0835
   783.5000      8.1174   -999.2500     -0.6500   -999.2500     83.4697     43.1177
   783.6000      8.1174      2.2652     -0.6285     23.3238     79.6474     43.0172
   783.7000      8.1174      2.2557     -0.6545     23.8987     80.4582     42.8336
   783.8000      8.1091      2.2389     -0.6699     24.9129     87.7330     42.6960
   783.9000      8.1091      2.2184     -0.6772     26.1592     97.6392     42.5654
   784.0000      8.1333      2.2071     -0.6680     26.8419    102.1636     42.4052
   784.1000      8.1333      2.2067     -0.6315     26.8652     95.6120     42.3518
   784.2000      8.1333      2.2064     -0.6558     26.8860     85.0023     42.3612
   784.3000      8.1367      2.2008     -0.6601     27.2249     81.1305     42.4496
   784.4000      8.1367      2.1926     -0.6740     27.7192     83.6408     42.8457
   784.5000      8.1250      2.1883     -0.6737     27.9818     86.7953     43.3069
   784.6000      8.1250      2.1913     -0.6751     27.7988     88.0833     43.3596
   784.7000      8.1250      2.2056     -0.6572     26.9323     88.8330     43.0630
   784.8000      8.1184      2.2307     -0.6269     25.4120     90.9165     42.8492
   784.9000      8.1184      2.2562     -0.6344     23.8690     94.0281     42.9740
   785.0000      8.1251      2.2703     -0.5991     23.0114     95.6206     43.2252
   785.1000      8.1251      2.2662     -0.5818     23.2613     93.3067     43.3332
   785.2000      8.1251      2.2433     -0.6060     24.6455     88.6656     43.4108
   785.3000      8.1204      2.2061     -0.6204     26.9045     85.1489     43.5455
   785.4000      8.1204      2.1681     -0.6559     29.2062     84.1744     43.5762
   785.5000      8.1235      2.1481     -0.6544     30.4183     86.2168     43.4532
   785.6000      8.1235      2.1496     -0.6626     30.3284     87.9982     43.3463
   785.7000      8.1235      2.1581     -0.6296     29.8135     87.4401     43.3323
   785.8000      8.1331      2.1656     -0.6841     29.3588     87.6397     43.2579
   785.9000      8.1331      2.1851     -0.6791     28.1769     88.9688     43.1289
   786.0000      8.1328      2.2217     -0.6405     25.9559     89.3086     43.0145
   786.1000      8.1328      2.2585     -0.6453     23.7267     88.2810     42.9050
   786.2000      8.1328      2.2798     -0.6098     22.4336     87.6838     42.9304
   786.3000      8.1542      2.2848     -0.6428     22.1310     86.1428     42.9952
   786.4000      8.1542      2.2882     -0.6836     21.9286     80.8531     42.9024
   786.5000      8.1480      2.2987     -0.6035     21.2916     76.2553     42.8162
   786.6000      8.1480      2.3124     -0.6389     20.4624     77.5050     42.8879
   786.7000      8.1480      2.3294     -0.5744     19.4324     83.6292     42.9703
   786.8000      8.1435      2.3455     -0.5824     18.4556     91.3439     42.8978
   786.9000      8.1435      2.3535     -0.5694     17.9688     96.8331     42.6886
   787.0000      8.1472      2.3593     -0.6001     17.6209     95.5105     42.4862
   787.1000      8.1472      2.3726     -0.6086     16.8110     88.7428     42.3479
   787.2000      8.1472      2.3847     -0.5274     16.0799     84.1128     42.0668
   787.3000      8.1341      2.3819     -0.5493     16.2460     84.3603     41.5820
   787.4000      8.1341      2.3722     -0.5334     16.8368     84.8315     41.2141
   787.5000      8.1263      2.3654     -0.5567     17.2498     81.7190     41.2949
   787.6000      8.1263      2.3534     -0.5386     17.9735     78.7875     41.6975
   787.7000      8.1263      2.3306     -0.5929     19.3589     81.0594     42.0050
   787.8000      8.1512      2.3080     -0.6008     20.7299     86.4184     41.9633
   787.9000      8.1512      2.2949     -0.6281     21.5224     88.1150     41.5810
   788.0000      8.1381      2.2934     -0.6281     21.6132     85.5201     41.2493
   788.1000      8.1381      2.2992     -0.5865     21.2627     84.3118     41.3227
   788.2000      8.1381      2.2980     -0.5244     21.3320     83.3347     41.5284
   788.3000      8.1260      2.2893     -0.6160     21.8610     78.6178     41.5194
   788.4000      8.1260      2.2901     -0.5808     21.8137     76.4377     41.5101
   788.5000      8.1296      2.2978     -0.5540     21.3472     80.6849     41.7216
   788.6000      8.1296      2.2945     -0.5648     21.5465     86.1600     41.9108
   788.7000      8.1296      2.2773     -0.5780     22.5909     90.6928     41.9192
   788.8000      8.1316      2.2650     -0.6291     23.3333     93.6126     41.9329
   788.9000      8.1316      2.2686     -0.5655     23.1174     93.8880     42.0432
   789.0000      8.1469      2.2675     -0.5415     23.1794     92.6057     42.1132
   789.1000      8.1469      2.2472     -0.5863     24.4144     92.6210     42.1262
   789.2000      8.1469      2.2259     -0.5948     25.7014     98.3888     42.1745
   789.3000      8.1323      2.2242     -0.5814     25.8060    109.2410     42.1629
   789.4000      8.1323      2.2326     -0.5082     25.2967    117.3546     42.0275
   789.5000      8.1256      2.2253     -0.5196     25.7391    119.4898     41.9658
   789.6000      8.1256      2.2010     -0.6066     27.2119    119.8893     42.1034
   789.7000      8.1256      2.1903     -0.6435     27.8605    122.2992     42.3359
   789.8000      8.1330      2.2080     -0.5510     26.7852    124.8789     42.5907
   789.9000      8.1330      2.2337     -0.5420     25.2288    123.2139     42.8386
   790.0000      8.1383      2.2488     -0.5062     24.3162    119.3890     43.0698
   790.1000      8.1383      2.2600     -0.5492     23.6337    118.3256     43.2528
   790.2000      8.1383      2.2778     -0.5212     22.5574    119.4979     43.2031
   790.3000      8.1290      2.2890     -0.4928     21.8765    116.3949     42.9697
   790.4000      8.1290      2.2806     -0.5302     22.3875    106.0821     42.8883
   790.5000      8.1227      2.2696     -0.5766     23.0562     97.1869     43.0269
   790.6000      8.1227      2.2718     -0.5461     22.9193     95.2085     43.1143
   790.7000      8.1227      2.2752     -0.5253     22.7181     95.7147     43.1260
   790.8000      8.1282      2.2697     -0.5884     23.0458     95.9898     43.3517
   790.9000      8.1282      2.2630     -0.5470     23.4539     96.0790     43.7483
   791.0000      8.1288      2.2580     -0.5592     23.7546     93.0641     43.8649
   791.1000      8.1288      2.2587     -0.5812     23.7132     87.9825     43.6024
   791.2000      8.1288      2.2661     -0.5392     23.2638     87.3434     43.4041
   791.3000      8.1250      2.2642     -0.5433     23.3800     91.2560     43.3845
   791.4000      8.1250      2.2520     -0.5898     24.1204     94.9678     43.2868
   791.5000      8.1309      2.2458     -0.5511     24.4945     95.0051     43.1340
   791.6000      8.1309      2.2454     -0.5508     24.5205     92.4715     43.0748
   791.7000      8.1309      2.2412     -0.5620     24.7734     92.9414     42.9559
