~Version Information
VERS.                      2.0: CWLS Log ASCII Standard - VERSION 2.0
WRAP.                       NO: One line per depth step
~Well Information Block
STRT.FT               260.0000: 
STOP.FT              2611.5000: 
STEP.FT                 0.2500: 
NULL.                -999.2500: 
COMP.          Pioneer Natural Resources: COMPANY
WELL.           Costello 44-24: WELL
FLD.           Purgatoire River: FIELD
LOC.           327' FSL & 378' FEL: LOCATION
PROV.                 Colorado: PROVINCE
CNTY.               Las Animas: COUNTRY
SRVC.                Patterson: SERVICE COMPANY
DATE.          Mon Jul 11 00:49:32 2005: LOG DATE
UWI.           05 071 08413 00: UNIQUE WELL ID
~Curve Information Block
DEPT.FT            0 000 00 00: Depth
SN.Ohm-m                      : IEL Short Normal
SP.mV                         : IEL Spontaneous Potential
DIR.Ohm-m                     : IEL Induction Resistivity
GR.GAPI                       : Gamma Ray
~Parameter Information Block
~A  Depth        SN          SP         DIR          GR     
# ...
  1198.0000   2000.0000    200.0000     17.4902    120.3740
  1198.2500   2000.0000    200.0000     18.7804    119.7138
  1198.5000   2000.0000    200.0000     20.1183    118.4619
  1198.7500   2000.0000    200.0000     21.4017    117.1288
  1199.0000   2000.0000    200.0000     22.5416    114.1499
  1199.2500   2000.0000    200.0000     23.4810    111.6258
  1199.5000   2000.0000    200.0000     24.1903    107.4010
  1199.7500   2000.0000    200.0000     24.6629    104.4266
  1200.0000   2000.0000    200.0000     24.9250     99.8567
  1200.2500   2000.0000    200.0000     25.0400     96.9442
  1200.5000   2000.0000    200.0000     25.0902     93.6260
  1200.7500   2000.0000    200.0000     25.1452     92.8347
  1201.0000   2000.0000    200.0000     25.2438     94.7381
  1201.2500   2000.0000    200.0000     25.3947     97.9717
  1201.5000   2000.0000    200.0000     25.5830    104.1973
  1201.7500   2000.0000    200.0000     25.7701    107.9980
  1202.0000   2000.0000    200.0000     25.8892    111.7869
  1202.2500   2000.0000    200.0000     25.8571    113.0438
  1202.5000   2000.0000    200.0000     25.6056    113.8822
  1202.7500   2000.0000    200.0000     25.1167    114.2279
  1203.0000   2000.0000    200.0000     24.4383    114.9580
  1203.2500   2000.0000    200.0000     23.6710    115.8855
  1203.5000   2000.0000    200.0000     22.9241    118.5448
  1203.7500   2000.0000    200.0000     22.2664    121.4585
  1204.0000   2000.0000    200.0000     21.7077    127.6363
  1204.2500   2000.0000    200.0000     21.2284    132.5672
  1204.5000   2000.0000    200.0000     20.8337    139.6650
  1204.7500   2000.0000    200.0000     20.5763    143.1696
  1205.0000   2000.0000    200.0000     20.5271    145.3037
  1205.2500   2000.0000    200.0000     20.7244    144.2091
  1205.5000   2000.0000    200.0000     21.1502    138.3818
  1205.7500   2000.0000    200.0000     21.7420    131.8336
  1206.0000   2000.0000    200.0000     22.4231    119.2711
  1206.2500   2000.0000    200.0000     23.1242    110.2125
  1206.5000   2000.0000    200.0000     23.7906     97.2339
  1206.7500   2000.0000    200.0000     24.3902     89.3576
  1207.0000   2000.0000    200.0000     24.9230     78.5101
  1207.2500   2000.0000    200.0000     25.4186     71.7092
  1207.5000   2000.0000    200.0000     25.9096     62.0544
  1207.7500   2000.0000    200.0000     26.3989     56.0608
  1208.0000   2000.0000    200.0000     26.8424     48.0669
  1208.2500   2000.0000    200.0000     27.1591     43.8437
  1208.5000   2000.0000    200.0000     27.2651     40.4287
  1208.7500   2000.0000    200.0000     27.1120     40.8473
  1209.0000   2000.0000    200.0000     26.7013     46.0704
  1209.2500   2000.0000    200.0000     26.0597     52.3919
  1209.5000   2000.0000    200.0000     25.2064     65.2931
  1209.7500   2000.0000    200.0000     24.1518     75.6778
  1210.0000   2000.0000    200.0000     22.9350     92.8845
  1210.2500   2000.0000    200.0000     21.6546    104.4404
  1210.5000   2000.0000    200.0000     20.4506    119.7038
  1210.7500   2000.0000    200.0000     19.4468    127.4949
  1211.0000   2000.0000    200.0000     18.7042    135.0489
  1211.2500   2000.0000    200.0000     18.2100    137.5270
  1211.5000   2000.0000    200.0000     17.8982    138.0932
  1211.7500   2000.0000    200.0000     17.6866    136.9156
  1212.0000   2000.0000    200.0000     17.5136    133.9796
  1212.2500   2000.0000    200.0000     17.3575    131.8456
  1212.5000   2000.0000    200.0000     17.2292    128.9760
  1212.7500   2000.0000    200.0000     17.1509    127.4221
  1213.0000   2000.0000    200.0000     17.1389    125.6368
  1213.2500   2000.0000    200.0000     17.2010    124.6922
  1213.5000   2000.0000    200.0000     17.3424    123.5151
  1213.7500   2000.0000    200.0000     17.5713    123.0610
  1214.0000   2000.0000    200.0000     17.8938    123.2416
  1214.2500   2000.0000    200.0000     18.3047    123.7545
  1214.5000   2000.0000    200.0000     18.7814    124.1298
  1214.7500   2000.0000    200.0000     19.2918    123.6433
  1215.0000   2000.0000    200.0000     19.8095    121.7508
  1215.2500   2000.0000    200.0000     20.3196    119.9766
  1215.5000   2000.0000    200.0000     20.8096    116.9963
  1215.7500   2000.0000    200.0000     21.2614    114.8951
  1216.0000   2000.0000    200.0000     21.6586    111.4087
  1216.2500   2000.0000    200.0000     21.9992    108.6973
  1216.5000   2000.0000    200.0000     22.2964    104.0963
  1216.7500   2000.0000    200.0000     22.5669    101.1215
  1217.0000   2000.0000    200.0000     22.8201     98.2508
  1217.2500   2000.0000    200.0000     23.0566     98.2776
  1217.5000   2000.0000    200.0000     23.2726    101.8860
  1217.7500   2000.0000    200.0000     23.4618    106.2956
  1218.0000   2000.0000    200.0000     23.6163    114.1937
  1218.2500   2000.0000    200.0000     23.7240    119.1102
  1218.5000   2000.0000    200.0000     23.7665    124.4129
  1218.7500   2000.0000    200.0000     23.7222    126.1281
  1219.0000   2000.0000    200.0000     23.5792    125.8096
  1219.2500   2000.0000    200.0000     23.3512    123.9069
  1219.5000   2000.0000    200.0000     23.0833    119.6654
  1219.7500   2000.0000    200.0000     22.8437    116.7796
  1220.0000   2000.0000    200.0000     22.7058    113.1042
  1220.2500   2000.0000    200.0000     22.7292    110.8498
  1220.5000   2000.0000    200.0000     22.9408    107.0615
  1220.7500   2000.0000    200.0000     23.3242    104.2565
  1221.0000   2000.0000    200.0000     23.8235    100.3942
  1221.2500   2000.0000    200.0000     24.3664     98.5636
  1221.5000   2000.0000    200.0000     24.8908     97.2387
  1221.7500   2000.0000    200.0000     25.3562     96.9946
  1222.0000   2000.0000    200.0000     25.7384     96.5885
  1222.2500   2000.0000    200.0000     26.0253     95.9037
  1222.5000   2000.0000    200.0000     26.2267     94.4263
  1222.7500   2000.0000    200.0000     26.3859     93.4374
  1223.0000   2000.0000    200.0000     26.5690     91.8618
  1223.2500   2000.0000    200.0000     26.8266     90.2734
  1223.5000   2000.0000    200.0000     27.1473     86.2912
  1223.7500   2000.0000    200.0000     27.4433     82.4931
  1224.0000   2000.0000    200.0000     27.5894     75.6302
  1224.2500   2000.0000    200.0000     27.5069     70.8555
  1224.5000   2000.0000    200.0000     27.2263     64.7048
  1224.7500   2000.0000    200.0000     26.8738     62.0666
  1225.0000   2000.0000    200.0000     26.5947     61.0641
  1225.2500   2000.0000    200.0000     26.4785     62.2068
  1225.5000   2000.0000    200.0000     26.5245     65.3509
  1225.7500   2000.0000    200.0000     26.6593     67.3078
  1226.0000   2000.0000    200.0000     26.7874     68.4880
  1226.2500   2000.0000    200.0000     26.8484     67.9293
  1226.5000   2000.0000    200.0000     26.8372     66.1259
  1226.7500   2000.0000    200.0000     26.7792     65.1187
  1227.0000   2000.0000    200.0000     26.6953     64.6420
  1227.2500   2000.0000    200.0000     26.5922     64.9690
  1227.5000   2000.0000    200.0000     26.4745     66.0156
  1227.7500   2000.0000    200.0000     26.3533     66.8213
  1228.0000   2000.0000    200.0000     26.2428     67.7308
  1228.2500   2000.0000    200.0000     26.1509     67.9154
  1228.5000   2000.0000    200.0000     26.0749     67.4608
  1228.7500   2000.0000    200.0000     26.0037     66.8066
  1229.0000   2000.0000    200.0000     25.9233     65.7291
  1229.2500   2000.0000    200.0000     25.8252     65.2317
  1229.5000   2000.0000    200.0000     25.7160     65.2262
  1229.7500   2000.0000    200.0000     25.6192     65.7547
  1230.0000   2000.0000    200.0000     25.5657     66.8687
  1230.2500   2000.0000    200.0000     25.5758     67.3945
  1230.5000   2000.0000    200.0000     25.6446     67.5504
  1230.7500   2000.0000    200.0000     25.7354     67.4724
  1231.0000   2000.0000    200.0000     25.7875     67.7310
  1231.2500   2000.0000    200.0000     25.7372     68.2986
