~Version Information
VERS.                      2.0: CWLS Log ASCII Standard - VERSION 2.0
WRAP.                       NO: One line per depth step
~Well Information Block
STRT.FT                15.0000: 
STOP.FT              2556.5000: 
STEP.FT                 0.2500: 
NULL.                -999.2500: 
COMP.          Pioneer Natural Resources: COMPANY
WELL.              Quack 22-24: WELL
FLD.           Purgatoire River: FIELD
LOC.           2492' FNL & 2459' FWL: LOCATION
PROV.                 Colorado: PROVINCE
CNTY.               Las Animas: COUNTRY
SRVC.                Patterson: SERVICE COMPANY
DATE.          Tue Jul 26 07:02:30 2005: LOG DATE
UWI.           05 071 08402 00: UNIQUE WELL ID
~Curve Information Block
DEPT.FT            0 000 00 00: Depth
GR.GAPI                       : Gamma Ray
CCL.                          : Casing Collar Locator
TT3.usec                      : CBL 3' Travel Time
AMP3.mV                       : CBL 3' Amplitude
~Parameter Information Block
~A  Depth        GR         CCL         TT3         AMP3    
    15.0000   -999.2500      0.0000   1420.9885      1.7330
    15.2500   -999.2500      0.0000   1364.7379      2.3721
    15.5000   -999.2500      0.0000   1261.3785      3.5925
    15.7500   -999.2500      0.0000   1114.2151      5.4138
    16.0000   -999.2500     -2.6266    952.2439      7.5756
    16.2500   -999.2500     -3.0000    814.8947      9.6682
    16.5000   -999.2500      0.7077    725.1292     11.4298
    16.7500   -999.2500      0.0000    679.3248     12.9107
    17.0000   -999.2500      0.0000    662.1285     14.3411
    17.2500   -999.2500      0.0000    665.0899     15.8508
    17.5000   -999.2500      0.0000    688.4052     17.3332
    17.7500   -999.2500      0.0000    729.9167     18.5640
    18.0000     45.8181      0.0000    779.5122     19.3852
    18.2500     46.0790      0.0000    824.2689     19.7616
    18.5000     46.9752      0.0000    854.6758     19.7482
    18.7500     48.7593      0.0000    866.7632     19.4634
    19.0000     51.7039      0.0000    861.8939     19.0580
    19.2500     55.5310      0.0000    844.4969     18.6611
    19.5000     59.2379      0.0000    819.1905     18.3383
    19.7500     61.7094      0.0000    791.2529     18.0898
    20.0000     62.5705      0.0000    767.5618     17.8791
    20.2500     62.4274      0.0000    753.1885     17.6743
    20.5000     62.4024      0.0000    747.4139     17.4793
    20.7500     63.4857      0.0000    745.4026     17.3296
    21.0000     66.1351      0.0000    742.8873     17.2604
    21.2500     70.2644      0.0000    738.1282     17.2775
    21.5000     75.3899      0.0000    730.5890     17.3556
    21.7500     80.6205      0.0000    718.3767     17.4629
    22.0000     84.6642      0.0000    696.5126     17.5859
    22.2500     86.3202      0.0000    659.2195     17.7308
    22.5000     85.3480      0.0000    606.3832     17.9027
    22.7500     82.9102      0.0000    547.1906     18.0876
    23.0000     81.0133      0.0000    495.1056     18.2561
    23.2500     81.2172      0.0000    458.7887     18.3883
    23.5000     83.5636      0.0000    438.0335     18.4913
    23.7500     86.6105      0.0000    426.8784     18.5922
    24.0000     88.5704      0.0000    418.9725     18.7156
    24.2500     88.5389      0.0000    410.7779     18.8687
    24.5000     86.8656      0.0000    401.8256     19.0441
    24.7500     84.5272      0.0000    393.0299     19.2316
    25.0000     82.3550      0.0000    384.7501     19.4242
    25.2500     80.8873      0.0000    376.2730     19.6173
    25.5000     80.4620      0.0000    366.9564     19.8088
    25.7500     80.9415      0.0000    357.4070     19.9988
    26.0000     81.6372      0.0000    349.1568     20.1850
    26.2500     82.0489      0.0000    343.2612     20.3616
    26.5000     82.4466      0.0000    339.4070     20.5247
    26.7500     83.2710      0.0000    336.2790     20.6779
    27.0000     84.2562      0.0000    332.5713     20.8280
    27.2500     84.5273      0.0000    327.7299     20.9766
    27.5000     83.3678      0.0000    321.9810     21.1175
    27.7500     80.7917      0.0000    315.9037     21.2433
    28.0000     77.6354      0.0000    310.1497     21.3525
    28.2500     75.0859      0.0000    305.3867     21.4513
    28.5000     73.8172      0.0000    302.0828     21.5482
    28.7500     73.5447      0.0000    300.2133     21.6500
    29.0000     73.5737      0.0000    299.3321     21.7601
    29.2500     73.6309      0.0000    298.9341     21.8806
    29.5000     74.0567      0.0000    298.7005     22.0122
    29.7500     75.4533      0.0000    298.4994     22.1514
    30.0000     78.2609      0.0000    298.2926     22.2897
    30.2500     82.2458      0.0000    298.0758     22.4159
    30.5000     85.9541      0.0000    297.8516     22.5242
    30.7500     87.0994      0.0000    297.6302     22.6186
    31.0000     84.3676      0.0000    297.4334     22.7079
    31.2500     78.9190      0.0000    297.3300     22.7949
    31.5000     73.5672      0.0000    297.5062     22.8728
    31.7500     70.3829      0.0000    298.6488     22.9351
    32.0000     69.3274      0.0000    302.9796     22.9853
    32.2500     69.0149      0.0000    315.9321     23.0358
    32.5000     68.3392      0.0000    346.5907     23.0973
    32.7500     67.3223      0.0000    403.4754     23.1717
    33.0000     66.6826      0.0000    485.5087     23.2539
    33.2500     66.8342      0.0000    576.3624     23.3387
    33.5000     67.4745      0.0000    651.0446     23.4232
    33.7500     68.1738      0.0000    691.3775     23.5030
    34.0000     69.0422      0.0000    697.3274     23.5691
    34.2500     70.4553      0.0000    686.0665     23.6139
    34.5000     72.2197      0.0000    679.8972     23.6398
    34.7500     73.4744      0.0000    690.8991     23.6617
    35.0000     73.4644      0.0000    714.7449     23.6942
    35.2500     72.1518      0.0000    738.9922     23.7386
    35.5000     70.2147      0.0000    755.3192     23.7857
    35.7500     68.7145      0.0000    763.2666     23.8279
    36.0000     68.4764      0.0000    766.0880     23.8642
    36.2500     69.4688      0.0000    766.3900     23.8934
    36.5000     70.8332      0.0000    764.8969     23.9103
    36.7500     71.6235      0.0000    761.2155     23.9096
    37.0000     71.5470      0.0000    755.3918     23.8911
    37.2500     71.0325      0.0000    749.3628     23.8605
    37.5000     70.5494      0.0000    746.4513     23.8267
    37.7500     69.9311      0.0000    748.5392     23.7977
    38.0000     68.6278      0.0000    753.8756     23.7774
    38.2500     66.6314      0.0000    758.6367     23.7673
    38.5000     64.7002      0.0000    760.6194     23.7742
    38.7500     63.4688      0.0000    761.0400     23.8149
    39.0000     62.7497      0.0000    762.4873     23.9084
    39.2500     61.9374      0.0000    764.6254     24.0583
    39.5000     60.7228      0.0000    761.8958     24.2422
    39.7500     59.2286      0.0000    746.2549     24.4241
    40.0000     57.7697      0.0000    713.2792     24.5780
    40.2500     56.7364      0.0000    666.7054     24.7024
    40.5000     56.5813      0.0000    617.9318     24.8130
    40.7500     57.6269      0.0000    580.0621     24.9206
    41.0000     59.6166      0.0000    560.9487     25.0143
    41.2500     61.4435      0.0000    560.2277     25.0659
    41.5000     61.6031      0.0000    570.0837     25.0543
    41.7500     59.2117      0.0000    578.1934     24.9872
    42.0000     54.7298      0.0000    574.6264     24.8948
    42.2500     49.6994      0.0000    560.3834     24.8007
    42.5000     45.7303      0.0000    548.2705     24.6999
    42.7500     43.6155      0.0000    552.5809     24.5682
    43.0000     43.2307      0.0000    577.1212     24.3891
    43.2500     44.1020      0.0000    613.2316     24.1689
    43.5000     45.9454      0.0000    648.2372     23.9328
    43.7500     48.5339      0.0000    675.2065     23.7119
    44.0000     51.1156      0.0000    695.9071     23.5297
    44.2500     52.3868      0.0000    716.2308     23.3922
    44.5000     51.3947      0.0000    739.4790     23.2905
    44.7500     48.4387      0.0000    763.0121     23.2148
    45.0000     44.9409      0.0000    780.7717     23.1649
    45.2500     42.4717      0.0000    789.1204     23.1430
    45.5000     41.8094      0.0000    790.4366     23.1414
    45.7500     42.5922      0.0000    790.7917     23.1411
    46.0000     43.7021      0.0000    793.9762     23.1225
    46.2500     44.1100      0.0000    797.9408     23.0794
    46.5000     43.4687      0.0000    796.8099     23.0257
    46.7500     41.9849      0.0000    785.8557     22.9889
    47.0000     39.9602      0.0000    765.1650     22.9893
    47.2500     37.6102      0.0000    739.8636     23.0257
    47.5000     35.1961      0.0000    716.9142     23.0814
    47.7500     33.0596      0.0000    700.8759     23.1377
    48.0000     31.4297      0.0000    692.1213     23.1785
    48.2500     30.2682      0.0000    688.3864     23.1894
