~Version Information
 VERS.                                  2.0 : CWLS LAS VERSION
 WRAP.                                   NO : WRAPING MODE
 SWARE .                 MController 2.5.0E : SOFTWARE VERSION
~Well Information
 WELL.                    Dude canyon 22-32 : WELL
 COMP.    Pioneer Natural Resources USA Inc : COMPANY
 FLD.                      Purgatoire River : FIELD
 LOC.                SE/NW Sec 32 T32S R67W : LOCATION
 DATE.                         3/06-07/2005 : DATE(S) LOGGED
 SRVC.       Blanco Geological Services LLC : SERVICE COMPANY
 STAT.                                   CO : STATE
 CNTY.                           Las Animas : COUNTY
 CTRY.                                  USA : COUNTRY
 API.                       05-071-08257-00 : API NUMBER
 STRT.FT                             494.00 : START DEPTH
 STOP.FT                            2760.00 : STOP DEPTH
 STEP.FT                               1.00 : DEPTH INCREMENT
 NULL.                                -9999 : NULL VALUE
~Curve information
 DEPTH.FT                                   :
 ROP.MIN/FT                                 :
 GAS.UNITS                                  :
~ASCII Log data
# ...
     1494.00        0.333          1.5 
     1495.00        0.400          5.5 
     1496.00        0.433         20.6 
     1497.00        0.400         29.7 
     1498.00        0.367         30.1 
     1499.00        0.267         26.7 
     1500.00        0.233         21.2 
     1501.00        6.433         28.3 
     1502.00        0.100         11.6 
     1503.00        0.300         24.0 
     1504.00        0.267         36.7 
     1505.00        0.250         41.0 
     1506.00        0.267         41.5 
     1507.00        0.233         38.3 
     1508.00        0.200         31.9 
     1509.00        0.167         26.4 
     1510.00        0.233         22.9 
     1511.00        0.233         18.1 
     1512.00        0.167         13.9 
     1513.00        0.133         10.0 
     1514.00        0.167          7.5 
     1515.00        0.167          4.8 
     1516.00        0.200          2.9 
     1517.00        0.300          1.1 
     1518.00        0.333          0.3 
     1519.00        0.267         -0.2 
     1520.00        0.250          0.0 
     1521.00        0.200          1.5 
     1522.00        0.267         12.3 
     1523.00        0.267         25.1 
     1524.00        0.233         33.0 
     1525.00        0.233         35.2 
     1526.00        0.200         34.7 
     1527.00        0.133         32.7 
     1528.00        0.200         30.9 
     1529.00        0.167         26.8 
     1530.00        0.167         23.5 
     1531.00        5.033       1014.3 
     1532.00        0.433        440.0 
     1533.00        0.467         93.9 
     1534.00        0.500         41.2 
     1535.00        0.267         16.7 
     1536.00        0.367          9.4 
     1537.00        0.467         22.2 
     1538.00        0.550         34.8 
     1539.00        0.467         35.4 
     1540.00        0.467         31.0 
     1541.00        0.467         28.8 
     1542.00        0.500         30.1 
     1543.00        0.400         34.5 
     1544.00        0.300         35.8 
     1545.00        0.300         35.1 
     1546.00        0.383         37.6 
     1547.00        0.500         41.8 
     1548.00        0.500         42.9 
     1549.00        0.433         42.4 
     1550.00        0.367         41.7 
     1551.00        0.433         39.8 
     1552.00        0.367         43.2 
     1553.00        0.367         44.4 
     1554.00        0.417         43.2 
     1555.00        0.400         43.8 
     1556.00        0.433         42.1 
     1557.00        0.567         37.9 
     1558.00        0.533         28.7 
     1559.00        0.400         21.8 
     1560.00        0.400         17.9 
     1561.00        6.100       1066.2 
     1562.00        0.467         80.6 
     1563.00        0.400         39.9 
     1564.00        0.383         22.8 
     1565.00        0.433         12.1 
     1566.00        0.400         17.5 
     1567.00        0.400         23.8 
     1568.00        0.333         27.6 
     1569.00        0.333         30.7 
     1570.00        0.167         32.2 
     1571.00        0.200         33.3 
     1572.00        0.267         33.2 
     1573.00        0.333         32.1 
     1574.00        0.317         29.7 
     1575.00        0.400         23.9 
     1576.00        0.533         21.4 
     1577.00        0.467         24.5 
     1578.00        0.467         27.4 
     1579.00        0.500         32.5 
     1580.00        0.567         41.1 
     1581.00        0.683         37.2 
     1582.00        0.700         22.6 
     1583.00        0.167         17.9 
     1584.00        0.167         19.2 
     1585.00        0.200         21.5 
     1586.00        0.167         22.0 
     1587.00        0.133         23.2 
     1588.00        0.200         24.3 
     1589.00        0.433         24.8 
     1590.00        0.133         22.2 
     1591.00        6.700        336.0 
     1592.00        0.400          1.5 
     1593.00        0.283         24.1 
     1594.00        0.367         39.7 
     1595.00        0.267         38.1 
     1596.00        0.233         27.1 
     1597.00        0.167         23.8 
     1598.00        0.200         33.8 
     1599.00        0.233         44.2 
     1600.00        0.300         48.4 
     1601.00        0.233         48.3 
     1602.00        0.200         45.4 
     1603.00        0.400         38.1 
     1604.00        0.367         23.7 
     1605.00        0.350         12.8 
     1606.00        0.467          4.6 
     1607.00        0.467          4.7 
     1608.00        0.400          8.2 
     1609.00        0.333         11.4 
     1610.00        0.267         17.5 
     1611.00        0.300         23.9 
     1612.00        0.333         26.3 
     1613.00        0.433         30.1 
     1614.00        0.517         28.0 
     1615.00        0.467         25.2 
     1616.00        0.400         24.6 
     1617.00        0.367         24.1 
     1618.00        0.267         21.9 
     1619.00        0.200         19.9 
     1620.00        0.233         20.6 
     1621.00        6.333         20.5 
     1622.00        1.983       1418.2 
     1623.00        0.433         97.2 
     1624.00        0.300         35.3 
     1625.00        0.333         26.6 
     1626.00        0.367         24.6 
     1627.00        0.400         10.7 
     1628.00        0.367          6.1 
     1629.00        0.400          7.0 
     1630.00        0.383         13.2 
     1631.00        0.333         27.6 
     1632.00        0.233         33.7 
     1633.00        0.400         36.5 
     1634.00        0.433         35.9 
     1635.00        0.533         28.0 
     1636.00        0.300         22.5 
     1637.00        0.233         23.2 
     1638.00        0.200         21.5 
     1639.00        0.333         19.4 
     1640.00        0.517         14.8 
     1641.00        0.533          8.8 
     1642.00        0.600         19.6 
     1643.00        0.533         23.7 
     1644.00        0.367         22.9 
     1645.00        0.233         21.0 
     1646.00        0.267         20.8 
     1647.00        0.417         21.1 
     1648.00        0.400         19.2 
     1649.00        0.233         15.8 
     1650.00        0.433         14.5 
     1651.00        7.900        386.0 
     1652.00        0.133         15.6 
     1653.00        0.233         21.3 
     1654.00        0.333         38.7 
     1655.00        0.450         50.1 
     1656.00        0.500         51.1 
     1657.00        0.500         50.5 
     1658.00        0.433         36.9 
     1659.00        0.400         21.8 
     1660.00        0.500          8.5 
     1661.00        0.300          2.0 
     1662.00        0.467          2.0 
     1663.00        0.250          3.9 
     1664.00        0.233          6.0 
     1665.00        0.500         15.4 
     1666.00        0.567         27.5 
     1667.00        0.333         28.2 
     1668.00        0.233         25.0 
     1669.00        0.433         23.3 
     1670.00        0.567         25.6 
     1671.00        0.350         25.0 
     1672.00        0.233         24.2 
     1673.00        0.400         23.3 
     1674.00        0.433         19.5 
     1675.00        0.400         18.4 
     1676.00        0.367         16.5 
     1677.00        0.367         11.9 
     1678.00        0.233          7.5 
     1679.00        0.267          6.4 
     1680.00        0.267          5.9 
     1681.00        6.200       1766.9 
     1682.00        0.533       1505.2 
     1683.00        0.350        440.0 
     1684.00        0.433         92.9 
     1685.00        0.300         38.1 
     1686.00        0.300         28.2 
     1687.00        0.300         23.7 
     1688.00        0.300         19.6 
     1689.00        0.467         11.2 
     1690.00        0.500          8.1 
     1691.00        0.400          7.8 
     1692.00        0.383         10.2 
     1693.00        0.333         14.2 
