~Version Information
VERS.                      2.0: CWLS Log ASCII Standard - VERSION 2.0
WRAP.                       NO: One line per depth step
~Well Information Block
STRT.FT               340.0000: 
STOP.FT              1542.5000: 
STEP.FT                 0.2500: 
NULL.                -999.2500: 
COMP.          Petrogulf Corporation: COMPANY
WELL.            Montoya 7-21R: WELL
FLD.           Purgatorie River: FIELD
LOC.           445' FNL & 1942' FWL: LOCATION
PROV.                 Colorado: PROVINCE
CNTY.               Las Animas: COUNTRY
SRVC.                Patterson: SERVICE COMPANY
DATE.          Thu Sep 15 10:37:42 2005: LOG DATE
UWI.                          : UNIQUE WELL ID
~Curve Information Block
DEPT.FT            0 000 00 00: Depth
SP.mV                         : DIL Spontaneous Potential
RILD.Ohm-m                    : DIL Deep Resistivity
RILM.Ohm-m                    : DIL Medium Resistivity
RLL3.Ohm-m                    : DIL Shallow Resistivity
GR.GAPI                       : Gamma Ray
~Parameter Information Block
~A  Depth        SP         RILD        RILM        RLL3         GR     
# ...
   816.0000    178.8102     19.6422     20.8332     23.1740    136.1034
   816.2500    177.8954     19.9054     20.2335     22.6830    153.7257
   816.5000    177.0321     19.6681     19.9843     20.9791    139.4508
   816.7500    175.8705     19.8468     19.4051     18.9044    137.0258
   817.0000    174.4983     20.0116     18.6561     17.4417    149.5442
   817.2500    172.9420     19.5375     18.5420     16.4476    159.8487
   817.5000    171.2416     19.1799     18.0542     16.3199    158.1527
   817.7500    169.6550     18.7750     18.0991     17.0626    146.0150
   818.0000    168.0498     18.2178     18.5465     17.8768    142.0809
   818.2500    166.7763     17.8117     19.0951     19.7813    159.4231
   818.5000    165.8595     17.4097     19.3821     24.4134    122.1978
   818.7500    165.1643     17.0870     19.2699     30.3923    131.6641
   819.0000    164.7431     16.8281     18.4539     28.3651    150.8770
   819.2500    164.5842     16.5274     17.6139     22.3191    124.1289
   819.5000    164.5116     16.4536     17.2006     20.5206    110.6696
   819.7500    164.3977     16.4049     16.6779     23.4451    132.2536
   820.0000    164.3810     16.9787     16.0936     26.6355    130.8325
   820.2500    164.3274     17.1824     15.4718     22.5510    125.3575
   820.5000    163.9611     17.5787     15.0344     16.4582    118.4698
   820.7500    163.2392     17.8456     14.8948     13.9049    119.6454
   821.0000    162.1226     17.7503     15.4968     13.9694    123.4591
   821.2500    160.7706     17.8382     16.1775     16.4214    122.0280
   821.5000    159.4493     18.2080     16.6614     19.8881    144.7344
   821.7500    158.3338     18.2447     17.1914     22.1141    160.7934
   822.0000    157.2050     18.2908     17.8078     20.7907    156.8454
   822.2500    156.1646     18.3834     18.3314     18.8999    135.3489
   822.5000    155.3776     18.1935     18.7714     18.8418    146.3823
   822.7500    154.8067     18.0429     19.9491     21.5246    140.5177
   823.0000    154.4931     17.8101     21.0401     27.5211    122.2380
   823.2500    154.4785     17.6750     21.7674     35.7310    129.3046
   823.5000    154.6850     17.8686     21.7063     39.2003    127.0668
   823.7500    155.2280     17.3396     21.1246     33.4232    116.4905
   824.0000    155.8421     17.3442     19.9660     26.3761    118.1948
   824.2500    156.6671     16.9481     18.7722     21.2482    125.1706
   824.5000    157.5054     16.6597     17.9511     18.6431    136.0376
   824.7500    158.0848     16.6187     16.9268     18.3248    128.1287
   825.0000    158.2822     16.6714     16.3837     17.9629    128.7070
   825.2500    158.2559     16.4174     15.5158     17.3298    145.1682
   825.5000    158.0636     15.9799     14.9618     16.6946    160.2529
   825.7500    157.9090     15.7654     14.7195     15.3047    156.6041
   826.0000    157.8198     15.3006     14.2519     14.3840    144.5141
   826.2500    157.7623     14.8618     13.9789     14.8797    145.8178
   826.5000    157.8770     14.7603     13.9093     15.4278    150.6610
   826.7500    158.4270     14.4920     13.9044     15.4566    152.1259
   827.0000    159.4852     14.1226     14.1656     17.0989    164.1874
   827.2500    160.8327     13.7704     14.1866     20.0517    136.5416
   827.5000    162.4052     13.6197     14.0271     20.4783    148.3302
   827.7500    163.8448     13.7229     13.8351     20.7179    133.8812
   828.0000    165.0630     14.0464     13.5116     21.3125    102.9554
   828.2500    166.1027     14.5371     13.4371     18.6257    126.4545
   828.5000    166.8634     15.1201     13.3845     16.9456    139.0537
   828.7500    167.7263     16.1342     13.5360     16.9370    144.3010
   829.0000    168.6547     17.1767     13.8504     15.7251    140.0395
   829.2500    169.3595     17.9639     14.8576     14.4263    133.3315
   829.5000    170.0112     18.9427     16.7709     16.1949    144.2980
   829.7500    170.7094     19.9017     18.9232     26.3482    139.7338
   830.0000    171.4241     20.4940     21.9027     59.3089    139.6160
   830.2500    172.2079     20.8338     24.9558    115.6441    114.6108
   830.5000    172.9955     21.0766     27.6971    138.8642     93.1429
   830.7500    173.8847     21.1206     29.7082    159.1043     82.3555
   831.0000    174.7367     21.3578     30.0804    199.2782     73.8663
   831.2500    175.7880     21.9582     29.8738    177.5780     81.6667
   831.5000    176.9807     22.8440     28.3171    104.4792     60.1063
   831.7500    178.1588     24.3706     28.0066     48.5779     62.7047
   832.0000    179.0843     24.5342     26.0645     27.2859     66.2080
   832.2500    179.7217     24.8743     24.3026     21.2391     87.3056
   832.5000    179.9966     25.0163     23.7987     20.0384     90.7893
   832.7500    180.0411     25.0039     23.1197     20.1491    109.3251
   833.0000    179.9293     24.8061     22.7738     20.4364    110.8336
   833.2500    179.6625     23.5922     22.4081     21.1608    115.1201
   833.5000    179.2993     22.9753     22.6597     21.9848    138.7989
   833.7500    178.8729     22.6111     22.7524     22.8985    146.0187
   834.0000    178.4230     21.4400     21.7674     24.1768    147.8978
   834.2500    178.0032     20.8798     21.4884     25.3522    139.4588
   834.5000    177.5578     20.7054     21.2574     25.2168    147.1843
   834.7500    177.0115     20.0015     20.5308     23.5051    133.1617
   835.0000    176.2116     19.6965     20.1911     21.8964    135.1388
   835.2500    175.3932     20.5176     20.2144     21.8133    144.7123
   835.5000    174.6691     20.2557     20.3519     22.7221    126.6687
   835.7500    173.8802     21.0344     20.5078     23.7419    138.5525
   836.0000    173.2264     21.1098     20.3651     24.1212    144.1725
   836.2500    172.5073     21.3540     20.2881     23.2356    138.6221
   836.5000    171.6441     21.2050     20.4776     21.5251    147.7337
   836.7500    170.5346     21.3442     20.3220     21.2314    146.1145
   837.0000    169.0823     21.1057     20.2137     22.4246    150.9697
   837.2500    167.2572     21.4775     20.8013     24.3206    146.8540
   837.5000    165.1901     21.3281     21.0034     25.7871    143.8104
   837.7500    162.6513     21.0079     21.2921     25.3950    124.4865
   838.0000    160.1527     21.1062     20.8454     23.4148    129.9793
   838.2500    158.0486     21.4596     19.7249     22.1236    128.8866
   838.5000    156.3960     22.0161     19.5117     21.6011    135.5703
   838.7500    154.8013     22.6976     19.5497     20.8565    135.2355
   839.0000    153.4295     23.4365     20.4246     20.9551    147.1021
   839.2500    152.0610     24.2421     20.7838     21.8183    151.2909
   839.5000    150.7047     24.7993     22.1455     23.7485    159.1132
   839.7500    149.3839     25.9083     23.0877     26.9176    153.4889
   840.0000    147.8583     26.2671     24.1514     29.5177    166.0714
   840.2500    146.3766     27.1026     25.6359     31.8352    147.1982
   840.5000    144.9375     28.0729     26.8943     33.7000    144.4238
   840.7500    143.6285     28.4119     28.5814     37.2603    140.7511
   841.0000    142.2995     29.5467     30.1142     46.7095    134.2894
   841.2500    141.1739     30.8223     32.2441     56.5970    136.2858
   841.5000    140.2255     32.2055     33.9633     58.0060    128.0912
   841.7500    139.4474     33.0841     34.4427     54.1136    116.1993
   842.0000    138.6535     35.2455     35.0255     50.8464    129.2341
   842.2500    137.9223     35.9658     35.9965     49.1599    136.8512
   842.5000    137.4009     36.2834     35.6306     46.7999    108.8299
   842.7500    137.0487     38.0165     35.4391     43.2270    114.5734
   843.0000    136.8823     40.0985     36.1018     38.4272    139.2169
   843.2500    136.8165     40.7795     36.2628     35.4533    135.2691
   843.5000    136.7498     41.0791     37.3992     37.2091    147.3201
   843.7500    136.5869     41.5725     38.9701     42.3192    143.6294
