~Version Information
VERS.                      2.0: CWLS Log ASCII Standard - VERSION 2.0
WRAP.                       NO: One line per depth step
~Well Information Block
STRT.FT                -7.7500: 
STOP.FT              1532.2500: 
STEP.FT                 0.2500: 
NULL.                -999.2500: 
COMP.          Pioneer Natural Resources: COMPANY
WELL.          Big Cat Federal 44-1: WELL
FLD.           Purgatorie River: FIELD
LOC.           197' FSL & 973' FEL--: LOCATION
CNTY.               Las Animas: COUNTY
SRVC.          Patterson Wireline: SERVICE COMPANY
DATE.          Fri Apr 28 12:21:06 2006: LOG DATE
UWI.           05 071 08042 00: UNIQUE WELL ID
STAT.                       CO: STATE
~Curve Information Block
DEPT.FT            0 000 00 00: Depth
CCL.                          : Casing Collar Locator
TT3.usec                      : CBL 3' Travel Time
AMP3.mV                       : CBL 3' Amplitude
GR.GAPI                       : Gamma Ray
~Parameter Information Block
~A  Depth       CCL         TT3         AMP3         GR     
# ...
   796.2500      0.0000    606.5063     14.4470    147.6516
   796.5000      0.0000    664.0458     14.5064    154.5501
   796.7500      0.0000    702.2282     14.5490    162.6737
   797.0000      0.0000    712.3026     14.5472    168.7864
   797.2500      0.0000    700.1135     14.4703    171.3456
   797.5000      0.0000    680.4230     14.3081    170.8703
   797.7500      0.0000    669.2394     14.0784    168.7986
   798.0000      0.0000    674.4296     13.8185    166.0222
   798.2500      0.0000    691.4537     13.5737    162.8683
   798.5000      0.0000    709.5785     13.3839    160.0656
   798.7500      0.0000    721.2811     13.2649    158.7171
   799.0000      0.0000    724.8161     13.1951    159.2480
   799.2500      0.0000    720.5012     13.1311    161.1480
   799.5000      0.0000    708.1001     13.0486    163.7847
   799.7500      0.0000    689.2048     12.9637    166.7536
   800.0000      0.0000    670.9988     12.9079    169.5888
   800.2500      0.0000    664.1351     12.8917    171.9195
   800.5000      0.0000    674.0580     12.8992    173.7540
   800.7500      0.0000    695.5084     12.9092    174.9825
   801.0000      0.0000    717.5588     12.9086    174.7734
   801.2500      0.0000    732.7250     12.8947    172.0803
   801.5000      0.0000    740.1854     12.8785    167.0388
   801.7500      0.0000    742.5784     12.8849    161.7249
   802.0000      0.0000    742.2683     12.9361    158.8944
   802.2500      0.0000    740.4603     13.0340    159.5260
   802.5000      0.0000    738.0094     13.1595    161.7412
   802.7500      0.0000    735.7115     13.2818    162.2699
   803.0000      0.0000    733.8455     13.3717    159.0127
   803.2500      0.0000    731.6072     13.4187    152.5555
   803.5000      0.0000    726.9190     13.4381    145.2318
   803.7500      0.0000    716.6804     13.4535    138.4835
   804.0000      0.0000    698.4319     13.4764    131.5545
   804.2500      0.0000    673.8643     13.5055    123.0697
   804.5000      0.0000    651.2646     13.5352    112.9794
   804.7500      0.0000    641.9020     13.5534    102.4323
   805.0000      0.0000    651.0947     13.5414     92.6414
   805.2500      0.0000    673.1647     13.4874     84.4088
   805.5000      0.0000    696.5189     13.3972     77.9509
   805.7500      0.0000    712.8342     13.2861     72.7494
   806.0000      0.0000    720.9261     13.1685     67.9812
   806.2500      0.0000    723.9508     13.0557     63.1969
   806.5000      0.0000    724.9962     12.9539     58.4997
   806.7500      0.0000    725.2918     12.8605     54.5228
   807.0000      0.0000    725.2337     12.7699     52.4208
   807.2500      0.0000    725.5564     12.6826     53.3289
   807.5000      0.0000    726.9458     12.6078     57.4314
   807.7500      0.0000    729.1439     12.5553     63.7821
   808.0000      0.0000    731.2230     12.5310     70.9398
   808.2500      0.0000    732.5192     12.5333     77.3213
   808.5000      0.0000    732.7260     12.5483     81.3312
   808.7500      0.0000    730.9142     12.5552     82.5328
   809.0000      0.0000    724.4714     12.5426     83.0667
   809.2500      0.0000    709.7803     12.5085     86.8668
   809.5000      0.0000    686.1100     12.4255     96.7842
   809.7500      0.0000    660.2554     12.2122    112.7133
   810.0000      0.0000    644.9902     11.7813    132.1167
   810.2500      0.0000    649.0921     11.1525    151.4064
   810.5000      0.0000    668.8970     10.5027    166.9194
   810.7500      0.0000    691.7050     10.0615    175.8616
   811.0000      0.0000    706.7087      9.9428    177.4193
   811.2500      0.0000    711.5591     10.0878    173.0974
   811.5000     -2.0000    710.8513     10.3523    165.6280
   811.7500      0.0000    710.6874     10.6120    157.3833
   812.0000      0.0000    713.6326     10.7985    149.6162
   812.2500      0.0000    716.4354     10.8922    142.5757
   812.5000      0.0000    711.8979     10.9204    135.7439
   812.7500      0.0000    694.0686     10.9612    128.2724
   813.0000      0.0000    663.8541     11.1208    119.9335
   813.2500      0.0000    631.1428     11.4750    111.7482
   813.5000      0.0000    610.6109     11.9998    105.2437
   813.7500      0.0000    612.8127     12.5623    101.0837
   814.0000      0.0000    636.7697     13.0096     98.6967
   814.2500      0.0000    670.6589     13.2753     97.2200
   814.5000      0.0000    700.6639     13.3893     96.6366
   814.7500      0.0000    719.5825     13.4129     97.8302
   815.0000      0.0000    727.8583     13.3906    101.3528
   815.2500      0.0000    729.0881     13.3487    106.2961
   815.5000      0.0000    726.3554     13.3070    110.6980
   815.7500      0.0000    721.6635     13.2779    113.0183
   816.0000      0.0000    716.6974     13.2632    112.9071
   816.2500      0.0000    713.1288     13.2543    110.7777
   816.5000      0.0000    712.3742     13.2385    107.2695
   816.7500      0.0000    714.9332     13.2075    103.2058
   817.0000      0.0000    719.8354     13.1606     99.6082
   817.2500      0.0000    724.9709     13.0991     97.4420
   817.5000      0.0000    728.3383     13.0219     97.1822
   817.7500      0.0000    729.0922     12.9307     98.5001
   818.0000      0.0000    727.7302     12.8388    100.4413
   818.2500      0.0000    725.7620     12.7669    102.1861
   818.5000      0.0000    725.0072     12.7303    103.7502
   818.7500      0.0000    726.5438     12.7343    105.8196
   819.0000      0.0000    729.9707     12.7820    108.9038
   819.2500      0.0000    733.5765     12.8769    112.9903
   819.5000      0.0000    735.1148     13.0159    118.0984
   819.7500      0.0000    732.9550     13.1864    124.5636
   820.0000      0.0000    727.4106     13.3715    132.3124
   820.2500      0.0000    720.8646     13.5545    140.2483
   820.5000      0.0000    715.7236     13.7210    146.7402
   820.7500      0.0000    712.2734     13.8671    150.6161
   821.0000      0.0000    709.0344     14.0049    151.5675
   821.2500      0.0000    704.6751     14.1519    149.9086
   821.5000      0.0000    698.0676     14.3104    146.3559
   821.7500      0.0000    686.9196     14.4590    141.9745
   822.0000      0.0000    669.0064     14.5660    137.7650
   822.2500      0.0000    646.5367     14.6100    134.0721
   822.5000      0.0000    627.7204     14.5861    130.7424
   822.7500      0.0000    621.5714     14.4959    127.8267
   823.0000      0.0000    630.8336     14.3427    125.5456
   823.2500      0.0000    650.1878     14.1342    123.7941
   823.5000      0.0000    670.6376     13.8855    122.5342
   823.7500      0.0000    685.7949     13.6164    122.5591
   824.0000      0.0000    695.0915     13.3468    124.9750
   824.2500      0.0000    701.8810     13.0898    129.8350
   824.5000      0.0000    709.1796     12.8484    136.0802
   824.7500      0.0000    717.3239     12.6243    142.9745
   825.0000      0.0000    724.7891     12.4343    150.6963
   825.2500      0.0000    730.3129     12.3118    159.2949
   825.5000      0.0000    734.0544     12.2833    167.8846
   825.7500      0.0000    737.3654     12.3449    175.2876
   826.0000      0.0000    741.7303     12.4586    181.0385
   826.2500      0.0000    747.7164     12.5736    185.6100
   826.5000      0.0000    754.5328     12.6502    189.6411
   826.7500      0.0000    760.5507     12.6734    192.7362
   827.0000      0.0000    764.3129     12.6466    193.3942
   827.2500      0.0000    764.9583     12.5819    190.6867
   827.5000      0.0000    761.8263     12.4971    185.4040
   827.7500      0.0000    753.9317     12.4185    179.0590
   828.0000      0.0000    740.4875     12.3765    172.8381
   828.2500      0.0000    723.1707     12.3933    168.1783
   828.5000      0.0000    708.1728     12.4704    167.0289
   828.7500      0.0000    703.6098     12.5827    170.2125
   829.0000      0.0000    712.3481     12.6899    176.0082
   829.2500      0.0000    728.3289     12.7578    181.1675
   829.5000      0.0000    741.8056     12.7752    183.1460
