~Version Information
VERS.                      2.0: CWLS Log ASCII Standard - VERSION 2.0
WRAP.                       NO: One line per depth step
~Well Information Block
STRT.FT                 0.0000: 
STOP.FT              1439.5000: 
STEP.FT                 0.2500: 
NULL.                -999.2500: 
COMP.          Petrogulf Corporation: COMPANY
WELL.          Robinson 15-12R: WELL
FLD.           Purgatorie River: FIELD
LOC.           1752' FNL & 561' FWL: LOCATION
PROV.                 Colorado: PROVINCE
CNTY.               Las Animas: COUNTRY
SRVC.                Patterson: SERVICE COMPANY
DATE.          Tue Oct 04 09:17:52 2005: LOG DATE
UWI.                          : UNIQUE WELL ID
~Curve Information Block
DEPT.FT            0 000 00 00: Depth
GR.GAPI                       : Gamma Ray
CCL.                          : Casing Collar Locator
TT3.usec                      : CBL 3' Travel Time
AMP3.mV                       : CBL 3' Amplitude
~Parameter Information Block
~A  Depth        GR         CCL         TT3         AMP3    
# ...
   569.5000     52.3411      0.0000    699.5020      9.4293
   569.7500     57.7230      0.0000    730.2780      9.6063
   570.0000     65.5946      0.0000    763.3185      9.5876
   570.2500     73.6923      0.0000    791.5510      9.4417
   570.5000     79.6118      0.0000    819.1984      9.3098
   570.7500     82.5191      0.0000    850.9225      9.2492
   571.0000     83.6763      0.0000    880.8143      9.1898
   571.2500     85.1753      0.0000    889.5834      9.0218
   571.5000     88.3682      0.0000    863.1335      8.7077
   571.7500     93.5540      0.0000    823.8986      8.2918
   572.0000    100.5532      0.0000    812.1180      7.8386
   572.2500    108.7698      0.0000    829.7875      7.4124
   572.5000    116.6423      0.0000    846.2919      7.0681
   572.7500    121.9315      0.0000    847.9329      6.8463
   573.0000    123.2672      0.0000    841.6414      6.7973
   573.2500    121.3577      0.0000    831.7460      6.9575
   573.5000    118.4380      0.0000    817.6765      7.2949
   573.7500    116.5292      0.0000    800.5837      7.7273
   574.0000    116.1756      0.0000    779.4051      8.1718
   574.2500    116.6570      0.0000    750.1420      8.5364
   574.5000    117.1230      0.0000    716.3707      8.6966
   574.7500    117.3405      0.0000    689.5818      8.5467
   575.0000    117.6190      0.0000    676.3443      8.1032
   575.2500    118.4065      0.0000    675.7117      7.4949
   575.5000    119.9738      0.0000    687.4783      6.8452
   575.7500    122.1906      0.0000    711.8238      6.2417
   576.0000    124.3573      0.0000    740.6997      5.7874
   576.2500    125.2247      0.0000    761.6986      5.5839
   576.5000    123.4572      0.0000    772.5517      5.6587
   576.7500    118.5280      0.0000    780.0969      5.9456
   577.0000    111.3740      0.0000    788.2111      6.3138
   577.2500    104.0617      0.0000    795.4767      6.5972
   577.5000     98.7102      0.0000    795.8029      6.6233
   577.7500     96.7143      0.0000    780.2388      6.3637
   578.0000     98.5083      0.0000    749.3262      6.1871
   578.2500    103.2784      0.0000    714.4545      6.6117
   578.5000    108.7611      0.0000    681.6811      7.6006
   578.7500    112.1746      0.0000    650.9277      8.7403
   579.0000    112.1547      0.0000    621.9393      9.9246
   579.2500    109.7333      0.0000    590.0814     11.0394
   579.5000    107.1774      0.0000    557.8509     11.6153
   579.7500    106.2195      0.0000    549.3255     11.3277
   580.0000    107.5548      2.0000    590.3845     10.3702
   580.2500    111.1159      0.0000    676.3369      9.2025
   580.5000    115.8815      0.0000    762.6357      8.1646
   580.7500    119.6143      0.0000    793.9078      7.4410
   581.0000    119.5549      0.0000    762.1301      7.0928
   581.2500    113.8783      0.0000    719.9922      6.8754
   581.5000    102.8904      0.0000    714.7214      6.5210
   581.7500     89.1867      0.0000    740.3961      6.1874
   582.0000     76.4907      0.0000    764.4833      6.0510
   582.2500     67.7238      0.0000    771.2663      5.9275
   582.5000     63.7288      0.0000    769.4474      5.6125
   582.7500     63.6428      0.0000    769.1224      5.1518
   583.0000     66.1543      0.0000    770.1268      4.7313
   583.2500     70.1187      0.0000    769.6299      4.4712
   583.5000     74.3409      0.0000    766.7379      4.3414
   583.7500     77.5670      0.0000    762.7064      4.2589
   584.0000     78.8673      0.0000    761.1968      4.2022
   584.2500     77.7695      0.0000    765.1805      4.1996
   584.5000     74.3474      0.0000    774.6821      4.2662
   584.7500     69.6362      0.0000    789.5161      4.3762
   585.0000     65.5530      0.0000    809.0249      4.4725
   585.2500     63.7353      0.0000    828.7981      4.5003
   585.5000     64.4034      0.0000    843.0563      4.4397
   585.7500     66.5212      0.0000    848.2468      4.2981
   586.0000     68.8827      0.0000    843.1431      4.0962
   586.2500     70.8581      0.0000    831.5040      3.8878
   586.5000     72.3013      0.0000    821.4077      3.7473
   586.7500     73.0829      0.0000    816.6745      3.7098
   587.0000     72.8771      0.0000    816.2720      3.7477
   587.2500     71.3679      0.0000    819.5164      3.8169
   587.5000     68.5551      0.0000    823.5769      3.9149
   587.7500     64.8586      0.0000    828.3208      4.1055
   588.0000     61.1604      0.0000    850.8609      4.4907
   588.2500     58.9257      0.0000    908.4457      5.1231
   588.5000     60.0376      0.0000    971.1639      5.9481
   588.7500     65.9781      0.0000    977.3682      6.8764
   589.0000     76.7642      0.0000    919.6775      7.8917
   589.2500     90.5219      0.0000    858.2368      9.0256
   589.5000    104.0841      0.0000    837.5615     10.2697
   589.7500    114.3478      0.0000    837.7579     11.6254
   590.0000    119.7746      0.0000    805.8857     13.2132
   590.2500    121.1043      0.0000    717.1245     15.2020
   590.5000    120.4164      0.0000    601.7347     17.6350
   590.7500    119.1685      0.0000    505.2675     20.3417
   591.0000    117.3298      0.0000    441.5720     22.9660
   591.2500    114.5048      0.0000    398.4295     25.1501
   591.5000    111.3150      0.0000    363.9603     26.7785
   591.7500    109.1948      0.0000    335.9633     27.9800
   592.0000    109.0809      0.0000    317.4507     28.8839
   592.2500    110.6973      0.0000    309.3133     29.4889
   592.5000    112.9454      0.0000    309.8275     29.7193
   592.7500    114.6755      0.0000    319.9365     29.4940
   593.0000    115.1802      0.0000    342.9248     28.8267
   593.2500    114.3021      0.0000    376.2279     27.8931
   593.5000    112.2496      0.0000    409.4658     26.8932
   593.7500    109.3661      0.0000    442.1164     25.8294
   594.0000    106.2414      0.0000    502.4801     24.5073
   594.2500    104.0149      0.0000    620.0486     22.7688
   594.5000    103.9290      0.0000    764.4933     20.6740
   594.7500    106.0611      0.0000    859.2847     18.4578
   595.0000    108.8488      0.0000    873.2690     16.3158
   595.2500    110.3999      0.0000    844.8237     14.3230
   595.5000    110.1418      0.0000    818.8322     12.6501
   595.7500    108.9778      0.0000    809.8763     11.6383
   596.0000    108.1990      0.0000    817.9158     11.4749
   596.2500    108.6331      0.0000    845.2910     11.9296
   596.5000    110.5169      0.0000    895.1302     12.4746
   596.7500    113.5889      0.0000    962.2211     12.6201
   597.0000    117.1876      0.0000   1027.3818     12.2391
   597.2500    120.6500      0.0000   1067.6075     11.6641
   597.5000    123.7210      0.0000   1073.1733     11.3876
   597.7500    126.1491      0.0000   1044.8685     11.6523
   598.0000    126.9118      0.0000    986.3969     12.3711
   598.2500    124.6412      0.0000    912.0664     13.3643
   598.5000    119.2682      0.0000    844.0815     14.5423
   598.7500    112.7386      0.0000    792.2301     15.7876
   599.0000    107.5984      0.0000    748.3871     16.7971
   599.2500    105.0638      0.0000    703.2715     17.2831
   599.5000    104.7117      0.0000    657.5263     17.3029
   599.7500    105.6059      0.0000    610.6341     17.2049
   600.0000    107.2349      0.0000    558.4872     17.3238
   600.2500    109.4870      0.0000    509.0626     17.8371
   600.5000    112.1401      0.0000    474.3975     18.7517
   600.7500    114.5957      0.0000    454.6388     19.9076
   601.0000    116.2052      0.0000    442.1445     21.0990
   601.2500    116.9073      0.0000    429.0239     22.2700
   601.5000    117.2782      0.0000    414.6718     23.5245
   601.7500    117.6878      0.0000    408.6982     24.8960
   602.0000    117.7776      0.0000    417.5155     26.2118
   602.2500    117.1304      0.0000    430.4133     27.2710
   602.5000    116.1447      0.0000    426.7590     28.0780
   602.7500    115.7953      0.0000    398.1970     28.7919
