~Version Information
VERS.                      2.0: CWLS Log ASCII Standard - VERSION 2.0
WRAP.                       NO: One line per depth step
~Well Information Block
STRT.FT                 0.0000: 
STOP.FT              1916.0000: 
STEP.FT                 0.1000: 
NULL.                -999.2500: 
COMP.          Pioneer Natural Resources: COMPANY
WELL.          Blackjack 32-11 Tr: WELL
FLD.           Purgatorie River: FIELD
LOC.           2066' FNL & 1453' FEL: LOCATION
PROV.                 Colorado: PROVINCE
CNTY.               Las Animas: COUNTRY
SRVC.                Patterson: SERVICE COMPANY
DATE.          Tue Aug 16 12:08:23 2005: LOG DATE
UWI.                          : UNIQUE WELL ID
~Curve Information Block
DEPT.FT            0 000 00 00: Depth
DCAL.in                       : CDL Caliper
RHOB.g/cc                     : CDL Bulk Density
RHOC.g/cc                     : CDL Density Correction
DPOR.pu                       : CDL Density Porosity
GR.GAPI                       : Gamma Ray
NPOR.pu                       : Neutron Porosity
~Parameter Information Block
~A  Depth       DCAL        RHOB        RHOC        DPOR         GR         NPOR    
# ...
  1507.2000      7.9615      2.4747      0.2425     10.6267    132.8338     30.8977
  1507.3000      7.9624      2.5351      0.2230      6.9634    119.2865     30.2155
  1507.4000      7.9624      2.5991      0.1683      3.0845    110.8960     29.8631
  1507.5000      7.9246      2.6527      0.1593     -0.1665    108.0975     29.5245
  1507.6000      7.9246      2.6917      0.1684     -2.5269    108.0114     29.2839
  1507.7000      7.9246      2.7307      0.1422     -4.8882    105.5463     29.2538
  1507.8000      7.8778      2.7878      0.1132     -8.3498     97.7695     29.0277
  1507.9000      7.8778      2.8581      0.1874    -12.6146     86.8314     28.3870
  1508.0000      7.8940      2.9251      0.1852    -16.6712     76.4408     27.6316
  1508.1000      7.8940      2.9929      0.1889    -20.7839     69.1032     27.0014
  1508.2000      7.8940      3.0745      0.2434    -25.7294     65.7789     26.5222
  1508.3000      7.7285      3.1526      0.3235    -30.4620     65.2913     26.1355
  1508.4000      7.7285      3.1924      0.2917    -32.8750     65.4245     25.6417
  1508.5000      7.6269      3.1911      0.2671    -32.7941     65.5778     24.8234
  1508.6000      7.6269      3.1670      0.2492    -31.3321     67.1902     23.7332
  1508.7000      7.6269      3.1050      0.2494    -27.5728     71.3419     22.6458
  1508.8000      7.5854      2.9887      0.0729    -20.5284     79.6030     21.9210
  1508.9000      7.5854      2.8679      0.0022    -13.2038     92.1873     21.9614
  1509.0000      7.6422      2.7935      0.0244     -8.6982    104.4442     22.6701
  1509.1000      7.6422      2.7491      0.0054     -6.0035    111.4871     23.4353
  1509.2000      7.6422      2.6894      0.0699     -2.3879    112.3223     23.7560
  1509.3000      7.7557      2.5991      0.1104      3.0868    111.0786     24.0853
  1509.4000      7.7557      2.5063      0.0451      8.7093    113.3388     24.9374
  1509.5000      7.9031      2.4487      0.0454     12.2016    117.9759     25.9250
  1509.6000      7.9031      2.4339      0.0415     13.0941    119.9299     26.6060
  1509.7000      7.9031      2.4381      0.0827     12.8414    118.7393     26.9653
  1509.8000      7.9603      2.4323      0.1238     13.1955    116.7224     27.2873
  1509.9000      7.9603      2.4081      0.1396     14.6607    116.4318     27.9580
  1510.0000      7.9564      2.3723      0.1403     16.8296    117.7682     28.8037
  1510.1000      7.9564      2.3309      0.1333     19.3382    118.1464     29.4125
  1510.2000      7.9564      2.2988      0.0682     21.2869    117.9373     29.8292
  1510.3000      7.9471      2.2914      0.1112     21.7353    118.6666     30.1715
  1510.4000      7.9471      2.3059      0.0814     20.8525    120.5765     30.4151
  1510.5000      7.9852      2.3401      0.1024     18.7811    123.4198     30.7241
  1510.6000      7.9852      2.3866      0.1765     15.9661    125.9412     31.0579
  1510.7000      7.9852      2.4163      0.2891     14.1650    126.8163     31.2084
  1510.8000      8.0918      2.4114      0.2598     14.4621    126.7739     31.3908
  1510.9000      8.0918      2.3874      0.2168     15.9124    127.6824     31.5167
  1511.0000      8.1360      2.3633      0.2023     17.3772    128.9979     31.3610
  1511.1000      8.1360      2.3465      0.1489     18.3966    126.8354     31.2586
  1511.2000      8.1360      2.3407      0.1219     18.7451    120.5922     31.5885
  1511.3000      8.1644      2.3407      0.1159     18.7457    116.9677     32.1675
  1511.4000      8.1644      2.3394      0.0830     18.8241    119.0008     32.6447
  1511.5000      8.0372      2.3420      0.1039     18.6666    122.1804     32.8764
  1511.6000      8.0372      2.3592      0.0837     17.6269    124.6194     32.5543
  1511.7000      8.0372      2.3935      0.1116     15.5454    125.9756     31.9200
  1511.8000      8.0346      2.4323      0.1285     13.1954    124.0076     31.7311
  1511.9000      8.0346      2.4625      0.1524     11.3608    121.3197     31.8663
  1512.0000      8.0382      2.4858      0.1724      9.9500    121.6705     31.3488
  1512.1000      8.0382      2.5043      0.1665      8.8313    120.4416     30.0633
  1512.2000      8.0382      2.5088      0.1715      8.5563    115.1133     29.0586
  1512.3000      7.9876      2.5015      0.1156      9.0013    111.1175     28.7400
  1512.4000      7.9876      2.5062      0.1180      8.7125    108.2858     28.5361
  1512.5000      8.0016      2.5341      0.1617      7.0229    102.5310     28.2652
  1512.6000      8.0016      2.5705      0.1317      4.8177     94.8861     27.7868
  1512.7000      8.0016      2.6026      0.1395      2.8699     88.1996     26.7224
  1512.8000      7.9824      2.6302      0.0913      1.1991     84.3786     25.4083
  1512.9000      7.9824      2.6511      0.1431     -0.0685     82.1566     24.5509
  1513.0000      7.9297      2.6535      0.1639     -0.2149     79.2993     24.1729
  1513.1000      7.9297      2.6346      0.0955      0.9353     77.7196     23.7005
  1513.2000      7.9297      2.6137      0.0527      2.1986     79.0469     22.9356
  1513.3000      7.9011      2.6156      0.0336      2.0842     81.2940     22.2617
  1513.4000      7.9011      2.6405      0.0940      0.5775     83.7816     22.1430
  1513.5000      7.8471      2.6525      0.1294     -0.1511     87.8277     22.6156
  1513.6000      7.8471      2.6130      0.1449      2.2447     92.4364     23.1831
  1513.7000      7.8471      2.5351      0.0428      6.9631     93.4371     23.2943
  1513.8000      7.8117      2.4663      0.0558     11.1333     91.4708     22.8797
  1513.9000      7.8117      2.4216      0.0373     13.8429     92.8682     22.1811
  1514.0000      7.9212      2.3846      0.0397     16.0832     98.1393     21.5117
  1514.1000      7.9212      2.3463      0.0204     18.4083    103.0176     21.4509
  1514.2000      7.9212      2.3167     -0.0090     20.1987    107.3126     22.2963
  1514.3000      7.9498      2.2983      0.0381     21.3156    113.4871     23.5026
  1514.4000      7.9498      2.2650      0.0337     23.3308    118.5513     24.7067
  1514.5000      7.9759      2.1930      0.0399     27.6993    117.8393     26.1367
  1514.6000      7.9759      2.0936      0.0080     33.7230    113.2228     27.7852
  1514.7000      7.9759      1.9984      0.0315     39.4930    106.5454     29.4301
  1514.8000      8.0171      1.9134      0.0334     44.6440     98.7701     30.9321
  1514.9000      8.0171      1.8141      0.0094     50.6629     93.8326     32.0197
  1515.0000      8.0394      1.6896     -0.0428     58.2063     92.1280     32.7195
  1515.1000      8.0394      1.5730     -0.0318     65.2733     88.9712     33.3037
  1515.2000      8.0394      1.5070      0.0285     69.2722     82.5318     33.9379
  1515.3000      8.0716      1.4959      0.0964     69.9447     78.2481     34.6458
  1515.4000      8.0716      1.5234      0.1165     68.2763     80.1641     35.2661
  1515.5000      8.0788      1.5997      0.0954     63.6561     85.1251     35.7310
  1515.6000      8.0788      1.7383      0.1688     55.2570     89.9238     35.9874
  1515.7000      8.0788      1.9009      0.2762     45.3972     92.9851     35.9276
  1515.8000      8.1386      2.0361      0.2766     37.2081     92.4381     35.7226
  1515.9000      8.1386      2.1527      0.2559     30.1399     90.8704     35.2253
  1516.0000      8.0077      2.2796      0.3046     22.4493     92.6931     34.1627
  1516.1000      8.0077      2.3919      0.2941     15.6422     97.4817     33.0129
  1516.2000      8.0077      2.4489      0.2048     12.1854     99.7709     32.2333
  1516.3000      7.9742      2.4572      0.1176     11.6825     96.8516     31.1733
  1516.4000      7.9742      2.4425      0.1459     12.5772     91.9409     29.0287
  1516.5000      7.8639      2.4092      0.0997     14.5931     88.8037     26.2221
  1516.6000      7.8639      2.3676      0.0035     17.1123     90.6310     23.7522
  1516.7000      7.8639      2.3442      0.0390     18.5333     94.9958     22.1396
