~Version Information
 VERS.                                  2.0 : CWLS LAS VERSION
 WRAP.                                   NO : WRAPING MODE
 SWARE .                 MController 2.5.0I : SOFTWARE VERSION
~Well Information
 WELL.                      Alexander 9-43R : WELL
 COMP.                       Petrogulf corp : COMPANY
 FLD.                      Purgatorie River : FIELD
 LOC.                 NE/SE Sec 9 T33s R67W : LOCATION
 DATE.                              9/03/04 : DATE(S) LOGGED
 SRVC.       Blanco Geological Services LLC : SERVICE COMPANY
 STAT.                                   CO : STATE
 CNTY.                           Las Animas : COUNTY
 CTRY.                                  USA : COUNTRY
 API.                       05-071-08036-00 : API NUMBER
 STRT.FT                             527.00 : START DEPTH
 STOP.FT                            1779.00 : STOP DEPTH
 STEP.FT                               1.00 : DEPTH INCREMENT
 NULL.                                -9999 : NULL VALUE
~Curve information
 DEPTH.FT                                   :
 ROP.MIN/FT                                 :
 GAS.UNITS                                  :
~ASCII Log data
# ...
       927.0          0.3         32.2 
       928.0          0.1         26.4 
       929.0          0.1         24.7 
       930.0          0.1         22.9 
       931.0          0.2         21.1 
       932.0          0.2         19.0 
       933.0          0.2         17.5 
       934.0          0.2         15.8 
       935.0          0.1         14.6 
       936.0          0.1         13.4 
       937.0          0.2         12.4 
       938.0          0.2         11.2 
       939.0          0.2          9.9 
       940.0          0.2          9.0 
       941.0          0.2          8.3 
       942.0          0.2          7.5 
       943.0          0.2          6.3 
       944.0          0.2          5.7 
       945.0          0.2          5.4 
       946.0          0.2          5.2 
       947.0          0.2          4.6 
       948.0          0.2          4.6 
       949.0          0.2          4.7 
       950.0          0.2          4.2 
       951.0          0.2          4.3 
       952.0          0.3          5.4 
       953.0          0.1          4.9 
       954.0          0.1          3.8 
       955.0          0.2          2.2 
       956.0          3.2         84.9 
       957.0          0.3         13.0 
       958.0          0.2         11.1 
       959.0          0.2          9.0 
       960.0          0.2          7.1 
       961.0          0.2          6.0 
       962.0          0.2          5.1 
       963.0          0.2          4.1 
       964.0          0.2          3.8 
       965.0          0.2          3.1 
       966.0          0.2          2.4 
       967.0          0.1          3.4 
       968.0          0.1          4.8 
       969.0          0.1          5.7 
       970.0          0.1          6.1 
       971.0          0.1          5.7 
       972.0          0.1          4.1 
       973.0          0.1          3.0 
       974.0          0.1          1.8 
       975.0          0.1          1.2 
       976.0          0.1          2.5 
       977.0          0.1          4.2 
       978.0          0.1          9.3 
       979.0          0.1         12.5 
       980.0          0.2         15.0 
       981.0          0.2         15.4 
       982.0          0.2         14.1 
       983.0          0.2         13.3 
       984.0          0.1         12.4 
       985.0          0.2         11.6 
       986.0          0.3         11.4 
       987.0          0.3          8.3 
       988.0          3.0        144.7 
       989.0          0.1         34.5 
       990.0          0.2         30.4 
       991.0          0.2         24.2 
       992.0          0.1         22.2 
       993.0          0.2         21.0 
       994.0          0.2         18.9 
       995.0          0.1         18.4 
       996.0          0.2         18.6 
       997.0          0.1         18.2 
       998.0          0.1         18.6 
       999.0          0.1         20.6 
      1000.0          0.1         21.9 
      1001.0          0.1         23.1 
      1002.0          0.1         24.0 
      1003.0          0.1         25.2 
      1004.0          0.1         24.7 
      1005.0          0.2         22.8 
      1006.0          0.1         20.1 
      1007.0          0.2         18.4 
      1008.0          0.3         16.3 
      1009.0          0.2         13.6 
      1010.0          0.1         12.5 
      1011.0          0.2         11.6 
      1012.0          0.2         10.6 
      1013.0          0.1          9.4 
      1014.0          0.1          9.8 
      1015.0          0.1          9.8 
      1016.0          0.1          8.9 
      1017.0          0.2          7.8 
      1018.0          2.0         51.4 
      1019.0          0.1         23.6 
      1020.0          0.3         24.2 
      1021.0          0.3         23.1 
      1022.0          0.2         18.4 
      1023.0          0.3         14.0 
      1024.0          0.2         11.6 
      1025.0          0.2         10.9 
      1026.0          0.2         10.5 
      1027.0          0.2         10.1 
      1028.0          0.1          9.4 
      1029.0          0.2          8.8 
      1030.0          0.1          7.8 
      1031.0          0.2          7.4 
      1032.0          0.1          6.6 
      1033.0          0.2          6.3 
      1034.0          0.1          6.1 
      1035.0          0.1          5.6 
      1036.0          0.2          4.6 
      1037.0          0.1          4.5 
      1038.0          0.1          5.8 
      1039.0          0.1          7.2 
      1040.0          0.1          9.4 
      1041.0          0.1         11.9 
      1042.0          0.1         15.0 
      1043.0          0.1         17.7 
      1044.0          0.1         19.8 
      1045.0          0.1         21.2 
      1046.0          0.2         20.5 
      1047.0          0.1         17.0 
      1048.0          0.1         12.5 
      1049.0          2.1         42.4 
      1050.0          0.4         23.8 
      1051.0          0.3         14.8 
      1052.0          0.2         10.8 
      1053.0          0.2         11.4 
      1054.0          0.2         11.5 
      1055.0          0.2         11.2 
      1056.0          0.2          8.1 
      1057.0          0.2          6.1 
      1058.0          0.2          4.5 
      1059.0          0.1          4.2 
      1060.0          0.2          6.1 
      1061.0          0.1          7.2 
      1062.0          0.1          7.8 
      1063.0          0.1          7.9 
      1064.0          0.1          7.8 
      1065.0          0.2          7.7 
      1066.0          0.1          8.3 
      1067.0          0.2         10.0 
      1068.0          0.1         12.6 
      1069.0          0.2         13.6 
      1070.0          0.3         13.8 
      1071.0          0.1         11.4 
      1072.0          0.1         10.2 
      1073.0          0.2          9.4 
      1074.0          0.2          8.7 
      1075.0          0.1          7.9 
      1076.0          0.2          7.4 
      1077.0          0.1          5.6 
      1078.0          1.9         67.4 
      1079.0          0.1         43.5 
      1080.0          0.2         46.7 
      1081.0          0.2         46.5 
      1082.0          0.2         43.8 
      1083.0          0.2         37.1 
      1084.0          0.2         30.7 
      1085.0          0.3         27.2 
      1086.0          0.2         25.9 
      1087.0          0.2         25.4 
      1088.0          0.2         24.6 
      1089.0          0.2         22.8 
      1090.0          0.2         20.9 
      1091.0          0.1         18.7 
      1092.0          0.1         17.3 
      1093.0          0.1         16.3 
      1094.0          0.1         15.5 
      1095.0          0.2         14.9 
      1096.0          0.2         14.7 
      1097.0          0.2         14.6 
      1098.0          0.2         14.1 
      1099.0          0.1         14.1 
      1100.0          0.2         14.2 
      1101.0          0.1         13.6 
      1102.0          0.2         13.7 
      1103.0          0.1         13.5 
      1104.0          0.2         14.1 
      1105.0          0.2         13.8 
      1106.0          0.2         12.2 
      1107.0          0.2          8.7 
      1108.0          2.0         75.4 
      1109.0          0.3         39.1 
      1110.0          0.2         38.2 
      1111.0          0.4         34.2 
      1112.0          0.3         24.6 
      1113.0          0.2         20.8 
      1114.0          0.3         20.7 
      1115.0          0.2         19.9 
      1116.0          0.2         18.1 
      1117.0          0.2         16.2 
      1118.0          0.2         15.0 
      1119.0          0.2         14.2 
      1120.0          0.2         12.9 
      1121.0          0.3         11.9 
      1122.0          0.3         11.7 
      1123.0          0.2         11.7 
      1124.0          0.2         11.3 
      1125.0          0.2         10.9 
      1126.0          0.2         10.5 
