~Version Information
 VERS.                                  2.0 : CWLS LAS VERSION
 WRAP.                                   NO : WRAPING MODE
 SWARE .                 MController 2.5.0N : SOFTWARE VERSION
~Well Information
 WELL.                     Commander 43-25Tr : WELL
 COMP.    Pioneer Natural Resources USA Inc : COMPANY
 FLD.                      Purgatoire River : FIELD
 LOC.                NE/SE Sec 26 T32S R67W : LOCATION
 DATE.                              4/14/05 : DATE(S) LOGGED
 SRVC.       Blanco Geological Services LLC : SERVICE COMPANY
 STAT.                                   CO : STATE
 CNTY.                           Las Animas : COUNTY
 CTRY.                                  USA : COUNTRY
 API.                       05-071-08341-00 : API NUMBER
 STRT.FT                             275.00 : START DEPTH
 STOP.FT                            1979.00 : STOP DEPTH
 STEP.FT                               1.00 : DEPTH INCREMENT
 NULL.                                -9999 : NULL VALUE
~Curve information
 DEPTH.FT                                   :
 ROP.MIN/FT                                 :
 GAS.UNITS                                  :
~ASCII Log data
# ...
      1275.0         0.27        153.4 
      1276.0         0.27        125.8 
      1277.0         0.30        100.3 
      1278.0         0.27         82.2 
      1279.0         0.30         75.0 
      1280.0         0.20         76.8 
      1281.0         0.17         81.0 
      1282.0         0.20         89.4 
      1283.0         0.20         89.7 
      1284.0         0.17         86.5 
      1285.0         0.18         81.4 
      1286.0         4.35        411.7 
      1287.0         0.33        409.3 
      1288.0         0.33        350.3 
      1289.0         0.23        268.9 
      1290.0         0.20        234.8 
      1291.0         0.17        219.3 
      1292.0         0.17        213.7 
      1293.0         0.17        210.0 
      1294.0         0.17        205.9 
      1295.0         0.20        194.0 
      1296.0         0.17        177.9 
      1297.0         0.22        167.4 
      1298.0         0.20        160.0 
      1299.0         0.20        156.4 
      1300.0         0.23        152.8 
      1301.0         0.20        147.4 
      1302.0         0.23        142.2 
      1303.0         0.20        135.0 
      1304.0         0.20        127.8 
      1305.0         0.23        123.1 
      1306.0         0.23        120.1 
      1307.0         0.27        117.3 
      1308.0         0.23        115.2 
      1309.0         0.23        112.5 
      1310.0         0.23        108.4 
      1311.0         0.20        107.8 
      1312.0         0.25        107.9 
      1313.0         0.30        111.3 
      1314.0         0.30        111.4 
      1315.0         0.33        108.5 
      1316.0         4.48        237.7 
      1317.0         0.47        191.0 
      1318.0         0.33        163.2 
      1319.0         0.27        169.3 
      1320.0         0.25        176.2 
      1321.0         0.20        181.1 
      1322.0         0.20        182.9 
      1323.0         0.43        184.2 
      1324.0         0.60        178.8 
      1325.0         0.53        149.6 
      1326.0         0.57        138.0 
      1327.0         0.58        125.7 
      1328.0         0.50        121.9 
      1329.0         0.23        113.6 
      1330.0         0.27        109.0 
      1331.0         0.23        105.2 
      1332.0         0.30        102.5 
      1333.0         0.23         97.0 
      1334.0         0.23         91.7 
      1335.0         0.23         89.9 
      1336.0         0.17         91.4 
      1337.0         0.23         93.4 
      1338.0         0.23         94.0 
      1339.0         0.30         94.0 
      1340.0         0.25         95.8 
      1341.0         0.27        102.7 
      1342.0         0.33        111.1 
      1343.0         0.23        110.7 
      1344.0         0.23        110.9 
      1345.0         0.20        111.1 
      1346.0         3.25        239.9 
      1347.0         0.17        240.5 
      1348.0         0.30        237.9 
      1349.0         0.27        217.3 
      1350.0         0.23        192.7 
      1351.0         0.23        181.4 
      1352.0         0.27        188.3 
      1353.0         0.23        194.3 
      1354.0         0.20        196.9 
      1355.0         0.28        196.8 
      1356.0         0.23        186.6 
      1357.0         0.20        176.0 
      1358.0         0.13        171.0 
      1359.0         0.17        165.1 
      1360.0         0.13        157.3 
      1361.0         0.17        152.5 
      1362.0         0.17        148.2 
      1363.0         0.13        145.2 
      1364.0         0.13        143.1 
      1365.0         0.20        140.7 
      1366.0         0.23        137.8 
      1367.0         0.20        135.0 
      1368.0         0.20        132.9 
      1369.0         0.20        132.9 
      1370.0         0.23        139.7 
      1371.0         0.20        146.0 
      1372.0         0.22        150.7 
      1373.0         0.33        173.4 
      1374.0         0.33        176.2 
      1375.0         0.30        163.1 
      1376.0         4.42       1598.6 
      1377.0         0.30       1791.9 
      1378.0         0.27       1832.8 
      1379.0         0.27       1793.6 
      1380.0         0.37       1560.0 
      1381.0         0.35       1078.1 
      1382.0         0.30        786.6 
      1383.0         0.30        651.2 
      1384.0         0.23        550.4 
      1385.0         0.20        488.3 
      1386.0         0.20        490.6 
      1387.0         0.17        440.0 
      1388.0         0.20        440.0 
      1389.0         0.20        440.0 
      1390.0         0.20        159.8 
      1391.0         0.27        149.8 
      1392.0         0.23        136.7 
      1393.0         0.23        131.0 
      1394.0         0.27        132.4 
      1395.0         0.35        132.9 
      1396.0         0.27        131.7 
      1397.0         0.23        128.9 
      1398.0         0.27        126.9 
      1399.0         0.27        126.1 
      1400.0         0.27        125.1 
      1401.0         0.23        117.0 
      1402.0         0.27        109.3 
      1403.0         0.20        112.0 
      1404.0         0.20        112.7 
      1405.0         0.23        111.3 
      1406.0         7.45       1603.2 
      1407.0         0.23       1492.6 
      1408.0         0.27       1286.2 
      1409.0         0.17       1046.4 
      1410.0         0.27        899.2 
      1411.0         0.23        764.0 
      1412.0         0.23        685.9 
      1413.0         0.27        640.4 
      1414.0         0.30        592.0 
      1415.0         0.27        538.6 
      1416.0         0.27        509.2 
      1417.0         0.27        549.1 
      1418.0         0.23        486.6 
      1419.0         0.28        482.0 
      1420.0         0.20        470.3 
      1421.0         0.20        459.5 
      1422.0         0.23        451.3 
      1423.0         0.17        487.6 
      1424.0         0.20        474.8 
      1425.0         0.23        473.5 
      1426.0         0.17        461.1 
      1427.0         0.10        440.0 
      1428.0         0.17        457.8 
      1429.0         0.17        455.5 
      1430.0         0.10        444.4 
      1431.0         0.20        461.8 
      1432.0         0.23        464.4 
      1433.0         0.23        446.7 
      1434.0         0.23        440.0 
      1435.0         0.27        157.0 
      1436.0         7.62       4013.3 
      1437.0         0.37       3593.2 
      1438.0         0.27       2497.3 
      1439.0         0.30       1661.7 
      1440.0         0.27       1070.6 
      1441.0         0.23        832.1 
      1442.0         0.23        704.8 
      1443.0         0.27        625.0 
      1444.0         0.33        552.1 
      1445.0         0.38        484.7 
      1446.0         0.20        504.3 
      1447.0         0.27        487.6 
      1448.0         0.30        485.6 
      1449.0         0.33        479.8 
      1450.0         0.30        467.0 
      1451.0         0.30        468.0 
      1452.0         0.17        440.0 
      1453.0         0.17        440.0 
      1454.0         0.17        440.0 
      1455.0         0.17        154.2 
      1456.0         0.17        147.2 
      1457.0         0.13        140.7 
      1458.0         0.17        134.5 
      1459.0         0.17        126.7 
      1460.0         0.20        118.0 
      1461.0         0.18        113.8 
      1462.0         0.17        117.6 
      1463.0         0.20        120.0 
      1464.0         0.20        120.7 
      1465.0         3.68        372.1 
      1466.0         0.07        379.7 
      1467.0         0.27        389.7 
      1468.0         0.30        384.2 
      1469.0         0.30        340.6 
      1470.0         0.30        301.3 
      1471.0         0.37        276.7 
      1472.0         0.23        254.2 
      1473.0         0.27        239.7 
      1474.0         0.23        226.2 
