~Version Information
VERS.                      2.0: CWLS Log ASCII Standard - VERSION 2.0
WRAP.                       NO: One line per depth step
~Well Information Block
STRT.FT               588.6000: 
STOP.FT              2281.0000: 
STEP.FT                 0.1000: 
NULL.                -999.2500: 
COMP.          Petrogulf Corporation: COMPANY
WELL.             State 16-41V: WELL
FLD.           Purgatorie River: FIELD
LOC.           335' FNL & 823' FEL: LOCATION
CNTY.               Las Animas: COUNTY
SRVC.                         : SERVICE COMPANY
DATE.          Tue Aug 02 07:31:25 2005: LOG DATE
UWI.                          : UNIQUE WELL ID
STAT.                 Colorado: STATE
~Curve Information Block
DEPT.FT            0 000 00 00: Depth
DCAL.in                       : CDL Caliper
RHOB.g/cc                     : CDL Bulk Density
RHOC.g/cc                     : CDL Density Correction
DPOR.pu                       : CDL Density Porosity
GR.GAPI                       : Gamma Ray
NPOR.pu                       : Neutron Porosity
~Parameter Information Block
~A  Depth       DCAL        RHOB        RHOC        DPOR         GR         NPOR    
# ...
   924.6000      8.2250      2.3034     -0.0342     21.0072    144.8895     22.8516
   924.7000      8.2250      2.2250     -0.0042     25.7577    145.6480     21.8486
   924.8000      8.3364      2.1519      0.0080     30.1894    146.7491     20.7923
   924.9000      8.3364      2.0734      0.0003     34.9469    142.3279     19.7258
   925.0000      8.3530      1.9752     -0.0081     40.8965    132.5495     18.6984
   925.1000      8.3530      1.8681     -0.0186     47.3890    123.1154     17.7604
   925.2000      8.3530      1.7679      0.1118     53.4590    116.6025     16.9597
   925.3000      8.2915      1.6662      0.1643     59.6271    111.8868     16.3376
   925.4000      8.2915      1.5750      0.0733     65.1531    107.8818     15.9267
   925.5000      8.4193      1.5453      0.1183     66.9486    104.9119     15.7502
   925.6000      8.4193      1.5987      0.2365     63.7182    103.2613     15.8218
   925.7000      8.4193      1.7114      0.2840     56.8834    102.9971     16.1457
   925.8000      8.6264      1.8570      0.3309     48.0622    105.2623     16.7166
   925.9000      8.6264      2.0072      0.3814     38.9573    110.0609     17.5179
   926.0000      8.7283      2.1342      0.4313     31.2592    114.3923     18.5214
   926.1000      8.7283      2.2349      0.4048     25.1601    117.5442     19.6868
   926.2000      8.7283      2.3153      0.3820     20.2835    123.8377     20.9629
   926.3000      8.6305      2.3715      0.2303     16.8767    132.9352     22.2905
   926.4000      8.6305      2.4152      0.1039     14.2316    138.3382     23.6081
   926.5000      8.4261      2.4682      0.0522     11.0181    140.0600     24.8559
   926.6000      8.4261      2.5222      0.1154      7.7468    142.4203     25.9822
   926.7000      8.4261      2.5457      0.1050      6.3218    145.6133     26.9462
   926.8000      8.3190      2.5333      0.0343      7.0706    148.0275     27.7210
   926.9000      8.3190      2.5144      0.0429      8.2197    148.6913     28.2935
   927.0000      8.2781      2.5110      0.0322      8.4248    148.9181     28.6641
   927.1000      8.2781      2.5222      0.0310      7.7477    151.3469     28.8439
   927.2000      8.2781      2.5345      0.0726      6.9993    154.5161     28.8533
   927.3000      8.2573      2.5346      0.0400      6.9963    153.7958     28.7182
   927.4000      8.2573      2.5231      0.0420      7.6932    149.8066     28.4686
   927.5000      8.2745      2.5074      0.0638      8.6436    148.6198     28.1360
   927.6000      8.2745      2.4866      0.0542      9.9018    151.1376     27.7515
   927.7000      8.2745      2.4611      0.0573     11.4473    153.6317     27.3449
   927.8000      8.2767      2.4398      0.0774     12.7382    154.3250     26.9435
   927.9000      8.2767      2.4289      0.1282     13.4016    152.6280     26.5711
   928.0000      8.2655      2.4278      0.1022     13.4686    148.6353     26.2477
   928.1000      8.2655      2.4318      0.1382     13.2237    144.2463     25.9891
   928.2000      8.2655      2.4387      0.1047     12.8088    140.6717     25.8064
   928.3000      8.2836      2.4465      0.1580     12.3328    137.8928     25.7061
   928.4000      8.2836      2.4424      0.1813     12.5821    136.6093     25.6902
   928.5000      8.3327      2.4254      0.1719     13.6097    138.1666     25.7563
   928.6000      8.3327      2.4121      0.1816     14.4178    141.6064     25.8978
   928.7000      8.3327      2.4114      0.1532     14.4584    145.7383     26.1048
   928.8000      8.3190      2.4258      0.1698     13.5862    149.9403     26.3644
   928.9000      8.3190      2.4543      0.1534     11.8634    152.7249     26.6621
   929.0000      8.3032      2.4896      0.1253      9.7183    153.0368     26.9820
   929.1000      8.3032      2.5215      0.1767      7.7892    150.4182     27.3085
   929.2000      8.3032      2.5422      0.1507      6.5334    145.7146     27.6269
   929.3000      8.3124      2.5518      0.1731      5.9528    140.7137     27.9241
   929.4000      8.3124      2.5502      0.1954      6.0472    137.6703     28.1897
   929.5000      8.2617      2.5433      0.1444      6.4691    137.8112     28.4156
   929.6000      8.2617      2.5533      0.1176      5.8589    138.0152     28.5965
   929.7000      8.2617      2.5951      0.1228      3.3302    135.9263     28.7294
   929.8000      8.2511      2.6511      0.2032     -0.0696    133.2102     28.8130
   929.9000      8.2511      2.6899      0.2297     -2.4209    130.8763     28.8475
   930.0000      8.2619      2.6998      0.1878     -3.0186    130.1073     28.8345
   930.1000      8.2619      2.6859      0.1698     -2.1764    130.4948     28.7763
   930.2000      8.2619      2.6540      0.1032     -0.2447    130.7813     28.6763
   930.3000      8.2517      2.6187      0.0336      1.8998    132.3569     28.5384
   930.4000      8.2517      2.5951      0.0404      3.3293    134.1995     28.3673
   930.5000      8.2497      2.5845      0.0196      3.9723    132.4474     28.1676
   930.6000      8.2497      2.5781      0.0129      4.3587    128.5936     27.9439
   930.7000      8.2497      2.5669      0.0275      5.0355    124.7007     27.7002
   930.8000      8.2580      2.5482      0.0246      6.1725    118.8653     27.4402
   930.9000      8.2580      2.5234      0.0557      7.6718    113.4122     27.1673
   931.0000      8.2739      2.4974      0.0226      9.2490    113.2395     26.8853
   931.1000      8.2739      2.4789      0.0195     10.3719    116.9960     26.5983
   931.2000      8.2739      2.4726      0.0496     10.7536    121.5504     26.3119
   931.3000      8.2780      2.4791      0.0624     10.3605    127.5841     26.0323
   931.4000      8.2780      2.4951      0.0614      9.3849    133.7325     25.7665
   931.5000      8.2647      2.5089      0.1111      8.5543    134.7899     25.5215
   931.6000      8.2647      2.5136      0.0937      8.2642    130.0978     25.3035
   931.7000      8.2647      2.5173      0.0741      8.0406    124.1481     25.1169
   931.8000      8.2578      2.5257      0.0859      7.5360    121.9269     24.9643
   931.9000      8.2578      2.5377      0.1288      6.8053    124.4175     24.8458
   932.0000      8.2584      2.5521      0.1569      5.9346    127.3113     24.7597
   932.1000      8.2584      2.5681      0.1441      4.9625    128.2068     24.7022
   932.2000      8.2584      2.5831      0.1236      4.0558    128.6415     24.6682
   932.3000      8.2584      2.5865      0.1572      3.8482    127.7270     24.6517
   932.4000      8.2584      2.5683      0.1767      4.9535    124.9903     24.6459
   932.5000      8.2578      2.5381      0.1101      6.7817    124.5521     24.6436
   932.6000      8.2578      2.5189      0.0919      7.9451    125.4987     24.6378
   932.7000      8.2578      2.5125      0.1202      8.3327    123.4259     24.6223
   932.8000      8.2622      2.5025      0.1190      8.9392    119.7309     24.5922
   932.9000      8.2622      2.4898      0.0422      9.7110    117.3365     24.5445
   933.0000      8.2573      2.4860      0.0707      9.9411    116.7657     24.4784
   933.1000      8.2573      2.4866      0.0604      9.9055    117.5807     24.3954
   933.2000      8.2573      2.4841      0.0492     10.0539    119.1483     24.2987
   933.3000      8.2547      2.4829      0.0611     10.1291    121.2693     24.1931
   933.4000      8.2547      2.4848      0.0843     10.0102    122.9459     24.0836
   933.5000      8.2599      2.4849      0.0869     10.0053    125.4071     23.9748
   933.6000      8.2599      2.4816      0.0683     10.2089    131.6056     23.8700
   933.7000      8.2599      2.4705      0.1300     10.8795    137.9848     23.7710
   933.8000      8.2638      2.4513      0.0281     12.0448    139.8193     23.6775
   933.9000      8.2638      2.4403      0.0319     12.7077    139.1082     23.5875
   934.0000      8.2754      2.4396      0.0486     12.7536    137.6630     23.4976
   934.1000      8.2754      2.4308      0.0707     13.2846    136.0940     23.4034
