~Version Information
VERS.                      2.0: CWLS Log ASCII Standard - VERSION 2.0
WRAP.                       NO: One line per depth step
~Well Information Block
STRT.FT               340.0000: 
STOP.FT              1542.5000: 
STEP.FT                 0.1000: 
NULL.                -999.2500: 
COMP.          Petrogulf Corporation: COMPANY
WELL.            Montoya 7-21R: WELL
FLD.           Purgatorie River: FIELD
LOC.           445' FNL & 1942' FWL: LOCATION
PROV.                 Colorado: PROVINCE
CNTY.               Las Animas: COUNTRY
SRVC.                Patterson: SERVICE COMPANY
DATE.          Thu Sep 15 10:33:27 2005: LOG DATE
UWI.                          : UNIQUE WELL ID
~Curve Information Block
DEPT.FT            0 000 00 00: Depth
DCAL.in                       : CDL Caliper
RHOB.g/cc                     : CDL Bulk Density
RHOC.g/cc                     : CDL Density Correction
DPOR.pu                       : CDL Density Porosity
GR.GAPI                       : Gamma Ray
NPOR.pu                       : Neutron Porosity
~Parameter Information Block
~A  Depth       DCAL        RHOB        RHOC        DPOR         GR         NPOR    
# ...
  1367.2000      7.9655      2.5286      0.0342      7.3570     96.9990     20.4527
  1367.3000      7.9660      2.5287      0.0130      7.3529     92.4108     20.8001
  1367.4000      7.9660      2.5434      0.0539      6.4608     83.0130     21.1686
  1367.5000      7.9697      2.5588      0.0777      5.5247     75.9995     21.3865
  1367.6000      7.9697      2.5585      0.0509      5.5453     76.8779     21.8042
  1367.7000      7.9697      2.5394      0.0337      6.7011     82.6286     22.0843
  1367.8000      7.9706      2.5119      0.0682      8.3711     86.4220     21.8207
  1367.9000      7.9706      2.4917     -0.0154      9.5944     86.8575     21.2926
  1368.0000      7.9951      2.4870      0.0159      9.8786     85.6857     20.8917
  1368.1000      7.9951      2.4883      0.0479      9.7999     82.3079     20.7086
  1368.2000      7.9951      2.4852      0.0141      9.9898     78.2614     20.6298
  1368.3000      8.0010      2.4827     -0.0154     10.1382     76.3328     20.6613
  1368.4000      8.0010      2.4933     -0.0001      9.4989     75.0423     20.9691
  1368.5000      8.0124      2.5104      0.0415      8.4634     73.7373     21.4056
  1368.6000      8.0124      2.5090      0.0576      8.5463     73.2574     21.6722
  1368.7000      8.0124      2.4898     -0.0175      9.7103     72.8097     21.6363
  1368.8000      8.0138      2.4785      0.0111     10.3928     72.6589     21.1797
  1368.9000      8.0138      2.4837      0.0193     10.0815     74.2395     20.3580
  1369.0000      8.0194      2.4949      0.0336      9.4002     77.3273     19.5798
  1369.1000      8.0194      2.5059      0.0407      8.7306     79.5792     19.3452
  1369.2000      8.0194      2.5179      0.0233      8.0041     79.1201     19.7243
  1369.3000      8.0174      2.5276      0.0543      7.4171     74.9999     20.2626
  1369.4000      8.0174      2.5297      0.0475      7.2886     69.2130     20.5636
  1369.5000      8.0189      2.5283      0.0045      7.3750     66.5381     20.5891
  1369.6000      8.0189      2.5299      0.0291      7.2816     68.6345     20.4383
  1369.7000      8.0189      2.5303      0.0569      7.2536     71.4383     20.2027
  1369.8000      8.0150      2.5279      0.0481      7.3978     72.6789     20.0681
  1369.9000      8.0150      2.5320      0.0425      7.1487     75.6899     20.1343
  1370.0000      7.9905      2.5366      0.0567      6.8748     81.9606     20.0804
  1370.1000      7.9905      2.5242      0.0196      7.6255     87.0264     19.5584
  1370.2000      7.9905      2.5016      0.0061      8.9932     86.3714     19.0337
  1370.3000      7.9827      2.4886      0.0267      9.7790     81.7856     19.0491
  1370.4000      7.9827      2.4916      0.0234      9.5989     78.4975     19.2560
  1370.5000      7.9796      2.5026      0.0649      8.9306     79.0399     19.3898
  1370.6000      7.9796      2.5122      0.0088      8.3515     82.0204     19.6140
  1370.7000      7.9796      2.5144      0.0726      8.2155     84.3869     19.8571
  1370.8000      7.9833      2.5009      0.0713      9.0353     83.6338     19.8348
  1370.9000      7.9833      2.4805      0.0317     10.2733     79.9538     19.6383
  1371.0000      7.9829      2.4747      0.0555     10.6242     77.7037     19.4483
  1371.1000      7.9829      2.4862      0.0405      9.9297     77.6571     19.3604
  1371.2000      7.9829      2.5061      0.0605      8.7220     76.7018     19.5092
  1371.3000      7.9779      2.5234      0.0833      7.6727     75.5064     19.6800
  1371.4000      7.9779      2.5306      0.0720      7.2337     74.7412     19.5139
  1371.5000      7.9942      2.5312      0.0716      7.1983     73.2239     19.1241
  1371.6000      7.9942      2.5253      0.0908      7.5596     72.0652     18.8085
  1371.7000      7.9942      2.5114      0.0750      8.4011     71.8685     18.7109
  1371.8000      8.0038      2.5020      0.0023      8.9689     71.4415     18.9782
  1371.9000      8.0038      2.5144      0.0418      8.2156     70.6707     19.3895
  1372.0000      8.0223      2.5403      0.0910      6.6505     70.8528     19.3925
  1372.1000      8.0223      2.5506      0.0878      6.0217     71.9968     19.0352
  1372.2000      8.0223      2.5455      0.0339      6.3307     72.5584     18.7283
  1372.3000      8.0320      2.5490      0.0419      6.1233     71.4641     18.4434
  1372.4000      8.0320      2.5616      0.0820      5.3568     67.8170     18.2580
  1372.5000      8.0168      2.5656      0.0828      5.1170     62.7775     18.5854
  1372.6000      8.0168      2.5504      0.0789      6.0348     60.0231     19.1611
  1372.7000      8.0168      2.5269      0.0197      7.4603     60.5629     19.2354
  1372.8000      7.9891      2.5244     -0.0035      7.6131     63.4405     18.9313
  1372.9000      7.9891      2.5481      0.0785      6.1729     68.1649     18.6169
  1373.0000      7.9624      2.5689      0.1000      4.9161     71.7988     18.0332
  1373.1000      7.9624      2.5795      0.0497      4.2751     71.5490     16.9670
  1373.2000      7.9624      2.5995      0.1161      3.0603     69.6188     15.8786
  1373.3000      7.9530      2.6265      0.1267      1.4272     69.1515     15.4431
  1373.4000      7.9530      2.6374      0.1475      0.7640     70.8825     15.8275
  1373.5000      7.9493      2.6199      0.1597      1.8266     72.4062     16.5738
  1373.6000      7.9493      2.5907      0.0402      3.5959     70.6384     17.1093
  1373.7000      7.9493      2.5785      0.0790      4.3331     67.2991     17.2540
  1373.8000      7.9373      2.5792      0.0963      4.2937     65.9512     17.0009
  1373.9000      7.9373      2.5714      0.0584      4.7661     67.5675     16.3129
  1374.0000      7.9505      2.5563      0.0369      5.6792     72.5735     15.5439
  1374.1000      7.9505      2.5445      0.0541      6.3923     79.4404     15.2954
  1374.2000      7.9505      2.5365      0.0499      6.8795     84.0600     15.8055
  1374.3000      7.9844      2.5275      0.0686      7.4234     84.4594     16.7676
  1374.4000      7.9844      2.5115      0.0370      8.3927     81.2429     17.7111
  1374.5000      8.0285      2.4853      0.0371      9.9833     77.6990     18.5442
  1374.6000      8.0285      2.4586     -0.0116     11.5970     76.7147     19.3741
  1374.7000      8.0285      2.4469      0.0116     12.3112     75.3293     19.7701
  1374.8000      8.0312      2.4504     -0.0014     12.0978     72.5640     19.5453
  1374.9000      8.0312      2.4608     -0.0022     11.4637     72.6568     19.4042
  1375.0000      8.0044      2.4690      0.0410     10.9709     77.2623     19.6074
  1375.1000      8.0044      2.4730      0.0314     10.7278     82.3191     19.7798
  1375.2000      8.0044      2.4816      0.0444     10.2048     82.7960     19.8340
  1375.3000      8.0062      2.4957      0.0459      9.3529     80.0099     19.8506
  1375.4000      8.0062      2.5069      0.0666      8.6746     78.6785     19.8687
  1375.5000      7.9952      2.5121      0.0750      8.3562     80.1674     19.7814
  1375.6000      7.9952      2.5185      0.0452      7.9671     82.5133     19.6855
  1375.7000      7.9952      2.5360      0.0535      6.9095     83.2924     19.8472
  1375.8000      7.9941      2.5575      0.0901      5.6066     82.8583     20.0565
  1375.9000      7.9941      2.5673      0.0970      5.0130     83.0165     20.0661
  1376.0000      7.9757      2.5644      0.0717      5.1884     82.9317     19.7539
  1376.1000      7.9757      2.5562      0.0877      5.6857     82.9533     19.1159
  1376.2000      7.9757      2.5462      0.0658      6.2897     85.6937     18.7364
  1376.3000      7.9718      2.5355      0.0747      6.9381     89.6656     19.0486
  1376.4000      7.9718      2.5238      0.0456      7.6484     90.3666     19.6471
  1376.5000      7.9693      2.5197      0.0337      7.8993     86.9517     19.9836
  1376.6000      7.9693      2.5320      0.0450      7.1498     81.9013     19.8289
  1376.7000      7.9693      2.5493      0.0694      6.1008     79.8084     19.1609
