~Version Information
VERS.                      2.0: CWLS Log ASCII Standard - VERSION 2.0
WRAP.                       NO: One line per depth step
~Well Information Block
STRT.FT               -11.0000: 
STOP.FT              1896.2500: 
STEP.FT                 0.2500: 
NULL.                -999.2500: 
COMP.          Pioneer Natural Resources: COMPANY
WELL.            Summers 21-19: WELL
FLD.           Purgatoire River: FIELD
LOC.           900' FNL & 1950' FWL--: LOCATION
PROV.                 Colorado: PROVINCE
CNTY.               Las Animas: COUNTRY
SRVC.                Patterson: SERVICE COMPANY
DATE.          Thu Oct 20 15:06:00 2005: LOG DATE
UWI.           05 071 08315 00: UNIQUE WELL ID
~Curve Information Block
DEPT.FT            0 000 00 00: Depth
GR.GAPI                       : Gamma Ray
CCL.                          : Casing Collar Locator
TT3.usec                      : CBL 3' Travel Time
AMP3.mV                       : CBL 3' Amplitude
~Parameter Information Block
~A  Depth        GR         CCL         TT3         AMP3    
# ...
   123.0000     77.9932      0.0000    794.5363      5.5116
   123.2500     77.0621      0.0000    794.5608      5.5574
   123.5000     78.7682      0.0000    794.5267      5.5924
   123.7500     82.4229      0.0000    794.6150      5.6164
   124.0000     86.5351      0.0000    794.6960      5.6251
   124.2500     90.0357      0.0000    794.6053      5.6089
   124.5000     92.7767      0.0000    794.2369      5.5605
   124.7500     95.2006      0.0000    793.6248      5.4882
   125.0000     97.7233      0.0000    792.9561      5.4223
   125.2500    100.3628      0.0000    792.4816      5.4001
   125.5000    102.9277      0.0000    792.4012      5.4389
   125.7500    105.4259      0.0000    792.8651      5.5256
   126.0000    108.0507      0.0000    794.1368      5.6285
   126.2500    110.7144      0.0000    796.7465      5.7159
   126.5000    112.6873      0.0000    801.2826      5.7688
   126.7500    112.8985      0.0000    807.7357      5.7847
   127.0000    110.8136      0.0000    814.9979      5.7723
   127.2500    106.9473      0.0000    821.2477      5.7399
   127.5000    102.3105      0.0000    824.9310      5.6915
   127.7500     97.5242      0.0000    825.3239      5.6330
   128.0000     92.9073      0.0000    822.4486      5.5786
   128.2500     89.2446      0.0000    816.9850      5.5446
   128.5000     87.7011      0.0000    810.3062      5.5366
   128.7500     88.7000      0.0000    804.0590      5.5440
   129.0000     91.3986      0.0000    799.3088      5.5474
   129.2500     94.4266      0.0000    796.1273      5.5321
   129.5000     96.6682      0.0000    794.0393      5.4971
   129.7500     97.3219      0.0000    792.6940      5.4535
   130.0000     95.9643      0.0000    792.0892      5.4152
   130.2500     93.0030      0.0000    792.4199      5.3904
   130.5000     89.7143      0.0000    793.9859      5.3810
   130.7500     87.4993      0.0000    797.2071      5.3858
   131.0000     87.0387      0.0000    802.3641      5.4057
   131.2500     88.1542      0.0000    808.9720      5.4448
   131.5000     90.4626      0.0000    815.3902      5.5047
   131.7500     94.0252      0.0000    819.3987      5.5782
   132.0000     99.0804      0.0000    819.5549      5.6542
   132.2500    105.2280      0.0000    816.3024      5.7255
   132.5000    111.2869      0.0000    811.7891      5.7888
   132.7500    115.8855      0.0000    808.2918      5.8353
   133.0000    117.9135      0.0000    806.4089      5.8537
   133.2500    116.7957      0.0000    804.7535      5.8423
   133.5000    112.9142      0.0000    801.5954      5.8107
   133.7500    107.5853      0.0000    796.8247      5.7615
   134.0000    102.2831      0.0000    792.1624      5.6820
   134.2500     97.9512      0.0000    789.4131      5.5612
   134.5000     94.8654      0.0000    788.7692      5.4062
   134.7500     92.8015      0.0000    788.7936      5.2329
   135.0000     91.4534      0.0000    787.4041      5.0468
   135.2500     90.9352      0.0000    782.4471      4.8355
   135.5000     91.7396      0.0000    772.4268      4.5779
   135.7500     94.0193      0.0000    758.4944      4.2640
   136.0000     96.9881      0.0000    745.9135      3.9084
   136.2500     99.1548      0.0000    741.5069      3.5461
   136.5000     99.0994      0.0000    748.2430      3.2181
   136.7500     96.2168      0.0000    763.3348      2.9663
   137.0000     91.1962      0.0000    782.2017      2.8281
   137.2500     85.9415      0.0000    802.3878      2.8153
   137.5000     82.6799     -2.0000    822.3666      2.8981
   137.7500     82.6425     -1.8311    837.9999      3.0232
   138.0000     85.3688      0.0000    842.2507      3.1534
   138.2500     89.2953      0.0000    828.8575      3.3084
   138.5000     92.9230      0.0000    797.0153      3.5790
   138.7500     95.3819      0.0000    754.8536      4.0689
   139.0000     96.3027      0.0000    719.1616      4.7726
   139.2500     95.6940      0.0000    707.1602      5.5177
   139.5000     94.0559      0.0000    723.6411      6.0820
   139.7500     92.3308      0.0000    757.0090      6.3716
   140.0000     91.4301      0.0000    789.9335      6.4549
   140.2500     91.6642      0.0000    812.2430      6.4470
   140.5000     92.7164      0.0000    823.5895      6.4103
   140.7500     94.2495      0.0000    828.1268      6.3556
   141.0000     96.2358      0.0000    829.5688      6.2904
   141.2500     98.4738      0.0000    829.6699      6.2414
   141.5000    100.1049      0.0000    828.5751      6.2370
   141.7500     99.9832      0.0000    825.5358      6.2797
   142.0000     97.5731      0.0000    819.8346      6.3386
   142.2500     93.4495      0.0000    811.7230      6.3697
   142.5000     88.8028      0.0000    802.6356      6.3436
   142.7500     84.4427      0.0000    794.2632      6.2592
   143.0000     80.5913      0.0000    787.7352      6.1397
   143.2500     77.6636      0.0000    783.9609      6.0134
   143.5000     76.6606      0.0000    783.9456      5.8977
   143.7500     78.3232      0.0000    787.7272      5.7952
   144.0000     82.0690      0.0000    793.2617      5.6993
   144.2500     86.1159      0.0000    797.3923      5.6006
   144.5000     88.7585      0.0000    798.2321      5.4957
   144.7500     89.4871      0.0000    796.3220      5.3917
   145.0000     88.9684      0.0000    793.6491      5.3052
   145.2500     88.2939      0.0000    792.1452      5.2529
   145.5000     88.4764      0.0000    793.0751      5.2432
   145.7500     90.2932      0.0000    796.9024      5.2710
   146.0000     93.9054      0.0000    802.7769      5.3228
   146.2500     98.4846      0.0000    808.2391      5.3855
   146.5000    102.6172      0.0000    810.3821      5.4526
   146.7500    105.2959      0.0000    808.1122      5.5225
   147.0000    106.3793      0.0000    803.1530      5.5956
   147.2500    106.2030      0.0000    798.3804      5.6699
   147.5000    105.0565      0.0000    795.2528      5.7396
   147.7500    103.0359      0.0000    793.4264      5.7965
   148.0000    100.2891      0.0000    792.7721      5.8326
   148.2500     97.3727      0.0000    794.6408      5.8438
   148.5000     95.1343      0.0000    800.3527      5.8321
   148.7500     93.9712      0.0000    809.0272      5.8053
   149.0000     93.4626      0.0000    817.7701      5.7731
   149.2500     93.0274      0.0000    823.8240      5.7404
   149.5000     92.5762      0.0000    825.9229      5.7066
   149.7500     92.1421      0.0000    823.9034      5.6704
   150.0000     91.3945      0.0000    818.1444      5.6341
   150.2500     90.1391      0.0000    810.0939      5.5998
   150.5000     88.8695      0.0000    802.8660      5.5646
   150.7500     88.1898      0.0000    800.1230      5.5235
   151.0000     88.0878      0.0000    803.5227      5.4753
   151.2500     88.2623      0.0000    811.3498      5.4240
   151.5000     88.5918      0.0000    819.9659      5.3735
   151.7500     88.8063      0.0000    826.5328      5.3233
   152.0000     88.2440      0.0000    830.3328      5.2682
   152.2500     86.4123      0.0000    832.1138      5.2026
   152.5000     83.5818      0.0000    832.8766      5.1271
   152.7500     80.7013      0.0000    833.2628      5.0501
   153.0000     78.9134      0.0000    833.5412      4.9808
   153.2500     79.0345      0.0000    833.7822      4.9232
   153.5000     81.0010      0.0000    833.9918      4.8766
   153.7500     83.5830      0.0000    834.1684      4.8420
   154.0000     84.9590      0.0000    834.2946      4.8220
   154.2500     84.0023      0.0000    834.3082      4.8164
   154.5000     81.1449      0.0000    834.0663      4.8225
   154.7500     77.8573      0.0000    833.2736      4.8399
   155.0000     75.1652      0.0000    831.4215      4.8709
   155.2500     72.8303      0.0000    827.9584      4.9145
   155.5000     70.0924      0.0000    822.7892      4.9646
   155.7500     66.9172      0.0000    816.6707      5.0138
   156.0000     64.2079      0.0000    810.8773      5.0579
   156.2500     62.8730      0.0000    806.2540      5.0963
