~Version Information
VERS.                      2.0: CWLS Log ASCII Standard - VERSION 2.0
WRAP.                       NO: One line per depth step
~Well Information Block
STRT.FT               946.8000: 
STOP.FT              2134.5000: 
STEP.FT                 0.1000: 
NULL.                -999.2500: 
COMP.          Petrogulf Corporation: COMPANY
WELL.             Valejo 8-12R: WELL
FLD.           Purgatorie River: FIELD
LOC.           1351'' FNL & 1562' FWL: LOCATION
CNTY.               Las Animas: COUNTY
SRVC.                         : SERVICE COMPANY
DATE.          Wed Apr 28 13:22:45 2004: LOG DATE
UWI.           05 071 08038 00: UNIQUE WELL ID
STAT.                 Colorado: STATE
~Curve Information Block
DEPT.FT            0 000 00 00: Depth
DCAL.in                       : CDL Caliper
RHOB.g/cc                     : CDL Bulk Density
RHOC.g/cc                     : CDL Density Correction
DPOR.pu                       : CDL Density Porosity
NPOR.pu                       : Neutron Porosity
GR.GAPI                       : Gamma Ray
~Parameter Information Block
~A  Depth       DCAL        RHOB        RHOC        DPOR        NPOR         GR     
# ...
  1494.0000      7.9277      2.4888      0.1282      9.7670     28.3448    144.1461
  1494.1000      7.9277      2.5251      0.1382      7.5706     27.8994    138.4916
  1494.2000      7.9277      2.5436      0.1636      6.4505     26.9981    136.5202
  1494.3000      7.9292      2.5422      0.1467      6.5353     26.0913    139.7941
  1494.4000      7.9292      2.5319      0.1160      7.1570     25.8785    146.0043
  1494.5000      7.9350      2.5220      0.1262      7.7590     26.3887    152.7933
  1494.6000      7.9350      2.5162      0.0448      8.1095     26.9517    153.7891
  1494.7000      7.9350      2.5156      0.0962      8.1465     27.0498    148.5913
  1494.8000      7.9271      2.5102      0.0448      8.4718     27.0141    147.5550
  1494.9000      7.9271      2.4949      0.0642      9.3982     27.3628    151.1454
  1495.0000      7.9266      2.4802      0.0280     10.2918     28.2043    149.7711
  1495.1000      7.9266      2.4690      0.0668     10.9715     29.1971    143.1684
  1495.2000      7.9266      2.4467      0.0280     12.3237     29.7684    139.6958
  1495.3000      7.9267      2.3998      0.0306     15.1639     29.9370    141.8107
  1495.4000      7.9267      2.3295      0.0143     19.4242     30.2814    143.8480
  1495.5000      7.9229      2.2543     -0.0211     23.9796     30.8350    141.9713
  1495.6000      7.9229      2.1996     -0.0738     27.2993     30.9920    138.1134
  1495.7000      7.9229      2.1780     -0.0463     28.6072     30.6953    135.5057
  1495.8000      7.9269      2.1886     -0.0283     27.9655     30.3869    137.7365
  1495.9000      7.9269      2.2228      0.0459     25.8934     30.0369    144.9878
  1496.0000      7.9281      2.2650      0.1144     23.3347     29.6339    148.7251
  1496.1000      7.9281      2.3040      0.1550     20.9671     29.6189    143.4755
  1496.2000      7.9281      2.3391      0.1729     18.8395     29.8982    136.9214
  1496.3000      7.9261      2.3732      0.2016     16.7753     29.8499    135.7188
  1496.4000      7.9261      2.4122      0.1661     14.4110     29.3513    139.7070
  1496.5000      7.9097      2.4603      0.1429     11.4980     28.6133    147.7411
  1496.6000      7.9097      2.5048      0.1413      8.7995     27.8566    154.7045
  1496.7000      7.9097      2.5245      0.1169      7.6042     27.5799    153.7746
  1496.8000      7.9050      2.5148      0.0874      8.1935     27.8584    146.3315
  1496.9000      7.9050      2.4931      0.0533      9.5090     28.0592    138.9496
  1497.0000      7.9056      2.4771      0.0577     10.4774     28.0671    134.0875
  1497.1000      7.9056      2.4712      0.0128     10.8340     28.3755    132.3659
  1497.2000      7.9056      2.4703      0.0824     10.8879     28.8741    132.2865
  1497.3000      7.9075      2.4637      0.0706     11.2907     29.1272    132.7956
  1497.4000      7.9075      2.4480      0.0744     12.2448     29.0970    135.4442
  1497.5000      7.9075      2.4324      0.0505     13.1881     28.8705    139.6418
  1497.6000      7.9075      2.4310      0.0519     13.2716     28.8400    140.6320
  1497.7000      7.9075      2.4488      0.0580     12.1941     29.0496    134.8413
  1497.8000      7.9100      2.4727      0.1035     10.7469     28.7966    127.5050
  1497.9000      7.9100      2.4822      0.1350     10.1674     27.8300    126.4349
  1498.0000      7.9114      2.4739      0.1100     10.6727     26.7662    130.9593
  1498.1000      7.9114      2.4691      0.0924     10.9662     26.1132    136.2044
  1498.2000      7.9114      2.4866      0.0595      9.9060     25.8131    142.2781
  1498.3000      7.9229      2.5165      0.1371      8.0938     25.6075    148.6209
  1498.4000      7.9229      2.5405      0.0880      6.6368     25.2687    151.5357
  1498.5000      7.9497      2.5608      0.0841      5.4086     24.7283    151.0480
  1498.6000      7.9497      2.5747      0.1297      4.5631     24.3487    148.4875
  1498.7000      7.9497      2.5668      0.1037      5.0436     24.3209    145.9860
  1498.8000      7.9362      2.5428      0.0578      6.4999     24.4291    146.1424
  1498.9000      7.9362      2.5254      0.0218      7.5500     24.7410    148.5167
  1499.0000      7.9391      2.5283      0.0181      7.3760     25.2937    151.8846
  1499.1000      7.9391      2.5449      0.0403      6.3687     25.9518    154.1915
  1499.2000      7.9391      2.5510      0.0951      6.0003     26.8613    152.0150
  1499.3000      7.9407      2.5351      0.0203      6.9655     27.9552    146.5245
  1499.4000      7.9407      2.5114      0.0399      8.3976     28.8217    144.8823
  1499.5000      7.9384      2.4926      0.0223      9.5401     29.0109    148.2269
  1499.6000      7.9384      2.4813      0.0323     10.2221     28.8003    151.6876
  1499.7000      7.9384      2.4820      0.0277     10.1824     28.5509    155.7132
  1499.8000      7.9381      2.4937      0.0463      9.4700     28.0293    159.3596
  1499.9000      7.9381      2.5042      0.0729      8.8334     27.3832    161.0868
  1500.0000      7.9386      2.5037      0.0701      8.8696     27.2845    165.4846
  1500.1000      7.9386      2.4930      0.0671      9.5166     27.9617    170.1151
  1500.2000      7.9386      2.4752      0.0395     10.5953     28.6870    168.6812
  1500.3000      7.9375      2.4478      0.0844     12.2568     28.8749    164.6811
  1500.4000      7.9375      2.4126      0.0295     14.3899     29.2056    162.3253
  1500.5000      7.9387      2.3801      0.0503     16.3585     30.2264    159.4181
  1500.6000      7.9387      2.3466      0.0489     18.3900     31.3809    155.5959
  1500.7000      7.9387      2.2968      0.0256     21.4063     31.9637    151.3592
  1500.8000      7.9393      2.2282      0.0285     25.5635     32.0044    144.6849
  1500.9000      7.9393      2.1513      0.0150     30.2265     31.9410    137.6375
  1501.0000      7.9434      2.0719      0.0342     35.0344     31.9972    135.1262
  1501.1000      7.9434      1.9961     -0.0179     39.6289     32.1160    136.6122
  1501.2000      7.9434      1.9375     -0.0116     43.1795     32.1663    135.2004
  1501.3000      7.9461      1.9007      0.0143     45.4151     32.0097    127.3193
  1501.4000      7.9461      1.8791      0.0261     46.7242     31.6512    119.0819
  1501.5000      7.9574      1.8750      0.0125     46.9713     31.2433    116.8440
  1501.6000      7.9574      1.8996      0.0824     45.4817     30.5835    118.1571
  1501.7000      7.9574      1.9497      0.1921     42.4406     29.4069    122.8642
  1501.8000      7.9891      2.0113      0.2456     38.7066     27.8672    133.7614
  1501.9000      7.9891      2.0856      0.2046     34.2035     26.0705    142.7690
  1502.0000      7.9846      2.1817      0.2045     28.3793     24.2695    142.1632
  1502.1000      7.9846      2.2908      0.1841     21.7715     23.0921    137.9001
  1502.2000      7.9846      2.3959      0.2128     15.3978     22.4672    137.1186
  1502.3000      7.8876      2.4903      0.2344      9.6810     21.5068    133.9624
  1502.4000      7.8876      2.5782      0.2117      4.3517     20.1041    119.3767
  1502.5000      7.8582      2.6659      0.2410     -0.9610     19.0457     98.7989
  1502.6000      7.8582      2.7496      0.2119     -6.0336     18.2439     84.5751
  1502.7000      7.8582      2.8171      0.2095    -10.1272     17.2331     78.2530
  1502.8000      7.8159      2.8602      0.1657    -12.7413     16.5682     74.6934
  1502.9000      7.8159      2.8830      0.1615    -14.1186     16.6824     74.0207
  1503.0000      7.8126      2.8846      0.1358    -14.2186     17.2647     77.2450
  1503.1000      7.8126      2.8660      0.0573    -13.0882     18.0191     81.9486
  1503.2000      7.8126      2.8470      0.0145    -11.9373     18.7275     84.1024
  1503.3000      7.8151      2.8413      0.0322    -11.5944     19.3112     82.0857
  1503.4000      7.8151      2.8374     -0.0013    -11.3579     19.7235     79.4038
  1503.5000      7.8121      2.8242     -0.0142    -10.5604     19.8821     78.8289
