~Version Information
VERS.                      2.0: CWLS Log ASCII Standard - VERSION 2.0
WRAP.                       NO: One line per depth step
~Well Information Block
STRT.FT               350.0000: 
STOP.FT              2531.5000: 
STEP.FT                 0.1000: 
NULL.                -999.2500: 
COMP.          Pioneer Natural Resources: COMPANY
WELL.          Cock-a-doodle-doo: WELL
FLD.           Purgatoire River: FIELD
LOC.           163' FSL & 54' FEL: LOCATION
PROV.                 Colorado: PROVINCE
CNTY.               Las Animas: COUNTRY
SRVC.                Patterson: SERVICE COMPANY
DATE.          Fri Jul 01 09:34:59 2005: LOG DATE
UWI.           05 071 08429 00: UNIQUE WELL ID
~Curve Information Block
DEPT.FT            0 000 00 00: Depth
DCAL.in                       : CDL Caliper
RHOB.g/cc                     : CDL Bulk Density
RHOC.g/cc                     : CDL Density Correction
DPOR.pu                       : CDL Density Porosity
GR.GAPI                       : Gamma Ray
NPOR.pu                       : Neutron Porosity
~Parameter Information Block
~A  Depth       DCAL        RHOB        RHOC        DPOR         GR         NPOR    
# ...
   926.0000      8.1698      2.4962     -0.0091      9.3196    131.9855     26.4683
   926.1000      8.1698      2.4984      0.0024      9.1891    130.3176     27.1436
   926.2000      8.1698      2.5020      0.0414      8.9681    131.7293     27.6032
   926.3000      8.1557      2.5086      0.0202      8.5721    136.3066     27.8220
   926.4000      8.1557      2.5176      0.0370      8.0262    141.6125     28.0610
   926.5000      8.1713      2.5204      0.0207      7.8523    144.8255     28.2798
   926.6000      8.1713      2.5181      0.0160      7.9924    145.1724     28.4007
   926.7000      8.1713      2.5256      0.0089      7.5391    143.0566     28.3888
   926.8000      8.1947      2.5410      0.0635      6.6055    140.5362     28.1991
   926.9000      8.1947      2.5436      0.0515      6.4512    141.1718     27.8857
   927.0000      8.2166      2.5269      0.0611      7.4595    145.5111     27.6947
   927.1000      8.2166      2.5068      0.0062      8.6791    148.8857     27.8058
   927.2000      8.2166      2.4991      0.0307      9.1438    146.6405     27.9674
   927.3000      8.1686      2.5032      0.0627      8.8957    140.5336     28.0139
   927.4000      8.1686      2.5104      0.1048      8.4588    134.7197     28.1862
   927.5000      8.1509      2.5247      0.0377      7.5918    130.5790     28.3996
   927.6000      8.1509      2.5543      0.0781      5.8003    128.5528     28.4288
   927.7000      8.1509      2.5766      0.1171      4.4494    128.1838     28.4115
   927.8000      8.1483      2.5676      0.0919      4.9950    126.1485     28.4264
   927.9000      8.1483      2.5437      0.0821      6.4425    120.8637     28.5912
   928.0000      8.1673      2.5267     -0.0011      7.4724    114.9040     28.7977
   928.1000      8.1673      2.5147      0.0356      8.2019    110.2873     28.4113
   928.2000      8.1673      2.5017     -0.0128      8.9861    107.4348     27.2404
   928.3000      8.1469      2.4870      0.0055      9.8764    105.6239     25.9455
   928.4000      8.1469      2.4622      0.0074     11.3792    105.4084     25.2741
   928.5000      8.1337      2.4173      0.0134     14.1028    105.1789     25.1562
   928.6000      8.1337      2.3460     -0.0020     18.4228    102.2784     24.6928
   928.7000      8.1337      2.2556     -0.0416     23.9010     99.4065     23.4398
   928.8000      8.1291      2.1781     -0.0484     28.5971     99.4770     22.1213
   928.9000      8.1291      2.1329     -0.0084     31.3383    100.7035     21.2525
   929.0000      8.1359      2.1018      0.0174     33.2242    100.2198     20.4505
   929.1000      8.1359      2.0556      0.0916     36.0246    101.1700     19.4043
   929.2000      8.1359      1.9725      0.0830     41.0599    108.4999     18.1744
   929.3000      8.2029      1.8425      0.0621     48.9379    120.6099     16.7290
   929.4000      8.2029      1.6828      0.0639     58.6152    132.9643     15.1969
   929.5000      8.3490      1.5400      0.0109     67.2721    143.7607     13.9926
   929.6000      8.3490      1.4415      0.0015     73.2414    152.5418     13.4454
   929.7000      8.3490      1.3748      0.0635     77.2858    157.5987     13.5308
   929.8000      8.4567      1.3516     -0.0698     78.6900    156.7701     14.1830
   929.9000      8.4567      1.4238     -0.0212     74.3180    149.7563     15.4089
   930.0000      8.4969      1.5884      0.2489     64.3388    140.0056     16.8496
   930.1000      8.4969      1.7738      0.3535     53.1018    131.9995     18.2212
   930.2000      8.4969      1.9352      0.4129     43.3190    127.6752     19.6196
   930.3000      8.7138      2.0743      0.4110     34.8896    126.6630     20.9235
   930.4000      8.7138      2.1912      0.4363     27.8071    127.9186     22.0733
   930.5000      9.1065      2.2796      0.4514     22.4496    129.4162     23.4417
   930.6000      9.1065      2.3490      0.3383     18.2407    128.1615     25.0540
   930.7000      9.1065      2.4129      0.2113     14.3681    123.7375     26.5393
   930.8000      8.8604      2.4643      0.2272     11.2543    121.2880     27.9047
   930.9000      8.8604      2.4960      0.1689      9.3354    122.1198     29.1202
   931.0000      8.5918      2.5197      0.2099      7.8989    121.1564     29.8417
   931.1000      8.5918      2.5385      0.2484      6.7590    118.7004     30.2804
   931.2000      8.5918      2.5520      0.1529      5.9384    119.2841     30.7032
   931.3000      8.2655      2.5740      0.1800      4.6071    121.2431     30.7590
   931.4000      8.2655      2.5989      0.1794      3.0962    120.8683     30.4848
   931.5000      8.2092      2.6206      0.1191      1.7789    118.9125     30.2597
   931.6000      8.2092      2.6595      0.1802     -0.5762    118.6527     29.8438
   931.7000      8.2092      2.7133      0.2289     -3.8370    121.2405     29.0893
   931.8000      8.1687      2.7401      0.2710     -5.4583    122.8337     28.5636
   931.9000      8.1687      2.7202      0.1729     -4.2516    121.2103     28.6765
   932.0000      8.1219      2.6872      0.0391     -2.2532    120.7749     29.0724
   932.1000      8.1219      2.6703      0.0789     -1.2317    125.3231     29.1523
   932.2000      8.1219      2.6607      0.0365     -0.6515    132.2266     28.7158
   932.3000      8.1085      2.6434      0.0185      0.3999    135.0842     28.0751
   932.4000      8.1085      2.6164     -0.0223      2.0353    129.1736     27.7831
   932.5000      8.1299      2.5914     -0.0218      3.5540    117.1187     28.0097
   932.6000      8.1299      2.5794      0.0193      4.2801    107.0448     28.4341
   932.7000      8.1299      2.5729      0.0025      4.6733    104.0688     28.4397
   932.8000      8.1460      2.5519      0.0406      5.9478    107.2594     27.7161
   932.9000      8.1460      2.5112     -0.0249      8.4120    110.8846     26.9277
   933.0000      8.1491      2.4635     -0.0170     11.3025    110.3460     26.8670
   933.1000      8.1491      2.4208     -0.0130     13.8934    108.0893     27.3982
   933.2000      8.1491      2.4003     -0.0403     15.1331    107.4836     27.9312
   933.3000      8.1494      2.4243      0.0215     13.6787    107.2197     28.2628
   933.4000      8.1494      2.4930      0.0269      9.5164    110.2259     28.5485
   933.5000      8.1316      2.5822      0.1254      4.1085    118.4638     28.9305
   933.6000      8.1316      2.6682      0.1729     -1.1033    123.6753     29.5284
   933.7000      8.1316      2.7382      0.2269     -5.3456    122.2342     29.9929
   933.8000      8.1137      2.7758      0.2930     -7.6263    119.8538     29.7476
   933.9000      8.1137      2.7671      0.2315     -7.0946    120.6990     28.7860
   934.0000      8.1094      2.7120      0.1985     -3.7553    123.3011     27.2190
   934.1000      8.1094      2.6239      0.0794      1.5833    126.9788     25.2710
   934.2000      8.1094      2.5206     -0.0145      7.8445    131.8052     23.6862
   934.3000      8.1070      2.4131     -0.0945     14.3556    136.6880     22.8450
   934.4000      8.1070      2.3227     -0.1415     19.8368    141.4486     22.4366
   934.5000      8.1078      2.2714     -0.0339     22.9453    143.3072     22.2327
   934.6000      8.1078      2.2482      0.0985     24.3534    141.0472     22.2260
   934.7000      8.1078      2.2344      0.1331     25.1849    139.9894     22.2348
   934.8000      8.1049      2.2349      0.1502     25.1606    141.6836     22.3932
   934.9000      8.1049      2.2511      0.2291     24.1753    140.5925     22.9608
   935.0000      8.1180      2.2640      0.2027     23.3959    135.1403     23.5968
   935.1000      8.1180      2.2644      0.1832     23.3722    129.9761     24.2103
   935.2000      8.1180      2.2692      0.1430     23.0803    126.4519     24.9538
   935.3000      8.2698      2.2926      0.2176     21.6623    123.1509     25.6419
   935.4000      8.2698      2.3272      0.2089     19.5640    121.5331     26.3492
   935.5000      8.3716      2.3645      0.2411     17.3060    125.1495     27.1670
