~Version Information
VERS.                      2.0: CWLS Log ASCII Standard - VERSION 2.0
WRAP.                       NO: One line per depth step
~Well Information Block
STRT.FT               292.0000: 
STOP.FT               801.0000: 
STEP.FT                 0.1000: 
NULL.                -999.2500: 
COMP.          Pioneer Natural Resources: COMPANY
WELL.          HG Duran 34-27 Tr: WELL
FLD.           Purgatoire River: FIELD
LOC.           1076' FSL & 1465' FEL: LOCATION
PROV.                 Colorado: PROVINCE
CNTY.               Las Animas: COUNTRY
SRVC.                Patterson: SERVICE COMPANY
DATE.          Wed Apr 13 08:36:06 2005: LOG DATE
UWI.           05 071 08218 00: UNIQUE WELL ID
~Curve Information Block
DEPT.FT            0 000 00 00: Depth
DCAL.in                       : CDL Caliper
RHOB.g/cc                     : CDL Bulk Density
RHOC.g/cc                     : CDL Density Correction
DPOR.pu                       : CDL Density Porosity
GR.GAPI                       : Gamma Ray
NPOR.pu                       : Neutron Porosity
~Parameter Information Block
~A  Depth       DCAL        RHOB        RHOC        DPOR         GR         NPOR    
# ...
   560.8000      7.7757      2.5392      0.0241      6.7145     92.4494     20.9358
   560.9000      7.7757      2.5372     -0.0053      6.8364     88.1129     20.4419
   561.0000      7.7790      2.5477      0.0327      6.2021     85.1002     20.0944
   561.1000      7.7790      2.5666      0.0708      5.0560     84.3786     19.7372
   561.2000      7.7790      2.5906      0.0505      3.6026     87.8333     19.3829
   561.3000      7.7934      2.5998      0.0802      3.0425     94.8542     19.3163
   561.4000      7.7934      2.5767      0.0778      4.4404    100.9965     19.7999
   561.5000      7.7970      2.5477     -0.0423      6.2017    105.4676     20.6408
   561.6000      7.7970      2.5415      0.0304      6.5735    112.2101     21.1701
   561.7000      7.7970      2.5405      0.0354      6.6387    121.0418     21.2583
   561.8000      7.8061      2.5230     -0.0058      7.6975    129.4221     21.2711
   561.9000      7.8061      2.5003      0.0128      9.0725    135.6200     21.4274
   562.0000      7.8141      2.4896      0.0455      9.7228    139.9935     21.9473
   562.1000      7.8141      2.4956      0.0658      9.3549    149.0464     22.7655
   562.2000      7.8141      2.5145      0.0881      8.2136    162.7532     23.4746
   562.3000      7.8205      2.5322      0.0831      7.1413    169.7253     23.9320
   562.4000      7.8205      2.5318      0.0445      7.1622    166.2375     24.1458
   562.5000      7.8113      2.5120      0.0312      8.3639    158.8834     24.0777
   562.6000      7.8113      2.4841      0.1119     10.0539    152.0933     23.7588
   562.7000      7.8113      2.4577      0.0860     11.6558    146.6578     23.5326
   562.8000      7.8339      2.4379     -0.0007     12.8535    144.4660     23.7497
   562.9000      7.8339      2.4256      0.0499     13.5995    146.3217     24.2766
   563.0000      7.8551      2.4244     -0.0637     13.6703    150.7041     24.9386
   563.1000      7.8551      2.4359      0.0424     12.9729    153.7794     25.5847
   563.2000      7.8551      2.4478      0.0389     12.2551    153.9157     25.6136
   563.3000      7.8831      2.4570      0.0580     11.6966    155.1661     25.0087
   563.4000      7.8831      2.4700      0.0781     10.9083    158.2844     24.7290
   563.5000      7.8535      2.4860      0.0642      9.9374    158.5813     25.3289
   563.6000      7.8535      2.4965      0.1306      9.3058    154.7271     26.2468
   563.7000      7.8535      2.4958      0.0765      9.3430    152.9948     26.5942
   563.8000      7.8059      2.4927      0.0460      9.5362    156.4643     26.1992
   563.9000      7.8059      2.4847      0.0987     10.0154    158.3146     25.5083
   564.0000      7.8177      2.4536      0.0565     11.9014    156.5336     24.9950
   564.1000      7.8177      2.4126      0.0226     14.3906    155.4440     24.8228
   564.2000      7.8177      2.3951      0.0265     15.4475    155.4460     25.0480
   564.3000      7.8236      2.4043      0.0320     14.8903    154.7339     25.5168
   564.4000      7.8236      2.4256      0.0303     13.6019    152.8027     25.8494
   564.5000      7.8487      2.4484      0.0529     12.2165    150.8561     25.8076
   564.6000      7.8487      2.4682      0.0643     11.0187    152.0291     25.3678
   564.7000      7.8487      2.4959      0.0573      9.3379    154.1100     24.8351
   564.8000      7.8407      2.5445      0.1180      6.3928    149.4384     24.6865
   564.9000      7.8407      2.5997      0.1802      3.0466    136.0631     24.9092
   565.0000      7.8001      2.6283      0.1609      1.3146    123.2556     24.9238
   565.1000      7.8001      2.6231      0.1698      1.6328    121.8459     24.5617
   565.2000      7.8001      2.6140      0.1323      2.1826    125.2924     24.1751
   565.3000      7.8090      2.6218      0.0985      1.7100    119.3390     24.1380
   565.4000      7.8090      2.6313      0.0804      1.1350    109.7809     24.4414
   565.5000      7.7992      2.6321      0.0177      1.0824    110.0241     24.7673
   565.6000      7.7992      2.6292      0.0532      1.2615    117.6146     24.7697
   565.7000      7.7992      2.6082      0.1151      2.5359    120.9688     24.3111
   565.8000      7.7959      2.5763     -0.0339      4.4692    116.5212     23.5788
   565.9000      7.7959      2.5726      0.0511      4.6908    109.6961     22.7969
   566.0000      7.8243      2.5972      0.0841      3.2000    105.5997     22.2590
   566.1000      7.8243      2.6248      0.0938      1.5253    105.6007     22.2499
   566.2000      7.8243      2.6525      0.1484     -0.1508    107.0445     22.6470
   566.3000      7.8405      2.6675      0.2161     -1.0617    106.7154     22.6930
   566.4000      7.8405      2.6372      0.2128      0.7784    104.7880     22.1356
   566.5000      7.7834      2.5619      0.0696      5.3364    104.5290     21.7339
   566.6000      7.7834      2.4949     -0.0258      9.3999    108.4380     21.8700
   566.7000      7.7834      2.4761     -0.0003     10.5382    112.8987     21.9807
   566.8000      7.7635      2.4844      0.0457     10.0393    113.4318     21.6346
   566.9000      7.7635      2.4923     -0.0247      9.5547    113.0174     21.2938
   567.0000      7.7681      2.5116     -0.0279      8.3872    115.3922     21.1694
   567.1000      7.7681      2.5551      0.0860      5.7496    119.0862     21.0897
   567.2000      7.7681      2.6082      0.0805      2.5360    122.4927     21.1843
   567.3000      7.7857      2.6383      0.1268      0.7084    125.1636     21.4795
   567.4000      7.7857      2.6156      0.1150      2.0826    126.1978     21.9208
   567.5000      7.8032      2.5454      0.0873      6.3391    126.7989     22.6712
   567.6000      7.8032      2.4744     -0.1159     10.6445    129.8135     23.6156
   567.7000      7.8032      2.4456     -0.0924     12.3902    133.7207     24.1992
   567.8000      7.7955      2.4559     -0.0378     11.7652    134.4829     24.1200
   567.9000      7.7955      2.4767     -0.0355     10.5041    133.4484     23.6665
   568.0000      7.8070      2.4875     -0.0177      9.8508    134.5940     23.3363
   568.1000      7.8070      2.4974     -0.0128      9.2492    135.9491     23.3571
   568.2000      7.8070      2.5191      0.0273      7.9324    134.2326     23.8600
   568.3000      7.8403      2.5363      0.0176      6.8938    132.1948     24.7978
   568.4000      7.8403      2.5439     -0.0377      6.4277    134.1728     25.7236
   568.5000      7.8529      2.5583      0.0370      5.5564    139.4667     26.2162
   568.6000      7.8529      2.5741     -0.0069      4.5982    144.4141     26.2509
   568.7000      7.8529      2.5731      0.0969      4.6589    149.3798     25.9406
   568.8000      7.8387      2.5477      0.0551      6.2001    156.2144     25.3363
   568.9000      7.8387      2.5109      0.1043      8.4287    162.6836     24.7984
   569.0000      7.8232      2.4766      0.0379     10.5114    164.7740     24.7872
   569.1000      7.8232      2.4485      0.0314     12.2109    161.3298     25.1540
   569.2000      7.8232      2.4350     -0.0021     13.0309    155.3376     25.5831
   569.3000      7.8215      2.4515     -0.0194     12.0324    149.3308     25.9979
   569.4000      7.8215      2.4976      0.0855      9.2345    143.2791     26.2790
   569.5000      7.8180      2.5503      0.1437      6.0436    138.3596     26.3165
   569.6000      7.8180      2.5873      0.1309      3.7981    134.7172     26.1721
   569.7000      7.8180      2.5957      0.1754      3.2893    128.9909     25.7792
   569.8000      7.7846      2.5752      0.0575      4.5307    121.5739     25.1159
   569.9000      7.7846      2.5536      0.0810      5.8453    118.0503     24.4583
   570.0000      7.7740      2.5546      0.0995      5.7815    119.5062     23.9483
   570.1000      7.7740      2.5726      0.0841      4.6887    121.9707     23.4804
   570.2000      7.7740      2.5977      0.1015      3.1669    124.0315     23.0705
   570.3000      7.7768      2.6252      0.1516      1.5057    126.5945     22.6714
