~Version Information
VERS.                      2.0: CWLS Log ASCII Standard - VERSION 2.0
WRAP.                       NO: One line per depth step
~Well Information Block
STRT.FT               745.2500: 
STOP.FT              2003.5000: 
STEP.FT                 0.2500: 
NULL.                -999.2500: 
COMP.          Petrogulf Corporation: COMPANY
WELL.            Montoya 6-14V: WELL
FLD.           Purgatorie River: FIELD
LOC.           318' FSL & 882' FWL: LOCATION
CNTY.               Las Animas: COUNTY
SRVC.                         : SERVICE COMPANY
DATE.          Fri Aug 13 04:55:06 2004: LOG DATE
UWI.           05 071 08020 00: UNIQUE WELL ID
STAT.                 Colorado: STATE
~Curve Information Block
DEPT.FT            0 000 00 00: Depth
SP.mV                         : DIL Spontaneous Potential
RILD.Ohm-m                    : DIL Deep Resistivity
RILM.Ohm-m                    : DIL Medium Resistivity
RLL3.Ohm-m                    : DIL Shallow Resistivity
GR.GAPI                       : Gamma Ray
~Parameter Information Block
~A  Depth        SP         RILD        RILM        RLL3         GR     
# ...
  1333.2500     10.4386     14.0168     14.4002     19.4818    133.0090
  1333.5000     10.5719     13.8818     14.1888     18.8044    135.4185
  1333.7500     10.7194     13.8000     13.9799     18.0338    136.3495
  1334.0000     10.8719     13.7715     13.7815     17.2743    135.8728
  1334.2500     11.0189     13.7835     13.6013     16.5926    134.3486
  1334.5000     11.1490     13.8147     13.4462     16.0174    131.4771
  1334.7500     11.2513     13.8436     13.3223     15.5584    130.0300
  1335.0000     11.3158     13.8575     13.2347     15.2272    129.1596
  1335.2500     11.3347     13.8551     13.1864     15.0439    129.2678
  1335.5000     11.3037     13.8423     13.1782     15.0281    130.0535
  1335.7500     11.2222     13.8243     13.2079     15.1863    130.9658
  1336.0000     11.0945     13.7985     13.2695     15.5051    132.9616
  1336.2500     10.9286     13.7548     13.3538     15.9533    134.4811
  1336.5000     10.7357     13.6811     13.4481     16.4869    136.1235
  1336.7500     10.5282     13.5713     13.5377     17.0578    136.2171
  1337.0000     10.3183     13.4308     13.6076     17.6248    134.4612
  1337.2500     10.1160     13.2744     13.6447     18.1578    132.3076
  1337.5000      9.9287     13.1198     13.6409     18.6235    128.6193
  1337.7500      9.7610     12.9802     13.5945     18.9618    126.3621
  1338.0000      9.6148     12.8614     13.5108     19.0787    123.7389
  1338.2500      9.4899     12.7620     13.4009     18.8835    122.7055
  1338.5000      9.3847     12.6783     13.2794     18.3508    122.5441
  1338.7500      9.2964     12.6078     13.1613     17.5588    123.2458
  1339.0000      9.2212     12.5493     13.0592     16.6656    124.5777
  1339.2500      9.1552     12.5019     12.9823     15.8404    125.0503
  1339.5000      9.0947     12.4614     12.9348     15.2011    124.8992
  1339.7500      9.0363     12.4207     12.9166     14.7968    124.6080
  1340.0000      8.9780     12.3728     12.9237     14.6310    124.7868
  1340.2500      8.9194     12.3161     12.9493     14.6913    125.7037
  1340.5000      8.8620     12.2567     12.9854     14.9583    128.5776
  1340.7500      8.8092     12.2080     13.0242     15.3921    131.4465
  1341.0000      8.7663     12.1846     13.0604     15.9139    136.6935
  1341.2500      8.7392     12.1977     13.0919     16.4063    140.4444
  1341.5000      8.7335     12.2514     13.1207     16.7421    145.8970
  1341.7500      8.7532     12.3429     13.1528     16.8312    149.0876
  1342.0000      8.7997     12.4649     13.1969     16.6617    152.5988
  1342.2500      8.8712     12.6089     13.2623     16.3113    153.9146
  1342.5000      8.9630     12.7684     13.3579     15.9220    154.5368
  1342.7500      9.0681     12.9392     13.4901     15.6531    154.2329
  1343.0000      9.1781     13.1187     13.6623     15.6321    152.9979
  1343.2500      9.2844     13.3044     13.8738     15.9231    152.0819
  1343.5000      9.3793     13.4930     14.1206     16.5187    151.7262
  1343.7500      9.4563     13.6806     14.3954     17.3556    152.4016
  1344.0000      9.5109     13.8642     14.6888     18.3417    153.5227
  1344.2500      9.5402     14.0441     14.9904     19.3765    153.3412
  1344.5000      9.5431     14.2244     15.2909     20.3574    151.8049
  1344.7500      9.5207     14.4122     15.5836     21.1814    151.2152
  1345.0000      9.4759     14.6159     15.8661     21.7573    152.8999
  1345.2500      9.4140     14.8425     16.1410     22.0299    155.5294
  1345.5000      9.3417     15.0955     16.4150     22.0034    159.5087
  1345.7500      9.2663     15.3737     16.6972     21.7457    160.8898
  1346.0000      9.1942     15.6705     16.9972     21.3701    160.1232
  1346.2500      9.1297     15.9743     17.3214     21.0068    157.8791
  1346.5000      9.0744     16.2689     17.6715     20.7810    152.9589
  1346.7500      9.0264     16.5337     18.0423     20.8059    149.5453
  1347.0000      8.9821     16.7477     18.4212     21.1821    145.6761
  1347.2500      8.9362     16.8937     18.7888     21.9783    144.2883
  1347.5000      8.8839     16.9654     19.1221     23.1867    143.4863
  1347.7500      8.8216     16.9708     19.3976     24.6718    143.0702
  1348.0000      8.7474     16.9298     19.5969     26.1592    141.4404
  1348.2500      8.6612     16.8656     19.7101     27.2978    139.6979
  1348.5000      8.5645     16.7955     19.7376     27.7848    138.2195
  1348.7500      8.4599     16.7237     19.6889     27.4926    139.8571
  1349.0000      8.3514     16.6416     19.5786     26.5289    147.5930
  1349.2500      8.2436     16.5330     19.4219     25.1893    155.0183
  1349.5000      8.1424     16.3831     19.2310     23.8280    165.5222
  1349.7500      8.0544     16.1852     19.0134     22.7218    170.2653
  1350.0000      7.9866     15.9439     18.7732     21.9966    172.9757
  1350.2500      7.9454     15.6741     18.5133     21.6387    172.2226
  1350.5000      7.9358     15.3970     18.2395     21.5495    168.8341
  1350.7500      7.9606     15.1356     17.9623     21.5927    166.1423
  1351.0000      8.0196     14.9112     17.6981     21.6166    162.4731
  1351.2500      8.1096     14.7387     17.4680     21.4733    160.1355
  1351.5000      8.2252     14.6250     17.2947     21.0621    156.2654
  1351.7500      8.3586     14.5687     17.1996     20.3927    153.5533
  1352.0000      8.5008     14.5614     17.1994     19.6276    149.9356
  1352.2500      8.6410     14.5912     17.3034     19.0646    147.9008
  1352.5000      8.7676     14.6456     17.5125     19.0490    144.7350
  1352.7500      8.8681     14.7143     17.8171     19.8539    142.0836
  1353.0000      8.9307     14.7910     18.1980     21.5838    137.1130
  1353.2500      8.9464     14.8752     18.6277     24.1298    133.3443
  1353.5000      8.9115     14.9725     19.0743     27.1710    127.3149
  1353.7500      8.8298     15.0938     19.5078     30.2086    123.1541
  1354.0000      8.7121     15.2523     19.9069     32.6469    117.4422
  1354.2500      8.5745     15.4592     20.2647     33.9431    114.9231
  1354.5000      8.4339     15.7210     20.5904     33.7998    114.8341
  1354.7500      8.3039     16.0383     20.9064     32.3082    117.6586
  1355.0000      8.1922     16.4069     21.2427     29.9440    125.0637
  1355.2500      8.0999     16.8197     21.6307     27.3941    130.5903
  1355.5000      8.0236     17.2683     22.0980     25.3056    137.4127
  1355.7500      7.9576     17.7446     22.6669     24.0981    140.5122
  1356.0000      7.8962     18.2411     23.3541     23.9217    143.4431
  1356.2500      7.8351     18.7515     24.1728     24.7380    144.6443
  1356.5000      7.7716     19.2717     25.1354     26.4365    145.5553
  1356.7500      7.7041     19.8020     26.2552     28.9056    145.3741
  1357.0000      7.6325     20.3504     27.5472     32.0341    143.1207
  1357.2500      7.5582     20.9348     29.0261     35.6812    139.8812
  1357.5000      7.4843     21.5789     30.7037     39.6733    132.6376
  1357.7500      7.4157     22.3018     32.5855     43.8476    127.0114
  1358.0000      7.3584     23.1050     34.6669     48.0924    119.2981
  1358.2500      7.3187     23.9636     36.9317     52.3225    115.6945
  1358.5000      7.3012     24.8295     39.3507     56.3999    113.5965
  1358.7500      7.3074     25.6483     41.8828     60.0948    114.1580
  1359.0000      7.3358     26.3821     44.4753     63.1621    116.1917
  1359.2500      7.3815     27.0229     47.0643     65.5020    117.2137
  1359.5000      7.4382     27.5907     49.5761     67.2733    117.3307
  1359.7500      7.4997     28.1180     51.9301     68.8523    116.5170
  1360.0000      7.5617     28.6331     54.0464     70.6330    114.2130
  1360.2500      7.6222     29.1508     55.8588     72.7730    111.9472
  1360.5000      7.6816     29.6701     57.3288     75.0311    107.4513
  1360.7500      7.7408     30.1783     58.4579     76.8063    104.0470
  1361.0000      7.7999     30.6577     59.2911     77.3981     99.7267
