~Version Information
VERS.                      2.0: CWLS Log ASCII Standard - VERSION 2.0
WRAP.                       NO: One line per depth step
~Well Information Block
STRT.FT               580.0000: 
STOP.FT              1756.0000: 
STEP.FT                 0.1000: 
NULL.                -999.2500: 
COMP.          Pioneer Natural Resources: COMPANY
WELL.          Lookout Point 31-23 Tr: WELL
FLD.           Purgatoire River: FIELD
LOC.           541' FNL & 1768' FEL: LOCATION
PROV.                 Colorado: PROVINCE
CNTY.               Las Animas: COUNTRY
SRVC.                Patterson: SERVICE COMPANY
DATE.          Mon Jan 24 07:20:20 2005: LOG DATE
UWI.           05 071 08260 00: UNIQUE WELL ID
~Curve Information Block
DEPT.FT            0 000 00 00: Depth
DCAL.in                       : CDL Caliper
DPOR.pu                       : CDL Density Porosity
GR.GAPI                       : Gamma Ray
NPOR.pu                       : Neutron Porosity
RHOB.g/cc                     : CDL Bulk Density
RHOC.g/cc                     : CDL Density Correction
~Parameter Information Block
~A  Depth       DCAL        DPOR         GR         NPOR        RHOB        RHOC    
# ...
  1338.4000      7.8591     10.1044    122.7999     19.6639      2.4833      0.0175
  1338.5000      7.8563     10.1833    129.4612     19.8050      2.4820      0.0039
  1338.6000      7.8563      9.7353    134.5033     20.5401      2.4894      0.0040
  1338.7000      7.8563      9.2077    138.6091     21.1948      2.4981      0.0337
  1338.8000      7.8547      9.3721    137.2289     21.0915      2.4954      0.0286
  1338.9000      7.8547     10.4521    129.8501     20.5029      2.4775      0.0317
  1339.0000      7.8540     11.9300    119.7054     19.9244      2.4532      0.0059
  1339.1000      7.8540     13.2108    107.1976     19.8299      2.4320      0.0089
  1339.2000      7.8540     14.1243     95.5922     19.9894      2.4169      0.0031
  1339.3000      7.8533     14.9699     90.5532     19.9842      2.4030      0.0136
  1339.4000      7.8533     15.8903     89.7761     20.0231      2.3878     -0.0565
  1339.5000      7.8533     16.2766     87.7994     20.3024      2.3814     -0.0199
  1339.6000      7.8533     15.7546     87.1138     20.4679      2.3900     -0.0279
  1339.7000      7.8533     14.9012     88.6301     20.2244      2.4041     -0.0109
  1339.8000      7.8545     14.6954     86.3188     19.8972      2.4075      0.0161
  1339.9000      7.8545     15.3459     81.3246     19.7312      2.3968      0.0035
  1340.0000      7.8556     15.6949     79.6753     19.4916      2.3910     -0.0364
  1340.1000      7.8556     14.8077     79.2919     19.2057      2.4057     -0.0082
  1340.2000      7.8556     13.4295     78.5745     19.4885      2.4284      0.0364
  1340.3000      7.8567     12.6851     79.2834     20.1438      2.4407      0.0498
  1340.4000      7.8567     12.7852     79.6916     20.1303      2.4390      0.0329
  1340.5000      7.8580     13.1687     77.8692     19.1150      2.4327      0.0284
  1340.6000      7.8580     13.4176     75.0705     18.0805      2.4286      0.0611
  1340.7000      7.8580     13.6145     75.0560     17.8513      2.4254      0.0399
  1340.8000      7.8573     13.7026     77.3412     17.8811      2.4239      0.0615
  1340.9000      7.8573     13.7771     77.9642     17.6054      2.4227      0.0445
  1341.0000      7.8577     13.5612     77.2723     17.2221      2.4262     -0.0125
  1341.1000      7.8577     12.1506     75.0164     16.7020      2.4495     -0.0038
  1341.2000      7.8577     10.1496     69.5493     16.1311      2.4825      0.0697
  1341.3000      7.8591      9.6680     64.9116     15.9124      2.4905      0.0721
  1341.4000      7.8591     11.0785     66.5265     15.9548      2.4672      0.0343
  1341.5000      7.8584     12.6761     72.7494     16.1680      2.4408      0.0076
  1341.6000      7.8584     13.2188     78.5509     16.7161      2.4319      0.0230
  1341.7000      7.8584     12.7718     85.6745     17.1195      2.4393      0.0092
  1341.8000      7.8565     12.4822     94.4165     16.8442      2.4440      0.0467
  1341.9000      7.8565     13.2734     96.1036     16.3744      2.4310      0.0067
  1342.0000      7.8549     14.3594     89.3438     16.3291      2.4131     -0.0103
  1342.1000      7.8549     14.6970     82.0432     16.8301      2.4075     -0.0039
  1342.2000      7.8549     14.5322     80.1297     17.1145      2.4102      0.0028
  1342.3000      7.8545     14.5520     83.7915     16.7239      2.4099      0.0169
  1342.4000      7.8545     14.7935     88.2641     16.8406      2.4059     -0.0003
  1342.5000      7.8565     15.0061     87.3458     17.8206      2.4024      0.0187
  1342.6000      7.8565     15.2197     79.0354     18.2463      2.3989      0.0048
  1342.7000      7.8565     15.7926     69.3023     17.4819      2.3894      0.0484
  1342.8000      7.8596     17.1358     64.5299     16.3583      2.3673     -0.0093
  1342.9000      7.8596     18.9158     63.1187     16.0346      2.3379     -0.0181
  1343.0000      7.8636     19.8553     64.9011     16.6047      2.3224     -0.0732
  1343.1000      7.8636     18.8613     71.3815     17.2143      2.3388     -0.0475
  1343.2000      7.8636     16.6946     76.7428     17.8077      2.3745      0.0001
  1343.3000      7.8662     15.0579     76.6068     18.5828      2.4015      0.0345
  1343.4000      7.8662     14.5141     74.2773     19.0874      2.4105     -0.0098
  1343.5000      7.8606     14.7819     72.3315     19.0844      2.4061      0.0186
  1343.6000      7.8606     15.4199     71.4109     18.9776      2.3956     -0.0262
  1343.7000      7.8606     15.4291     74.1137     19.1474      2.3954      0.0084
  1343.8000      7.8557     14.3285     78.6334     19.2620      2.4136      0.0256
  1343.9000      7.8557     13.0773     80.3490     19.1452      2.4342      0.0721
  1344.0000      7.8576     12.5888     79.0089     19.0926      2.4423      0.0374
  1344.1000      7.8576     12.4542     75.2420     18.9370      2.4445      0.0378
  1344.2000      7.8576     12.0718     71.6726     18.4867      2.4508      0.0240
  1344.3000      7.8590     11.6351     72.2398     17.9787      2.4580      0.0218
  1344.4000      7.8590     11.3443     75.1183     17.7165      2.4628      0.0110
  1344.5000      7.8570     11.0588     75.6092     17.9400      2.4675      0.0301
  1344.6000      7.8570     11.1505     71.4078     18.4313      2.4660      0.0611
  1344.7000      7.8570     12.1242     66.8181     18.5901      2.4500      0.0090
  1344.8000      7.8560     13.4658     68.8693     18.3431      2.4278     -0.0004
  1344.9000      7.8560     14.1560     75.6186     18.0487      2.4164     -0.0073
  1345.0000      7.8571     13.8310     79.3675     17.9398      2.4218      0.0147
  1345.1000      7.8571     13.1108     78.8208     18.1087      2.4337      0.0345
  1345.2000      7.8571     12.5712     77.1668     18.5045      2.4426      0.0309
  1345.3000      7.8586     12.0546     77.0477     18.8126      2.4511      0.0047
  1345.4000      7.8586     11.3272     77.7611     18.5754      2.4631      0.0270
  1345.5000      7.8579     10.5755     79.0777     17.8894      2.4755      0.0539
  1345.6000      7.8579     10.4118     84.1732     17.2993      2.4782      0.0642
  1345.7000      7.8579     11.2444     89.3552     16.9029      2.4645      0.0331
  1345.8000      7.8554     12.4395     88.5360     16.5770      2.4447      0.0100
  1345.9000      7.8554     13.2112     83.5404     16.3436      2.4320      0.0045
  1346.0000      7.8532     13.7366     77.4879     16.3461      2.4233      0.0180
  1346.1000      7.8532     13.9526     72.2326     16.8029      2.4198     -0.0196
  1346.2000      7.8532     13.4580     70.6431     17.3700      2.4279     -0.0018
  1346.3000      7.8533     13.1683     72.5684     17.3388      2.4327      0.0455
  1346.4000      7.8533     13.8384     74.2366     16.7568      2.4217      0.0139
  1346.5000      7.8556     14.2801     73.8161     16.2586      2.4144     -0.0232
  1346.6000      7.8556     13.4422     72.7473     15.9809      2.4282      0.0222
  1346.7000      7.8556     12.0970     73.8350     15.8385      2.4504      0.0454
  1346.8000      7.8574     11.6257     77.4668     16.1763      2.4582      0.0333
  1346.9000      7.8574     12.5097     79.3196     17.1855      2.4436      0.0177
  1347.0000      7.8574     13.8268     76.6516     18.3158      2.4219     -0.0066
  1347.1000      7.8574     14.7697     72.9395     18.9621      2.4063      0.0463
  1347.2000      7.8574     15.4983     69.7552     19.1369      2.3943      0.0064
  1347.3000      7.8560     15.5610     64.6790     19.1253      2.3932      0.0093
  1347.4000      7.8560     14.5049     58.9185     18.9371      2.4107      0.0323
  1347.5000      7.8546     13.1522     56.6711     18.4051      2.4330      0.0687
  1347.6000      7.8546     12.2765     57.6243     18.0287      2.4474      0.0277
  1347.7000      7.8546     11.9772     59.5870     18.2532      2.4524      0.0686
  1347.8000      7.8563     12.5907     61.3250     18.3927      2.4423      0.0519
  1347.9000      7.8563     14.1730     61.1274     17.7764      2.4161      0.0115
