~Version Information
VERS.                      2.0: CWLS Log ASCII Standard - VERSION 2.0
WRAP.                       NO: One line per depth step
~Well Information Block
STRT.FT               650.0000: 
STOP.FT              1080.5000: 
STEP.FT                 0.1000: 
NULL.                -999.2500: 
COMP.          Pioneer Natural Resources: COMPANY
WELL.            Galileo 21-11: WELL
FLD.           Purgatoire River: FIELD
LOC.           407' FNL & 2394' FWL: LOCATION
PROV.                 Colorado: PROVINCE
CNTY.               Las Animas: COUNTRY
SRVC.                Patterson: SERVICE COMPANY
DATE.          Mon Apr 11 16:20:08 2005: LOG DATE
UWI.           05 071 08353 00: UNIQUE WELL ID
~Curve Information Block
DEPT.FT            0 000 00 00: Depth
DCAL.in                       : CDL Caliper
RHOB.g/cc                     : CDL Bulk Density
RHOC.g/cc                     : CDL Density Correction
DPOR.pu                       : CDL Density Porosity
GR.GAPI                       : Gamma Ray
NPOR.pu                       : Neutron Porosity
~Parameter Information Block
~A  Depth       DCAL        RHOB        RHOC        DPOR         GR         NPOR    
# ...
   707.6000      8.0159      2.4974      0.0073      9.2509    115.6648     25.7138
   707.7000      8.0159      2.5105      0.0278      8.4574    115.0345     25.5258
   707.8000      8.0163      2.5184      0.0142      7.9782    114.4960     25.4613
   707.9000      8.0163      2.5165      0.0583      8.0903    112.5420     25.3362
   708.0000      8.0192      2.5077      0.0317      8.6268    107.5338     25.2927
   708.1000      8.0192      2.5060      0.0004      8.7252    104.2394     25.6223
   708.2000      8.0192      2.5145      0.0392      8.2134    107.8687     25.9490
   708.3000      8.0172      2.5220      0.0555      7.7579    115.2400     25.7889
   708.4000      8.0172      2.5310      0.0181      7.2135    117.0930     25.4904
   708.5000      8.0170      2.5534      0.0406      5.8541    110.1347     25.4224
   708.6000      8.0170      2.5846      0.0692      3.9609    100.2471     25.0758
   708.7000      8.0170      2.6048      0.0895      2.7412     94.5126     24.1797
   708.8000      8.0155      2.6044      0.0436      2.7626     92.9059     23.5667
   708.9000      8.0155      2.5929      0.0481      3.4587     91.3284     23.9519
   709.0000      8.0174      2.5863      0.0098      3.8594     90.4999     24.9353
   709.1000      8.0174      2.5937      0.0349      3.4109     92.4573     25.7163
   709.2000      8.0174      2.5991      0.0828      3.0878     95.7303     25.8087
   709.3000      8.0133      2.5858      0.0245      3.8919     96.4566     25.1641
   709.4000      8.0133      2.5692      0.0325      4.8946     93.4171     24.2024
   709.5000      8.0158      2.5677      0.0162      4.9879     91.1976     23.2604
   709.6000      8.0158      2.5748      0.0475      4.5588     92.6264     22.4714
   709.7000      8.0158      2.5740      0.0435      4.6090     95.5374     22.2442
   709.8000      8.0184      2.5644      0.0403      5.1887     98.1452     22.6812
   709.9000      8.0184      2.5554      0.0406      5.7305     99.5046     23.0832
   710.0000      8.0174      2.5492      0.0291      6.1069     97.5875     23.0267
   710.1000      8.0174      2.5460      0.0253      6.3020     92.8885     22.9015
   710.2000      8.0174      2.5547      0.0007      5.7774     88.9907     22.9968
   710.3000      8.0190      2.5805      0.0515      4.2148     88.5168     23.4360
   710.4000      8.0190      2.6092      0.1045      2.4745     90.6855     24.1460
   710.5000      8.0156      2.6247      0.1078      1.5317     91.6101     24.5417
   710.6000      8.0156      2.6268      0.1273      1.4055     88.5699     24.2329
   710.7000      8.0156      2.6214      0.1134      1.7331     83.6742     23.3659
   710.8000      8.0000      2.6072      0.1537      2.5962     81.2944     22.3660
   710.9000      8.0000      2.5817      0.1002      4.1384     82.7364     21.5792
   711.0000      8.0152      2.5600      0.0199      5.4569     82.8910     21.0565
   711.1000      8.0152      2.5559      0.0328      5.7049     79.2513     21.1412
   711.2000      8.0152      2.5596     -0.0035      5.4793     76.6592     21.8541
   711.3000      8.0189      2.5578      0.0319      5.5872     75.6356     22.7072
   711.4000      8.0189      2.5499      0.0753      6.0671     73.4682     23.3043
   711.5000      8.0175      2.5529      0.0337      5.8841     74.1544     23.2353
   711.6000      8.0175      2.5816      0.0917      4.1430     79.9528     22.6076
   711.7000      8.0175      2.6166      0.1714      2.0213     86.0840     21.9132
   711.8000      8.0198      2.6304      0.1127      1.1859     88.8834     21.3924
   711.9000      8.0198      2.6217      0.1222      1.7167     86.9891     21.1922
   712.0000      8.0175      2.6028      0.1098      2.8620     81.7889     21.2401
   712.1000      8.0175      2.5850      0.0935      3.9370     75.8817     21.3883
   712.2000      8.0175      2.5701      0.0965      4.8412     72.0186     21.4947
   712.3000      8.0158      2.5568      0.0333      5.6463     72.1206     21.4214
   712.4000      8.0158      2.5511      0.0399      5.9952     74.6708     21.4142
   712.5000      8.0140      2.5533      0.0379      5.8587     76.4264     21.8039
   712.6000      8.0140      2.5584      0.0393      5.5505     77.8688     22.4801
   712.7000      8.0140      2.5584      0.0887      5.5506     81.0291     22.7917
   712.8000      8.0148      2.5528      0.0253      5.8936     85.0203     22.4458
   712.9000      8.0148      2.5562      0.0762      5.6847     87.1327     22.0279
   713.0000      8.0193      2.5705      0.0676      4.8198     83.8154     22.1878
   713.1000      8.0193      2.5808      0.0738      4.1941     77.9060     22.5216
   713.2000      8.0193      2.5771      0.0422      4.4205     75.1123     22.0963
   713.3000      8.0191      2.5605      0.0293      5.4228     75.4044     21.1833
   713.4000      8.0191      2.5397      0.0114      6.6840     77.1641     20.5166
   713.5000      8.0161      2.5250     -0.0315      7.5770     81.9903     20.1488
   713.6000      8.0161      2.5160      0.0272      8.1237     89.6191     19.9596
   713.7000      8.0161      2.5041      0.0119      8.8452     95.1714     19.8731
   713.8000      8.0153      2.5025     -0.0328      8.9364     94.7806     19.7733
   713.9000      8.0153      2.5235      0.0391      7.6658     90.6997     19.8927
   714.0000      8.0180      2.5397      0.0674      6.6836     87.4031     20.4578
   714.1000      8.0180      2.5297      0.0511      7.2920     85.7577     21.1328
   714.2000      8.0180      2.5115      0.0057      8.3950     85.1863     21.6092
   714.3000      8.0178      2.5037      0.0667      8.8690     85.1824     21.7881
   714.4000      8.0178      2.5007      0.0524      9.0514     81.8992     21.3836
   714.5000      8.0167      2.4925      0.0588      9.5481     75.2999     20.7044
   714.6000      8.0167      2.4764      0.0562     10.5218     71.3516     20.4314
   714.7000      8.0167      2.4619      0.0020     11.4013     71.9451     20.7431
   714.8000      8.0177      2.4623     -0.0101     11.3781     74.2471     21.1472
   714.9000      8.0177      2.4763      0.0128     10.5254     74.9920     20.9257
   715.0000      8.0152      2.4949      0.0702      9.3973     73.0203     20.1970
   715.1000      8.0152      2.5114      0.0677      8.3983     70.0597     19.6827
   715.2000      8.0152      2.5215      0.0834      7.7853     69.0609     19.7565
   715.3000      8.0186      2.5239      0.0735      7.6416     71.9375     20.1518
   715.4000      8.0186      2.5203      0.0616      7.8610     76.8883     20.4850
   715.5000      8.0209      2.5158      0.1124      8.1324     82.5137     20.6993
   715.6000      8.0209      2.5169      0.1031      8.0656     90.4987     20.6538
   715.7000      8.0209      2.5273      0.0920      7.4382     98.4584     20.1622
   715.8000      8.0219      2.5456      0.0786      6.3269     99.6301     19.5012
   715.9000      8.0219      2.5619      0.1756      5.3421     92.3970     19.0690
   716.0000      8.0188      2.5668      0.1602      5.0397     85.4101     19.0781
   716.1000      8.0188      2.5740      0.1118      4.6090     83.1697     19.5001
   716.2000      8.0188      2.5982      0.1485      3.1386     81.4534     19.9471
   716.3000      8.0182      2.6279      0.1757      1.3374     78.6610     20.1156
   716.4000      8.0182      2.6487      0.1535      0.0804     75.6949     19.8608
   716.5000      8.0165      2.6549      0.2188     -0.2948     74.7841     19.3086
   716.6000      8.0165      2.6369      0.1550      0.7930     77.2961     19.0638
   716.7000      8.0165      2.5965      0.1166      3.2423     80.3714     19.5315
   716.8000      8.0160      2.5518      0.0607      5.9493     82.7167     20.2194
   716.9000      8.0160      2.5199      0.0650      7.8865     84.8500     20.5840
   717.0000      8.0176      2.5037      0.0589      8.8638     85.0132     20.8935
   717.1000      8.0176      2.5035      0.0462      8.8791     84.4788     21.3977
