~Version Information
 VERS.                                  2.0 : CWLS LAS VERSION
 WRAP.                                   NO : WRAPING MODE
 SWARE .                 MController 2.5.0J : SOFTWARE VERSION
~Well Information
 WELL.                      Warrior 33-1 Tr : WELL
 COMP.    Pioneer Natural Resources USA Inc : COMPANY
 FLD.                      Purgatoire River : FIELD
 LOC.                 NW/SE Sec 1 T33S R67W : LOCATION
 DATE.                            6/17/2005 : DATE(S) LOGGED
 SRVC.      Blanco Geological Services LLC  : SERVICE COMPANY
 STAT.                                   CO : STATE
 CNTY.                           Las Animas : COUNTY
 CTRY.                                  USA : COUNTRY
 API.                       05-071-08412-00 : API NUMBER
 STRT.FT                             383.00 : START DEPTH
 STOP.FT                            1751.00 : STOP DEPTH
 STEP.FT                               1.00 : DEPTH INCREMENT
 NULL.                                -9999 : NULL VALUE
~Curve information
 DEPTH.FT                                   :
 ROP.MIN/FT                                 :
 GAS.UNITS                                  :
~ASCII Log data
# ...
      1583.0         0.20        493.1 
      1584.0         0.20        514.6 
      1585.0         0.30        650.1 
      1586.0         2.68       2758.8 
      1587.0         0.23       1357.6 
      1588.0         0.23       1236.6 
      1589.0         0.23       1142.6 
      1590.0         0.30       1007.5 
      1591.0         0.30        859.0 
      1592.0         0.27        797.6 
      1593.0         0.33        748.1 
      1594.0         0.20        731.6 
      1595.0         0.17        728.6 
      1596.0         0.17        726.2 
      1597.0         0.13        723.5 
      1598.0         0.30        722.8 
      1599.0         0.18        717.5 
      1600.0         0.20        716.4 
      1601.0         0.20        718.8 
      1602.0         0.20        717.1 
      1603.0         0.20        710.7 
      1604.0         0.27        699.9 
      1605.0         0.40        685.1 
      1606.0         0.20        669.9 
      1607.0         0.23        659.5 
      1608.0         0.23        654.1 
      1609.0         0.27        650.1 
      1610.0         0.20        605.9 
      1611.0         0.23        522.4 
      1612.0         0.17        468.1 
      1613.0         0.17        440.0 
      1614.0         0.22        449.6 
      1615.0         0.37        565.2 
      1616.0         3.18       3509.5 
      1617.0         0.37       1469.4 
      1618.0         0.27       1182.4 
      1619.0         0.23       1026.7 
      1620.0         0.17        916.2 
      1621.0         0.20        843.1 
      1622.0         0.20        744.4 
      1623.0         0.23        671.0 
      1624.0         0.23        662.5 
      1625.0         0.20        706.7 
      1626.0         0.17        741.0 
      1627.0         0.17        765.3 
      1628.0         0.17        770.7 
      1629.0         0.20        769.3 
      1630.0         0.17        757.5 
      1631.0         0.18        720.1 
      1632.0         0.17        689.2 
      1633.0         0.17        682.4 
      1634.0         0.27        693.5 
      1635.0         0.30        696.6 
      1636.0         0.30        685.8 
      1637.0         0.27        675.0 
      1638.0         0.37        685.1 
      1639.0         0.27        689.8 
      1640.0         0.27        696.9 
      1641.0         0.23        696.2 
      1642.0         0.23        682.1 
      1643.0         0.20        579.3 
      1644.0         0.17        503.5 
      1645.0         0.25        461.4 
      1646.0         2.90       1516.9 
      1647.0         0.42       1327.9 
      1648.0         0.50       1094.1 
      1649.0         0.40        890.6 
      1650.0         0.37        825.6 
      1651.0         0.27        787.5 
      1652.0         0.27        773.7 
      1653.0         0.23        758.6 
      1654.0         0.23        754.2 
      1655.0         0.20        751.1 
      1656.0         0.23        748.4 
      1657.0         0.20        739.0 
      1658.0         0.17        734.6 
      1659.0         0.15        728.2 
      1660.0         0.20        724.2 
      1661.0         0.13        720.1 
      1662.0         0.17        718.1 
      1663.0         0.17        714.8 
      1664.0         0.13        715.8 
      1665.0         0.17        717.8 
      1666.0         0.13        721.5 
      1667.0         0.17        726.9 
      1668.0         0.13        724.2 
      1669.0         0.17        713.4 
      1670.0         0.13        668.3 
      1671.0         0.13        586.7 
      1672.0         0.17        559.8 
      1673.0         0.17        502.2 
      1674.0         0.13        489.7 
      1675.0         0.13        494.1 
      1676.0         2.58       1588.7 
      1677.0         0.33       1462.4 
      1678.0         0.53       1299.6 
      1679.0         0.43       1026.4 
      1680.0         0.35        868.7 
      1681.0         0.33        777.4 
      1682.0         0.30        736.7 
      1683.0         0.30        687.5 
      1684.0         0.30        661.5 
      1685.0         0.30        651.8 
      1686.0         0.27        650.7 
      1687.0         0.27        650.4 
      1688.0         0.23        652.8 
      1689.0         0.20        654.1 
      1690.0         0.20        658.8 
      1691.0         0.20        663.2 
      1692.0         0.20        664.2 
      1693.0         0.28        664.2 
      1694.0         0.23        661.5 
      1695.0         0.20        660.9 
      1696.0         0.23        662.5 
      1697.0         0.20        664.9 
      1698.0         0.20        668.3 
      1699.0         0.20        672.6 
      1700.0         0.20        674.3 
      1701.0         0.20        664.2 
      1702.0         0.20        612.7 
      1703.0         0.23        538.9 
      1704.0         0.17        488.0 
      1705.0         0.17        497.4 
      1706.0         3.18       1690.8 
      1707.0         0.33       1048.0 
      1708.0         0.30        804.4 
      1709.0         0.27        761.3 
      1710.0         0.45        755.5 
      1711.0         0.33        746.4 
      1712.0         0.30        739.4 
      1713.0         0.30        739.7 
      1714.0         0.23        743.7 
      1715.0         0.23        743.4 
      1716.0         0.27        737.7 
      1717.0         0.20        729.9 
      1718.0         0.20        723.5 
      1719.0         0.20        716.8 
      1720.0         0.20        713.1 
      1721.0         0.17        708.4 
      1722.0         0.20        708.4 
      1723.0         0.22        700.3 
      1724.0         0.20        694.9 
      1725.0         0.20        689.2 
      1726.0         0.23        686.5 
      1727.0         0.23        682.7 
      1728.0         0.20        682.7 
      1729.0         0.20        676.7 
      1730.0         0.23        625.8 
      1731.0         0.23        512.6 
      1732.0         0.20        440.0 
      1733.0         0.33         94.8 
      1734.0         0.27         91.1 
      1735.0         0.20        116.4 
      1736.0         2.22       1581.0 
      1737.0         0.07       1509.5 
      1738.0         0.10       1438.4 
      1739.0         0.17       1414.9 
      1740.0         0.60       1272.7 
      1741.0         0.60        957.0 
      1742.0         0.48        783.5 
      1743.0         0.40        706.7 
      1744.0         0.33        719.5 
      1745.0         0.47        752.8 
      1746.0         0.33        753.5 
      1747.0         0.30        695.9 
      1748.0         0.30        586.1 
      1749.0         0.27        491.4 
      1750.0         0.17        484.6 
      1751.0        32.53        703.6 
