~Version Information
VERS.                      2.0: CWLS Log ASCII Standard - VERSION 2.0
WRAP.                       NO: One line per depth step
~Well Information Block
STRT.FT                15.0000: 
STOP.FT              2265.2500: 
STEP.FT                 0.2500: 
NULL.                -999.2500: 
COMP.          Pioneer Natural Resources: COMPANY
WELL.             Vector 33-23: WELL
FLD.           Purgatoire River: FIELD
LOC.           1988' FSL & 1560' FEL: LOCATION
PROV.                 Colorado: PROVINCE
CNTY.               Las Animas: COUNTRY
SRVC.                Patterson: SERVICE COMPANY
DATE.          Fri Apr 01 13:14:24 2005: LOG DATE
UWI.           05 071 08336 00: UNIQUE WELL ID
~Curve Information Block
DEPT.FT            0 000 00 00: Depth
GR.GAPI                       : Gamma Ray
CCL.                          : Casing Collar Locator
TT3.usec                      : CBL 3' Travel Time
AMP3.mV                       : CBL 3' Amplitude
AMP5.mV                       : CBL 5' Amplitude
~Parameter Information Block
~A  Depth        GR         CCL         TT3         AMP3        AMP5    
    15.0000   -999.2500      0.0000    969.1934     41.2608     17.2095
    15.2500   -999.2500      0.0000   1115.8191     40.4721     20.0379
    15.5000     33.9407      0.0000   1205.0753     39.7398     21.6385
    15.7500     33.6595      0.0000   1203.4054     39.5492     22.4128
    16.0000     33.5703      0.0000   1106.6755     39.8840     22.8351
    16.2500     33.4613      0.0000    937.2702     40.5128     23.1921
    16.5000     33.7909      0.0000    744.5358     41.2432     23.5353
    16.7500     35.1897      0.0000    587.4042     42.0315     23.7696
    17.0000     37.7362      0.0000    499.6527     43.0547     23.7770
    17.2500     40.6807      0.0000    469.8524     44.6834     23.4972
    17.5000     42.8387      0.0000    458.3726     47.1575     22.9414
    17.7500     43.3126      0.0000    433.9951     50.2124     22.1962
    18.0000     42.0143      0.0000    393.9201     53.1846     21.4366
    18.2500     39.6849      0.0000    353.3714     55.4937     20.8926
    18.5000     37.4547      0.0000    324.8875     56.8667     20.7318
    18.7500     36.2364      0.0000    310.0670     57.2157     20.9628
    19.0000     36.3690      0.0000    304.2712     56.5590     21.4608
    19.2500     37.6857      0.0000    303.0864     55.0471     22.0297
    19.5000     39.8644      0.0000    305.4435     52.9152     22.4096
    19.7500     42.8099      0.0000    315.5496     50.3870     22.3370
    20.0000     46.6752      0.0000    345.6451     47.6397     21.6991
    20.2500     51.3658      0.0000    416.0152     44.8319     20.5996
    20.5000     56.1088      0.0000    545.1286     42.1196     19.2519
    20.7500     59.8374      0.0000    730.4697     39.6474     17.8414
    21.0000     62.0545      0.0000    938.3338     37.5188     16.4782
    21.2500     63.2365      0.0000   1120.3185     35.7786     15.2165
    21.5000     64.5468      0.0000   1244.6246     34.4240     14.0761
    21.7500     67.0884      0.0000   1310.8424     33.4277     13.0596
    22.0000     70.9050      0.0000   1338.3433     32.7554     12.1652
    22.2500     74.6092      0.0000   1347.2455     32.3720     11.3943
    22.5000     76.5424      0.0000   1349.4913     32.2382     10.7503
    22.7500     76.4542      0.0000   1349.9327     32.2987     10.2308
    23.0000     75.6676      0.0000   1350.0000     32.4719      9.8220
    23.2500     75.6111      0.0000   1350.0000     32.6523      9.4997
    23.5000     76.6821      0.0000   1350.0000     32.7244      9.2355
    23.7500     78.4816      0.0000   1350.0000     32.5857      9.0042
    24.0000     80.3368      0.0000   1350.0000     32.1820      8.7909
    24.2500     81.2727      0.0000   1350.0000     31.5395      8.5917
    24.5000     80.2503      0.0000   1350.0000     30.7589      8.4046
    24.7500     77.1709      0.0000   1350.0000     29.9632      8.2187
    25.0000     73.3777      0.0000   1350.0000     29.2386      8.0168
    25.2500     70.6167      0.0000   1350.0000     28.6118      7.7898
    25.5000     69.4668      0.0000   1350.0000     28.0602      7.5467
    25.7500     68.9827      0.0000   1350.0000     27.5318      7.3096
    26.0000     67.8197      0.0000   1350.0000     26.9745      7.1000
    26.2500     65.6015      0.0000   1350.0000     26.3761      6.9259
    26.5000     63.2077      0.0000   1350.0000     25.7811      6.7822
    26.7500     61.7613      0.0000   1350.0000     25.2568      6.6613
    27.0000     61.3975      0.0000   1350.0000     24.8418      6.5612
    27.2500     61.1855      0.0000   1350.0000     24.5347      6.4819
    27.5000     60.2914      0.0000   1350.0000     24.3245      6.4182
    27.7500     59.0179      0.0000   1350.0000     24.2209      6.3610
    28.0000     58.4933      0.0000   1350.0000     24.2420      6.3056
    28.2500     59.3883      0.0000   1350.0000     24.3740      6.2544
    28.5000     61.2268      0.0000   1350.0000     24.5532      6.2115
    28.7500     63.0781      0.0000   1350.0000     24.7038      6.1770
    29.0000     64.5934      0.0000   1350.0000     24.7921      6.1456
    29.2500     66.1464      0.0000   1350.0000     24.8364      6.1117
    29.5000     68.3149      0.0000   1350.0000     24.8703      6.0748
    29.7500     71.4596      0.0000   1350.0000     24.9081      6.0400
    30.0000     75.3940      0.0000   1350.0000     24.9444      6.0124
    30.2500     79.1825      0.0000   1350.0000     24.9763      5.9905
    30.5000     81.5170      0.0000   1350.0000     25.0160      5.9673
    30.7500     81.6073      0.0000   1350.0000     25.0780      5.9381
    31.0000     79.8126      0.0000   1350.0000     25.1492      5.9074
    31.2500     77.4265      0.0000   1350.0000     25.1790      5.8878
    31.5000     75.8521      0.0000   1350.0000     25.1088      5.8902
    31.7500     75.9210      0.0000   1350.0000     24.9194      5.9137
    32.0000     77.6646      0.0000   1350.0000     24.6546      5.9452
    32.2500     80.3356      0.0000   1350.0000     24.3988      5.9703
    32.5000     82.6657      0.0000   1350.0000     24.2296      5.9856
    32.7500     83.5056      0.0000   1350.0000     24.1844      5.9982
    33.0000     82.5513      0.0000   1350.0000     24.2636      6.0176
    33.2500     80.4887      0.0000   1350.0000     24.4576      6.0471
    33.5000     78.2175      0.0000   1350.0000     24.7691      6.0859
    33.7500     75.8236      0.0000   1350.0000     25.2086      6.1355
    34.0000     72.5638      0.0000   1350.0000     25.7660      6.2050
    34.2500     68.0283      0.0000   1350.0000     26.3852      6.3077
    34.5000     63.0901      0.0000   1350.0000     26.9796      6.4513
    34.7500     59.5191      0.0000   1350.0000     27.4871      6.6292
    35.0000     58.6947      0.0000   1350.0000     27.9179      6.8235
    35.2500     60.7770      0.0000   1350.0000     28.3476      7.0148
    35.5000     64.8715      0.0000   1350.0000     28.8588      7.1910
    35.7500     69.5498      0.0000   1350.0000     29.4794      7.3494
    36.0000     73.2764      0.0000   1350.0000     30.1681      7.4915
    36.2500     74.9761      0.0000   1350.0000     30.8532      7.6140
    36.5000     74.5975      0.0000   1350.0000     31.4782      7.7061
    36.7500     72.9987      0.0000   1350.0000     32.0147      7.7547
    37.0000     71.1770      0.0000   1350.0000     32.4433      7.7533
    37.2500     69.6457      0.0000   1350.0000     32.7367      7.7064
    37.5000     68.3175      0.0000   1350.0000     32.8619      7.6268
    37.7500     66.6588      0.0000   1350.0000     32.7895      7.5283
    38.0000     64.0535      0.0000   1350.0000     32.4975      7.4187
    38.2500     60.3315      0.0000   1350.0000     31.9738      7.2968
    38.5000     56.0994      0.0000   1350.0000     31.2317      7.1578
    38.7500     52.5046      0.0000   1350.0000     30.3305      7.0017
    39.0000     50.5119      0.0000   1350.0000     29.3724      6.8346
    39.2500     50.1946      0.0000   1350.0000     28.4624      6.6617
    39.5000     50.5725      0.0000   1350.0000     27.6649      6.4796
    39.7500     50.3003      0.0000   1350.0000     26.9922      6.2788
    40.0000     48.7994      0.0000   1350.0000     26.4229      6.0572
    40.2500     46.7047      0.0000   1350.0000     25.9254      5.8283
    40.5000     45.1456      0.0000   1350.0000     25.4685      5.6141
    40.7500     44.7788      0.0000   1350.0000     25.0285      5.4294
    41.0000     45.5487      0.0000   1350.0000     24.6004      5.2764
    41.2500     47.1477      0.0000   1350.0000     24.2025      5.1522
    41.5000     49.5993      0.0000   1350.0000     23.8663      5.0566
    41.7500     53.4638      0.0000   1350.0000     23.6110      4.9915
    42.0000     59.2940      0.0000   1350.0000     23.4259      4.9566
    42.2500     66.5197      0.0000   1350.0000     23.2822      4.9511
    42.5000     73.0329      0.0000   1350.0000     23.1689      4.9758
    42.7500     76.5646      0.0000   1350.0000     23.1156      5.0303
