~Version Information
VERS.                      2.0: CWLS Log ASCII Standard - VERSION 2.0
WRAP.                       NO: One line per depth step
~Well Information Block
STRT.FT               235.0000: 
STOP.FT              1633.0000: 
STEP.FT                 0.1000: 
NULL.                -999.2500: 
COMP.          Petrogulf Corporation: COMPANY
WELL.             State 16-41R: WELL
FLD.           Purgatorie River: FIELD
LOC.           280' FNL & 907' FEL: LOCATION
PROV.                 Colorado: PROVINCE
CNTY.               Las Animas: COUNTRY
SRVC.                Patterson: SERVICE COMPANY
DATE.          Wed Oct 19 07:05:20 2005: LOG DATE
API.           05-071-08345    : API
~Curve Information Block
DEPT.FT            0 000 00 00: Depth
DCAL.in                       : CDL Caliper
RHOB.g/cc                     : CDL Bulk Density
RHOC.g/cc                     : CDL Density Correction
DPOR.pu                       : CDL Density Porosity
GR.GAPI                       : Gamma Ray
NPOR.pu                       : Neutron Porosity
~Parameter Information Block
~A  Depth       DCAL        RHOB        RHOC        DPOR         GR         NPOR    
# ...
  1060.6000      7.9293      2.6133      0.0067      2.2272     84.4658     20.5509
  1060.7000      7.9293      2.6122      0.0606      2.2930     79.2579     20.2665
  1060.8000      7.9311      2.6114      0.0584      2.3372     76.0893     20.3021
  1060.9000      7.9311      2.6076      0.0348      2.5718     73.3271     20.5499
  1061.0000      7.9145      2.6108      0.0415      2.3765     72.6127     20.9722
  1061.1000      7.9145      2.6162      0.0463      2.0463     76.6291     21.4898
  1061.2000      7.9145      2.6137      0.0397      2.1991     82.4950     21.8008
  1061.3000      7.9080      2.6050      0.0546      2.7281     86.1762     21.8098
  1061.4000      7.9080      2.5995      0.0298      3.0633     88.8377     21.8017
  1061.5000      7.8983      2.6024      0.0615      2.8850     93.5631     21.8353
  1061.6000      7.8983      2.6027      0.0987      2.8647    101.1888     22.0029
  1061.7000      7.8983      2.5945      0.0084      3.3609    109.9947     22.6408
  1061.8000      7.8487      2.5915      0.0447      3.5456    116.8924     23.5851
  1061.9000      7.8487      2.5892      0.0972      3.6853    121.7176     24.1797
  1062.0000      7.9215      2.5741      0.0308      4.6017    127.2576     24.2079
  1062.1000      7.9215      2.5548      0.0507      5.7713    132.6364     24.1527
  1062.2000      7.9215      2.5394      0.0308      6.7013    134.9892     24.3251
  1062.3000      7.9599      2.5247      0.0272      7.5949    137.1353     24.5656
  1062.4000      7.9599      2.5077      0.0285      8.6232    142.7631     24.8703
  1062.5000      7.9853      2.4967     -0.0294      9.2901    148.5643     25.4206
  1062.6000      7.9853      2.5050      0.0028      8.7887    150.5521     26.1926
  1062.7000      7.9853      2.5264      0.0065      7.4883    151.5332     26.9254
  1062.8000      7.9818      2.5441      0.0407      6.4172    154.8341     27.4412
  1062.9000      7.9818      2.5517      0.0267      5.9550    157.7177     27.8491
  1063.0000      7.9690      2.5453      0.0680      6.3457    157.3416     28.1670
  1063.1000      7.9690      2.5198      0.0240      7.8879    156.6898     28.2097
  1063.2000      7.9690      2.4893     -0.0141      9.7403    158.0591     28.0692
  1063.3000      7.9543      2.4708      0.0094     10.8585    160.4180     28.0107
  1063.4000      7.9543      2.4577      0.0348     11.6550    161.6292     28.0933
  1063.5000      7.9542      2.4405      0.0254     12.6949    161.2016     28.3812
  1063.6000      7.9542      2.4293      0.0261     13.3766    161.4397     28.7251
  1063.7000      7.9542      2.4377      0.0150     12.8683    162.5682     28.9799
  1063.8000      7.9609      2.4546      0.0619     11.8436    163.3521     29.2044
  1063.9000      7.9609      2.4517      0.0891     12.0170    164.9682     29.3009
  1064.0000      7.9732      2.4298      0.0185     13.3430    167.0210     29.2543
  1064.1000      7.9732      2.4168      0.0425     14.1352    166.2899     29.0085
  1064.2000      7.9732      2.4157      0.0676     14.2008    161.0641     28.4152
  1064.3000      7.9862      2.4005      0.0489     15.1197    154.2202     27.7477
  1064.4000      7.9862      2.3513      0.0372     18.1027    149.4301     27.3680
  1064.5000      8.0069      2.2686      0.0492     23.1128    145.8065     27.4137
  1064.6000      8.0069      2.1674      0.0033     29.2480    139.6371     27.9772
  1064.7000      8.0069      2.0650     -0.0261     35.4576    130.9586     28.7807
  1064.8000      8.0319      1.9643      0.0001     41.5573    124.0647     29.3060
  1064.9000      8.0319      1.8749     -0.0807     46.9775    121.0674     29.6817
  1065.0000      8.0429      1.8246     -0.0594     50.0213    121.4723     30.4147
  1065.1000      8.0429      1.8205     -0.0159     50.2726    123.1199     31.4317
  1065.2000      8.0429      1.8484      0.0511     48.5845    122.0136     32.3184
  1065.3000      8.0592      1.9047      0.0801     45.1673    119.2004     32.8580
  1065.4000      8.0592      1.9841      0.2011     40.3604    119.5459     33.0908
  1065.5000      8.1210      2.0663      0.2263     35.3734    124.9142     33.0921
  1065.6000      8.1210      2.1419      0.1980     30.7933    131.7153     32.8657
  1065.7000      8.1210      2.2034      0.2390     27.0691    134.2098     32.5688
  1065.8000      8.0812      2.2383      0.1639     24.9514    132.9462     32.3832
  1065.9000      8.0812      2.2518      0.0684     24.1323    132.6515     32.2654
  1066.0000      8.0609      2.2542      0.0858     23.9879    133.8601     31.9207
  1066.1000      8.0609      2.2486      0.0418     24.3250    135.1472     31.3105
  1066.2000      8.0609      2.2473      0.0454     24.4038    137.3279     30.9065
  1066.3000      8.0828      2.2636      0.0916     23.4188    141.0112     30.9311
  1066.4000      8.0828      2.2922      0.1452     21.6867    145.9166     31.1303
  1066.5000      8.0669      2.3193      0.1329     20.0424    151.8300     31.1295
  1066.6000      8.0669      2.3438      0.0670     18.5595    155.0890     30.8223
  1066.7000      8.0669      2.3661      0.0954     17.2082    152.5813     30.4919
  1066.8000      8.0692      2.3698      0.1001     16.9841    148.8029     30.3484
  1066.9000      8.0692      2.3462      0.0376     18.4096    148.4555     30.4810
  1067.0000      8.0911      2.3086      0.0228     20.6917    149.6551     30.7584
  1067.1000      8.0911      2.2663      0.0421     23.2533    149.3848     30.8025
  1067.2000      8.0911      2.2296      0.0030     25.4758    146.1854     30.6384
  1067.3000      8.0391      2.2173     -0.0296     26.2268    143.6356     30.6307
  1067.4000      8.0391      2.2335      0.0039     25.2416    146.9632     30.6839
  1067.5000      8.0076      2.2670      0.0408     23.2113    150.4718     30.6253
  1067.6000      8.0076      2.3091      0.0462     20.6588    146.6096     30.6462
  1067.7000      8.0076      2.3599      0.0935     17.5799    140.9459     30.6558
  1067.8000      8.0006      2.4172      0.1608     14.1100    141.0146     30.2823
  1067.9000      8.0006      2.4678      0.1575     11.0416    142.5500     29.6467
  1068.0000      8.0017      2.5072      0.1362      8.6566    139.9187     29.1216
  1068.1000      8.0017      2.5481      0.0865      6.1755    135.2004     28.6915
  1068.2000      8.0017      2.5944      0.1189      3.3675    131.6358     28.1890
  1068.3000      7.9843      2.6377      0.0654      0.7442    126.8677     27.5830
  1068.4000      7.9843      2.6804      0.1031     -1.8394    118.0071     26.9137
  1068.5000      7.9259      2.7297      0.1333     -4.8273    107.0712     26.1688
  1068.6000      7.9259      2.7794      0.1594     -7.8408     96.3342     25.4542
  1068.7000      7.9259      2.8099      0.1123     -9.6926     88.6867     24.8778
  1068.8000      7.9088      2.8138      0.0985     -9.9290     86.6702     24.2514
  1068.9000      7.9088      2.8023      0.0355     -9.2291     86.0278     23.1686
  1069.0000      7.8976      2.7811      0.0753     -7.9480     83.4914     21.7024
  1069.1000      7.8976      2.7510     -0.0215     -6.1210     81.9478     20.4300
  1069.2000      7.8976      2.7237     -0.0409     -4.4684     81.7999     19.7169
  1069.3000      7.8940      2.7045     -0.0015     -3.3029     81.2399     19.7110
  1069.4000      7.8940      2.6814      0.0298     -1.9051     79.8641     20.4805
  1069.5000      7.9161      2.6522      0.0296     -0.1335     79.4056     21.6879
  1069.6000      7.9161      2.6306      0.0676      1.1779     81.9346     22.6318
  1069.7000      7.9161      2.6199      0.0142      1.8219     86.4399     22.9880
  1069.8000      7.9334      2.6125      0.0214      2.2750     89.8194     22.9165
  1069.9000      7.9334      2.6077      0.0089      2.5613     90.4224     22.7345
  1070.0000      7.9286      2.6069      0.0205      2.6096     88.7206     22.7092
  1070.1000      7.9286      2.6010      0.0421      2.9673     87.3143     22.8630
