~Version Information
VERS.                      2.0: CWLS Log ASCII Standard - VERSION 2.0
WRAP.                       NO: One line per depth step
~Well Information Block
STRT.FT               866.0000: 
STOP.FT              2029.0000: 
STEP.FT                 0.2500: 
NULL.                -999.2500: 
COMP.          Petrogulf Corporation: COMPANY
WELL.             State 16-21R: WELL
FLD.           Purgatorie River: FIELD
LOC.           203' FNL & 1560' FWL: LOCATION
PROV.                 Colorado: PROVINCE
CNTY.               Las Animas: COUNTRY
SRVC.                Patterson: SERVICE COMPANY
DATE.          Tue Aug 16 12:55:36 2005: LOG DATE
UWI.                071 08313 : UNIQUE WELL ID
~Curve Information Block
DEPT.FT            0 000 00 00: Depth
SP.mV                         : DIL Spontaneous Potential
RILD.Ohm-m                    : DIL Deep Resistivity
RILM.Ohm-m                    : DIL Medium Resistivity
RLL3.Ohm-m                    : DIL Shallow Resistivity
GR.GAPI                       : Gamma Ray
~Parameter Information Block
~A  Depth        SP         RILD        RILM        RLL3         GR     
# ...
  1258.0000     98.6885     15.2209     14.1589     25.8275    142.7623
  1258.2500     96.0813     16.1631     14.7467     26.8809    143.7925
  1258.5000     92.7620     16.7269     15.4375     25.7587    129.2417
  1258.7500     88.3244     17.7628     15.9007     24.8695    127.7589
  1259.0000     83.3121     19.0616     16.7054     26.1107    128.1595
  1259.2500     78.4845     19.9603     17.9616     27.2361    122.9758
  1259.5000     72.9263     21.4636     19.0599     28.5881    103.8017
  1259.7500     67.1564     23.2387     20.7796     31.0196     98.3188
  1260.0000     61.2351     24.9103     22.7330     35.8163    106.5325
  1260.2500     55.9622     26.2622     24.8453     44.5146     98.0946
  1260.5000     50.9555     27.6053     27.7706     52.4931     97.6968
  1260.7500     46.3009     29.7047     29.8841     64.5530     94.5173
  1261.0000     41.4259     31.6351     33.1568     88.9557     84.1183
  1261.2500     37.2941     34.7143     36.2651    122.9691     83.1810
  1261.5000     34.1811     35.9840     38.9385    129.0476     83.4992
  1261.7500     31.9726     40.4712     40.4513    107.8373     83.3011
  1262.0000     29.6531     41.5795     41.9725     93.4600     85.6229
  1262.2500     26.8577     45.7094     44.0571     85.4344     95.9618
  1262.5000     23.8913     48.2152     46.8354     82.7218     97.9017
  1262.7500     21.2888     52.8407     48.0680     79.7400     96.4674
  1263.0000     18.8351     55.5495     49.0147     74.6988    101.4914
  1263.2500     16.5007     58.4542     52.3434     73.2343    104.9803
  1263.5000     14.4344     60.8997     54.0590     82.5114     95.5518
  1263.7500     13.1804     62.7303     56.0484     98.4005     92.1898
  1264.0000     12.4690     63.2987     58.2197    111.2383     87.5882
  1264.2500     13.1807     63.6980     60.4608    128.3987     87.2758
  1264.5000     13.4321     63.5280     65.5418    148.9530     77.1476
  1264.7500     13.6057     65.8932     67.1901    176.5369     77.7040
  1265.0000     14.3488     64.8827     65.9551    186.1780     80.5030
  1265.2500     15.8448     59.2589     64.6644    150.4381     80.1063
  1265.5000     18.2240     62.5216     64.6501    117.5628     86.6324
  1265.7500     20.6876     69.2897     68.6132    106.6021     93.9358
  1266.0000     23.0738     74.4212     65.3461    109.2939     94.9506
  1266.2500     25.7051     74.9210     66.7666    115.5356     87.3208
  1266.5000     28.1737     77.9122     64.3737    113.2353     88.6836
  1266.7500     30.5800     82.2933     64.1622    109.6862     88.5617
  1267.0000     32.7114     79.4734     65.4286    108.0389     83.1014
  1267.2500     34.7225     84.9995     69.1846    103.0413     83.7940
  1267.5000     36.9816     85.9878     69.1824    105.9620     87.3182
  1267.7500     39.5485     88.8316     75.3086    118.3311     88.9002
  1268.0000     41.9472     92.8954     72.5006    131.4309     89.9087
  1268.2500     44.8954     91.8798     77.3559    132.1302     86.7726
  1268.5000     48.0418     89.3158     76.8489    122.7387     87.9253
  1268.7500     50.9189     99.7231     80.9807    124.0571     85.6187
  1269.0000     53.8793    109.4339     84.3386    133.1166     73.9743
  1269.2500     57.0863    100.6635     89.4090    149.2295     74.2914
  1269.5000     61.6460    102.3216     99.2452    180.7801     79.6507
  1269.7500     67.2753     94.3035    102.1410    218.2580     79.4626
  1270.0000     72.4669     88.9291     98.8392    243.0817     86.7393
  1270.2500     77.7676     83.1406     85.5806    201.7499     86.5695
  1270.5000     82.0994     79.7289     73.6698    138.1098     93.7327
  1270.7500     85.5621     73.2729     69.2110    107.2579     98.5268
  1271.0000     88.3298     65.9523     61.8655     91.0412    103.2501
  1271.2500     90.9686     64.7298     53.0924     73.6880    105.4161
  1271.5000     93.2238     61.2398     48.0987     61.8271    108.8582
  1271.7500     95.1355     56.6241     45.1124     56.0112    110.0332
  1272.0000     96.8605     52.9471     44.5881     54.1255    116.0734
  1272.2500     98.4188     47.0186     42.7281     51.9679    124.5661
  1272.5000     99.6290     41.9921     40.2620     47.8326    124.7181
  1272.7500    100.6753     38.7525     38.0154     45.2826    125.0665
  1273.0000    101.7311     35.3955     35.7037     44.2118    124.1372
  1273.2500    102.8651     32.0396     33.1875     46.8517    127.8046
  1273.5000    104.6774     29.6347     30.5402     50.7177    123.4852
  1273.7500    106.5207     27.4522     28.3894     49.4565    125.5460
  1274.0000    108.4490     25.5598     25.7564     44.1656    135.5851
  1274.2500    110.2549     23.7813     23.0228     37.4205    146.0782
  1274.5000    111.5852     22.8597     21.5931     30.4101    153.7739
  1274.7500    112.6414     21.1834     20.2096     26.0815    145.9443
  1275.0000    113.3848     20.5209     19.3614     24.0917    135.7797
  1275.2500    114.1767     19.4814     18.8515     24.1556    138.2366
  1275.5000    114.5730     18.9690     18.3353     25.1536    142.9497
  1275.7500    114.2415     18.2966     17.5223     24.6360    139.7193
  1276.0000    113.4927     17.7284     17.2425     25.2486    140.9367
  1276.2500    112.4385     17.1468     16.6229     26.8205    138.6210
  1276.5000    111.1538     16.3798     16.0256     27.6331    152.0578
  1276.7500    109.7252     16.5267     15.6882     27.8663    146.3197
  1277.0000    108.2871     16.6384     15.1794     25.6596    149.3449
  1277.2500    107.0406     16.8594     14.8408     23.3874    148.2016
  1277.5000    105.3301     16.8126     14.9998     21.0545    153.7284
  1277.7500    103.3420     16.8007     15.2461     20.1171    150.7631
  1278.0000    101.2736     17.3878     15.6383     21.5629    146.2408
  1278.2500     98.9727     17.4917     16.2071     25.4919    144.4152
  1278.5000     96.6721     17.8500     16.8686     30.6182    124.1443
  1278.7500     94.0955     17.9001     17.4104     34.4411    128.0604
  1279.0000     91.7127     18.2419     17.4019     36.0304    130.1551
  1279.2500     88.9880     18.6554     17.6365     35.0359    132.3072
  1279.5000     86.5722     19.3783     17.3921     32.7753    132.8301
  1279.7500     83.5186     20.9826     17.2644     30.7221    132.1537
  1280.0000     79.2737     23.0891     17.5445     27.2885    121.0854
  1280.2500     75.2971     25.5205     18.5547     22.8685    115.6020
  1280.5000     71.1311     28.0925     20.4635     24.2685     98.6874
  1280.7500     66.9752     31.6279     23.5925     38.1197     82.3041
  1281.0000     63.8429     34.4202     27.6085     82.0743     55.4803
  1281.2500     61.6076     37.2091     33.1299    198.4795     49.1718
  1281.5000     60.5282     40.3652     40.5226    396.9969     38.6474
  1281.7500     59.6630     42.3130     47.8094    661.3082     34.6936
  1282.0000     59.1404     44.6764     52.8529    922.2990     29.4819
  1282.2500     59.4300     46.0726     57.6636   1062.8129     26.9156
  1282.5000     59.8682     45.8999     66.3253   1132.7031     31.1918
  1282.7500     61.0760     45.4076     72.9056   1237.1349     36.7359
  1283.0000     63.3103     44.9953     78.7926   1292.9154     45.4515
  1283.2500     66.4483     40.6937     79.8600   1176.0367     47.8570
  1283.5000     69.9913     36.9533     66.4351    849.2667     57.4852
  1283.7500     73.5213     31.3017     54.9099    487.4153     61.9743
  1284.0000     76.8607     28.4187     42.2997    307.6061     79.2804
  1284.2500     80.2058     25.4595     30.7467    160.3953     89.9039
  1284.5000     83.4481     23.4495     23.5425     60.9692    104.8947
  1284.7500     86.1826     21.4177     19.2826     29.4304    111.0015
  1285.0000     88.4311     20.0065     16.7660     20.7764    121.2410
  1285.2500     90.7306     19.0086     15.2570     18.3258    114.8224
  1285.5000     92.8424     17.6426     14.6010     18.8246    121.1514
  1285.7500     93.5781     16.8199     14.2146     19.0026    114.7473
