~Version Information
VERS.                      2.0: CWLS Log ASCII Standard - VERSION 2.0
WRAP.                       NO: One line per depth step
~Well Information Block
STRT.FT               250.0000: 
STOP.FT              1573.7000: 
STEP.FT                 0.1000: 
NULL.                -999.2500: 
COMP.          Pioneer Natural Resources: COMPANY
WELL.          Big Cat Federal 44-1: WELL
FLD.           Purgatoire River: FIELD
LOC.           197' FSL & 973' FEL--: LOCATION
CNTY.               Las Animas: COUNTY
SRVC.                Patterson: SERVICE COMPANY
DATE.          Mon Apr 24 08:33:37 2006: LOG DATE
UWI.           05 071 08042 00: UNIQUE WELL ID
STAT.                 Colorado: STATE
~Curve Information Block
DEPT.FT            0 000 00 00: Depth
DCAL.in                       : CDL Caliper
RHOB.g/cc                     : CDL Bulk Density
RHOC.g/cc                     : CDL Density Correction
DPOR.pu                       : CDL Density Porosity
NPOR.pu                       : Neutron Porosity
GR.GAPI                       : Gamma Ray
~Parameter Information Block
~A  Depth       DCAL        RHOB        RHOC        DPOR        NPOR         GR     
# ...
   854.8000      7.9927      2.5368      0.0639      6.8600     25.5592     91.6961
   854.9000      7.9927      2.5301      0.0701      7.2675     26.4386     94.6090
   855.0000      8.0035      2.5080     -0.0001      8.6055     26.9293    100.9627
   855.1000      8.0035      2.4926     -0.0231      9.5413     26.7909    111.7230
   855.2000      8.0035      2.4885      0.0167      9.7868     26.2707    124.8203
   855.3000      8.0174      2.4810      0.0148     10.2420     26.0692    133.8000
   855.4000      8.0174      2.4673      0.0007     11.0740     26.0898    139.3898
   855.5000      8.0324      2.4638      0.0077     11.2874     25.7643    147.4453
   855.6000      8.0324      2.4749      0.0799     10.6092     25.0791    156.0712
   855.7000      8.0324      2.4841      0.0814     10.0526     24.3331    160.7035
   855.8000      8.0447      2.4832      0.0713     10.1110     23.5975    161.4458
   855.9000      8.0447      2.4765      0.0941     10.5181     22.8976    160.9489
   856.0000      8.0551      2.4650      0.1178     11.2108     22.3411    162.9096
   856.1000      8.0551      2.4601      0.0549     11.5067     21.9024    166.8902
   856.2000      8.0551      2.4724      0.1427     10.7638     21.6486    165.9165
   856.3000      8.0633      2.4861      0.1438      9.9350     21.5242    157.8012
   856.4000      8.0633      2.4825      0.1143     10.1486     21.5249    149.4008
   856.5000      8.0674      2.4589      0.0876     11.5800     21.8647    146.8312
   856.6000      8.0674      2.4247      0.0448     13.6566     22.2165    150.0938
   856.7000      8.0674      2.3991      0.0161     15.2083     22.2991    154.8326
   856.8000      8.0705      2.3975      0.0403     15.3009     22.3078    157.8007
   856.9000      8.0705      2.4172      0.0952     14.1112     22.3357    159.5003
   857.0000      8.0786      2.4427      0.1175     12.5631     22.4041    160.2209
   857.1000      8.0786      2.4586      0.1349     11.5983     22.4575    161.4222
   857.2000      8.0786      2.4634      0.1114     11.3065     22.5360    163.6757
   857.3000      8.0885      2.4747      0.0916     10.6223     22.6845    163.3244
   857.4000      8.0885      2.4998      0.1540      9.1041     22.8530    161.6597
   857.5000      8.0928      2.5227      0.1930      7.7137     23.1655    162.4904
   857.6000      8.0928      2.5387      0.1506      6.7434     23.6252    162.4584
   857.7000      8.0928      2.5555      0.1821      5.7243     24.0085    160.4158
   857.8000      8.0945      2.5623      0.1716      5.3151     24.2545    159.4995
   857.9000      8.0945      2.5449      0.1507      6.3719     24.3754    159.7986
   858.0000      8.0970      2.5123      0.0729      8.3435     24.2983    160.8526
   858.1000      8.0970      2.4844      0.0876     10.0366     24.1081    161.8348
   858.2000      8.0970      2.4642      0.0607     11.2611     23.7658    160.3248
   858.3000      8.1009      2.4296      0.0432     13.3598     23.1202    155.1374
   858.4000      8.1009      2.3555     -0.0009     17.8498     21.9409    148.7489
   858.5000      8.1111      2.2494     -0.0615     24.2774     20.2097    145.8395
   858.6000      8.1111      2.1336     -0.0389     31.3000     18.3790    146.6187
   858.7000      8.1111      2.0147     -0.0486     38.5036     16.8649    147.3149
   858.8000      8.1336      1.9056     -0.0919     45.1172     15.7315    144.5535
   858.9000      8.1336      1.8329     -0.1491     49.5216     14.7899    136.9765
   859.0000      8.1646      1.8099     -0.1430     50.9141     13.7431    129.8430
   859.1000      8.1646      1.8134     -0.0214     50.7045     12.5294    126.0748
   859.2000      8.1646      1.8003      0.0256     51.4944     11.4877    119.9649
   859.3000      8.1960      1.7593      0.0009     53.9806     10.8236    114.3089
   859.4000      8.1960      1.7206      0.0756     56.3301     10.3933    114.7004
   859.5000      8.2294      1.7072      0.1486     57.1373     10.0170    114.6236
   859.6000      8.2294      1.7103      0.2210     56.9490      9.6065    109.1384
   859.7000      8.2294      1.7102      0.1564     56.9595      9.0623    102.0782
   859.8000      8.2326      1.6918      0.1194     58.0721      8.3411     98.8606
   859.9000      8.2326      1.6398      0.0242     61.2216      7.4474    100.4622
   860.0000      8.2019      1.5493     -0.0460     66.7092      6.3253    103.3993
   860.1000      8.2019      1.4525     -0.1149     72.5785      5.2087    106.4846
   860.2000      8.2019      1.4150     -0.1128     74.8503      4.4152    109.7635
   860.3000      8.2185      1.4799      0.0003     70.9177      3.9059    110.5978
   860.4000      8.2185      1.6239      0.1482     62.1872      3.5573    108.3560
   860.5000      8.3215      1.7869      0.2634     52.3091      3.4778    106.3199
   860.6000      8.3215      1.9331      0.3026     43.4483      3.8723    106.6475
   860.7000      8.3215      2.0680      0.3578     35.2726      4.7644    109.0210
   860.8000      8.4444      2.2037      0.3830     27.0506      6.0301    113.9545
   860.9000      8.4444      2.3353      0.4148     19.0733      7.5783    120.5462
   861.0000      8.4530      2.4455      0.4051     12.3922      9.4221    126.4861
   861.1000      8.4530      2.5222      0.3371      7.7425     11.5462    131.6647
   861.2000      8.4530      2.5596      0.3065      5.4808     13.7428    138.8206
   861.3000      8.2752      2.5541      0.1403      5.8118     15.7057    146.0983
   861.4000      8.2752      2.5245      0.0471      7.6073     17.1907    146.4437
   861.5000      8.0449      2.4993      0.0678      9.1358     18.3133    143.6554
   861.6000      8.0449      2.4898      0.0263      9.7075     19.2959    146.5244
   861.7000      8.0449      2.4888      0.0664      9.7723     19.9357    154.0989
   861.8000      7.9264      2.4891      0.0201      9.7541     20.1545    162.1912
   861.9000      7.9264      2.4975      0.0662      9.2452     20.2425    168.8214
   862.0000      7.9014      2.5167      0.0598      8.0759     20.1319    172.6994
   862.1000      7.9014      2.5379      0.1031      6.7914     19.6166    173.0836
   862.2000      7.9014      2.5480      0.1002      6.1809     19.2291    169.2401
   862.3000      7.8982      2.5437      0.0856      6.4422     19.6502    161.5248
   862.4000      7.8982      2.5387      0.0309      6.7447     20.7075    152.8345
   862.5000      7.8952      2.5506      0.0588      6.0253     21.8271    146.4138
   862.6000      7.8952      2.5779      0.0726      4.3710     22.9659    142.3571
   862.7000      7.8952      2.6074      0.0630      2.5821     24.0351    137.5003
   862.8000      7.8931      2.6304      0.0807      1.1877     24.5233    130.6064
   862.9000      7.8931      2.6398      0.0784      0.6196     24.4565    124.8352
   863.0000      7.8938      2.6348      0.0288      0.9202     24.4337    121.1232
   863.1000      7.8938      2.6194      0.0812      1.8530     24.8031    119.4328
   863.2000      7.8938      2.5997      0.0351      3.0497     25.4065    120.6121
   863.3000      7.8963      2.5890      0.0045      3.6978     25.8461    122.8110
   863.4000      7.8963      2.5896      0.0288      3.6585     26.1232    124.5090
   863.5000      7.8962      2.5891      0.0681      3.6898     26.5037    124.5314
   863.6000      7.8962      2.5770      0.0933      4.4241     26.9180    123.5567
   863.7000      7.8962      2.5570     -0.0019      5.6376     27.1770    125.7759
   863.8000      7.8939      2.5482      0.0137      6.1677     27.1947    131.5937
   863.9000      7.8939      2.5604      0.0071      5.4323     27.0184    137.7761
   864.0000      7.8928      2.5794      0.0600      4.2763     26.6580    143.5228
   864.1000      7.8928      2.5830      0.0756      4.0594     26.2991    148.8774
   864.2000      7.8928      2.5700      0.0227      4.8507     26.2743    150.3279
   864.3000      7.8931      2.5609      0.0311      5.3989     26.3737    145.4242
