~Version Information
VERS.                      2.0: CWLS Log ASCII Standard - VERSION 2.0
WRAP.                       NO: One line per depth step
~Well Information Block
STRT.FT                15.0000: 
STOP.FT              1891.7500: 
STEP.FT                 0.2500: 
NULL.                -999.2500: 
COMP.          Pioneer Natural Resources: COMPANY
WELL.          Oink Oink 14-36 Tr: WELL
FLD.           Purgatoire River: FIELD
LOC.           236' FSL & 164' FWL: LOCATION
PROV.                 Colorado: PROVINCE
CNTY.               Las Animas: COUNTRY
SRVC.                Patterson: SERVICE COMPANY
DATE.          Wed Jun 22 11:40:13 2005: LOG DATE
UWI.           05 071 08393 00: UNIQUE WELL ID
~Curve Information Block
DEPT.FT            0 000 00 00: Depth
GR.GAPI                       : Gamma Ray
CCL.                          : Casing Collar Locator
TT3.usec                      : CBL 3' Travel Time
AMP3.mV                       : CBL 3' Amplitude
~Parameter Information Block
~A  Depth        GR         CCL         TT3         AMP3    
# ...
  1355.0000    134.8277      0.0000    701.6490      5.4211
  1355.2500    127.8275      0.0000    706.2915      5.8196
  1355.5000    122.5545      0.0000    709.2095      6.3767
  1355.7500    119.7264      0.0000    710.5861      7.0784
  1356.0000    118.7119      0.0000    710.0735      7.8688
  1356.2500    118.1388      0.0000    705.2076      8.6550
  1356.5000    116.8937      0.0000    691.9997      9.3179
  1356.7500    115.0259      0.0000    667.7139      9.7395
  1357.0000    113.8469      0.0000    634.1426      9.8642
  1357.2500    114.7276      0.0000    598.7480      9.7622
  1357.5000    117.4076      0.0000    572.6886      9.6062
  1357.7500    119.7131      0.0000    567.0569      9.5444
  1358.0000    119.3739      0.0000    587.4775      9.5890
  1358.2500    116.0005      0.0000    628.2492      9.6234
  1358.5000    111.0320      0.0000    673.3494      9.4952
  1358.7500    106.2438      0.0000    707.4161      9.1125
  1359.0000    102.9551     -3.0000    725.8441      8.5020
  1359.2500    102.2212     -3.0000    732.8868      7.8066
  1359.5000    104.7474      0.0000    732.1869      7.2199
  1359.7500    110.3420      0.0000    722.6700      6.8873
  1360.0000    117.7848      0.0000    703.8972      6.8206
  1360.2500    125.2912      0.0000    681.8814      6.8844
  1360.5000    131.1129      0.0000    666.3811      6.8877
  1360.7500    134.1669      0.0000    662.5567      6.7243
  1361.0000    134.5098      0.0000    667.2905      6.4312
  1361.2500    133.0986      0.0000    673.5737      6.1211
  1361.5000    130.9766      0.0000    676.5011      5.8814
  1361.7500    128.9126      0.0000    675.1749      5.7356
  1362.0000    127.6751      0.0000    671.5261      5.6664
  1362.2500    127.7827      0.0000    668.5787      5.6504
  1362.5000    128.5627      0.0000    668.6498      5.6687
  1362.7500    128.2981      0.0000    671.8526      5.7004
  1363.0000    126.1528      0.0000    676.2582      5.7181
  1363.2500    123.5062      0.0000    679.5692      5.6975
  1363.5000    122.5110      0.0000    680.3500      5.6328
  1363.7500    123.4458      0.0000    677.9154      5.5433
  1364.0000    124.2180      0.0000    671.9179      5.4608
  1364.2500    122.6111      0.0000    662.7233      5.4115
  1364.5000    118.5549      0.0000    652.0308      5.4073
  1364.7500    113.9021      0.0000    642.6843      5.4480
  1365.0000    110.2662      0.0000    637.6906      5.5235
  1365.2500    107.4423      0.0000    638.8971      5.6142
  1365.5000    103.9516      0.0000    645.5112      5.6948
  1365.7500     98.8542      0.0000    653.9955      5.7406
  1366.0000     92.6254      0.0000    661.0999      5.7343
  1366.2500     86.3282      0.0000    667.3495      5.6657
  1366.5000     80.6619      0.0000    675.9055      5.5292
  1366.7500     76.2398      0.0000    687.8920      5.3206
  1367.0000     74.0023      0.0000    700.4880      5.0409
  1367.2500     74.3476      0.0000    709.5732      4.7051
  1367.5000     76.0003      0.0000    712.9818      4.3439
  1367.7500     76.6345      0.0000    711.5278      3.9915
  1368.0000     74.9901      0.0000    707.9931      3.6730
  1368.2500     72.1543      0.0000    705.1427      3.4032
  1368.5000     70.6367      0.0000    704.2321      3.1930
  1368.7500     72.2479      0.0000    705.1530      3.0518
  1369.0000     76.7491      0.0000    707.2324      2.9869
  1369.2500     82.4157      0.0000    709.2321      2.9983
  1369.5000     88.0263      0.0000    709.3264      3.0752
  1369.7500     94.1904      0.0000    706.2185      3.1969
  1370.0000    102.3785      0.0000    700.1997      3.3408
  1370.2500    112.7041      0.0000    692.8009      3.4885
  1370.5000    123.0414      0.0000    685.7470      3.6279
  1370.7500    130.4584      0.0000    680.2884      3.7545
  1371.0000    133.3671      0.0000    676.9911      3.8684
  1371.2500    132.1355      0.0000    675.9451      3.9648
  1371.5000    127.8145      0.0000    677.2628      4.0299
  1371.7500    120.9497      0.0000    681.2555      4.0528
  1372.0000    112.0161      0.0000    688.0251      4.0394
  1372.2500    102.4437      0.0000    696.9857      4.0110
  1372.5000     94.4376      0.0000    706.7148      3.9885
  1372.7500     89.6500      0.0000    715.0573      3.9822
  1373.0000     88.3004      0.0000    719.7177      3.9927
  1373.2500     89.6027      0.0000    719.5704      4.0214
  1373.5000     92.6854      0.0000    715.4852      4.0798
  1373.7500     96.8709      0.0000    709.1104      4.1911
  1374.0000    101.4561      0.0000    700.7763      4.3794
  1374.2500    105.6102      0.0000    689.2424      4.6501
  1374.5000    108.3292      0.0000    673.6075      4.9763
  1374.7500    108.4728      0.0000    654.9050      5.3072
  1375.0000    105.4299      0.0000    635.9341      5.5954
  1375.2500    100.0810      0.0000    620.0385      5.8221
  1375.5000     94.8263      0.0000    609.4164      5.9991
  1375.7500     92.3067      0.0000    603.3398      6.1476
  1376.0000     93.8690      0.0000    597.9731      6.2763
  1376.2500     99.0272      0.0000    589.0151      6.3770
  1376.5000    106.1606      0.0000    575.1475      6.4376
  1376.7500    113.5841      0.0000    558.7928      6.4562
  1377.0000    120.0475      0.0000    543.9988      6.4443
  1377.2500    124.6449      0.0000    534.3104      6.4235
  1377.5000    126.8039      0.0000    531.7908      6.4136
  1377.7500    126.5052      0.0000    536.2803      6.4196
  1378.0000    124.3584      0.0000    545.2072      6.4304
  1378.2500    121.3736      0.0000    554.9788      6.4324
  1378.5000    118.7214      0.0000    563.0948      6.4216
  1378.7500    117.5725      0.0000    568.8745      6.4010
  1379.0000    118.7079      0.0000    572.2661      6.3720
  1379.2500    121.9070      0.0000    572.1915      6.3325
  1379.5000    125.8296      0.0000    566.4113      6.2834
  1379.7500    128.8364      0.0000    553.7990      6.2342
  1380.0000    130.0824      0.0000    537.1158      6.2001
  1380.2500    129.8360      0.0000    522.9269      6.1935
  1380.5000    128.8177      0.0000    518.1393      6.2148
  1380.7500    127.4155      0.0000    526.3230      6.2503
  1381.0000    125.5929      0.0000    546.5131      6.2779
  1381.2500    123.3267      0.0000    574.1817      6.2817
  1381.5000    120.8722      0.0000    603.1426      6.2620
  1381.7500    118.5872      0.0000    627.7166      6.2327
  1382.0000    116.6827      0.0000    644.7324      6.2064
  1382.2500    115.2413      0.0000    653.8384      6.1859
  1382.5000    114.3922      0.0000    655.2191      6.1701
  1382.7500    114.2183      0.0000    647.8947      6.1607
  1383.0000    114.4279      0.0000    632.0012      6.1592
  1383.2500    114.4156      0.0000    612.0806      6.1636
  1383.5000    113.7342      0.0000    596.2484      6.1721
  1383.7500    112.4527      0.0000    591.7067      6.1853
  1384.0000    111.2791      0.0000    600.5671      6.2027
  1384.2500    111.4360      0.0000    618.1280      6.2209
  1384.5000    113.9505      0.0000    634.3329      6.2367
  1384.7500    118.6981      0.0000    638.9520      6.2492
  1385.0000    124.1110      0.0000    628.2806      6.2584
  1385.2500    127.9505      0.0000    608.3611      6.2640
  1385.5000    128.6172      0.0000    591.5513      6.2675
  1385.7500    126.0572      0.0000    588.1981      6.2696
  1386.0000    121.6600      0.0000    600.1089      6.2640
  1386.2500    117.4531      0.0000    621.4907      6.2396
  1386.5000    115.1776      0.0000    644.8132      6.1916
  1386.7500    115.4340      0.0000    664.1932      6.1287
  1387.0000    117.2134      0.0000    674.9556      6.0673
  1387.2500    118.5356      0.0000    674.2350      6.0207
  1387.5000    118.0729      0.0000    663.5901      5.9951
  1387.7500    116.2151      0.0000    649.0236      5.9914
  1388.0000    114.3567      0.0000    636.9222      6.0067
  1388.2500    113.4165      0.0000    630.0878      6.0340
