~Version Information
 VERS.                                  2.0 : CWLS LAS VERSION
 WRAP.                                   NO : WRAPING MODE
 SWARE .                 MController 2.5.0I : SOFTWARE VERSION
~Well Information
 WELL.                           J&P 12-33v : WELL
 COMP.             Petrogulf Operating Corp : COMPANY
 FLD.                      Purgatorie River : FIELD
 LOC.                NW/SE Sec 12 T33S R68W : LOCATION
 DATE.                              8/27/04 : DATE(S) LOGGED
 SRVC.       Blanco Geological services LLC : SERVICE COMPANY
 STAT.                                   CO : STATE
 CNTY.                           Las Animas : COUNTY
 CTRY.                                  USA : COUNTRY
 API.                       05-071-08091-00 : API NUMBER
 STRT.FT                             770.00 : START DEPTH
 STOP.FT                            2580.00 : STOP DEPTH
 STEP.FT                               1.00 : DEPTH INCREMENT
 NULL.                                -9999 : NULL VALUE
~Curve information
 DEPTH.FT                                   :
 ROP.MIN/FT                                 :
 GAS.UNITS                                  :
~ASCII Log data
# ...
      1570.0          0.3          1.6 
      1571.0          0.3          1.3 
      1572.0          0.4          1.5 
      1573.0          0.3          1.5 
      1574.0          0.3          1.2 
      1575.0          0.3          1.2 
      1576.0          0.3          1.3 
      1577.0          0.3          1.3 
      1578.0          0.3          1.4 
      1579.0          0.3          1.4 
      1580.0          0.3          1.3 
      1581.0          0.3          1.2 
      1582.0          0.3          1.3 
      1583.0          0.3          1.4 
      1584.0          0.3          1.4 
      1585.0          0.3          1.4 
      1586.0          0.3          1.6 
      1587.0          0.3          1.6 
      1588.0          0.3          1.3 
      1589.0          0.3          1.3 
      1590.0          4.8         30.8 
      1591.0          0.6          4.0 
      1592.0          0.7          1.9 
      1593.0          0.4          2.1 
      1594.0          0.3          2.2 
      1595.0          0.3          2.3 
      1596.0          0.2          2.1 
      1597.0          0.2          2.1 
      1598.0          0.2          2.7 
      1599.0          0.3          2.7 
      1600.0          0.2          2.3 
      1601.0          0.3          2.1 
      1602.0          0.2          2.0 
      1603.0          0.3          1.7 
      1604.0          0.3          1.4 
      1605.0          0.2          1.6 
      1606.0          0.2          2.0 
      1607.0          0.2          2.2 
      1608.0          0.2          2.1 
      1609.0          0.1          2.1 
      1610.0          0.2          2.6 
      1611.0          0.3          2.8 
      1612.0          0.3          2.7 
      1613.0          0.2          2.8 
      1614.0          0.3          2.8 
      1615.0          0.3          3.0 
      1616.0          0.2          2.9 
      1617.0          0.2          3.0 
      1618.0          0.2          2.8 
      1619.0          0.1          2.2 
      1620.0          3.5         36.5 
      1621.0          0.6          7.3 
      1622.0          0.3          8.8 
      1623.0          0.3          8.5 
      1624.0          0.3          5.4 
      1625.0          0.3          3.0 
      1626.0          0.3          1.8 
      1627.0          0.4          1.4 
      1628.0          0.5          1.2 
      1629.0          0.5          1.0 
      1630.0          0.4          1.1 
      1631.0          0.4          1.0 
      1632.0          0.3          0.9 
      1633.0          0.3          0.7 
      1634.0          0.2          0.7 
      1635.0          0.3          1.0 
      1636.0          0.3          0.8 
      1637.0          0.3          1.1 
      1638.0          0.2          0.9 
      1639.0          0.2          1.1 
      1640.0          0.3          1.1 
      1641.0          0.2          1.4 
      1642.0          0.3          1.7 
      1643.0          0.4          2.2 
      1644.0          0.2          2.2 
      1645.0          0.2          2.1 
      1646.0          0.2          2.3 
      1647.0          0.4          2.8 
      1648.0          0.2          3.0 
      1649.0          0.2          2.9 
      1650.0          3.5         31.8 
      1651.0          0.5          8.1 
      1652.0          0.5          9.6 
      1653.0          0.6          7.9 
      1654.0          0.5          3.4 
      1655.0          0.5          1.7 
      1656.0          0.5          1.4 
      1657.0          0.4          4.7 
      1658.0          0.5          6.1 
      1659.0          0.6          6.0 
      1660.0          0.5          5.6 
      1661.0          0.6          5.1 
      1662.0          0.4          4.5 
      1663.0          0.5          4.6 
      1664.0          0.4          4.0 
      1665.0          0.6          3.8 
      1666.0          0.5          3.6 
      1667.0          0.4          3.4 
      1668.0          0.5          3.2 
      1669.0          0.2          2.8 
      1670.0          0.3          3.0 
      1671.0          0.3          2.9 
      1672.0          0.3          2.5 
      1673.0          0.3          2.8 
      1674.0          0.2          3.0 
      1675.0          0.3          3.2 
      1676.0          0.2          3.1 
      1677.0          0.3          3.1 
      1678.0          0.3          3.1 
      1679.0          0.2          3.1 
      1680.0          4.9         38.0 
      1681.0          0.4         11.4 
      1682.0          0.4         11.4 
      1683.0          0.4          7.5 
      1684.0          0.6          6.2 
      1685.0          0.7          6.5 
      1686.0          0.7          4.8 
      1687.0          0.9          2.8 
      1688.0          1.1          2.6 
      1689.0          1.0          1.9 
      1690.0          0.3          2.4 
      1691.0          0.4          3.1 
      1692.0          0.4          3.8 
      1693.0          0.4          3.5 
      1694.0          0.3          3.4 
      1695.0          0.3          3.2 
      1696.0          0.3          3.1 
      1697.0          0.3          3.1 
      1698.0          0.3          2.9 
      1699.0          0.2          2.8 
      1700.0          0.3          2.8 
      1701.0          0.2          2.7 
      1702.0          0.2          2.6 
      1703.0          0.2          2.4 
      1704.0          0.3          2.2 
      1705.0          0.2          2.1 
      1706.0          0.2          2.3 
      1707.0          0.2          2.0 
      1708.0          0.2          2.0 
      1709.0          0.2          2.1 
      1710.0          4.9         40.8 
      1711.0          0.5         13.5 
      1712.0          0.5         11.9 
      1713.0          0.5          7.6 
      1714.0          0.5          6.2 
      1715.0          0.3          6.2 
      1716.0          0.4          6.0 
      1717.0          0.5          5.3 
      1718.0          0.5          4.5 
      1719.0          0.5          4.7 
      1720.0          0.4          5.4 
      1721.0          0.5          5.3 
      1722.0          0.5          5.2 
      1723.0          0.3          5.5 
      1724.0          0.3          5.2 
      1725.0          0.5          5.3 
      1726.0          0.4          5.9 
      1727.0          0.4          5.9 
      1728.0          0.4          5.7 
      1729.0          0.3          5.2 
      1730.0          0.3          5.4 
      1731.0          0.3          5.4 
      1732.0          0.3          5.2 
      1733.0          0.3          5.5 
      1734.0          0.4          5.5 
      1735.0          0.4          5.0 
      1736.0          0.4          4.8 
      1737.0          0.3          4.9 
      1738.0          0.3          4.9 
      1739.0          0.4          5.1 
      1740.0          5.9         56.0 
      1741.0          0.4         15.7 
      1742.0          0.4         21.1 
      1743.0          0.7         21.6 
      1744.0          0.4         16.6 
      1745.0          0.3         13.8 
      1746.0          0.3         12.8 
      1747.0          0.4         10.8 
      1748.0          0.3          9.4 
      1749.0          0.2          8.4 
      1750.0          0.3          7.5 
      1751.0          0.3          7.0 
      1752.0          0.2          6.4 
      1753.0          0.2          6.0 
      1754.0          0.2          5.9 
      1755.0          0.2          5.6 
      1756.0          0.2          5.6 
      1757.0          0.2          5.7 
      1758.0          0.2          6.0 
      1759.0          0.2          6.7 
      1760.0          0.2          6.9 
      1761.0          0.2          7.4 
      1762.0          0.2          7.9 
      1763.0          0.2          8.6 
      1764.0          0.1          8.4 
      1765.0          0.2          8.8 
      1766.0          0.2          8.4 
      1767.0          0.2          8.7 
      1768.0          0.2          8.8 
      1769.0          0.2          9.1 
