~Version Information
VERS.                      2.0: CWLS Log ASCII Standard - VERSION 2.0
WRAP.                       NO: One line per depth step
~Well Information Block
STRT.FT                -2.7500: 
STOP.FT              2141.2500: 
STEP.FT                 0.2500: 
NULL.                -999.2500: 
COMP.          Pioneer Nautural Resources: COMPANY
WELL.             Enzo 43-8 Tr: WELL
FLD.           Purgatorie River: FIELD
LOC.           2303' FSL & 604' FEL--: LOCATION
PROV.                       CO: PROVINCE
CNTY.               Las Animas: COUNTRY
SRVC.                         : SERVICE COMPANY
DATE.          Thu Nov 04 09:01:55 2004: LOG DATE
UWI.            05-071-08213  : UNIQUE WELL ID
~Curve Information Block
DEPT.FT            0 000 00 00: Depth
GR.GAPI                       : Gamma Ray
CCL.                          : Casing Collar Locator
TT3.usec                      : CBL 3' Travel Time
AMP3.mV                       : CBL 3' Amplitude
~Parameter Information Block
~A  Depth        GR         CCL         TT3         AMP3    
# ...
   968.7500    131.6171      0.0000    817.3561      5.4052
   969.0000    122.2172      0.0000    827.7539      4.9202
   969.2500    113.1369      0.0000    840.3474      4.4576
   969.5000    104.4843      0.0000    850.0115      4.0603
   969.7500     95.5264      0.0000    852.6676      3.7457
   970.0000     86.8194      0.0000    850.0906      3.5079
   970.2500     80.6041      0.0000    848.8570      3.3248
   970.5000     79.0361      0.0000    853.7286      3.1664
   970.7500     82.2025      0.0000    863.4631      3.0086
   971.0000     87.8148      0.0000    873.5977      2.8494
   971.2500     92.7060      0.0000    880.9526      2.7161
   971.5000     94.8232      0.0000    883.7185      2.6534
   971.7500     94.2828      0.0000    879.5703      2.7000
   972.0000     92.7783      0.0000    867.0958      2.8666
   972.2500     91.9829      0.0000    848.7499      3.1251
   972.5000     92.3981      0.0000    829.9910      3.4167
   972.7500     93.5297      0.0000    815.1129      3.6780
   973.0000     94.7300      0.0000    804.9337      3.8729
   973.2500     95.6232      0.0000    798.1076      4.0016
   973.5000     96.1303      0.0000    793.0753      4.0836
   973.7500     96.5459      0.0000    788.5364      4.1379
   974.0000     97.5354      0.0000    783.5947      4.1776
   974.2500     99.8165      0.0000    778.6107      4.2157
   974.5000    103.7119      0.0000    775.4660      4.2647
   974.7500    108.9253      0.0000    776.0325      4.3320
   975.0000    114.7340      0.0000    780.0823      4.4170
   975.2500    120.2498      0.0000    784.7711      4.5099
   975.5000    124.2700      0.0000    786.4220      4.5935
   975.7500    125.4777      0.0000    783.2107      4.6493
   976.0000    123.6921      0.0000    776.3958      4.6681
   976.2500    120.6008      0.0000    769.0490      4.6574
   976.5000    118.3249      0.0000    763.6831      4.6355
   976.7500    117.3902      0.0000    760.9838      4.6162
   977.0000    116.5558      0.0000    760.2405      4.6036
   977.2500    114.3430      0.0000    760.4220      4.5999
   977.5000    110.3413      0.0000    760.8539      4.6079
   977.7500    105.2192      0.0000    761.2966      4.6188
   978.0000    100.1315      0.0000    761.7100      4.6095
   978.2500     96.4119      0.0000    762.0349      4.5627
   978.5000     95.1882      0.0000    762.1710      4.4812
   978.7500     96.4208      0.0000    762.1385      4.3790
   979.0000     98.3398      0.0000    762.2414      4.2710
   979.2500     98.4681      0.0000    763.1386      4.1796
   979.5000     95.5122      0.0000    765.7320      4.1362
   979.7500     90.2929      0.0000    770.6419      4.1572
   980.0000     84.8545      0.0000    777.2731      4.2186
   980.2500     80.7516      0.0000    783.3381      4.2687
   980.5000     78.2206      0.0000    785.9293      4.2732
   980.7500     76.8472      0.0000    783.6833      4.2492
   981.0000     76.6584      0.0000    777.9373      4.2468
   981.2500     78.5257      0.0000    771.6027      4.2998
   981.5000     83.7785      0.0000    766.9963      4.4015
   981.7500     93.1695      0.0000    764.7318      4.5232
   982.0000    105.4429      0.0000    764.1632      4.6404
   982.2500    117.0193      0.0000    764.3310      4.7400
   982.5000    124.1498      0.0000    764.5360      4.8172
   982.7500    125.7434      0.0000    764.4852      4.8732
   983.0000    123.5951      0.0000    764.2025      4.9094
   983.2500    120.0355      0.0000    763.8300      4.9209
   983.5000    116.1987      0.0000    763.4506      4.8947
   983.7500    112.5285      0.0000    763.0599      4.8244
   984.0000    109.7424      0.0000    762.6530      4.7286
   984.2500    108.5394      0.0000    762.2857      4.6487
   984.5000    108.8289      0.0000    762.0492      4.6185
   984.7500    109.8219      0.0000    762.0120      4.6364
   985.0000    110.7869      0.0000    762.1922      4.6685
   985.2500    111.5056      0.0000    762.5467      4.6760
   985.5000    112.0479      0.0000    762.9653      4.6406
   985.7500    112.2068      0.0000    763.2960      4.5734
   986.0000    111.3211      0.0000    763.4147      4.5050
   986.2500    109.0374      0.0000    763.2893      4.4691
   986.5000    106.2529      0.0000    762.9905      4.4847
   986.7500    105.0798      0.0000    762.6464      4.5439
   987.0000    107.6041      0.0000    762.3769      4.6152
   987.2500    114.1732      0.0000    762.2566      4.6656
   987.5000    122.6417      0.0000    762.3160      4.6833
   987.7500    129.7064      0.0000    762.5408      4.6811
   988.0000    133.3774      0.0000    762.8594      4.6799
   988.2500    133.9412      0.0000    763.1672      4.6902
   988.5000    132.6656      0.0000    763.3884      4.7075
   988.7500    130.5620      0.0000    763.5187      4.7242
   989.0000    128.5493      0.0000    763.6282      4.7430
   989.2500    127.4151      0.0000    763.8792      4.7750
   989.5000    126.8769      0.0000    764.5756      4.8280
   989.7500    125.5183      0.0000    766.1858      4.9043
   990.0000    122.3959      0.0000    769.2458      5.0046
   990.2500    118.3945      0.0000    773.9975      5.1221
   990.5000    115.5518      0.0000    779.8903      5.2299
   990.7500    115.3276      0.0000    785.5840      5.2856
   991.0000    117.8699      0.0000    789.7988      5.2587
   991.2500    122.5206      0.0000    792.0433      5.1577
   991.5000    128.1231      0.0000    792.1940      5.0301
   991.7500    132.7303      0.0000    789.8381      4.9333
   992.0000    134.1088      0.0000    784.8190      4.8989
   992.2500    131.5088      0.0000    778.2323      4.9193
   992.5000    126.9299      0.0000    772.1005      4.9628
   992.7500    124.0465      0.0000    767.9128      5.0012
   993.0000    125.4529      0.0000    765.7628      5.0195
   993.2500    130.6249      0.0000    764.7798      5.0083
   993.5000    136.4355      0.0000    764.0350      4.9593
   993.7500    139.7638      0.0000    763.0831      4.8742
   994.0000    139.5812      0.0000    762.0089      4.7743
   994.2500    136.4869      0.0000    761.1658      4.6935
   994.5000    130.9980      0.0000    760.8372      4.6611
   994.7500    123.2651      0.0000    761.0379      4.6884
   995.0000    114.2966      0.0000    761.5732      4.7654
   995.2500    106.3242      0.0000    762.2441      4.8672
   995.5000    101.3852      0.0000    762.9912      4.9687
   995.7500     99.7464      0.0000    763.8838      5.0602
   996.0000     99.8933      0.0000    765.0690      5.1440
   996.2500    100.1283      0.0000    766.8741      5.2166
   996.5000    100.3333      0.0000    769.9708      5.2588
   996.7500    102.2360      0.0000    775.1389      5.2502
   997.0000    107.9807      0.0000    782.4601      5.1967
   997.2500    118.2075      0.0000    790.7244      5.1367
   997.5000    131.0036      0.0000    798.0000      5.1141
   997.7500    142.4691      0.0000    802.9717      5.1428
   998.0000    148.7921      0.0000    805.6445      5.1982
   998.2500    148.6460      0.0000    806.8720      5.2437
   998.5000    144.2123      0.0000    807.4949      5.2635
   998.7500    139.7434      0.0000    807.9133      5.2726
   999.0000    138.6436      0.0000    808.1623      5.2917
   999.2500    141.7153      0.0000    808.1625      5.3154
   999.5000    147.6634      0.0000    807.8927      5.3138
   999.7500    154.2892      0.0000    807.4321      5.2685
  1000.0000    159.3368      0.0000    806.9233      5.1960
  1000.2500    161.4915      0.0000    806.5137      5.1300
  1000.5000    161.1653      0.0000    806.2991      5.0896
  1000.7500    159.9853      0.0000    806.2916      5.0731
  1001.0000    159.3346      0.0000    806.4360      5.0758
  1001.2500    159.3866      0.0000    806.6711      5.1002
  1001.5000    159.2774      0.0000    807.0786      5.1468
  1001.7500    157.9188      0.0000    808.1659      5.1951
  1002.0000    154.8066      0.0000    811.2087      5.1915
