~Version Information
 VERS.                                  2.0 : CWLS LAS VERSION
 WRAP.                                   NO : WRAPING MODE
 SWARE .                 MController 2.5.0J : SOFTWARE VERSION
~Well Information
 WELL.                         State 16-24R : WELL
 COMP.                Petrogulf Corporation : COMPANY
 FLD.                      Purgatoire River : FIELD
 LOC.                SE/SW Sec 16 T33S R67W : LOCATION
 DATE.                            8/9-11/05 : DATE(S) LOGGED
 SRVC.       BLANCO Geological Services LLC : SERVICE COMPANY
 STAT.                                   CO : STATE
 CNTY.                           Las Animas : COUNTY
 CTRY.                                  USA : COUNTRY
 API.                       05-071-08312-00 : API NUMBER
 STRT.FT                              27.00 : START DEPTH
 STOP.FT                            1870.00 : STOP DEPTH
 STEP.FT                               1.00 : DEPTH INCREMENT
 NULL.                                -9999 : NULL VALUE
~Curve information
 DEPTH.FT                                   :
 ROP.MIN/FT                                 :
 GAS.UNITS                                  :
~ASCII Log data
        27.0     -9999.00          6.2 
        28.0         0.43          6.8 
        29.0         0.30          6.8 
        30.0         0.37          6.6 
        31.0         0.33          6.7 
        32.0         0.33          7.2 
        33.0         0.35          6.8 
        34.0         0.30          7.2 
        35.0         0.27          7.5 
        36.0         0.17          6.6 
        37.0         0.20          6.9 
        38.0         0.23          7.3 
        39.0         0.23          7.5 
        40.0         0.27          7.9 
        41.0         0.17          7.9 
        42.0         0.23          7.6 
        43.0         0.23          7.5 
        44.0         0.23          7.4 
        45.0         0.23          7.1 
        46.0         0.30          7.5 
        47.0         0.22          7.4 
        48.0         0.27          6.8 
        49.0         0.23          6.9 
        50.0         0.23          7.2 
        51.0         0.27          6.8 
        52.0         0.20          6.9 
        53.0         0.23          7.0 
        54.0         0.23          6.7 
        55.0         0.20          6.7 
        56.0         5.17          6.9 
        57.0         0.17          6.1 
        58.0         0.23          6.1 
        59.0         0.27          6.3 
        60.0         0.23          6.0 
        61.0         0.27          6.1 
        62.0         0.27          5.9 
        63.0         0.23          6.2 
        64.0         0.27          6.3 
        65.0         0.23          5.9 
        66.0         0.20          6.0 
        67.0         0.30          6.4 
        68.0         0.28          5.7 
        69.0         0.33          6.0 
        70.0         0.27          5.9 
        71.0         0.30          5.4 
        72.0         0.30          4.5 
        73.0         0.30          4.7 
        74.0         0.27          5.3 
        75.0         0.27          6.6 
        76.0         0.30          8.8 
        77.0         0.27          9.3 
        78.0         0.30          9.9 
        79.0         0.27         10.1 
        80.0         0.28         15.4 
        81.0         0.30        128.5 
        82.0         0.23        136.9 
        83.0         0.30        115.9 
        84.0         0.20         60.7 
        85.0         0.23         40.2 
        86.0         1.17         23.2 
        87.0         0.23          7.5 
        88.0         0.27          7.6 
        89.0         0.28          7.7 
        90.0         0.23          8.1 
        91.0         0.27          8.3 
        92.0         0.27          8.3 
        93.0         0.27          8.8 
        94.0         0.23          9.0 
        95.0         0.27          9.4 
        96.0         0.23          9.3 
        97.0         0.23          9.5 
        98.0         0.30          9.7 
        99.0         0.30          9.7 
       100.0         0.27          9.5 
       101.0         0.23          9.9 
       102.0         0.28         10.1 
       103.0         0.27         10.3 
       104.0         0.27          9.7 
       105.0         0.23         10.2 
       106.0         0.27         10.8 
       107.0         0.27         10.7 
       108.0         0.23         10.4 
       109.0         0.27         11.0 
       110.0         0.27         10.8 
       111.0         0.27         11.0 
       112.0         0.27         10.7 
       113.0         0.30         10.8 
       114.0         0.27         11.2 
       115.0         0.28         10.6 
       116.0         1.63         11.7 
       117.0         0.30         11.5 
       118.0         0.30         11.5 
       119.0         0.27         11.5 
       120.0         0.27         11.3 
       121.0         0.30         11.7 
       122.0         0.28         11.7 
       123.0         0.27         11.7 
       124.0         0.30         11.8 
       125.0         0.27         11.9 
       126.0         0.30         11.9 
       127.0         0.27         11.2 
       128.0         0.30         11.9 
       129.0         0.27         11.8 
       130.0         0.30         12.0 
       131.0         0.30         11.9 
       132.0         0.27         12.0 
       133.0         0.45         11.9 
       134.0         0.20         11.8 
       135.0         0.20         11.2 
       136.0         0.30         12.0 
       137.0         0.27         11.8 
       138.0         0.20         12.1 
       139.0         0.30         11.9 
       140.0         0.23         12.0 
       141.0         0.27         12.0 
       142.0         0.30         12.1 
       143.0         0.30         12.0 
       144.0         0.27         11.4 
       145.0         0.23         11.9 
       146.0         2.35         12.3 
       147.0         0.40         12.3 
       148.0         0.23         12.1 
       149.0         0.27         12.5 
       150.0         0.35         12.6 
       151.0         0.30         12.9 
       152.0         0.33         12.8 
       153.0         0.30         13.0 
       154.0         0.27         12.7 
       155.0         0.27         12.7 
       156.0         0.27         12.8 
       157.0         0.23         13.0 
       158.0         0.27         13.0 
       159.0         0.27         12.4 
       160.0         0.27         13.1 
       161.0         0.27         12.9 
       162.0         0.28         13.0 
       163.0         0.27         12.9 
       164.0         0.30         13.0 
       165.0         0.30         13.2 
       166.0         0.27         13.3 
       167.0         0.27         13.3 
       168.0         0.27         13.3 
       169.0         0.23         13.4 
       170.0         0.23         13.3 
       171.0         0.33         13.0 
       172.0         0.30         12.8 
       173.0         0.27         12.1 
       174.0         0.35         13.0 
       175.0         0.33         13.0 
       176.0         1.63         13.2 
       177.0         0.37         12.9 
       178.0         0.40         13.3 
       179.0         0.33         13.2 
       180.0         0.32         13.1 
       181.0         0.27         12.9 
       182.0         0.27         12.9 
       183.0         0.30         12.7 
       184.0         0.27         12.8 
       185.0         0.27         13.2 
       186.0         0.27         13.2 
       187.0         0.27         13.0 
       188.0         0.27         13.4 
       189.0         0.27         12.9 
       190.0         0.27         13.4 
       191.0         0.27         13.3 
       192.0         0.25         13.1 
       193.0         0.30         13.2 
       194.0         0.27         13.0 
       195.0         0.27         13.1 
       196.0         0.27         13.1 
       197.0         0.30         13.1 
       198.0         0.27         13.2 
       199.0         0.27         13.4 
       200.0         0.33         13.4 
       201.0         0.30         13.3 
       202.0         0.33         13.1 
       203.0         0.33         13.1 
       204.0         0.32         13.0 
       205.0         0.33         13.2 
       206.0         1.33         13.1 
       207.0         0.30         12.9 
       208.0         0.30         12.9 
       209.0         0.33         12.9 
       210.0         0.23         12.6 
       211.0         0.28         12.7 
       212.0         0.27         12.9 
       213.0         0.23         12.9 
       214.0         0.27         12.8 
       215.0         0.20         13.1 
       216.0         0.20         12.2 
       217.0         0.23         12.6 
       218.0         0.23         13.0 
       219.0         0.27         13.0 
       220.0         0.30         13.1 
       221.0         0.30         12.9 
       222.0         0.27         12.4 
       223.0         0.27         12.9 
       224.0         0.27         12.9 
       225.0         0.32         12.0 
       226.0         0.27         12.9 
