~Version Information
VERS.                      2.0: CWLS Log ASCII Standard - VERSION 2.0
WRAP.                       NO: One line per depth step
~Well Information Block
STRT.FT                -8.2500: 
STOP.FT              1795.0000: 
STEP.FT                 0.2500: 
NULL.                -999.2500: 
COMP.          Petrogulf Corporation: COMPANY
WELL.           Montoya 7-21 R: WELL
FLD.           Purgatoire River: FIELD
LOC.           445' FNL & 1942' FWL----: LOCATION
PROV.                 Colorado: PROVINCE
CNTY.               Las Animas: COUNTRY
SRVC.                         : SERVICE COMPANY
DATE.          Fri Sep 30 15:33:54 2005: LOG DATE
UWI.                          : UNIQUE WELL ID
~Curve Information Block
DEPT.FT            0 000 00 00: Depth
GR.GAPI                       : Gamma Ray
CCL.                          : Casing Collar Locator
TT3.usec                      : CBL 3' Travel Time
AMP3.mV                       : CBL 3' Amplitude
~Parameter Information Block
~A  Depth        GR         CCL         TT3         AMP3    
# ...
   829.2500    136.3869      0.0000    282.2791     43.5230
   829.5000    133.8038      0.0000    284.9318     40.0228
   829.7500    130.2023      0.0000    290.1370     36.2456
   830.0000    125.3746      0.0000    298.2228     32.3314
   830.2500    118.9682      0.0000    308.5695     28.4137
   830.5000    110.8699      0.0000    320.0608     24.6537
   830.7500    101.6031      0.0000    331.9845     21.2439
   831.0000     92.3052      0.0000    344.2333     18.3860
   831.2500     84.4734      0.0000    356.1425     16.2559
   831.5000     79.6620      0.0000    365.0323     14.9773
   831.7500     79.0160      0.0000    366.9314     14.6316
   832.0000     82.7345      0.0000    359.9191     15.2879
   832.2500     90.0046      0.0000    346.4118     16.9997
   832.5000     99.4932      0.0000    331.2956     19.7623
   832.7500    109.6100      0.0000    318.1749     23.5080
   833.0000    118.5013      0.0000    307.7593     28.1913
   833.2500    124.7137      0.0000    298.8786     33.8602
   833.5000    128.3133      0.0000    290.1330     40.5543
   833.7500    130.8268      0.0000    280.8778     48.0590
   834.0000    133.6446      0.0000    271.4390     55.7613
   834.2500    136.6861      0.0000    262.8196     62.7908
   834.5000    138.8430      0.0000    256.0902     68.3730
   834.7500    139.4852      0.0000    251.7444     72.1511
   835.0000    139.2037      0.0000    249.4736     74.2656
   835.2500    139.1420      0.0000    248.5266     75.1763
   835.5000    139.8113      0.0000    248.2148     75.3991
   835.7500    140.4830      0.0000    248.1374     75.3353
   836.0000    139.6127      0.0000    248.1246     75.2329
   836.2500    136.2355      0.0000    248.1225     75.2119
   836.5000    131.4158      0.0000    248.1166     75.3076
   836.7500    128.0009      0.0000    248.1024     75.5062
   837.0000    128.2047      0.0000    248.0794     75.7584
   837.2500    131.5226      0.0000    248.0506     75.9850
   837.5000    135.3486      0.0000    248.0230     76.1028
   837.7500    137.3112      0.0000    248.0047     76.0551
   838.0000    136.9018      0.0000    248.0052     75.8065
   838.2500    135.5908      0.0000    248.0437     75.2962
   838.5000    135.7296      0.0000    248.1786     74.4093
   838.7500    138.7667      0.0000    248.5771     73.0115
   839.0000    143.8885      0.0000    249.6154     71.0255
   839.2500    148.4444      0.0000    251.8926     68.4692
   839.5000    150.0557      0.0000    255.9442     65.4125
   839.7500    148.3085      0.0000    261.6747     61.9031
   840.0000    144.3843      0.0000    268.0521     57.9527
   840.2500    139.7636      0.0000    273.6048     53.6118
   840.5000    135.7486      0.0000    277.3721     49.0599
   840.7500    133.2654      0.0000    279.3622     44.5882
   841.0000    132.0428      0.0000    280.2362     40.4448
   841.2500    130.3671      0.0000    280.8214     36.6879
   841.5000    126.5203      0.0000    281.9846     33.2120
   841.7500    120.5318      0.0000    284.6945     29.9201
   842.0000    114.2026      0.0000    289.7519     26.8536
   842.2500    109.5236      0.0000    297.0943     24.1696
   842.5000    107.3153      0.0000    305.4016     22.0327
   842.7500    107.3083      0.0000    312.7351     20.5462
   843.0000    109.1728      0.0000    317.7397     19.7529
   843.2500    112.9826      0.0000    320.1777     19.6490
   843.5000    118.4187      0.0000    320.4246     20.1689
   843.7500    123.9487      0.0000    318.7820     21.1640
   844.0000    127.4220      0.0000    315.3876     22.4212
   844.2500    127.6897      0.0000    310.5565     23.7443
   844.5000    125.5315      0.0000    304.8837     25.0613
   844.7500    122.9483      0.0000    298.9847     26.4541
   845.0000    121.5351      0.0000    293.3881     28.0301
   845.2500    121.4241      0.0000    288.6636     29.7374
   845.5000    121.7060      0.0000    285.3028     31.3431
   845.7500    121.7366      0.0000    283.3760     32.6222
   846.0000    121.9199      0.0000    282.5002     33.5301
   846.2500    123.1678      0.0000    282.1732     34.1533
   846.5000    125.5224      0.0000    282.0534     34.5325
   846.7500    127.3161      0.0000    281.9892     34.6049
   847.0000    126.0620      0.0000    281.9270     34.3317
   847.2500    120.7134      0.0000    281.8492     33.8290
   847.5000    113.0474      0.0000    281.7529     33.3254
   847.7500    106.3661      0.0000    281.6522     33.0004
   848.0000    102.7370      0.0000    281.5677     32.8992
   848.2500    101.7065      0.0000    281.5116     32.9982
   848.5000    101.4977      0.0000    281.4788     33.3034
   848.7500    100.9607      0.0000    281.4507     33.8505
   849.0000    100.1389      0.0000    281.4106     34.6425
   849.2500     99.3458      0.0000    281.3576     35.6404
   849.5000     98.4845      0.0000    281.3058     36.8131
   849.7500     97.4694      0.0000    281.2723     38.1543
   850.0000     96.6506      0.0000    281.2628     39.6292
   850.2500     96.2872      0.0000    281.2696     41.1159
   850.5000     95.9333      0.0000    281.2824     42.4159
   850.7500     94.7868      0.0000    281.2986     43.3477
   851.0000     92.5020      0.0000    281.3188     43.8418
   851.2500     89.5121      0.0000    281.3377     43.9347
   851.5000     86.8145      0.0000    281.3467     43.6740
   851.7500     85.5002      0.0000    281.3471     43.0602
   852.0000     86.1327      0.0000    281.3548     42.0944
   852.2500     88.3851      0.0000    281.3873     40.8593
   852.5000     91.3173      0.0000    281.4473     39.5196
   852.7500     93.9681      0.0000    281.5210     38.2322
   853.0000     95.6395      0.0000    281.5909     37.0583
   853.2500     95.9332      0.0000    281.6459     35.9619
   853.5000     94.8968      0.0000    281.6821     34.8838
   853.7500     92.9864      0.0000    281.7013     33.8108
   854.0000     90.5945      0.0000    281.7119     32.7827
   854.2500     87.7686      0.0000    281.7244     31.8642
   854.5000     84.5279      0.0000    281.7426     31.1210
   854.7500     81.1772      0.0000    281.7569     30.6083
   855.0000     78.2187      0.0000    281.7477     30.3671
   855.2500     76.1403      0.0000    281.6974     30.4298
   855.5000     75.2956      0.0000    281.6044     30.8050
   855.7500     75.7608      0.0000    281.4905     31.4330
   856.0000     77.1231      0.0000    281.3929     32.1669
   856.2500     78.4331      0.0000    281.3428     32.8168
   856.5000     78.6377      0.0000    281.3480     33.2138
   856.7500     77.3288      0.0000    281.3976     33.2484
   857.0000     75.0186      0.0000    281.4791     32.8959
   857.2500     72.6064      0.0000    281.5892     32.2399
   857.5000     70.7691      0.0000    281.7345     31.4550
   857.7500     69.9580      0.0000    281.9443     30.7333
   858.0000     70.5872      0.0000    282.3141     30.2045
   858.2500     72.9011      0.0000    283.3036     29.8872
   858.5000     76.9959      0.0000    286.5068     29.6569
   858.7500     83.2013      0.0000    295.6432     29.2405
   859.0000     91.9581      0.0000    316.1039     28.2956
   859.2500    102.9332      0.0000    350.5880     26.5957
   859.5000    114.5680      0.0000    392.3496     24.2300
   859.7500    124.6768      0.0000    424.5483     21.6227
   860.0000    131.1079      0.0000    431.5720     19.2964
   860.2500    131.8475      0.0000    412.6812     17.5825
   860.5000    125.4082      0.0000    381.9922     16.5247
   860.7500    112.0341      0.0000    355.2748     15.9805
   861.0000     94.4849      0.0000    339.4758     15.7639
   861.2500     77.0117      0.0000    333.5493     15.7425
   861.5000     63.1243      0.0000    334.6161     15.8953
   861.7500     54.1651      0.0000    341.1791     16.3565
   862.0000     49.6529      0.0000    351.5165     17.3962
   862.2500     48.5427      0.0000    360.7755     19.2551
   862.5000     50.2172      0.0000    361.7737     21.9023
