~Version Information
VERS.                      2.0: CWLS Log ASCII Standard - VERSION 2.0
WRAP.                       NO: One line per depth step
~Well Information Block
STRT.FT               380.0000: 
STOP.FT               899.2000: 
STEP.FT                 0.1000: 
NULL.                -999.2500: 
COMP.          Pioneer Natural Resources: COMPANY
WELL.          Prospector 12-19: WELL
FLD.           Purgatoire River: FIELD
LOC.           2262' FNL & 634' FWL: LOCATION
PROV.                 Colorado: PROVINCE
CNTY.               Las Animas: COUNTRY
SRVC.                Patterson: SERVICE COMPANY
DATE.          Mon Apr 25 09:33:09 2005: LOG DATE
UWI.           05 071 08191 00: UNIQUE WELL ID
~Curve Information Block
DEPT.FT            0 000 00 00: Depth
DCAL.in                       : CDL Caliper
RHOB.g/cc                     : CDL Bulk Density
RHOC.g/cc                     : CDL Density Correction
DPOR.pu                       : CDL Density Porosity
GR.GAPI                       : Gamma Ray
NPOR.pu                       : Neutron Porosity
~Parameter Information Block
~A  Depth       DCAL        RHOB        RHOC        DPOR         GR         NPOR    
# ...
   620.0000      8.0431      2.3812      0.0099     16.2915    101.0733     27.8527
   620.1000      8.0431      2.3704      0.0106     16.9455     99.7988     28.6423
   620.2000      8.0431      2.3559      0.0530     17.8227     99.1150     29.0893
   620.3000      8.0304      2.3325      0.0009     19.2448     97.9087     29.2312
   620.4000      8.0304      2.3042      0.0430     20.9566     96.6453     29.4262
   620.5000      8.0234      2.2729     -0.0102     22.8521     94.6910     29.7328
   620.6000      8.0234      2.2379      0.0438     24.9755     93.9655     29.9087
   620.7000      8.0234      2.1985      0.0365     27.3623     96.6219     29.8779
   620.8000      7.9989      2.1570      0.0523     29.8805    100.7856     29.7425
   620.9000      7.9989      2.1092      0.0564     32.7756    102.6237     29.3145
   621.0000      7.9852      2.0414      0.0729     36.8853    102.9986     28.8238
   621.1000      7.9852      1.9552      0.0027     42.1119    102.9227     28.5228
   621.2000      7.9852      1.8711      0.0006     47.2060    100.6465     28.3827
   621.3000      8.0069      1.8037      0.0412     51.2881     99.2245     28.6601
   621.4000      8.0069      1.7597      0.0490     53.9594    101.5938     29.7856
   621.5000      7.9541      1.7445      0.0262     54.8795    104.0414     31.6927
   621.6000      7.9541      1.7611     -0.0136     53.8706    102.7757     33.0868
   621.7000      7.9541      1.8080     -0.0219     51.0299     98.8160     33.1401
   621.8000      7.9771      1.8767      0.0596     46.8690     95.4614     32.8828
   621.9000      7.9771      1.9571      0.0714     41.9944     94.0097     33.3414
   622.0000      8.0304      2.0495      0.1061     36.3955     92.7573     33.9620
   622.1000      8.0304      2.1509      0.1707     30.2488     94.1022     33.6471
   622.2000      8.0304      2.2382      0.2073     24.9557    100.8490     32.6528
   622.3000      8.0628      2.2927      0.1256     21.6516    106.9943     32.0961
   622.4000      8.0628      2.3264      0.1009     19.6093    107.8064     32.1873
   622.5000      8.0712      2.3577      0.0924     17.7170    109.2685     32.4412
   622.6000      8.0712      2.3899      0.0637     15.7628    115.4976     32.4651
   622.7000      8.0712      2.4198      0.1043     13.9533    120.8326     32.7532
   622.8000      8.1191      2.4413      0.0931     12.6456    120.3639     33.5804
   622.9000      8.1191      2.4562      0.1252     11.7467    114.5619     33.2700
   623.0000      8.1298      2.4737      0.1352     10.6851    106.0579     30.9457
   623.1000      8.1298      2.5012      0.1366      9.0201    100.0553     28.2432
   623.2000      8.1298      2.5366      0.1563      6.8755    100.3643     26.5922
   623.3000      8.0513      2.5714      0.1374      4.7644    103.7627     26.2134
   623.4000      8.0513      2.5953      0.1883      3.3161    102.8605     26.7304
   623.5000      8.0326      2.5972      0.1644      3.1975     96.1724     27.2331
   623.6000      8.0326      2.5822      0.1333      4.1109     91.8613     27.3986
   623.7000      8.0326      2.5715      0.1261      4.7578     94.4895     27.7463
   623.8000      7.9481      2.5705      0.1169      4.8172     99.0480     28.1338
   623.9000      7.9481      2.5585      0.1255      5.5458    101.3585     27.7809
   624.0000      7.9579      2.5258      0.0782      7.5253    102.5781     27.0371
   624.1000      7.9579      2.4908      0.0183      9.6499    102.5830     26.8148
   624.2000      7.9579      2.4670      0.0221     11.0903     97.8002     26.9800
   624.3000      7.9456      2.4564     -0.0243     11.7333     91.3140     27.2403
   624.4000      7.9456      2.4662     -0.0056     11.1408     91.3987     27.5067
   624.5000      7.9536      2.4916      0.0639      9.5970     98.0887     27.2810
   624.6000      7.9536      2.5173      0.0466      8.0419    102.8276     26.1039
   624.7000      7.9536      2.5341      0.0671      7.0249    101.0031     24.5625
   624.8000      7.9485      2.5329      0.1059      7.0994     97.2879     23.9650
   624.9000      7.9485      2.5159      0.0630      8.1272     96.8688     24.6074
   625.0000      7.9319      2.4949      0.0510      9.3994     98.8242     25.7100
   625.1000      7.9319      2.4648      0.0451     11.2251    103.6010     26.4779
   625.2000      7.9319      2.4266      0.0211     13.5374    112.2875     26.6016
   625.3000      7.9342      2.4118     -0.0475     14.4384    119.6460     26.5323
   625.4000      7.9342      2.4333      0.0402     13.1341    121.7227     26.7903
   625.5000      7.9241      2.4614      0.0447     11.4333    120.0530     27.3717
   625.6000      7.9241      2.4738      0.0930     10.6775    117.3439     27.7523
   625.7000      7.9241      2.4834      0.0989     10.0949    114.4477     27.4336
   625.8000      7.9195      2.5104      0.1163      8.4620    110.7480     27.1375
   625.9000      7.9195      2.5464      0.1454      6.2811    105.9881     27.5965
   626.0000      7.9049      2.5640      0.1713      5.2099    100.5128     28.1558
   626.1000      7.9049      2.5569      0.1105      5.6429     94.1738     27.7927
   626.2000      7.9049      2.5448      0.1360      6.3780     91.2776     26.9207
   626.3000      7.8914      2.5389      0.1197      6.7349     96.1026     26.9567
   626.4000      7.8914      2.5307      0.1219      7.2319    103.9566     27.8308
   626.5000      7.9006      2.5141      0.0911      8.2359    109.1436     28.5171
   626.6000      7.9006      2.5018      0.0861      8.9848    110.4820     28.6135
   626.7000      7.9006      2.5134      0.0498      8.2786    110.0467     28.0209
   626.8000      7.9386      2.5449      0.0891      6.3724    109.7014     26.9771
   626.9000      7.9386      2.5574      0.0987      5.6126    110.5965     26.5920
   627.0000      7.9554      2.5365      0.0552      6.8761    112.4253     27.5633
   627.1000      7.9554      2.5202      0.0045      7.8655    112.1881     28.4680
   627.2000      7.9554      2.5385      0.0490      6.7567    110.6045     28.1600
   627.3000      7.9595      2.5739      0.0885      4.6110    110.4771     27.7672
   627.4000      7.9595      2.5920      0.0881      3.5160    111.1949     27.7291
   627.5000      7.9390      2.5841      0.0747      3.9949    112.9871     27.1667
   627.6000      7.9390      2.5638      0.0935      5.2245    114.9817     26.4503
   627.7000      7.9390      2.5403      0.0676      6.6464    113.6260     26.5621
   627.8000      7.9194      2.5219      0.0203      7.7667    110.3279     27.3380
   627.9000      7.9194      2.5157      0.0477      8.1393    107.9416     28.0709
   628.0000      7.9273      2.5137      0.0674      8.2605    105.7328     28.4471
   628.1000      7.9273      2.5006      0.0948      9.0523    105.0942     28.4741
   628.2000      7.9273      2.4708      0.0281     10.8614    107.7795     28.3062
   628.3000      7.9375      2.4322     -0.0170     13.2016    110.4613     27.9875
   628.4000      7.9375      2.4032     -0.0321     14.9590    109.7623     27.8795
   628.5000      7.9490      2.3999     -0.0717     15.1549    107.3760     28.0174
   628.6000      7.9490      2.4176      0.0294     14.0868    107.2325     27.8785
   628.7000      7.9490      2.4345      0.0137     13.0580    109.9872     27.6830
   628.8000      7.9543      2.4403      0.0260     12.7076    112.7006     27.6269
   628.9000      7.9543      2.4366      0.0627     12.9359    113.1081     27.5929
   629.0000      7.9733      2.4267      0.0288     13.5334    110.9782     27.7129
   629.1000      7.9733      2.4121      0.0401     14.4155    107.1772     27.5602
   629.2000      7.9733      2.3934      0.0543     15.5522    104.0294     26.8591
   629.3000      7.9752      2.3846      0.0013     16.0864    102.3051     26.1803
   629.4000      7.9752      2.4022      0.0406     15.0184     99.6843     25.9735
   629.5000      7.9496      2.4359      0.0507     12.9769     95.5729     26.4788
