~Version Information
VERS.                      2.0: CWLS Log ASCII Standard - VERSION 2.0
WRAP.                       NO: One line per depth step
~Well Information Block
STRT.FT               425.0000: 
STOP.FT              2461.0000: 
STEP.FT                 0.2500: 
NULL.                -999.2500: 
COMP.          Evergreen Operating Corporation: COMPANY
WELL.              Nomad 32-10: WELL
FLD.           Purgatorie River: FIELD
LOC.           2281' FNL & 1585' FEL: LOCATION
PROV.                 Colorado: PROVINCE
CNTY.               Las Animas: COUNTRY
SRVC.                Patterson: SERVICE COMPANY
DATE.          Thu Aug 12 02:01:07 2004: LOG DATE
UWI.           05 071 08127 00: UNIQUE WELL ID
~Curve Information Block
DEPT.FT            0 000 00 00: Depth
SN.Ohm-m                      : IEL Short Normal
SP.mV                         : IEL Spontaneous Potential
DIR.Ohm-m                     : IEL Induction Resistivity
GR.GAPI                       : Gamma Ray
~Parameter Information Block
~A  Depth        SN          SP         DIR          GR     
# ...
  1229.0000     40.9406     33.3189     41.1379     61.9009
  1229.2500     40.6861     33.3446     41.9630     62.4687
  1229.5000     40.3525     33.3568     42.2820     62.5033
  1229.7500     40.0238     33.3837     42.2808     62.1254
  1230.0000     39.7101     33.4382     42.1740     61.7041
  1230.2500     39.3735     33.5071     42.1334     62.1257
  1230.5000     39.0183     33.5574     42.2317     64.3175
  1230.7500     38.7083     33.5576     42.4433     66.4070
  1231.0000     38.4839     33.4942     42.6946     68.9794
  1231.2500     38.3187     33.3760     42.9220     69.6208
  1231.5000     38.1905     33.2328     43.0972     68.6903
  1231.7500     38.1378     33.1148     43.2072     67.0546
  1232.0000     38.1928     33.0761     43.2238     64.0189
  1232.2500     38.3305     33.1408     43.1032     62.4040
  1232.5000     38.5102     33.2835     42.8208     61.6454
  1232.7500     38.6891     33.4453     42.4088     62.1666
  1233.0000     38.8109     33.5691     41.9503     63.3606
  1233.2500     38.8570     33.6209     41.5320     63.9053
  1233.5000     38.9092     33.5931     41.1975     64.4959
  1233.7500     39.0738     33.5002     40.9427     65.1557
  1234.0000     39.3456     33.3739     40.7541     66.7813
  1234.2500     39.6190     33.2533     40.6438     67.9441
  1234.5000     39.7874     33.1717     40.6434     68.9317
  1234.7500     39.8201     33.1482     40.7536     68.8022
  1235.0000     39.7614     33.1866     40.8969     67.4841
  1235.2500     39.6539     33.2776     40.9129     66.0593
  1235.5000     39.5125     33.3991     40.6091     63.6344
  1235.7500     39.3464     33.5221     39.8443     62.2471
  1236.0000     39.1353     33.6248     38.5986     61.1091
  1236.2500     38.8188     33.7038     36.9801     61.0579
  1236.5000     38.3047     33.7716     35.1619     61.8144
  1236.7500     37.4815     33.8417     33.3058     62.7459
  1237.0000     36.2851     33.9163     31.5271     64.8126
  1237.2500     34.7662     33.9866     29.9030     66.7870
  1237.5000     33.0880     34.0433     28.4919     71.0063
  1237.7500     31.4544     34.0838     27.3322     74.8425
  1238.0000     30.0161     34.1099     26.4291     82.2412
  1238.2500     28.8155     34.1204     25.7466     88.0984
  1238.5000     27.7908     34.1075     25.2164     97.4320
  1238.7500     26.8509     34.0602     24.7669    103.3394
  1239.0000     25.9789     33.9743     24.3556    110.8379
  1239.2500     25.2446     33.8612     23.9850    114.8483
  1239.5000     24.7238     33.7449     23.6920    119.9127
  1239.7500     24.4479     33.6478     23.5286    122.8959
  1240.0000     24.4320     33.5797     23.5524    126.1108
  1240.2500     24.7342     33.5367     23.8246    126.4038
  1240.5000     25.4905     33.5108     24.3986    122.4598
  1240.7500     26.9120     33.5000     25.2934    116.5599
  1241.0000     29.2467     33.5122     26.4726    103.1639
  1241.2500     32.7208     33.5607     27.8529     91.8983
  1241.5000     37.4945     33.6554     29.3462     73.8308
  1241.7500     43.5474     33.7963     30.9056     62.9313
  1242.0000     50.3666     33.9762     32.5340     51.3026
  1242.2500     56.7433     34.1900     34.2482     47.5511
  1242.5000     61.2599     34.4390     36.0222     47.6909
  1242.7500     63.2129     34.7243     37.7417     50.9110
  1243.0000     62.8983     35.0357     39.1996     58.7955
  1243.2500     61.0390     35.3516     40.1477     64.9513
  1243.5000     58.2152     35.6487     40.3802     73.6058
  1243.7500     54.7331     35.9134     39.8058     78.2346
  1244.0000     50.6939     36.1477     38.4704     83.1067
  1244.2500     46.1512     36.3642     36.5437     85.2080
  1244.5000     41.3578     36.5743     34.2753     87.6059
  1244.7500     36.8663     36.7782     31.9225     89.5114
  1245.0000     33.2667     36.9672     29.6815     94.1325
  1245.2500     30.7705     37.1347     27.6560     98.6682
  1245.5000     29.0932     37.2883     25.8693    106.7229
  1245.7500     27.7426     37.4489     24.2970    111.7405
  1246.0000     26.3890     37.6325     22.8989    116.9724
  1246.2500     24.9918     37.8325     21.6362    118.7413
  1246.5000     23.6270     38.0225     20.4768    119.7501
  1246.7500     22.2848     38.1777     19.3956    119.9593
  1247.0000     20.9428     38.2892     18.3803    120.1473
  1247.2500     19.7023     38.3658     17.4366    120.3737
  1247.5000     18.6738     38.4260     16.5860    121.2930
  1247.7500     17.8420     38.4886     15.8499    122.5842
  1248.0000     17.1288     38.5655     15.2330    125.6782
  1248.2500     16.4934     38.6633     14.7241    128.1253
  1248.5000     15.9406     38.7835     14.3128    130.9885
  1248.7500     15.4836     38.9188     14.0084    131.5915
  1249.0000     15.1265     39.0491     13.8414    130.2804
  1249.2500     14.8772     39.1493     13.8435    128.5082
  1249.5000     14.7600     39.2037     14.0236    126.0196
  1249.7500     14.8005     39.2165     14.3548    125.0200
  1250.0000     14.9961     39.2121     14.7834    124.1072
  1250.2500     15.3119     39.2227     15.2533    123.0900
  1250.5000     15.7233     39.2714     15.7292    119.8110
  1250.7500     16.2591     39.3612     16.1999    116.3138
  1251.0000     16.9753     39.4778     16.6616    109.5579
  1251.2500     17.9048     39.6034     17.1002    104.5372
  1251.5000     19.0613     39.7260     17.4875     97.6085
  1251.7500     20.3913     39.8397     17.7921     94.4223
  1252.0000     21.6811     39.9387     17.9928     92.7915
  1252.2500     22.6160     40.0154     18.0813     93.3524
  1252.5000     22.9514     40.0644     18.0538     94.7820
  1252.7500     22.6039     40.0895     17.9023     95.4082
  1253.0000     21.6710     40.1055     17.6174     96.2870
  1253.2500     20.4075     40.1319     17.1987     97.7386
  1253.5000     19.0938     40.1795     16.6629    102.6416
  1253.7500     17.8796     40.2428     16.0405    107.8951
  1254.0000     16.7682     40.3050     15.3671    117.4579
  1254.2500     15.7107     40.3522     14.6773    123.5946
  1254.5000     14.6895     40.3794     14.0023    130.4113
  1254.7500     13.7429     40.3856     13.3681    132.9541
  1255.0000     12.9321     40.3649     12.7908    134.5124
  1255.2500     12.2840     40.3099     12.2734    135.0167
  1255.5000     11.7631     40.2249     11.8084    136.7952
  1255.7500     11.3219     40.1305     11.3859    139.3306
  1256.0000     10.9518     40.0519     11.0014    144.7225
  1256.2500     10.6580     40.0030     10.6585    148.1732
  1256.5000     10.4339     39.9831     10.3640    150.7369
  1256.7500     10.2684     39.9809     10.1217    150.0836
  1257.0000     10.1408     39.9779      9.9307    146.6768
  1257.2500     10.0215     39.9494      9.7858    144.2455
  1257.5000      9.8947     39.8673      9.6810    142.4259
  1257.7500      9.7676     39.7115      9.6107    142.7982
  1258.0000      9.6606     39.4930      9.5694    145.1656
  1258.2500      9.5967     39.2721      9.5514    147.3039
  1258.5000      9.5927     39.1457      9.5486    150.2383
  1258.7500      9.6596     39.2002      9.5493    151.5101
  1259.0000      9.8112     39.4586      9.5417    151.7843
  1259.2500     10.0682     39.8575      9.5204    150.6736
  1259.5000     10.4479     40.2682      9.4933    147.2812
  1259.7500     10.9085     40.5544      9.4792    144.3146
  1260.0000     11.3258     40.6403      9.4989    139.5545
  1260.2500     11.5950     40.5457      9.5666    136.5224
  1260.5000     11.7192     40.3633      9.6882    133.0421
  1260.7500     11.7674     40.1903      9.8653    132.0110
  1261.0000     11.8032     40.0751     10.0993    132.6862
  1261.2500     11.8597     40.0196     10.3925    134.1559
  1261.5000     11.9505     40.0154     10.7454    136.5299
  1261.7500     12.1024     40.0521     11.1531    137.6238
  1262.0000     12.3646     40.0970     11.6049    138.4072
  1262.2500     12.7758     40.0911     12.0854    138.5800
