~Version Information
 VERS.                                  2.0 : CWLS LAS VERSION
 WRAP.                                   NO : WRAPING MODE
 SWARE .                 MController 2.5.0N : SOFTWARE VERSION
~Well Information
 WELL.                          Cluck 21-25 : WELL
 COMP.    PIONEER NATURAL RESOURCES USA INC : COMPANY
 FLD.                      PURGATOIRE RIVER : FIELD
 LOC.                  NE/NW Sec 25 32S 67W : LOCATION
 DATE.                           6/5-6/2005 : DATE(S) LOGGED
 SRVC.       BLANCO GEOLOGICAL SERVICES LLC : SERVICE COMPANY
 STAT.                                   CO : STATE
 CNTY.                           LAS ANIMAS : COUNTY
 CTRY.                                  USA : COUNTRY
 API.                       05-071-08397-00 : API NUMBER
 STRT.FT                             296.00 : START DEPTH
 STOP.FT                            2730.00 : STOP DEPTH
 STEP.FT                               1.00 : DEPTH INCREMENT
 NULL.                                -9999 : NULL VALUE
~Curve information
 DEPTH.FT                                   :
 ROP.MIN/FT                                 :
 GAS.UNITS                                  :
~ASCII Log data
# ...
      2496.0         0.37         13.1 
      2497.0         0.87         16.2 
      2498.0         0.83         20.7 
      2499.0         0.75         46.1 
      2500.0         0.47         31.8 
      2501.0         0.63         22.8 
      2502.0         0.57         24.3 
      2503.0         0.90         39.8 
      2504.0         0.78         40.5 
      2505.0         0.60         28.7 
      2506.0         0.73         29.1 
      2507.0         0.67         23.3 
      2508.0         0.63         12.2 
      2509.0         0.72          9.3 
      2510.0         0.70         10.5 
      2511.0         0.70          8.8 
      2512.0         0.77         18.1 
      2513.0         0.53         23.8 
      2514.0         0.23         24.2 
      2515.0         0.82         25.3 
      2516.0         0.80         22.5 
      2517.0         0.73         23.1 
      2518.0         1.00         21.6 
      2519.0         0.35         22.0 
      2520.0         3.75         25.4 
      2521.0         4.52         30.0 
      2522.0         1.40         33.9 
      2523.0         1.82         44.9 
      2524.0         0.63         49.2 
      2525.0         1.15         68.0 
      2526.0         0.90         81.4 
      2527.0         1.17        102.3 
      2528.0         0.60        125.5 
      2529.0         0.58        124.9 
      2530.0         0.53        112.9 
      2531.0         0.63         73.4 
      2532.0         0.60         49.3 
      2533.0         0.57         42.0 
      2534.0         0.37         47.7 
      2535.0         0.40         48.8 
      2536.0         0.55         23.5 
      2537.0         0.53         10.5 
      2538.0         0.67          8.7 
      2539.0         0.53          8.4 
      2540.0         0.65         11.2 
      2541.0         0.40         12.3 
      2542.0         0.23         13.6 
      2543.0         0.27         15.7 
      2544.0         0.23         17.1 
      2545.0         0.33         23.7 
      2546.0         0.30         28.4 
      2547.0         0.20         24.9 
      2548.0         0.40         22.5 
      2549.0         0.63         22.7 
      2550.0         0.55         32.5 
      2551.0         8.37         58.4 
      2552.0         0.40         51.9 
      2553.0         0.40         56.9 
      2554.0         0.45         62.9 
      2555.0         0.50         78.1 
      2556.0         0.53         66.7 
      2557.0         0.57         29.2 
      2558.0         0.80         33.2 
      2559.0         0.82         33.9 
      2560.0         0.83         21.1 
      2561.0         0.33         19.5 
      2562.0         0.53         18.1 
      2563.0         0.50         16.0 
      2564.0         0.33         16.5 
      2565.0         0.47         19.5 
      2566.0         0.72         39.5 
      2567.0         0.67         44.5 
      2568.0         1.03         14.2 
      2569.0         1.13          8.7 
      2570.0         0.45          9.0 
      2571.0         0.50          8.1 
      2572.0         0.73         12.0 
      2573.0         0.97         17.8 
      2574.0         0.88         18.5 
      2575.0         0.73         20.6 
      2576.0         0.77         23.5 
      2577.0         0.87         26.8 
      2578.0         0.53         27.4 
      2579.0         0.38         27.7 
      2580.0         0.33         26.4 
      2581.0         5.38         48.5 
      2582.0         8.95         33.9 
      2583.0         1.03         38.9 
      2584.0         0.55         43.0 
      2585.0         0.97         57.0 
      2586.0         0.90         77.6 
      2587.0         0.50         84.2 
      2588.0         0.47         84.5 
      2589.0         0.52         84.9 
      2590.0         0.40         84.8 
      2591.0         0.37         82.3 
      2592.0         0.43         81.2 
      2593.0         0.67         81.7 
      2594.0         0.40         85.1 
      2595.0         0.78         92.9 
      2596.0         0.90        123.0 
      2597.0         0.97         98.1 
      2598.0         1.10         46.2 
      2599.0         1.05         20.8 
      2600.0         0.83         20.9 
      2601.0         0.70         15.4 
      2602.0         0.63         10.5 
      2603.0         0.75         14.4 
      2604.0         0.73         14.8 
      2605.0         0.80         14.4 
      2606.0         0.85         19.9 
      2607.0         0.77         21.1 
      2608.0         0.70         22.0 
      2609.0         0.63         21.1 
      2610.0         0.43         22.9 
      2611.0         7.62         46.5 
      2612.0         1.50         88.3 
      2613.0         0.90        109.9 
      2614.0         0.85        116.0 
      2615.0         0.80        112.3 
      2616.0         0.80        106.4 
      2617.0         0.93         98.7 
      2618.0         1.05        101.0 
      2619.0         1.30         82.2 
      2620.0         1.27         95.9 
      2621.0         0.98         29.5 
      2622.0         1.03         10.8 
      2623.0         0.87         10.5 
      2624.0         0.75         12.0 
      2625.0         0.70         13.4 
      2626.0         0.73         16.7 
      2627.0         0.77         19.8 
      2628.0         0.67         20.3 
      2629.0         0.55         21.0 
      2630.0         0.60         23.5 
      2631.0         0.60         25.0 
      2632.0         0.57         25.2 
      2633.0         0.65         27.0 
      2634.0         0.67         26.1 
      2635.0         0.67         26.2 
      2636.0         0.70         32.4 
      2637.0         0.62         34.8 
      2638.0         0.53         37.5 
      2639.0         0.80         48.3 
      2640.0         2.12         41.2 
      2641.0         6.17         36.7 
      2642.0         8.33         67.9 
      2643.0         0.53         32.5 
      2644.0         0.63         22.2 
      2645.0         0.65         16.9 
      2646.0         0.50         13.8 
      2647.0         0.57         15.1 
      2648.0         0.57         25.3 
      2649.0         0.60         26.2 
      2650.0         0.30         24.8 
      2651.0         0.68         24.2 
      2652.0         0.83         20.4 
      2653.0         0.70         18.0 
      2654.0         0.70         16.4 
      2655.0         0.70         12.5 
      2656.0         0.75         11.7 
      2657.0         0.83         12.2 
      2658.0         0.70         12.3 
      2659.0         0.67         15.4 
      2660.0         0.75         18.2 
      2661.0         0.63         20.4 
      2662.0         0.63         21.8 
      2663.0         0.60         23.4 
      2664.0         0.60         24.9 
      2665.0         0.63         25.9 
      2666.0         0.58         27.2 
      2667.0         0.60         27.6 
      2668.0         0.53         28.4 
      2669.0         0.53         30.3 
      2670.0         0.53         29.0 
      2671.0         4.83         37.5 
      2672.0         5.25        124.9 
      2673.0         0.60        148.0 
      2674.0         0.58        125.3 
      2675.0         0.53         71.9 
      2676.0         0.50         38.3 
      2677.0         0.53         29.7 
      2678.0         0.53         27.7 
      2679.0         0.53         27.7 
      2680.0         0.55         31.9 
      2681.0         0.53         32.4 
      2682.0         0.53         22.8 
      2683.0         0.57         20.2 
      2684.0         0.58         19.1 
      2685.0         0.60         17.7 
      2686.0         0.53         14.9 
      2687.0         0.57         13.6 
      2688.0         0.57         15.0 
      2689.0         0.53         17.6 
      2690.0         0.58         19.1 
      2691.0         0.73         22.6 
      2692.0         1.10         23.3 
      2693.0         1.20         23.3 
      2694.0         0.92         23.0 
      2695.0         0.60         22.3 
