~Version Information
VERS.                      2.0: CWLS Log ASCII Standard - VERSION 2.0
WRAP.                       NO: One line per depth step
~Well Information Block
STRT.FT                -9.5000: 
STOP.FT              2893.0000: 
STEP.FT                 0.2500: 
NULL.                -999.2500: 
COMP.          Pioneer Natural Resources: COMPANY
WELL.          Old Yeller 31-32: WELL
FLD.           Purgatoire River: FIELD
LOC.           1832' FEL & 793' FNL----: LOCATION
STAT.                 Colorado: State
CNTY.               Las Animas: COUNTY
CTRY. USA : Country
SECT. 32 : Section
TOWN. 32S : Township
RANG. 67W : Range
SRVC.                         : SERVICE COMPANY
DATE.          Fri Sep 02 16:45:38 2005: LOG DATE
API. 05-071-08356                         : UNIQUE WELL ID
~Curve Information Block
DEPT.FT            0 000 00 00: Depth
CCL.                          : Casing Collar Locator
TT3.usec                      : CBL 3' Travel Time
AMP5.mV                       : CBL 5' Amplitude
GR.GAPI                       : Gamma Ray
~Parameter Information Block
~A  Depth       CCL         TT3         AMP5         GR     
# ...
   560.0000      0.0000    261.1687    106.4968    108.7499
   560.2500      0.0000    261.1620    107.0190    108.4970
   560.5000      0.0000    261.1504    106.9320    106.9360
   560.7500      0.0000    261.1370    107.1061    104.0301
   561.0000      0.0000    261.1253    107.1061    100.8925
   561.2500      0.0000    261.1174    106.8449     99.6367
   561.5000      0.0000    261.1138    106.4097    101.4892
   561.7500      0.0000    261.1150    106.4968    105.2721
   562.0000      0.0000    261.1223    106.2356    108.4090
   562.2500      0.0000    261.1386    106.9320    109.2127
   562.5000      0.0000    261.1759    106.4968    107.8417
   562.7500      0.0000    261.2703     99.5330    105.5025
   563.0000      0.0000    261.4977     86.3020    103.3621
   563.2500      0.0000    261.9627     64.7144    102.1453
   563.5000      0.0000    262.7417     37.4689    102.2210
   563.7500      0.0000    263.8051     47.9144    103.5078
   564.0000      0.0000    264.9947     47.2181    105.0187
   564.2500      0.0000    266.0949     47.7404    104.8609
   564.5000      0.0000    266.9427     47.5663    101.4155
   564.7500      0.0000    267.4882     47.3051     94.9268
   565.0000      0.0000    267.7777     47.6533     87.8858
   565.2500     -2.0000    267.8986     47.9144     83.5071
   565.5000      2.0000    267.9269     48.0015     83.4185
   565.7500      0.0000    267.9014     48.6979     86.6123
   566.0000      0.0000    267.8123     48.3497     90.6243
   566.2500      0.0000    267.5952     48.6108     93.7561
   566.5000      0.0000    267.1410     48.3497     96.1296
   566.7500      0.0000    266.3520     48.6108     98.7213
   567.0000      0.0000    265.2342     48.6108    101.9563
   567.2500      0.0000    263.9488     48.3497    105.5006
   567.5000      0.0000    262.7526     52.2668    108.9373
   567.7500      0.0000    261.8554     38.6005    112.1876
   568.0000      0.0000    261.3175     94.5714    115.4413
   568.2500      0.0000    261.0630     93.5268    118.8923
   568.5000      0.0000    260.9708    108.4118    122.3615
   568.7500      0.0000    260.9471    107.1061    125.0707
   569.0000      0.0000    260.9437    107.7154    125.9042
   569.2500      0.0000    260.9435    108.7600    124.0435
   569.5000      0.0000    260.9434    108.2377    119.6752
   569.7500      0.0000    260.9441    108.6729    114.1905
   570.0000      0.0000    260.9458    108.5859    109.3947
   570.2500      0.0000    260.9480    107.7154    106.3664
   570.5000      0.0000    260.9500    107.8895    105.1109
   570.7500      0.0000    260.9518    108.3247    105.0123
   571.0000      0.0000    260.9543    108.3247    105.3944
   571.2500      0.0000    260.9591    108.0636    105.8126
   571.5000      0.0000    260.9680    108.4118    106.1098
   571.7500      0.0000    260.9814    108.9341    106.2745
   572.0000      0.0000    260.9973    108.5859    106.3788
   572.2500      0.0000    261.0121    107.8025    106.5322
   572.5000      0.0000    261.0233    108.7600    106.5579
   572.7500      0.0000    261.0303    108.3247    105.8966
   573.0000      0.0000    261.0331    108.6729    104.1808
   573.2500      0.0000    261.0316    108.7600    101.5180
   573.5000      0.0000    261.0267    108.4988     97.7887
   573.7500      0.0000    261.0202    108.0636     92.2324
   574.0000      0.0000    261.0137    108.3247     84.5555
   574.2500      0.0000    261.0078    107.5413     76.2951
   574.5000      0.0000    261.0031    107.5413     70.1501
   574.7500      0.0000    260.9998    107.6284     67.4628
   575.0000      0.0000    260.9973    107.5413     66.7872
   575.2500      0.0000    260.9949    107.1931     65.3344
   575.5000      0.0000    260.9932    107.5413     61.6068
   575.7500      0.0000    260.9939    107.7154     56.4363
   576.0000      0.0000    260.9985    107.0190     51.9099
   576.2500      0.0000    261.0060    107.1931     49.7407
   576.5000      0.0000    261.0136    107.7154     50.5669
   576.7500      0.0000    261.0183    107.4543     54.2067
   577.0000      0.0000    261.0186    108.0636     59.9979
   577.2500      0.0000    261.0153    107.8025     66.9175
   577.5000      0.0000    261.0104    107.8895     73.9953
   577.7500      0.0000    261.0053    108.4988     80.9306
   578.0000      0.0000    261.0004    108.1506     88.0092
   578.2500      0.0000    260.9955    107.5413     95.1282
   578.5000      0.0000    260.9904    107.4543    101.1602
   578.7500      0.0000    260.9847    107.8895    104.7966
   579.0000      0.0000    260.9780    107.4543    105.9725
   579.2500      0.0000    260.9693    106.8449    105.8795
   579.5000      0.0000    260.9587    107.8025    105.4919
   579.7500      0.0000    260.9480    107.5413    104.7067
   580.0000      0.0000    260.9412    107.3672    103.2179
   580.2500      0.0000    260.9414    107.1931    101.7502
   580.5000      0.0000    260.9486    107.9766    101.8956
   580.7500      0.0000    260.9593    107.6284    104.6412
   581.0000      0.0000    260.9698    107.8895    109.2690
   581.2500      0.0000    260.9790    108.3247    113.7767
   581.5000      0.0000    260.9869    107.8025    116.2167
   581.7500      0.0000    260.9922    108.4988    115.7329
   582.0000      0.0000    260.9924    107.8025    112.8562
   582.2500      0.0000    260.9865    107.3672    109.0267
   582.5000      0.0000    260.9762    107.9766    105.5454
   582.7500      0.0000    260.9642    107.8025    102.8387
   583.0000      0.0000    260.9530    106.9320    100.7373
   583.2500      0.0000    260.9442    107.1931     99.1968
   583.5000      0.0000    260.9397    107.1931     98.5538
   583.7500      0.0000    260.9408    107.1931     99.1373
   584.0000      0.0000    260.9482    106.9320    100.5575
   584.2500      0.0000    260.9612    107.5413    101.4161
   584.5000      0.0000    260.9773    107.9766    100.0435
   584.7500      0.0000    260.9927    107.8025     95.7274
   585.0000      0.0000    261.0031    107.9766     89.1287
   585.2500      0.0000    261.0051    108.4118     81.5512
   585.5000      0.0000    260.9993    108.2377     74.0238
   585.7500      0.0000    260.9893    108.3247     66.9983
   586.0000      0.0000    260.9788    107.7154     60.6042
   586.2500      0.0000    260.9698    107.2802     54.9987
   586.5000      0.0000    260.9624    108.0636     50.3980
   586.7500      0.0000    260.9572    107.6284     46.8242
   587.0000      0.0000    260.9549    106.5838     44.0174
   587.2500      0.0000    260.9566    107.6284     41.6956
   587.5000      0.0000    260.9621    107.7154     39.8334
   587.7500      0.0000    260.9707    107.4543     38.6119
   588.0000      0.0000    260.9819    107.2802     38.1323
   588.2500      0.0000    260.9954    108.3247     38.3298
   588.5000      0.0000    261.0103    108.2377     39.2044
   588.7500      0.0000    261.0248    108.0636     40.8992
   589.0000      0.0000    261.0365    108.2377     43.3361
   589.2500      0.0000    261.0429    108.3247     45.9586
   589.5000      0.0000    261.0427    107.8025     48.0914
   589.7500      0.0000    261.0372    107.9766     49.5131
   590.0000      0.0000    261.0306    107.8895     50.5527
   590.2500      0.0000    261.0282    107.8895     51.6286
   590.5000      0.0000    261.0328    108.4988     52.7405
   590.7500      0.0000    261.0429    108.1506     53.4495
   591.0000      0.0000    261.0547    107.1931     53.2211
   591.2500      0.0000    261.0648    108.1506     51.6842
   591.5000      0.0000    261.0712    107.1931     48.8163
   591.7500      0.0000    261.0736    108.0636     45.1997
   592.0000      0.0000    261.0735    108.0636     42.0498
   592.2500      0.0000    261.0731    107.9766     40.7304
   592.5000      0.0000    261.0739    107.7154     41.9852
   592.7500      0.0000    261.0766    108.0636     45.3374
   593.0000      0.0000    261.0813    107.9766     49.1170
   593.2500      0.0000    261.0880    108.5859     51.4316
