~Version Information
 VERS.                                  2.0 : CWLS LAS VERSION
 WRAP.                                   NO : WRAPING MODE
 SWARE .                 MController 2.5.0H : SOFTWARE VERSION
~Well Information
 WELL.                Scott Canyon 11-18 TR : WELL
 COMP.    Pioneer Natural Resources USA Inc : COMPANY
 FLD.                      Purgatoire River : FIELD
 LOC.                NW/NW Sec 18 T32S R65W : LOCATION
 DATE.                              2/16/05 : DATE(S) LOGGED
 SRVC.       Blanco Geological Services LLC : SERVICE COMPANY
 STAT.                                   CO : STATE
 CNTY.                           Las Animas : COUNTY
 CTRY.                                  USA : COUNTRY
 API.                       05-071-08286-00 : API NUMBER
 STRT.FT                             569.00 : START DEPTH
 STOP.FT                            1700.00 : STOP DEPTH
 STEP.FT                               1.00 : DEPTH INCREMENT
 NULL.                                -9999 : NULL VALUE
~Curve information
 DEPTH.FT                                   :
 ROP.MIN/FT                                 :
 GAS.UNITS                                  :
~ASCII Log data
# ...
      969.00        0.200         56.3 
      970.00        3.450         50.5 
      971.00        0.300         32.4 
      972.00        0.300         32.7 
      973.00        0.333         32.6 
      974.00        0.133         32.5 
      975.00        0.183         31.8 
      976.00        0.300         31.0 
      977.00        0.267         29.9 
      978.00        0.200         30.3 
      979.00        0.233         30.7 
      980.00        0.233         29.8 
      981.00        0.233         28.6 
      982.00        0.233         26.0 
      983.00        0.233         25.1 
      984.00        0.300         23.2 
      985.00        0.333         21.5 
      986.00        2.283         60.9 
      987.00        0.333         63.1 
      988.00        0.300         64.6 
      989.00        0.300         64.9 
      990.00        0.233         61.8 
      991.00        0.267         56.8 
      992.00        0.300         51.7 
      993.00        0.283         46.8 
      994.00        0.200         42.4 
      995.00        0.200         39.6 
      996.00        0.133         37.2 
      997.00        0.133         35.5 
      998.00        0.133         35.1 
      999.00        0.233         33.7 
     1000.00        0.233         32.0 
     1001.00        0.233         30.6 
     1002.00        0.233         29.5 
     1003.00        0.267         27.9 
     1004.00        0.300         26.9 
     1005.00        0.233         26.0 
     1006.00        0.233         25.2 
     1007.00        0.233         25.2 
     1008.00        0.217         26.5 
     1009.00        0.267         26.9 
     1010.00        0.233         26.8 
     1011.00        0.267         25.6 
     1012.00        0.267         23.7 
     1013.00        0.267         22.0 
     1014.00        0.233         19.9 
     1015.00        0.267         19.4 
     1016.00        2.283         59.2 
     1017.00        0.300         63.4 
     1018.00        0.267         63.4 
     1019.00        0.300         61.6 
     1020.00        0.267         57.5 
     1021.00        0.300         53.3 
     1022.00        0.267         48.4 
     1023.00        0.200         44.4 
     1024.00        0.133         41.6 
     1025.00        0.167         39.9 
     1026.00        0.200         38.2 
     1027.00        0.283         35.8 
     1028.00        0.200         32.9 
     1029.00        0.200         31.6 
     1030.00        0.233         29.8 
     1031.00        0.200         29.2 
     1032.00        0.200         27.9 
     1033.00        0.233         27.0 
     1034.00        0.167         26.2 
     1035.00        0.233         26.8 
     1036.00        0.233         27.6 
     1037.00        0.233         27.5 
     1038.00        0.233         27.0 
     1039.00        0.200         25.3 
     1040.00        0.267         24.1 
     1041.00        0.233         21.6 
     1042.00        0.250         19.5 
     1043.00        0.167         18.6 
     1044.00        0.167         16.6 
     1045.00        0.133         16.7 
     1046.00        1.800         54.2 
     1047.00        0.400         62.6 
     1048.00        0.267         63.9 
     1049.00        0.283         63.7 
     1050.00        0.267         61.1 
     1051.00        0.200         57.4 
     1052.00        0.300         53.9 
     1053.00        0.433         49.3 
     1054.00        0.467         43.1 
     1055.00        0.500         39.3 
     1056.00        0.633         34.6 
     1057.00        0.333         30.2 
     1058.00        0.167         28.6 
     1059.00        0.183         27.7 
     1060.00        0.167         26.9 
     1061.00        0.133         26.0 
     1062.00        0.233         25.3 
     1063.00        0.167         24.3 
     1064.00        0.200         23.9 
     1065.00        0.133         22.6 
     1066.00        0.133         22.3 
     1067.00        0.133         21.4 
     1068.00        0.133         21.1 
     1069.00        0.133         20.7 
     1070.00        0.133         20.4 
     1071.00        0.133         19.9 
     1072.00        0.100         19.5 
     1073.00        0.133         18.9 
     1074.00        0.133         18.4 
     1075.00        0.267         18.2 
     1076.00        1.683         39.5 
     1077.00        0.200         49.1 
     1078.00        0.233         60.1 
     1079.00        0.400         72.9 
     1080.00        0.300         77.1 
     1081.00        0.267         77.3 
     1082.00        0.200         76.1 
     1083.00        0.233         73.3 
     1084.00        0.167         68.0 
     1085.00        0.233         63.9 
     1086.00        0.217         58.3 
     1087.00        0.200         53.1 
     1088.00        0.200         49.1 
     1089.00        0.167         45.9 
     1090.00        0.200         44.0 
     1091.00        0.233         42.3 
     1092.00        0.533         40.4 
     1093.00        0.433         35.7 
     1094.00        0.333         32.3 
     1095.00        0.200         28.5 
     1096.00        0.467         26.4 
     1097.00        0.250         22.9 
     1098.00        0.133         21.8 
     1099.00        0.100         20.0 
     1100.00        0.167         20.5 
     1101.00        0.167         19.5 
     1102.00        1.233         21.5 
     1103.00        0.367         32.0 
     1104.00        0.133         38.2 
     1105.00        0.233         50.3 
     1106.00        0.850         83.7 
     1107.00        0.367         84.2 
     1108.00        0.300         82.1 
     1109.00        0.267         76.8 
     1110.00        0.267         69.9 
     1111.00        0.300         63.4 
     1112.00        0.300         57.3 
     1113.00        0.267         50.8 
     1114.00        0.333         44.7 
     1115.00        0.300         38.6 
     1116.00        0.267         34.1 
     1117.00        0.200         31.5 
     1118.00        0.150         29.1 
     1119.00        0.333         28.4 
     1120.00        0.133         26.6 
     1121.00        0.200         26.4 
     1122.00        0.267         25.3 
     1123.00        0.233         24.3 
     1124.00        0.200         24.4 
     1125.00        0.200         24.7 
     1126.00        0.200         24.5 
     1127.00        0.233         24.2 
     1128.00        0.133         23.5 
     1129.00        0.133         23.1 
     1130.00        0.267         22.5 
     1131.00        0.200         21.4 
     1132.00        0.233         19.6 
     1133.00        0.200         18.1 
     1134.00        0.250         17.3 
     1135.00        0.233         16.6 
     1136.00        1.967         55.6 
     1137.00        0.533         65.0 
     1138.00        0.400         65.2 
     1139.00        0.317         61.7 
     1140.00        0.267         55.9 
     1141.00        0.300         50.7 
     1142.00        0.300         47.2 
     1143.00        0.233         43.9 
     1144.00        0.300         40.3 
     1145.00        0.333         37.2 
     1146.00        0.533         33.3 
     1147.00        0.333         27.7 
     1148.00        0.200         24.7 
     1149.00        0.200         22.3 
     1150.00        0.250         22.4 
     1151.00        0.233         20.3 
     1152.00        0.233         19.3 
     1153.00        0.200         19.3 
     1154.00        0.233         19.0 
     1155.00        0.200         18.9 
     1156.00        0.233         19.0 
     1157.00        0.200         19.4 
     1158.00        0.233         20.0 
     1159.00        0.200         19.7 
     1160.00        0.233         18.9 
     1161.00        0.200         19.3 
     1162.00        0.200         19.3 
     1163.00        0.233         19.1 
     1164.00        0.200         18.7 
     1165.00        0.250         18.2 
     1166.00        7.500         59.6 
     1167.00        0.333         64.6 
     1168.00        0.300         65.2 
