~Version Information
VERS.                      2.0: CWLS Log ASCII Standard - VERSION 2.0
WRAP.                       NO: One line per depth step
~Well Information Block
STRT.FT               510.0000: 
STOP.FT              1848.7500: 
STEP.FT                 0.2500: 
NULL.                -999.2500: 
COMP.          Pioneer Natural Resources: COMPANY
WELL.           Stampede 42-18: WELL
FLD.           Purgatoire River: FIELD
LOC.           2479' FNL & 160' FEL--: LOCATION
CNTY.               Las Animas: COUNTY
SRVC.          Superior Well Services: SERVICE COMPANY
DATE.          Sat Jun 09 02:07:27 2007: LOG DATE
UWI.           05 071 08237 00: UNIQUE WELL ID
STAT.                 Colorado: STATE
~Curve Information Block
DEPT.FT            0 000 00 00: Depth
SN.Ohm-m                      : IEL Short Normal
SP.mV                         : IEL Spontaneous Potential
DIR.Ohm-m                     : IEL Induction Resistivity
GR.GAPI                       : Gamma Ray
~Parameter Information Block
~A  Depth        SN          SP         DIR          GR     
# ...
   778.0000   2000.0000   2000.0000     14.9523    106.0307
   778.2500   2000.0000   2000.0000     14.8727    111.7524
   778.5000   2000.0000   2000.0000     14.8624    120.9711
   778.7500   2000.0000   2000.0000     14.9172    126.2070
   779.0000   2000.0000   2000.0000     15.0177    130.9203
   779.2500   2000.0000   2000.0000     15.1309    131.8145
   779.5000   2000.0000   2000.0000     15.2208    130.9204
   779.7500   2000.0000   2000.0000     15.2646    129.5719
   780.0000   2000.0000   2000.0000     15.2611    126.7893
   780.2500   2000.0000   2000.0000     15.2272    124.4104
   780.5000   2000.0000   2000.0000     15.1870    120.7059
   780.7500   2000.0000   2000.0000     15.1614    118.9697
   781.0000   2000.0000   2000.0000     15.1610    118.5813
   781.2500   2000.0000   2000.0000     15.1813    119.6827
   781.5000   2000.0000   2000.0000     15.2060    121.8659
   781.7500   2000.0000   2000.0000     15.2200    122.6397
   782.0000   2000.0000   2000.0000     15.2185    121.8866
   782.2500   2000.0000   2000.0000     15.2049    120.2981
   782.5000   2000.0000   2000.0000     15.1794    117.4630
   782.7500   2000.0000   2000.0000     15.1326    116.0851
   783.0000   2000.0000   2000.0000     15.0469    115.7109
   783.2500   2000.0000   2000.0000     14.9013    116.7080
   783.5000   2000.0000   2000.0000     14.6768    119.8707
   783.7500   2000.0000   2000.0000     14.3640    122.8571
   784.0000   2000.0000   2000.0000     13.9699    127.7588
   784.2500   2000.0000   2000.0000     13.5167    130.4304
   784.5000   2000.0000   2000.0000     13.0334    132.2931
   784.7500   2000.0000   2000.0000     12.5469    132.1330
   785.0000   2000.0000   2000.0000     12.0788    131.0311
   785.2500   2000.0000   2000.0000     11.6471    130.4362
   785.5000   2000.0000   2000.0000     11.2687    130.0172
   785.7500   2000.0000   2000.0000     10.9589    129.8696
   786.0000   2000.0000   2000.0000     10.7276    129.8703
   786.2500   2000.0000   2000.0000     10.5743    130.2690
   786.5000   2000.0000   2000.0000     10.4856    131.6423
   786.7500   2000.0000   2000.0000     10.4375    132.8809
   787.0000   2000.0000   2000.0000     10.4055    134.7298
   787.2500   2000.0000   2000.0000     10.3757    135.7231
   787.5000   2000.0000   2000.0000     10.3500    136.5491
   787.7500   2000.0000   2000.0000     10.3408    136.5778
   788.0000   2000.0000   2000.0000     10.3592    136.0229
   788.2500   2000.0000   2000.0000     10.4092    135.4652
   788.5000   2000.0000   2000.0000     10.4923    134.4104
   788.7500   2000.0000   2000.0000     10.6167    133.3345
   789.0000   2000.0000   2000.0000     10.7993    130.9111
   789.2500   2000.0000   2000.0000     11.0552    129.0339
   789.5000   2000.0000   2000.0000     11.3845    126.6209
   789.7500   2000.0000   2000.0000     11.7660    125.3745
   790.0000   2000.0000   2000.0000     12.1645    123.4275
   790.2500   2000.0000   2000.0000     12.5439    121.8336
   790.5000   2000.0000   2000.0000     12.8786    119.7208
   790.7500   2000.0000   2000.0000     13.1556    119.3596
   791.0000   2000.0000   2000.0000     13.3717    121.1378
   791.2500   2000.0000   2000.0000     13.5329    123.3549
   791.5000   2000.0000   2000.0000     13.6534    126.4254
   791.7500   2000.0000   2000.0000     13.7535    127.6527
   792.0000   2000.0000   2000.0000     13.8512    128.6264
   792.2500   2000.0000   2000.0000     13.9558    129.3318
   792.5000   2000.0000   2000.0000     14.0645    131.2145
   792.7500   2000.0000   2000.0000     14.1673    133.1209
   793.0000   2000.0000   2000.0000     14.2544    136.5718
   793.2500   2000.0000   2000.0000     14.3218    138.5808
   793.5000   2000.0000   2000.0000     14.3712    139.5333
   793.7500   2000.0000   2000.0000     14.4084    138.3471
   794.0000   2000.0000   2000.0000     14.4409    134.9299
   794.2500   2000.0000   2000.0000     14.4738    132.7977
   794.5000   2000.0000   2000.0000     14.5061    130.8690
   794.7500   2000.0000   2000.0000     14.5303    129.8942
   795.0000   2000.0000   2000.0000     14.5350    127.1848
   795.2500   2000.0000   2000.0000     14.5100    124.0980
   795.5000   2000.0000   2000.0000     14.4506    118.3218
   795.7500   2000.0000   2000.0000     14.3636    114.6282
   796.0000   2000.0000   2000.0000     14.2697    110.7220
   796.2500   2000.0000   2000.0000     14.1967    109.6361
   796.5000   2000.0000   2000.0000     14.1650    110.1303
   796.7500   2000.0000   2000.0000     14.1749    111.2705
   797.0000   2000.0000   2000.0000     14.2082    112.8310
   797.2500   2000.0000   2000.0000     14.2419    113.2301
   797.5000   2000.0000   2000.0000     14.2614    112.7859
   797.7500   2000.0000   2000.0000     14.2615    112.1288
   798.0000   2000.0000   2000.0000     14.2375    111.5093
   798.2500   2000.0000   2000.0000     14.1788    111.9495
   798.5000   2000.0000   2000.0000     14.0750    114.7386
   798.7500   2000.0000   2000.0000     13.9284    118.0809
   799.0000   2000.0000   2000.0000     13.7612    124.3298
   799.2500   2000.0000   2000.0000     13.6088    128.3463
   799.5000   2000.0000   2000.0000     13.5052    132.8524
   799.7500   2000.0000   2000.0000     13.4701    134.6075
   800.0000   2000.0000   2000.0000     13.5049    135.5523
   800.2500   2000.0000   2000.0000     13.5971    135.3215
   800.5000   2000.0000   2000.0000     13.7292    134.3478
   800.7500   2000.0000   2000.0000     13.8856    133.6330
   801.0000   2000.0000   2000.0000     14.0554    132.6032
   801.2500   2000.0000   2000.0000     14.2323    131.8690
   801.5000   2000.0000   2000.0000     14.4175    130.7480
   801.7500   2000.0000   2000.0000     14.6222    130.0132
   802.0000   2000.0000   2000.0000     14.8664    128.4891
   802.2500   2000.0000   2000.0000     15.1715    126.8271
   802.5000   2000.0000   2000.0000     15.5517    123.4559
   802.7500   2000.0000   2000.0000     16.0106    121.2582
   803.0000   2000.0000   2000.0000     16.5463    119.3305
   803.2500   2000.0000   2000.0000     17.1595    119.1496
   803.5000   2000.0000   2000.0000     17.8571    119.4666
   803.7500   2000.0000   2000.0000     18.6433    119.2290
   804.0000   2000.0000   2000.0000     19.5038    117.8602
   804.2500   2000.0000   2000.0000     20.3983    116.7037
   804.5000   2000.0000   2000.0000     21.2760    115.1207
   804.7500   2000.0000   2000.0000     22.1050    113.9487
   805.0000   2000.0000   2000.0000     22.8915    111.3154
   805.2500   2000.0000   2000.0000     23.6672    108.8813
   805.5000   2000.0000   2000.0000     24.4621    104.9007
   805.7500   2000.0000   2000.0000     25.2921    102.6607
   806.0000   2000.0000   2000.0000     26.1647    100.5719
   806.2500   2000.0000   2000.0000     27.0898     99.9314
   806.5000   2000.0000   2000.0000     28.0827     99.4393
   806.7500   2000.0000   2000.0000     29.1630     99.0621
   807.0000   2000.0000   2000.0000     30.3497     98.1300
   807.2500   2000.0000   2000.0000     31.6464     97.2954
   807.5000   2000.0000   2000.0000     33.0225     96.1802
   807.7500   2000.0000   2000.0000     34.4128     95.9804
   808.0000   2000.0000   2000.0000     35.7513     96.9946
   808.2500   2000.0000   2000.0000     37.0118     98.3504
   808.5000   2000.0000   2000.0000     38.2095    100.4130
   808.7500   2000.0000   2000.0000     39.3567    101.2873
   809.0000   2000.0000   2000.0000     40.4346    101.5471
   809.2500   2000.0000   2000.0000     41.4224    101.0858
   809.5000   2000.0000   2000.0000     42.3421     99.6603
   809.7500   2000.0000   2000.0000     43.2449     98.4693
   810.0000   2000.0000   2000.0000     44.1283     97.0497
   810.2500   2000.0000   2000.0000     44.8728     96.6493
   810.5000   2000.0000   2000.0000     45.2974     96.5991
   810.7500   2000.0000   2000.0000     45.3194     96.4901
   811.0000   2000.0000   2000.0000     45.0770     95.7374
   811.2500   2000.0000   2000.0000     44.8746     94.8511
