~Version Information
 VERS.                                  2.0 : CWLS LAS VERSION
 WRAP.                                   NO : WRAPING MODE
 SWARE .                 MController 2.5.0J : SOFTWARE VERSION
~Well Information
 WELL.                       Ei-Ei-Oh 31-24 : WELL
 COMP.    Pioneer Natural Resources USA Inc : COMPANY
 FLD.                      Purgatoire River : FIELD
 LOC.                NW/NE Sec 24 T32S R67W : LOCATION
 DATE.                         6/12-13/2005 : DATE(S) LOGGED
 SRVC.       Blanco Geological Services LLC : SERVICE COMPANY
 STAT.                                   CO : STATE
 CNTY.                           Las Animas : COUNTY
 CTRY.                                  USA : COUNTRY
 API.                       05-071-08403-00 : API NUMBER
 STRT.FT                             436.00 : START DEPTH
 STOP.FT                            2853.00 : STOP DEPTH
 STEP.FT                               1.00 : DEPTH INCREMENT
 NULL.                                -9999 : NULL VALUE
~Curve information
 DEPTH.FT                                   :
 ROP.MIN/FT                                 :
 GAS.UNITS                                  :
~ASCII Log data
# ...
      2036.0         2.57        630.2 
      2037.0         0.33        430.6 
      2038.0         0.48       1246.3 
      2039.0         0.53       1271.8 
      2040.0         0.43       1111.2 
      2041.0         0.23        855.0 
      2042.0         0.23        764.7 
      2043.0         0.20        685.2 
      2044.0         0.27        640.7 
      2045.0         0.30        601.1 
      2046.0         0.23        593.9 
      2047.0         0.23        615.5 
      2048.0         0.30        667.5 
      2049.0         0.48        687.2 
      2050.0         0.17        668.8 
      2051.0         1.00        624.4 
      2052.0         0.77        524.6 
      2053.0         0.30        529.2 
      2054.0         0.27        578.6 
      2055.0         0.30        605.1 
      2056.0         0.32        584.4 
      2057.0         0.33        521.6 
      2058.0         0.17        495.1 
      2059.0         0.17        496.1 
      2060.0         0.30        498.4 
      2061.0         0.17        497.4 
      2062.0         0.13        497.4 
      2063.0         0.27        488.6 
      2064.0         0.33        506.6 
      2065.0         0.23        501.7 
      2066.0         3.65        495.1 
      2067.0         0.40        328.5 
      2068.0         0.48        468.2 
      2069.0         0.47       1200.8 
      2070.0         0.43       1400.4 
      2071.0         0.50       1423.9 
      2072.0         0.60       1243.6 
      2073.0         0.37        770.9 
      2074.0         0.50        574.0 
      2075.0         0.48        470.3 
      2076.0         0.37        571.4 
      2077.0         0.33        645.0 
      2078.0         0.57        655.8 
      2079.0         0.50        588.7 
      2080.0         0.40        515.4 
      2081.0         0.43        509.9 
      2082.0         0.38        501.0 
      2083.0         0.43        498.4 
      2084.0         0.43        484.7 
      2085.0         0.33        455.9 
      2086.0         0.40        467.0 
      2087.0         0.33        499.1 
      2088.0         0.40        488.6 
      2089.0         0.40        508.2 
      2090.0         0.33        555.7 
      2091.0         0.38        497.4 
      2092.0         0.20        496.8 
      2093.0         0.17        493.8 
      2094.0         0.23        493.2 
      2095.0         0.13        487.3 
      2096.0         2.95        498.7 
      2097.0         0.30        266.5 
      2098.0         0.43        422.6 
      2099.0         0.30       1083.3 
      2100.0         0.43       1197.5 
      2101.0         0.43       1306.5 
      2102.0         0.50       1311.4 
      2103.0         0.35       1128.2 
      2104.0         0.27        888.4 
      2105.0         0.30        734.3 
      2106.0         0.43        603.1 
      2107.0         0.37        516.4 
      2108.0         0.33        538.0 
      2109.0         0.27        548.5 
      2110.0         0.27        575.3 
      2111.0         0.30        598.2 
      2112.0         0.30        581.2 
      2113.0         0.32        568.1 
      2114.0         0.30        554.7 
      2115.0         0.30        547.5 
      2116.0         0.27        546.8 
      2117.0         0.30        535.4 
      2118.0         0.30        523.6 
      2119.0         0.30        513.8 
      2120.0         0.30        515.4 
      2121.0         0.30        516.1 
      2122.0         0.33        506.3 
      2123.0         0.30        493.2 
      2124.0         0.28        527.2 
      2125.0         0.33        526.9 
      2126.0         4.35       1253.5 
      2127.0         0.40       1429.8 
      2128.0         0.37       1449.4 
      2129.0         0.37       1322.5 
      2130.0         0.33       1000.6 
      2131.0         0.32        780.1 
      2132.0         0.33        643.7 
      2133.0         0.47        544.9 
      2134.0         0.40        503.3 
      2135.0         0.30        497.1 
      2136.0         0.30        537.3 
      2137.0         0.27        562.9 
      2138.0         0.30        568.1 
      2139.0         0.30        572.0 
      2140.0         0.47        541.3 
      2141.0         0.38        551.7 
      2142.0         0.37        508.2 
      2143.0         0.43        510.2 
      2144.0         0.47        525.9 
      2145.0         0.33        505.3 
      2146.0         0.33        515.1 
      2147.0         0.37        515.1 
      2148.0         0.37        495.5 
      2149.0         0.35        492.2 
      2150.0         0.37        494.5 
      2151.0         0.23        495.8 
      2152.0         0.30        511.2 
      2153.0         0.30        509.9 
      2154.0         0.27        488.9 
      2155.0         0.23        488.6 
      2156.0         3.32        495.5 
      2157.0         0.97        460.0 
      2158.0         0.85        474.9 
      2159.0         0.57       1046.4 
      2160.0         0.60        869.1 
      2161.0         0.77        603.4 
      2162.0         0.40        497.1 
      2163.0         0.43        501.0 
      2164.0         0.38        502.7 
      2165.0         1.97        537.3 
      2166.0         2.22        504.0 
      2167.0         0.20         38.5 
      2168.0         0.20         37.2 
      2169.0         0.23         43.6 
      2170.0         0.27         56.9 
      2171.0         0.27         83.0 
      2172.0         0.27        119.5 
      2173.0         0.33        163.8 
      2174.0         0.33        188.3 
      2175.0         0.32        195.9 
      2176.0         0.27        199.5 
      2177.0         0.33        201.5 
      2178.0         0.30        202.4 
      2179.0         0.30        211.9 
      2180.0         0.33        231.2 
      2181.0         0.37        250.0 
      2182.0         0.33        250.1 
      2183.0         0.27        238.7 
      2184.0         0.30        217.5 
      2185.0         0.45        186.8 
      2186.0         4.25        402.1 
      2187.0         0.67       1422.9 
      2188.0         0.37       1613.3 
      2189.0         0.37       1626.7 
      2190.0         0.50       1456.6 
      2191.0         0.42       1024.5 
      2192.0         0.33        786.9 
      2193.0         0.63        665.9 
      2194.0         0.40        513.5 
      2195.0         0.40        523.9 
      2196.0         0.47        554.0 
      2197.0         0.50        552.7 
      2198.0         0.45        514.8 
      2199.0         0.37        474.2 
      2200.0         0.33        501.7 
      2201.0         0.30        481.7 
      2202.0         0.30        475.2 
      2203.0         0.30        440.0 
      2204.0         0.27        457.5 
      2205.0         0.30        456.9 
      2206.0         0.30        467.3 
      2207.0         0.33        475.5 
      2208.0         0.32        477.8 
      2209.0         0.30        497.7 
      2210.0         0.30        451.6 
      2211.0         0.37        453.9 
      2212.0         0.30        457.2 
      2213.0         0.33        520.0 
      2214.0         0.37        482.4 
      2215.0         0.47        486.6 
      2216.0         3.08        497.7 
      2217.0         0.70        379.2 
      2218.0         0.62       1304.8 
      2219.0         0.50       1456.6 
      2220.0         0.47       1418.3 
      2221.0         0.50       1083.0 
      2222.0         0.57        757.2 
      2223.0         0.60        539.6 
      2224.0         0.55        492.2 
      2225.0         0.50        518.7 
      2226.0         0.43        527.5 
      2227.0         0.37        517.7 
      2228.0         0.40        507.2 
      2229.0         0.40        491.5 
      2230.0         0.37        507.6 
      2231.0         0.30        512.5 
      2232.0         0.35        518.0 
      2233.0         0.33        518.7 
      2234.0         0.33        514.4 
      2235.0         0.33        507.2 
