~Version Information
VERS.                      2.0: CWLS Log ASCII Standard - VERSION 2.0
WRAP.                       NO: One line per depth step
~Well Information Block
STRT.FT               780.0000: 
STOP.FT              3152.2000: 
STEP.FT                 0.1000: 
NULL.                -999.2500: 
COMP.          Pioneer Natural Resources: COMPANY
WELL.            Paradise 13-8: WELL
FLD.           Purgatoire River: FIELD
LOC.           1896' FSL & 1120' FWL: LOCATION
PROV.                 Colorado: PROVINCE
CNTY.               Las Animas: COUNTRY
SRVC.                Patterson: SERVICE COMPANY
DATE.          Sat Jan 22 20:51:32 2005: LOG DATE
UWI.           05 071 07946 00: UNIQUE WELL ID
~Curve Information Block
DEPT.FT            0 000 00 00: Depth
DCAL.in                       : CDL Caliper
RHOB.g/cc                     : CDL Bulk Density
RHOC.g/cc                     : CDL Density Correction
DPOR.pu                       : CDL Density Porosity
NPOR.pu                       : Neutron Porosity
GR.GAPI                       : Gamma Ray
~Parameter Information Block
~A  Depth       DCAL        RHOB        RHOC        DPOR        NPOR         GR     
# ...
  1720.8000      8.0351      2.4769      0.0372     10.4898     16.9074     40.0003
  1720.9000      8.0351      2.4959      0.0578      9.3393     16.5671     39.6593
  1721.0000      8.0368      2.5151      0.0521      8.1788     16.2586     40.8034
  1721.1000      8.0368      2.5299      0.1080      7.2774     16.7979     42.3323
  1721.2000      8.0368      2.5216      0.0961      7.7805     18.1014     44.8519
  1721.3000      8.0414      2.4883      0.0833      9.8006     19.7109     49.7628
  1721.4000      8.0414      2.4434      0.0526     12.5202     21.5246     57.0467
  1721.5000      8.0480      2.3928      0.0734     15.5860     23.3774     65.1455
  1721.6000      8.0480      2.3388      0.0034     18.8591     24.9609     73.2340
  1721.7000      8.0480      2.2918      0.0100     21.7102     26.1166     78.7522
  1721.8000      8.0516      2.2626      0.0053     23.4807     27.0740     79.6682
  1721.9000      8.0516      2.2577     -0.0013     23.7775     28.2149     80.3137
  1722.0000      8.0525      2.2698      0.0386     23.0417     29.3944     86.6170
  1722.1000      8.0525      2.2826      0.0577     22.2658     30.0279     97.9875
  1722.2000      8.0525      2.2987      0.0885     21.2915     30.0934    107.2257
  1722.3000      8.0535      2.3292      0.1120     19.4415     29.9935    111.6844
  1722.4000      8.0535      2.3583      0.1721     17.6761     29.9983    114.4097
  1722.5000      8.0537      2.3565      0.1534     17.7877     30.1450    115.1331
  1722.6000      8.0537      2.3209      0.1173     19.9480     30.3222    115.9533
  1722.7000      8.0537      2.2713      0.0758     22.9501     30.4169    121.6239
  1722.8000      8.0511      2.2184      0.0030     26.1565     30.6559    126.4154
  1722.9000      8.0511      2.1577     -0.0340     29.8351     31.6007    124.5438
  1723.0000      8.0479      2.0780     -0.0358     34.6639     32.9205    118.8616
  1723.1000      8.0479      1.9682     -0.0310     41.3203     33.3571    111.8230
  1723.2000      8.0479      1.8351     -0.0851     49.3876     32.6708    105.5676
  1723.3000      8.0484      1.7167     -0.1562     56.5653     31.8317     99.6438
  1723.4000      8.0484      1.6589     -0.1150     60.0682     31.1038     93.9091
  1723.5000      8.0492      1.6733     -0.0692     59.1926     30.2756     92.1153
  1723.6000      8.0492      1.7306     -0.0109     55.7239     29.7651     92.8080
  1723.7000      8.0492      1.7962      0.0356     51.7433     29.8321     90.7765
  1723.8000      8.0512      1.8702      0.0142     47.2578     29.7882     85.0589
  1723.9000      8.0512      1.9748      0.1469     40.9208     28.7059     77.0883
  1724.0000      8.0593      2.1099      0.2438     32.7303     26.5668     69.0191
  1724.1000      8.0593      2.2508      0.3162     24.1958     24.6189     68.5734
  1724.2000      8.0593      2.3711      0.3413     16.9058     24.1550     80.9568
  1724.3000      8.0566      2.4656      0.2970     11.1742     24.8140     96.9932
  1724.4000      8.0566      2.5487      0.2167      6.1415     25.4415    106.8089
  1724.5000      8.0192      2.6153      0.2339      2.1049     25.8402    112.8316
  1724.6000      8.0192      2.6418      0.1782      0.4987     25.8620    118.0549
  1724.7000      8.0192      2.6326      0.1144      1.0518     25.1454    121.2547
  1724.8000      7.9720      2.6139      0.0939      2.1861     24.4122    121.2729
  1724.9000      7.9720      2.5978      0.0802      3.1648     24.4177    119.6828
  1725.0000      7.9487      2.5829      0.0949      4.0642     25.0445    118.7104
  1725.1000      7.9487      2.5667      0.0911      5.0467     25.8027    116.9765
  1725.2000      7.9487      2.5533      0.0441      5.8584     26.2768    115.2547
  1725.3000      7.9421      2.5454      0.0743      6.3387     26.5347    116.8705
  1725.4000      7.9421      2.5408      0.0591      6.6211     27.0451    120.8460
  1725.5000      7.9358      2.5446      0.0377      6.3854     27.9191    123.2188
  1725.6000      7.9358      2.5513      0.1038      5.9823     28.5967    124.4809
  1725.7000      7.9358      2.5524      0.0213      5.9130     28.7295    127.2703
  1725.8000      7.9270      2.5592      0.0684      5.5015     28.3771    129.7690
  1725.9000      7.9270      2.5693      0.0468      4.8913     27.6073    130.4578
  1726.0000      7.9200      2.5659      0.0851      5.0989     26.8663    132.8698
  1726.1000      7.9200      2.5510      0.0456      5.9979     26.4099    137.0856
  1726.2000      7.9200      2.5405      0.0304      6.6357     25.5866    138.5615
  1726.3000      7.9166      2.5347      0.0826      6.9868     24.4119    137.8696
  1726.4000      7.9166      2.5221      0.0371      7.7520     24.3588    135.3734
  1726.5000      7.9123      2.5067      0.0565      8.6833     26.0819    130.3914
  1726.6000      7.9123      2.5080      0.0182      8.6079     28.1985    126.8981
  1726.7000      7.9123      2.5354      0.0516      6.9447     29.0671    124.5695
  1726.8000      7.9045      2.5721      0.1149      4.7184     28.5830    121.4232
  1726.9000      7.9045      2.5954      0.0815      3.3094     27.3693    120.9001
  1727.0000      7.9004      2.5972      0.1238      3.1993     26.1707    121.9032
  1727.1000      7.9004      2.5889      0.0704      3.7022     25.3510    117.5903
  1727.2000      7.9004      2.6003      0.0497      3.0099     24.7421    109.4413
  1727.3000      7.9078      2.6406      0.1068      0.5677     24.6084    104.4227
  1727.4000      7.9078      2.6773      0.1036     -1.6558     24.9112    105.2994
  1727.5000      7.9202      2.6828      0.1132     -1.9882     24.8651    110.2938
  1727.6000      7.9202      2.6706      0.0577     -1.2473     24.3719    117.8985
  1727.7000      7.9202      2.6585      0.0716     -0.5151     24.1129    125.7106
  1727.8000      7.9192      2.6412      0.0167      0.5353     24.1625    127.7370
  1727.9000      7.9192      2.6230      0.0001      1.6371     24.1079    124.2297
  1728.0000      7.9030      2.6129      0.0370      2.2488     23.8760    121.8042
  1728.1000      7.9030      2.6010      0.0380      2.9673     23.8771    121.9464
  1728.2000      7.9030      2.5821      0.0159      4.1144     24.4561    121.3203
  1728.3000      7.8979      2.5634      0.0447      5.2497     25.3187    119.3856
  1728.4000      7.8979      2.5522     -0.0079      5.9252     25.7846    119.7411
  1728.5000      7.9151      2.5487      0.0544      6.1394     25.4251    123.6073
  1728.6000      7.9151      2.5443      0.0436      6.4074     24.6458    127.0534
  1728.7000      7.9151      2.5427      0.0220      6.5060     24.1310    125.8175
  1728.8000      7.9415      2.5526      0.0299      5.9046     24.3471    120.9224
  1728.9000      7.9415      2.5650      0.0974      5.1526     25.1137    119.5649
  1729.0000      7.9621      2.5678      0.0613      4.9823     25.6027    123.8705
  1729.1000      7.9621      2.5689      0.0474      4.9138     25.5556    128.0584
  1729.2000      7.9621      2.5774      0.0806      4.4019     25.2422    128.1786
  1729.3000      7.9706      2.5841      0.0685      3.9916     24.7545    124.1477
  1729.4000      7.9706      2.5813      0.0374      4.1636     24.3150    120.1233
  1729.5000      7.9715      2.5675      0.1038      5.0000     24.4249    120.0595
  1729.6000      7.9715      2.5458      0.0393      6.3142     25.0186    124.3773
  1729.7000      7.9715      2.5324      0.0517      7.1244     25.0068    128.4930
  1729.8000      7.9708      2.5326      0.0473      7.1124     24.2204    130.5196
  1729.9000      7.9708      2.5346      0.0460      6.9914     23.6442    133.4396
  1730.0000      7.9695      2.5314      0.0567      7.1900     23.6622    133.2706
  1730.1000      7.9695      2.5285      0.0716      7.3608     24.0802    128.4041
  1730.2000      7.9695      2.5390      0.0679      6.7245     24.5929    123.3656
  1730.3000      7.9622      2.5715      0.0395      4.7554     24.9009    117.5033
