~Version Information
VERS.                      2.0: CWLS Log ASCII Standard - VERSION 2.0
WRAP.                       NO: One line per depth step
~Well Information Block
STRT.FT                10.0000: 
STOP.FT              1066.5000: 
STEP.FT                 0.2500: 
NULL.                -999.2500: 
COMP.          Pioneer Natural Resources: COMPANY
WELL.            Redland 23-24: WELL
FLD.           Purgatoire River: FIELD
LOC.           2356' FSL & 1880' FWL----: LOCATION
PROV.                 Colorado: PROVINCE
CNTY.               Las Animas: COUNTRY
SRVC.                         : SERVICE COMPANY
DATE.          Thu Mar 24 10:01:02 2005: LOG DATE
UWI.           05 071 08221   : UNIQUE WELL ID
~Curve Information Block
DEPT.FT            0 000 00 00: Depth
CCL.                          : Casing Collar Locator
TT3.usec                      : CBL 3' Travel Time
AMP3.mV                       : CBL 3' Amplitude
AMP5.mV                       : CBL 5' Amplitude
GR.GAPI                       : Gamma Ray
~Parameter Information Block
~A  Depth       CCL         TT3         AMP3        AMP5         GR     
# ...
   150.0000      1.0000    852.3007      4.7084      3.9560     68.0456
   150.2500      0.0000    842.8592      4.7312      3.7819     74.4283
   150.5000      0.0000    835.3801      4.8559      2.9984     83.3558
   150.7500      0.0000    823.8552      5.0635      2.9984     93.1860
   151.0000      0.0000    802.9661      5.2820      3.3466    102.0580
   151.2500      0.0000    776.7808      5.4138      3.5207    108.2214
   151.5000      0.0000    756.1094      5.4019      3.3466    110.8838
   151.7500      0.0000    748.9580      5.2815      5.1746    110.7695
   152.0000      0.0000    755.6891      5.1443      3.8689    109.6000
   152.2500      0.0000    771.3870      5.0497      5.0005    108.9557
   152.5000      0.0000    790.0915      4.9972      7.0026    109.5106
   152.7500      0.0000    807.1136      4.9729      1.8668    111.0524
   153.0000      0.0000    819.3318      4.9813      4.3041    112.8830
   153.2500      0.0000    825.2238      5.0311      5.6098    114.0276
   153.5000      0.0000    826.0324      5.1110      4.1301    113.4734
   153.7500      0.0000    826.2246      5.1855      3.9560    110.9803
   154.0000      0.0000    830.9127      5.2156      3.7819    107.6547
   154.2500      0.0000    841.8241      5.2028      3.6948    105.0774
   154.5000      0.0000    856.0025      5.2082      5.0876    103.9225
   154.7500      0.0000    868.4600      5.3000      3.8689    104.0433
   155.0000      0.0000    875.8453      5.4824      3.7819    105.6314
   155.2500      0.0000    878.0594      5.6978      3.9560    109.3176
   155.5000      0.0000    877.6379      5.8885      4.1301    114.9147
   155.7500      0.0000    877.8258      6.0321      2.8244    120.6388
   156.0000      0.0000    879.7881      6.1246      4.2171    123.9120
   156.2500      0.0000    880.6566      6.1649      4.2171    122.9823
   156.5000      0.0000    874.8134      6.1648      4.7394    117.9950
   156.7500      0.0000    858.5795      6.1613      5.1746    110.9501
   157.0000      0.0000    835.0256      6.1993      3.7819    104.6496
   157.2500      0.0000    813.1688      6.2994      6.3933    101.2240
   157.5000      0.0000    799.5752      6.4420      3.9560    101.3280
   157.7500      0.0000    791.0340      6.5772      4.5653    104.3559
   158.0000      0.0000    779.1520      6.6549      5.2617    108.6665
   158.2500      0.0000    762.0322      6.6592      4.5653    111.5828
   158.5000      0.0000    746.4574      6.6215      3.7819    110.4957
   158.7500      0.0000    737.9578      6.5907      2.9114    105.0538
   159.0000      0.0000    734.8002      6.5853      3.9560     97.8426
   159.2500      0.0000    734.3161      6.5788      3.3466     92.2519
   159.5000      0.0000    739.0828      6.5353      4.4782     89.8186
   159.7500      0.0000    751.2430      6.4591      3.8689     89.7270
   160.0000      0.0000    765.0732      6.4029      3.8689     90.5066
   160.2500      0.0000    772.0058      6.4166      2.9114     91.9241
   160.5000      0.0000    772.0852      6.4869      3.5207     94.9826
   160.7500      0.0000    775.0643      6.5417      3.4337    100.0316
   161.0000      0.0000    789.1836      6.5128      3.0855    105.3036
   161.2500      0.0000    812.6387      6.3821      4.0430    107.8477
   161.5000      0.0000    837.4764      6.1674      3.6078    105.8920
   161.7500      0.0000    857.8591      5.8842      2.7373    100.1325
   162.0000      0.0000    871.8063      5.5408      3.3466     93.0398
   162.2500      0.0000    878.0074      5.1643      3.4337     87.2776
   162.5000      0.0000    874.9704      4.8162      3.1725     84.4360
   162.7500      0.0000    863.7209      4.5694      3.8689     84.5836
   163.0000      0.0000    849.1956      4.4622      2.3021     86.7856
   163.2500      0.0000    837.2557      4.4655      2.7373     90.2486
   163.5000      0.0000    830.0615      4.5002      2.3021     94.9203
   163.7500      0.0000    825.0513      4.4948      2.1280    100.6888
   164.0000      0.0000    818.6624      4.4288      1.7798    106.2524
   164.2500      0.0000    809.9700      4.3286      1.7798    109.5861
   164.5000      0.0000    800.3251      4.2378      2.5632    109.8013
   164.7500      0.0000    790.4272      4.1891      2.3891    108.0541
   165.0000      0.0000    778.7736      4.1904      1.6927    106.3884
   165.2500      0.0000    763.4711      4.2340      2.6503    105.9767
   165.5000      0.0000    745.6138      4.3206      2.3891    106.4914
   165.7500      0.0000    729.6946      4.4653      1.9539    106.8139
   166.0000      0.0000    719.8464      4.6797      2.6503    106.1655
   166.2500      0.0000    717.0508      4.9539      2.1280    104.5455
   166.5000      0.0000    720.7510      5.2489      2.7373    102.2755
   166.7500      0.0000    731.0413      5.4997      2.6503     99.5197
   167.0000      0.0000    747.3872      5.6366      2.8244     96.3947
   167.2500      0.0000    766.4164      5.6205      2.8244     93.1232
   167.5000      0.0000    783.0271      5.4645      2.2150     89.7817
   167.7500      0.0000    793.8889      5.2251      2.6503     86.2404
   168.0000      0.0000    799.1403      4.9778      2.8244     82.7139
   168.2500      0.0000    801.0435      4.7935      3.2596     80.1345
   168.5000      0.0000    801.7490      4.7186      4.0430     79.4260
   168.7500      0.0000    802.2139      4.7654      3.6948     80.3096
   169.0000      0.0000    802.3701      4.9183      3.6078     81.2612
   169.2500      0.0000    801.7284      5.1482      3.6948     80.8282
   169.5000      0.0000    800.0126      5.4189      3.6948     78.7770
   169.7500      0.0000    797.8040      5.6878      3.5207     75.9583
   170.0000      0.0000    796.9329      5.9116      3.2596     73.4128
   170.2500      0.0000    799.7646      6.0598      3.6948     71.7059
   170.5000      0.0000    807.2374      6.1222      4.0430     70.8577
   170.7500      0.0000    817.7044      6.1073      3.4337     70.6583
   171.0000      0.0000    828.7104      6.0387      3.0855     70.9920
   171.2500      0.0000    839.9461      5.9544      3.5207     71.7735
   171.5000      0.0000    853.1202      5.8978      3.4337     72.6252
   171.7500      0.0000    868.5630      5.9001      3.3466     72.9949
   172.0000      0.0000    883.3469      5.9640      3.3466     72.8900
   172.2500      0.0000    893.2183      6.0657      3.1725     73.1449
   172.5000      0.0000    895.3044      6.1745      3.1725     74.4521
   172.7500      0.0000    888.9963      6.2702      2.7373     76.2484
   173.0000      0.0000    875.8253      6.3432      3.3466     76.9228
   173.2500      0.0000    859.0740      6.3905      3.8689     75.1696
   173.5000      0.0000    842.4688      6.4162      3.1725     70.9842
   173.7500      0.0000    828.5317      6.4313      3.4337     65.4937
   174.0000      0.0000    818.4073      6.4456      3.4337     60.2208
   174.2500      0.0000    812.9075      6.4598      3.9560     56.5385
   174.5000      0.0000    812.7606      6.4666      3.7819     55.3542
   174.7500      0.0000    817.9389      6.4576      3.6948     56.7676
   175.0000      0.0000    827.7222      6.4282      3.4337     59.8087
   175.2500      0.0000    841.4163      6.3798      3.6948     62.7358
   175.5000      0.0000    858.0265      6.3197      3.0855     63.9550
   175.7500      0.0000    875.2156      6.2605      3.0855     62.8314
   176.0000      0.0000    889.7495      6.2160      3.5207     59.7443
   176.2500      0.0000    899.4739      6.1955      4.0430     55.7280
   176.5000      0.0000    904.4467      6.1994      3.6948     52.3064
   176.7500      0.0000    906.1602      6.2183      3.9560     51.2205
   177.0000      0.0000    906.2192      6.2359      3.5207     53.4057
   177.2500      0.0000    905.7482      6.2349      3.7819     57.8917
   177.5000      0.0000    905.3929      6.2058      3.7819     62.0896
   177.7500      0.0000    905.4017      6.1506      3.7819     63.6058
