~Version Information
VERS.                      2.0: CWLS Log ASCII Standard - VERSION 2.0
WRAP.                       NO: One line per depth step
~Well Information Block
STRT.FT               430.0000: 
STOP.FT              1910.2500: 
STEP.FT                 0.2500: 
NULL.                -999.2500: 
COMP.          Pioneer Natural Resources: COMPANY
WELL.          Formula 23-11 Tr: WELL
FLD.           Purgatoire River: FIELD
LOC.           1976' FSL & 1935' FWL--: LOCATION
PROV.                 Colorado: PROVINCE
CNTY.               Las Animas: COUNTRY
SRVC.                Patterson: SERVICE COMPANY
DATE.          Fri Jun 10 22:41:39 2005: LOG DATE
UWI.           05 071 08399 00: UNIQUE WELL ID
~Curve Information Block
DEPT.FT            0 000 00 00: Depth
SN.Ohm-m                      : IEL Short Normal
SP.mV                         : IEL Spontaneous Potential
DIR.Ohm-m                     : IEL Induction Resistivity
GR.GAPI                       : Gamma Ray
~Parameter Information Block
~A  Depth        SN          SP         DIR          GR     
# ...
  1870.5000      6.7167     26.2499      6.8978    140.4193
  1870.7500      6.7383     25.8327      6.8645    143.2113
  1871.0000      6.7722     25.4499      6.8105    148.3394
  1871.2500      6.8269     25.0959      6.7539    151.9674
  1871.5000      6.9059     24.7627      6.7115    157.5688
  1871.7500      7.0044     24.4423      6.6953    161.5601
  1872.0000      7.1072     24.1278      6.7118    167.8248
  1872.2500      7.1948     23.8159      6.7631    171.3758
  1872.5000      7.2542     23.5069      6.8492    172.9743
  1872.7500      7.2922     23.2049      6.9701    169.9897
  1873.0000      7.3468     22.9167      7.1283    159.1758
  1873.2500      7.4916     22.6505      7.3312    149.4041
  1873.5000      7.8293     22.4146      7.5920    135.1280
  1873.7500      8.4595     22.2178      7.9273    127.6757
  1874.0000      9.4162     22.0697      8.3485    120.3173
  1874.2500     10.6035     21.9832      8.8507    117.4967
  1874.5000     11.7846     21.9758      9.3988    115.6248
  1874.7500     12.6686     22.0700      9.9217    115.6700
  1875.0000     13.0621     22.2910     10.3245    116.8473
  1875.2500     12.9757     22.6621     10.5218    117.7225
  1875.5000     12.5947     23.1985     10.4780    118.8647
  1875.7500     12.1391     23.9003     10.2214    120.1720
  1876.0000     11.7285     24.7484      9.8206    124.7032
  1876.2500     11.3497     25.7036      9.3472    129.8928
  1876.5000     10.9213     26.7107      8.8522    139.9376
  1876.7500     10.3852     27.7055      8.3637    146.8322
  1877.0000      9.7536     28.6247      7.8975    154.4324
  1877.2500      9.0977     29.4139      7.4671    155.1220
  1877.5000      8.5047     30.0341      7.0882    144.3058
  1877.7500      8.0437     30.4643      6.7783    127.3989
  1878.0000      7.7494     30.7008      6.5534     90.6274
  1878.2500      7.6186     30.7550      6.4248     63.9212
  1878.5000      7.6163     30.6509      6.3969     30.6661
  1878.7500      7.6899     30.4233      6.4655     16.1165
  1879.0000      7.7848     30.1172      6.6178      4.7904
  1879.2500      7.8609     29.7869      6.8317      1.7930
  1879.5000      7.9062     29.4931      7.0780      0.3103
  1879.7500      7.9422     29.2979      7.3243      0.0783
  1880.0000      8.0128     29.2562      7.5426      0.0053
  1880.2500      8.1533     29.4058      7.7157   -999.2500
  1880.5000      8.3580     29.7585      7.8386   -999.2500
  1880.7500      8.5725     30.2950      7.9138   -999.2500
  1881.0000      8.7214     30.9668      7.9447   -999.2500
  1881.2500      8.7526     31.7032      7.9321   -999.2500
  1881.5000      8.6642     32.4253      7.8755   -999.2500
  1881.7500      8.4976     33.0604      7.7777   -999.2500
  1882.0000      8.3071     33.5545      7.6469   -999.2500
  1882.2500      8.1288     33.8801      7.4965   -999.2500
  1882.5000      7.9652     34.0364      7.3415   -999.2500
  1882.7500      7.7939     34.0442      7.1945   -999.2500
  1883.0000      7.5943     33.9378      7.0636   -999.2500
  1883.2500      7.3683     33.7551      6.9521   -999.2500
  1883.5000      7.1402     33.5300      6.8592   -999.2500
  1883.7500      6.9358     33.2877      6.7808   -999.2500
  1884.0000      6.7639     33.0436      6.7111   -999.2500
  1884.2500      6.6147     32.8035      6.6430   -999.2500
  1884.5000      6.4769     32.5674      6.5690   -999.2500
  1884.7500      6.3532     32.3320      6.4831   -999.2500
  1885.0000      6.2622     32.0950      6.3832   -999.2500
  1885.2500      6.2243     31.8584      6.2731   -999.2500
  1885.5000      6.2433     31.6315      6.1616   -999.2500
  1885.7500      6.2976     31.4301      6.0593   -999.2500
  1886.0000      6.3507     31.2736      5.9741   -999.2500
  1886.2500      6.3708     31.1791      5.9091   -999.2500
  1886.5000      6.3452     31.1521      5.8630   -999.2500
  1886.7500      6.2802     31.1809      5.8320   -999.2500
  1887.0000      6.1922     31.2332      5.8118   -999.2500
  1887.2500      6.0989     31.2612      5.7997   -999.2500
  1887.5000      6.0139     31.2114      5.7948   -999.2500
  1887.7500      5.9458     31.0380      5.7979   -999.2500
  1888.0000      5.9014     30.7146      5.8113   -999.2500
  1888.2500      5.8890     30.2403      5.8377   -999.2500
  1888.5000      5.9180     29.6387      5.8784   -999.2500
  1888.7500      5.9916     28.9514      5.9319   -999.2500
  1889.0000      6.0999     28.2286      5.9933   -999.2500
  1889.2500      6.2217     27.5198      6.0555   -999.2500
  1889.5000      6.3362     26.8657      6.1116   -999.2500
  1889.7500      6.4315     26.2941      6.1574   -999.2500
  1890.0000      6.5038     25.8171      6.1920   -999.2500
  1890.2500      6.5532     25.4314      6.2168   -999.2500
  1890.5000      6.5797     25.1206      6.2344   -999.2500
  1890.7500      6.5840     24.8596      6.2468   -999.2500
  1891.0000      6.5673     24.6207      6.2553   -999.2500
  1891.2500      6.5322     24.3796      6.2596   -999.2500
  1891.5000      6.4825     24.1202      6.2586   -999.2500
  1891.7500      6.4237     23.8363      6.2511   -999.2500
  1892.0000      6.3652     23.5307      6.2375   -999.2500
  1892.2500      6.3204     23.2116      6.2215   -999.2500
  1892.5000      6.3028     22.8891      6.2105   -999.2500
  1892.7500      6.3175     22.5729      6.2140   -999.2500
  1893.0000      6.3529     22.2709      6.2410   -999.2500
  1893.2500      6.3813     21.9896      6.2968   -999.2500
  1893.5000      6.3737     21.7355      6.3811   -999.2500
  1893.7500      6.3231     21.5137      6.4888   -999.2500
  1894.0000      6.2603     21.3277      6.6118   -999.2500
  1894.2500      6.2504     21.1766      6.7430   -999.2500
  1894.5000      6.3663     21.0544      6.8787   -999.2500
  1894.7500      6.6512     20.9494      7.0187   -999.2500
  1895.0000      7.0903     20.8459      7.1645   -999.2500
  1895.2500      7.6135     20.7270      7.3168   -999.2500
  1895.5000      8.1348     20.5770      7.4751   -999.2500
  1895.7500      8.5993     20.3837      7.6385   -999.2500
  1896.0000      9.0010     20.1410      7.8063   -999.2500
  1896.2500      9.3595     19.8504      7.9775   -999.2500
  1896.5000      9.6825     19.5235      8.1480   -999.2500
  1896.7500      9.9476     19.1831      8.3095   -999.2500
  1897.0000     10.1118     18.8625      8.4500   -999.2500
  1897.2500     10.1360     18.6020      8.6030   -999.2500
  1897.5000     10.0049     18.4414      8.6658   -999.2500
  1897.7500      9.7320     18.4121      8.6753   -999.2500
  1898.0000      9.3514     18.5288      8.6256   -999.2500
  1898.2500      8.9054     18.7855      8.5137   -999.2500
  1898.5000      8.4341     19.1562      8.3417   -999.2500
  1898.7500      7.9682     19.5997      8.1220   -999.2500
  1899.0000      7.5272     20.0673      7.8764   -999.2500
  1899.2500      7.1289     20.5109      7.6337   -999.2500
  1899.5000      6.8042     20.8891      7.4284   -999.2500
  1899.7500      6.6004     21.1704      7.3063   -999.2500
  1900.0000      6.5643     21.3345      7.3361   -999.2500
  1900.2500      6.7155     21.3716      7.6291   -999.2500
  1900.5000      7.0306     21.2811      8.3720   -999.2500
  1900.7500      7.4485     21.0707      9.8341   -999.2500
  1901.0000      7.8954     20.7556     12.8226   -999.2500
  1901.2500      8.3117     20.3573     18.9484   -999.2500
  1901.5000      8.6692     19.9016     33.1105   -999.2500
  1901.7500      8.9696     19.4172     76.3513   -999.2500
  1902.0000      9.2339     18.9314    471.5507   -999.2500
  1902.2500      9.4855     18.4668 100000.0000   -999.2500
  1902.5000      9.7339     18.0368 100000.0000   -999.2500
  1902.7500      9.9638     17.6424 100000.0000   -999.2500
  1903.0000     10.1379     17.2700 100000.0000   -999.2500
  1903.2500     10.2135     16.8904 100000.0000   -999.2500
  1903.5000     10.1645     16.4612 100000.0000   -999.2500
  1903.7500      9.9956     15.9309   1282.2786   -999.2500
