~Version Information
VERS.                      2.0: CWLS Log ASCII Standard - VERSION 2.0
WRAP.                       NO: One line per depth step
~Well Information Block
STRT.FT               890.0000: 
STOP.FT              1588.2000: 
STEP.FT                 0.1000: 
NULL.                -999.2500: 
COMP.          Evergreen Operating Corporation: COMPANY
WELL.            Tomahawk 44-9: WELL
FLD.           Purgatorie River: FIELD
LOC.           434' FSL & 491' FEL: LOCATION
PROV.                 Colorado: PROVINCE
CNTY.               Las Animas: COUNTRY
SRVC.                         : SERVICE COMPANY
DATE.          Mon Sep 13 10:07:57 2004: LOG DATE
UWI.           05 071 08133 00: UNIQUE WELL ID
~Curve Information Block
DEPT.FT            0 000 00 00: Depth
LTEN.lb                       : Surface Line Tension
DCAL.in                       : CDL Caliper
RHOB.g/cc                     : CDL Bulk Density
RHOC.g/cc                     : CDL Density Correction
DPOR.pu                       : CDL Density Porosity
GR.GAPI                       : Gamma Ray
NPOR.pu                       : Neutron Porosity
~Parameter Information Block
~A  Depth       LTEN        DCAL        RHOB        RHOC        DPOR         GR         NPOR    
# ...
  1444.4000   1142.9304      7.8798      2.1481      0.3070     30.4204     97.1692     18.3816
  1444.5000   1120.8792      7.8829      2.1407      0.2911     30.8695     92.2522     17.7152
  1444.6000   1120.8792      7.8829      2.1172      0.2843     32.2912     86.0149     17.4917
  1444.7000   1120.8792      7.8829      2.0944      0.2112     33.6715     79.6192     17.7036
  1444.8000   1121.0199      7.8845      2.0866      0.2364     34.1436     75.8121     17.7596
  1444.9000   1121.0199      7.8845      2.0850      0.2015     34.2404     74.8871     17.6291
  1445.0000   1135.7552      7.8866      2.0805      0.1484     34.5145     75.7550     17.8717
  1445.1000   1135.7552      7.8866      2.0752      0.1891     34.8376     77.6525     18.7585
  1445.2000   1135.7552      7.8866      2.0671      0.1602     35.3297     79.2990     19.9710
  1445.3000   1142.9203      7.8851      2.0559      0.1208     36.0069     77.6552     21.1440
  1445.4000   1142.9203      7.8851      2.0488      0.0962     36.4386     73.4719     22.1146
  1445.5000   1144.1470      7.8847      2.0477      0.1175     36.5055     73.0675     22.6865
  1445.6000   1144.1470      7.8847      2.0492      0.0772     36.4100     77.8481     22.5822
  1445.7000   1144.1470      7.8847      2.0532      0.0680     36.1713     83.8757     21.8310
  1445.8000   1139.6401      7.8865      2.0520      0.0948     36.2401     87.8955     21.2152
  1445.9000   1139.6401      7.8865      2.0324      0.0870     37.4323     88.0960     21.4838
  1446.0000   1135.7413      7.9050      1.9938      0.0759     39.7709     83.6925     22.0956
  1446.1000   1135.7413      7.9050      1.9601     -0.0346     41.8119     77.7864     22.1675
  1446.2000   1135.7413      7.9050      1.9597     -0.0448     41.8357     75.3741     21.8099
  1446.3000   1117.3351      7.9066      1.9865      0.0105     40.2145     77.7857     21.6393
  1446.4000   1117.3351      7.9066      2.0088     -0.0024     38.8593     82.2691     22.1899
  1446.5000   1128.3724      7.9053      2.0167     -0.0442     38.3809     84.4992     23.4294
  1446.6000   1128.3724      7.9053      2.0266     -0.0224     37.7845     83.6510     24.5686
  1446.7000   1128.3724      7.9053      2.0502     -0.0273     36.3545     82.1245     24.9990
  1446.8000   1136.1780      7.8862      2.0864     -0.0068     34.1594     81.1922     24.6255
  1446.9000   1136.1780      7.8862      2.1369     -0.0382     31.0947     81.5419     23.9134
  1447.0000   1119.3363      7.8809      2.2086     -0.0092     26.7538     82.9446     23.7365
  1447.1000   1119.3363      7.8809      2.2900      0.0468     21.8158     83.8180     24.0273
  1447.2000   1119.3363      7.8809      2.3585      0.0483     17.6647     85.3613     23.7198
  1447.3000   1118.9193      7.8787      2.4061      0.0813     14.7792     88.5775     22.4007
  1447.4000   1118.9193      7.8787      2.4390      0.0659     12.7866     89.1650     20.5268
  1447.5000   1118.1981      7.8722      2.4639      0.0783     11.2764     86.7081     18.9557
  1447.6000   1118.1981      7.8722      2.4813      0.0950     10.2226     85.0186     18.4774
  1447.7000   1118.1981      7.8722      2.4903      0.0716      9.6765     84.7469     18.8926
  1447.8000   1121.1841      7.8466      2.4908      0.0729      9.6462     85.4417     19.3604
  1447.9000   1121.1841      7.8466      2.4784      0.0774     10.3983     86.8670     19.3641
  1448.0000   1108.5713      7.8440      2.4613      0.0228     11.4342     86.8411     18.9494
  1448.1000   1108.5713      7.8440      2.4576      0.0671     11.6577     82.8484     18.9075
  1448.2000   1108.5713      7.8440      2.4611      0.0561     11.4464     77.7094     19.5450
  1448.3000   1111.6035      7.8317      2.4541      0.0796     11.8755     77.6280     20.1157
  1448.4000   1111.6035      7.8317      2.4384      0.0348     12.8245     81.1434     19.9945
  1448.5000   1096.2260      7.8297      2.4304     -0.0025     13.3075     84.2286     18.9609
  1448.6000   1096.2260      7.8297      2.4392      0.0283     12.7740     89.2592     17.3994
  1448.7000   1096.2260      7.8297      2.4559      0.0749     11.7626     96.5674     16.2313
  1448.8000   1108.2887      7.8315      2.4669      0.0748     11.0989    101.2465     15.6663
  1448.9000   1108.2887      7.8315      2.4718      0.0552     10.8018    100.7048     15.5530
  1449.0000   1110.5435      7.8410      2.4785      0.0580     10.3961     97.3117     16.2037
  1449.1000   1110.5435      7.8410      2.4842      0.0894     10.0458     94.1475     17.3489
  1449.2000   1110.5435      7.8410      2.4798      0.0753     10.3128     89.3056     18.0580
  1449.3000   1101.0240      7.8508      2.4680      0.0544     11.0325     84.8336     18.0747
  1449.4000   1101.0240      7.8508      2.4594      0.0421     11.5539     87.8805     17.5695
  1449.5000   1105.4940      7.8513      2.4602      0.0431     11.5004     97.0697     16.7698
  1449.6000   1105.4940      7.8513      2.4650      0.0535     11.2145    101.8165     16.1550
  1449.7000   1105.4940      7.8513      2.4628      0.0476     11.3434     97.3020     16.0264
  1449.8000   1118.8413      7.8487      2.4560      0.0371     11.7549     89.5320     15.9303
  1449.9000   1118.8413      7.8487      2.4558      0.0556     11.7700     87.7719     15.1885
  1450.0000   1113.9124      7.8670      2.4648      0.0733     11.2256     92.1043     14.2364
  1450.1000   1113.9124      7.8670      2.4772      0.0460     10.4736     94.4513     13.7307
  1450.2000   1113.9124      7.8670      2.4866      0.0434      9.9008     92.6986     13.8286
  1450.3000   1114.3319      7.8740      2.4862      0.0607      9.9256     92.0387     14.7989
  1450.4000   1114.3319      7.8740      2.4755      0.0636     10.5747     97.1502     16.1391
  1450.5000   1119.1312      7.8735      2.4673      0.0275     11.0726    103.8624     16.6707
  1450.6000   1119.1312      7.8735      2.4687      0.0440     10.9870    105.0597     16.4736
  1450.7000   1119.1312      7.8735      2.4665      0.0322     11.1182    102.5349     16.3785
  1450.8000   1115.3213      7.8732      2.4458      0.0513     12.3740     99.4067     16.5856
  1450.9000   1115.3213      7.8732      2.4129     -0.0145     14.3716     94.7324     16.9850
  1451.0000   1131.5514      7.8749      2.3892     -0.0259     15.8072     88.2034     17.3778
  1451.1000   1131.5514      7.8749      2.3818      0.0264     16.2574     83.0049     17.7046
  1451.2000   1131.5514      7.8749      2.3832      0.0249     16.1670     84.3441     18.0651
  1451.3000   1108.0112      7.8746      2.3916      0.0227     15.6602     89.3792     18.1409
  1451.4000   1108.0112      7.8746      2.4043      0.0191     14.8917     92.1743     17.9159
  1451.5000   1124.7446      7.8692      2.4158      0.0267     14.1944     93.6960     18.2086
  1451.6000   1124.7446      7.8692      2.4257      0.0766     13.5945     95.2183     19.0779
  1451.7000   1124.7446      7.8692      2.4360      0.0571     12.9698     95.3100     19.4376
  1451.8000   1125.2344      7.8396      2.4446      0.0850     12.4480     95.3473     18.7199
  1451.9000   1125.2344      7.8396      2.4475      0.0822     12.2736     96.0726     17.4101
  1452.0000   1105.9963      7.8308      2.4477      0.1051     12.2591     92.9127     16.2641
  1452.1000   1105.9963      7.8308      2.4489      0.0778     12.1909     86.6699     15.9868
  1452.2000   1105.9963      7.8308      2.4460      0.0931     12.3610     83.5277     16.2263
  1452.3000   1115.8608      7.8338      2.4332      0.0643     13.1402     82.8174     16.2810
  1452.4000   1115.8608      7.8338      2.4111      0.0609     14.4765     81.7082     16.4495
  1452.5000   1110.1984      7.8598      2.3895     -0.0101     15.7881     81.6341     16.8483
  1452.6000   1110.1984      7.8598      2.3797      0.0137     16.3839     82.2763     16.8411
  1452.7000   1110.1984      7.8598      2.3835      0.0027     16.1529     82.2066     16.3265
