~Version Information
VERS.                      2.0: CWLS Log ASCII Standard - VERSION 2.0
WRAP.                       NO: One line per depth step
~Well Information Block
STRT.FT                -4.0000: 
STOP.FT              2638.2500: 
STEP.FT                 0.2500: 
NULL.                -999.2500: 
COMP.          Petrogulf Corporation: COMPANY
WELL.            Montoya 6-14V: WELL
FLD.           Purgatorie River: FIELD
LOC.           318' FSL & 882' FWL--: LOCATION
PROV.                       CO: PROVINCE
CNTY.               Las Animas: COUNTRY
SRVC.                         : SERVICE COMPANY
DATE.          Mon May 02 08:32:04 2005: LOG DATE
UWI.      005 071 08020: UNIQUE WELL ID
~Curve Information Block
DEPT.FT            0 000 00 00: Depth
AMP3.mV                       : CBL 3' Amplitude
CCL.                          : Casing Collar Locator
GR.GAPI                       : Gamma Ray
TT3.usec                      : CBL 3' Travel Time
~Parameter Information Block
~A  Depth       AMP3        CCL          GR         TT3     
# ...
  1202.0000     29.6548      0.0000    103.3997    254.0378
  1202.2500     29.4687      0.0000    105.7196    253.9978
  1202.5000     29.1283      0.0000    107.8603    254.0106
  1202.7500     28.8040      0.0000    109.0906    254.0584
  1203.0000     28.6681      0.0000    110.0994    254.1104
  1203.2500     28.8765      0.0000    111.8824    254.1281
  1203.5000     29.5194      0.0000    114.4160    254.0798
  1203.7500     30.5377      0.0000    116.5624    253.9600
  1204.0000     31.6845      0.0000    117.2562    253.7943
  1204.2500     32.6230      0.0000    116.6397    253.6240
  1204.5000     33.1288      0.0000    115.9171    253.4782
  1204.7500     33.2316      0.0000    116.1801    253.3583
  1205.0000     33.1708      0.0000    117.5140    253.2439
  1205.2500     33.2188      0.0000    119.1441    253.1109
  1205.5000     33.5114      0.0000    120.2113    252.9521
  1205.7500     33.9889      0.0000    120.2305    252.7888
  1206.0000     34.4709      0.0000    118.8985    252.6639
  1206.2500     34.7923      0.0000    115.8686    252.6163
  1206.5000     34.8682      0.0000    111.0942    252.6581
  1206.7500     34.6472      0.0000    105.3841    252.7749
  1207.0000     34.0706      0.0000    100.2802    252.9438
  1207.2500     33.1429      0.0000     97.0506    253.1441
  1207.5000     32.0383      0.0000     95.8810    253.3512
  1207.7500     31.0742      0.0000     96.2290    253.5282
  1208.0000     30.5338      0.0000     97.7349    253.6344
  1208.2500     30.4934      0.0000    100.4424    253.6474
  1208.5000     30.8014      0.0000    104.2377    253.5789
  1208.7500     31.2114      0.0000    108.5228    253.4673
  1209.0000     31.5547      0.0000    112.5913    253.3531
  1209.2500     31.8120      0.0000    116.0503    253.2576
  1209.5000     32.0430      0.0000    118.8025    253.1809
  1209.7500     32.2825      0.0000    121.0137    253.1125
  1210.0000     32.5463      0.0000    123.3269    253.0366
  1210.2500     32.9182      0.0000    126.6780    252.9332
  1210.5000     33.5585      0.0000    131.3584    252.7903
  1210.7500     34.5838      0.0000    136.3754    252.6186
  1211.0000     35.9406      0.0000    140.1238    252.4490
  1211.2500     37.4096      0.0000    141.7588    252.3126
  1211.5000     38.7550      0.0000    141.8067    252.2233
  1211.7500     39.9136      0.0000    141.4786    252.1770
  1212.0000     41.0608      0.0000    141.5596    252.1603
  1212.2500     42.4689      0.0000    142.0932    252.1589
  1212.5000     44.2655      0.0000    142.9610    252.1624
  1212.7500     46.2940      0.0000    144.3025    252.1641
  1213.0000     48.1844      0.0000    146.0757    252.1622
  1213.2500     49.5768      0.0000    147.4800    252.1628
  1213.5000     50.3401      0.0000    147.2349    252.1813
  1213.7500     50.6341      0.0000    144.5237    252.2354
  1214.0000     50.7782      0.0000    139.6055    252.3349
  1214.2500     51.0539      0.0000    133.5841    252.4777
  1214.5000     51.6102      0.0000    127.8661    252.6536
  1214.7500     52.4929      0.0000    123.8759    252.8498
  1215.0000     53.6735      0.0000    122.6356    253.0492
  1215.2500     55.0151      0.0000    124.0230    253.2248
  1215.5000     56.2723      0.0000    126.6332    253.3434
  1215.7500     57.2017      0.0000    128.8305    253.3813
  1216.0000     57.6975      0.0000    129.8459    253.3377
  1216.2500     57.8002      0.0000    129.9042    253.2324
  1216.5000     57.5767      0.0000    129.8563    253.0954
  1216.7500     57.0288      0.0000    130.8261    252.9615
  1217.0000     56.1230      0.0000    133.5430    252.8647
  1217.2500     54.8550      0.0000    137.6938    252.8279
  1217.5000     53.2447      0.0000    142.0185    252.8526
  1217.7500     51.2920      0.0000    144.8629    252.9233
  1218.0000     48.9760      0.0000    144.9240    253.0264
  1218.2500     46.2746      0.0000    142.2894    253.1709
  1218.5000     43.1765      0.0000    138.7314    253.4197
  1218.7500     39.7250      0.0000    136.3132    253.9304
  1219.0000     36.0861      0.0000    135.9415    254.9809
  1219.2500     32.5596      0.0000    137.5948    256.8426
  1219.5000     29.5108      0.0000    140.8208    259.3929
  1219.7500     27.2660      0.0000    144.0266    261.7759
  1220.0000     25.9983      0.0000    144.3456    262.7590
  1220.2500     25.6328      0.0000    139.6680    261.7709
  1220.5000     25.8533      0.0000    130.7454    259.5196
  1220.7500     26.2378      0.0000    120.6941    257.4526
  1221.0000     26.4317      0.0000    112.4469    256.8492
  1221.2500     26.2455      0.0000    106.9773    258.5162
  1221.5000     25.6665      0.0000    103.7419    262.8201
  1221.7500     24.8234      0.0000    102.1616    269.4043
  1222.0000     23.9082      0.0000    102.3637    276.9288
  1222.2500     23.0660      0.0000    104.7946    283.6050
  1222.5000     22.3241      0.0000    109.4001    288.2706
  1222.7500     21.6250      0.0000    115.0920    290.9012
  1223.0000     20.9114      0.0000    119.9691    292.1851
  1223.2500     20.1640      0.0000    122.4360    292.8627
  1223.5000     19.3847      0.0000    122.3977    293.4587
  1223.7500     18.5825      0.0000    121.1932    294.6833
  1224.0000     17.7699      0.0000    120.0889    298.2480
  1224.2500     16.9547      0.0000    118.9171    307.7820
  1224.5000     16.1475      0.0000    116.4758    328.0664
  1224.7500     15.3858      0.0000    112.2757    360.8561
  1225.0000     14.7424      0.0000    107.4280    399.5252
  1225.2500     14.3045      0.0000    103.5455    429.4624
  1225.5000     14.1319      0.0000    101.1504    437.0104
  1225.7500     14.2088      0.0000     99.6116    419.2784
  1226.0000     14.4205      0.0000     98.4088    385.8980
  1226.2500     14.5933      0.0000     97.8499    352.6891
  1226.5000     14.5899      0.0000     98.5186    333.8644
  1226.7500     14.3787      0.0000    100.5572    337.8646
  1227.0000     14.0159      0.0000    103.6570    366.6449
  1227.2500     13.5802      0.0000    107.3520    415.7727
  1227.5000     13.1316      0.0000    111.0523    476.0421
  1227.7500     12.7012      0.0000    114.0210    537.9573
  1228.0000     12.2806      0.0000    115.6259    595.2235
  1228.2500     11.8184      0.0000    115.7092    644.0606
  1228.5000     11.2521      0.0000    114.6688    681.7122
  1228.7500     10.5658      0.0000    113.1694    707.7548
  1229.0000      9.8311      0.0000    111.7346    725.3885
  1229.2500      9.1965      0.0000    110.5631    739.4493
  1229.5000      8.8319      0.0000    109.7881    752.6099
  1229.7500      8.8574      0.0000    109.9147    763.1424
  1230.0000      9.2931      0.0000    111.6836    765.6316
  1230.2500     10.0651      0.0000    115.3817    752.9644
  1230.5000     11.0745      0.0000    120.6321    718.0887
  1230.7500     12.2747      0.0000    126.8479    656.6597
  1231.0000     13.6742      0.0000    133.5330    572.0333
  1231.2500     15.2490      0.0000    140.0818    478.4992
  1231.5000     16.8575      0.0000    145.6677    396.0051
  1231.7500     18.2935      0.0000    149.5435    338.3593
  1232.0000     19.4891      0.0000    151.2331    306.2445
  1232.2500     20.6558      0.0000    150.2211    290.9001
  1232.5000     22.1502      0.0000    145.8056    282.6089
  1232.7500     24.1889      0.0000    137.7514    275.9937
  1233.0000     26.7276     -2.0000    127.0555    270.0269
  1233.2500     29.5692      0.0000    115.8937    265.3905
  1233.5000     32.4702      2.0000    106.9296    262.4217
  1233.7500     35.1455      0.0000    102.3966    260.7169
  1234.0000     37.3018      0.0000    103.0542    259.6453
  1234.2500     38.7849      0.0000    107.6243    258.7024
  1234.5000     39.7052      0.0000    113.4305    257.5938
  1234.7500     40.3427      0.0000    117.7573    256.2559
  1235.0000     40.8446      0.0000    119.0068    254.8664
  1235.2500     40.9897      0.0000    117.2780    253.7808
