~Version Information
VERS.                      2.0: CWLS Log ASCII Standard - VERSION 2.0
WRAP.                       NO: One line per depth step
~Well Information Block
STRT.FT                -7.0000: 
STOP.FT              1329.7500: 
STEP.FT                 0.2500: 
NULL.                -999.2500: 
COMP.          Pioneer Natural Resources: COMPANY
WELL.             Raptor 44-26: WELL
FLD.           Purgatorie River: FIELD
LOC.           180' FSL & 812' FEL--: LOCATION
PROV.                       CO: PROVINCE
CNTY.               Las Animas: COUNTRY
SRVC.          Patterson Wireline: SERVICE COMPANY
DATE.          Wed Mar 30 12:38:23 2005: LOG DATE
UWI.           05 071 08187 00: UNIQUE WELL ID
~Curve Information Block
DEPT.FT            0 000 00 00: Depth
CCL.                          : Casing Collar Locator
TT3.usec                      : CBL 3' Travel Time
AMP3.mV                       : CBL 3' Amplitude
GR.GAPI                       : Gamma Ray
~Parameter Information Block
MINATTN.db/ft           0.8000: Minimum Attenuation
~A  Depth       CCL         TT3         AMP3         GR     
# ...
   160.5000      0.0000    811.7103      8.7674     61.7197
   160.7500      0.0000    823.2694      7.8052     60.0825
   161.0000      0.0000    842.8880      6.9369     57.8982
   161.2500      0.0000    868.9921      6.3239     54.6721
   161.5000      0.0000    892.9031      6.0288     50.9319
   161.7500      0.0000    907.1434      5.9764     47.9976
   162.0000      0.0000    911.6492      6.0278     47.3486
   162.2500     -2.0000    913.0944      6.0778     49.8911
   162.5000     -2.0000    919.6240      6.1033     55.3364
   162.7500      0.0000    934.3115      6.1654     62.0022
   163.0000      0.0000    950.8900      6.3630     67.6230
   163.2500      0.0000    956.9586      6.7470     70.8524
   163.5000      0.0000    944.6705      7.2812     71.9817
   163.7500      0.0000    918.3165      7.9149     72.1327
   164.0000      0.0000    890.0269      8.6570     72.0440
   164.2500      0.0000    869.3082      9.5169     71.7948
   164.5000      0.0000    858.0747     10.3974     71.3802
   164.7500      0.0000    853.3518     11.1142     71.0401
   165.0000      0.0000    851.6953     11.5311     70.9502
   165.2500      0.0000    851.0944     11.6500     71.1159
   165.5000      0.0000    850.7661     11.5738     71.8315
   165.7500      0.0000    850.4881     11.4155     73.7036
   166.0000      0.0000    850.1900     11.2478     76.8466
   166.2500      0.0000    849.8111     11.1076     80.4342
   166.5000      0.0000    849.2336     11.0148     83.3232
   166.7500      0.0000    848.2304     10.9746     84.9674
   167.0000      0.0000    846.5444     10.9687     85.7657
   167.2500      0.0000    844.2386     10.9547     86.6487
   167.5000      0.0000    842.0579     10.8848     88.1091
   167.7500      0.0000    841.1343     10.7334     89.3016
   168.0000      0.0000    842.0068     10.5135     88.2719
   168.2500      0.0000    844.0620     10.2652     83.7117
   168.5000      0.0000    846.1432     10.0276     76.7326
   168.7500      0.0000    847.5188      9.8202     70.4478
   169.0000      0.0000    848.1044      9.6484     67.4950
   169.2500      0.0000    848.0017      9.5184     68.1691
   169.5000      0.0000    847.0470      9.4390     70.8710
   169.7500      0.0000    844.7874      9.4111     73.7827
   170.0000      0.0000    840.9772      9.4224     75.8743
   170.2500      0.0000    836.2643      9.4540     76.8498
   170.5000      0.0000    832.1523      9.4920     76.8483
   170.7500      0.0000    829.7726      9.5299     76.4377
   171.0000      0.0000    828.8508      9.5615     76.5221
   171.2500      0.0000    828.5233      9.5772     77.7600
   171.5000      0.0000    828.9554      9.5709     80.0369
   171.7500      0.0000    831.1871      9.5471     82.5655
   172.0000      0.0000    835.3749      9.5145     84.4343
   172.2500      0.0000    840.1028      9.4698     85.1122
   172.5000      0.0000    843.6255      9.3973     84.5069
   172.7500      0.0000    845.1633      9.2918     82.6442
   173.0000      0.0000    844.9521      9.1768     79.5872
   173.2500      0.0000    843.6489      9.0843     75.8155
   173.5000      0.0000    841.7415      9.0196     72.2928
   173.7500      0.0000    839.1798      8.9584     69.7650
   174.0000      0.0000    836.0097      8.8825     68.1853
   174.2500      0.0000    834.1613      8.8060     67.1231
   174.5000      0.0000    837.3645      8.7623     66.4573
   174.7500      0.0000    846.7217      8.7715     66.2788
   175.0000      0.0000    856.6995      8.8194     66.4134
   175.2500      0.0000    858.8260      8.8594     66.5419
   175.5000      0.0000    850.2487      8.8426     66.6822
   175.7500      0.0000    835.9878      8.7570     67.0815
   176.0000      0.0000    822.3201      8.6363     67.6670
   176.2500      0.0000    811.3714      8.5191     67.9767
   176.5000      0.0000    803.2421      8.4103     67.7041
   176.7500      0.0000    799.6800      8.2935     67.1309
   177.0000      0.0000    802.7318      8.1727     67.0149
   177.2500      0.0000    811.1934      8.0866     68.0763
   177.5000      0.0000    820.8727      8.0823     70.4945
   177.7500      0.0000    828.5379      8.1795     73.9848
   178.0000      0.0000    834.4366      8.3570     78.4797
   178.2500      0.0000    841.1487      8.5632     84.2561
   178.5000      0.0000    850.8651      8.7438     90.8017
   178.7500      0.0000    863.2912      8.8675     95.9731
   179.0000      0.0000    874.9346      8.9368     97.4481
   179.2500      0.0000    881.2612      8.9737     95.1563
   179.5000      0.0000    881.2638      8.9875     91.5036
   179.7500      0.0000    878.9695      8.9530     89.0282
   180.0000      0.0000    878.5901      8.8311     88.3518
   180.2500      0.0000    879.4738      8.6112     88.5508
   180.5000      0.0000    878.0704      8.3220     88.9479
   180.7500      0.0000    873.4520      7.9974     89.7749
   181.0000      0.0000    867.8787      7.6506     91.0250
   181.2500      0.0000    862.3533      7.2856     91.5455
   181.5000      0.0000    854.6327      6.9211     89.9881
   181.7500      0.0000    842.6211      6.5953     86.4585
   182.0000      0.0000    827.8384      6.3528     82.7658
   182.2500      0.0000    814.2588      6.2233     81.0181
   182.5000      0.0000    804.6510      6.2015     82.0647
   182.7500      0.0000    799.0378      6.2417     85.1328
   183.0000      0.0000    795.8358      6.2797     88.6707
   183.2500      0.0000    793.4501      6.2662     91.3221
   183.5000      0.0000    791.1210      6.1884     92.3866
   183.7500      0.0000    789.1722      6.0748     91.9511
   184.0000      0.0000    788.5674      5.9798     90.7301
   184.2500      0.0000    789.8295      5.9462     89.2942
   184.5000      0.0000    792.4713      5.9751     87.2841
   184.7500      0.0000    795.6823      6.0441     83.9100
   185.0000      0.0000    799.3708      6.1593     79.3197
   185.2500      0.0000    804.1583      6.3706     74.8600
   185.5000      0.0000    810.2277      6.7211     71.8875
   185.7500      0.0000    816.5461      7.1810     70.8512
   186.0000      0.0000    821.9865      7.6341     71.5547
   186.2500      0.0000    827.1951      7.9378     73.6641
   186.5000      0.0000    833.9390      8.0093     76.6834
   186.7500      0.0000    842.0401      7.8674     79.8997
   187.0000      0.0000    848.5284      7.6039     82.7174
   187.2500      0.0000    850.6208      7.3241     84.9292
   187.5000      0.0000    848.1533      7.1023     86.6683
   187.7500      0.0000    842.5417      6.9738     88.2906
   188.0000      0.0000    835.0129      6.9411     90.1715
   188.2500      0.0000    826.8425      6.9737     92.2722
   188.5000      0.0000    820.1484      7.0043     93.9387
   188.7500      0.0000    816.9373      6.9452     94.3260
   189.0000      0.0000    817.1960      6.7344     93.0681
   189.2500      0.0000    818.2804      6.3834     90.6132
   189.5000      0.0000    816.1819      5.9869     87.9782
   189.7500      0.0000    808.0814      5.6761     86.0858
   190.0000      0.0000    794.9294      5.5455     85.2947
   190.2500      0.0000    781.3275      5.6062     85.5803
   190.5000      0.0000    771.8351      5.7927     86.9789
   190.7500      0.0000    767.4648      6.0091     89.4632
   191.0000      0.0000    766.1407      6.1795     92.3306
   191.2500      0.0000    765.7544      6.2791     94.0915
   191.5000      0.0000    765.7565      6.3301     93.2995
   191.7500      0.0000    766.0851      6.3733     89.6539
   192.0000      0.0000    766.0610      6.4419     84.3146
   192.2500      0.0000    765.1497      6.5521     79.1795
   192.5000      0.0000    764.1281      6.6993     75.8162
   192.7500      0.0000    764.5332      6.8580     74.7272
   193.0000      0.0000    767.0009      6.9972     75.1951
   193.2500      0.0000    770.8082      7.1053     75.8654
   193.5000      0.0000    775.3242      7.1904     75.8607
   193.7500      0.0000    781.5664      7.2597     75.4472
