~Version Information
 VERS.                                  2.0 : CWLS LAS VERSION
 WRAP.                                   NO : WRAPING MODE
 SWARE .                 MController 2.5.0J : SOFTWARE VERSION
~Well Information
 WELL.                         Squeal 11-26 : WELL
 COMP.    Pioneer Natural Resources USA Inc : COMPANY
 FLD.                      Purgatoire River : FIELD
 LOC.                NW/NW Sec 26 T32S R67W : LOCATION
 DATE.                         6/13-14/2005 : DATE(S) LOGGED
 SRVC.       Blanco Geological Services LLC : SERVICE COMPANY
 STAT.                                   CO : STATE
 CNTY.                           Las Animas : COUNTY
 CTRY.                                  USA : COUNTRY
 API.                       05-071-08404-00 : API NUMBER
 STRT.FT                             285.00 : START DEPTH
 STOP.FT                            2760.00 : STOP DEPTH
 STEP.FT                               1.00 : DEPTH INCREMENT
 NULL.                                -9999 : NULL VALUE
~Curve information
 DEPTH.FT                                   :
 ROP.MIN/FT                                 :
 GAS.UNITS                                  :
~ASCII Log data
# ...
      1885.0         0.72        941.8 
      1886.0         0.63        992.7 
      1887.0         0.53       1000.1 
      1888.0         0.33        982.9 
      1889.0         0.33        960.4 
      1890.0         0.27        933.8 
      1891.0         7.10       1793.2 
      1892.0         2.92       2380.8 
      1893.0         1.05       2749.0 
      1894.0         0.60       2477.2 
      1895.0         1.17       1367.0 
      1896.0         0.63        770.7 
      1897.0         0.72        736.7 
      1898.0         0.80        472.5 
      1899.0         0.90        443.2 
      1900.0         0.63         67.7 
      1901.0         1.05        156.2 
      1902.0         0.60        182.3 
      1903.0         0.67        207.4 
      1904.0         0.57        207.5 
      1905.0         0.47        201.1 
      1906.0         0.40        185.2 
      1907.0         0.37        175.1 
      1908.0         0.45        172.8 
      1909.0         0.47        188.6 
      1910.0         0.40        205.2 
      1911.0         0.50        225.5 
      1912.0         0.83        227.2 
      1913.0         0.85        197.9 
      1914.0         0.60        178.2 
      1915.0         0.30        183.1 
      1916.0         0.83        229.9 
      1917.0         0.80        236.9 
      1918.0         1.05        173.9 
      1919.0         1.27        138.0 
      1920.0         0.37        169.9 
      1921.0         0.90        287.6 
      1922.0        12.37       4053.2 
      1923.0         0.47       1587.4 
      1924.0         0.93       1200.9 
      1925.0         1.08        815.5 
      1926.0         1.03         59.7 
      1927.0         0.57         80.0 
      1928.0         0.53        140.2 
      1929.0         1.08        190.3 
      1930.0         1.08        190.8 
      1931.0         0.83        194.7 
      1932.0         0.75        211.3 
      1933.0         1.12        221.0 
      1934.0         0.40        242.0 
      1935.0         0.37        258.8 
      1936.0         0.33        271.3 
      1937.0         0.37        275.9 
      1938.0         0.33        271.4 
      1939.0         0.37        248.6 
      1940.0         0.33        218.5 
      1941.0         0.33        196.5 
      1942.0         0.45        174.2 
      1943.0         0.30        154.8 
      1944.0         0.33        174.0 
      1945.0         0.33        196.0 
      1946.0         0.33        196.2 
      1947.0         0.30        182.4 
      1948.0         0.30        160.1 
      1949.0         0.27        143.0 
      1950.0         0.20        132.2 
      1951.0         6.17        353.4 
      1952.0         1.98       1813.4 
      1953.0         1.23       2261.5 
      1954.0         0.73       2377.8 
      1955.0         0.57       2285.8 
      1956.0         0.45       1782.8 
      1957.0         0.30       1397.3 
      1958.0         0.57       1201.9 
      1959.0         0.37        998.4 
      1960.0         0.37        941.5 
      1961.0         0.40        900.7 
      1962.0         0.43        903.1 
      1963.0         0.37        849.5 
      1964.0         0.65        621.1 
      1965.0         0.63        441.2 
      1966.0         0.87         23.3 
      1967.0         0.40         35.1 
      1968.0         0.40         72.4 
      1969.0         0.33        102.0 
      1970.0         0.38        128.1 
      1971.0         0.37        139.4 
      1972.0         0.50        141.3 
      1973.0         0.43        138.6 
      1974.0         1.03        137.7 
      1975.0         1.98        145.7 
      1976.0         1.33        211.0 
      1977.0         0.40        215.8 
      1978.0         0.37        227.8 
      1979.0         0.32        243.6 
      1980.0         0.63        270.0 
      1981.0         2.85        284.7 
      1982.0         2.43       1609.6 
      1983.0         1.32       2449.2 
      1984.0         0.73       2750.4 
      1985.0         1.10       3208.3 
      1986.0         0.98       3433.3 
      1987.0         0.87       3398.6 
      1988.0         2.27       3054.0 
      1989.0         1.18       1764.6 
      1990.0         2.00       1269.7 
      1991.0         1.02         55.0 
      1992.0         0.97        136.2 
      1993.0         0.87        178.0 
      1994.0         0.98        209.3 
      1995.0         0.70        216.4 
      1996.0         0.83        216.5 
      1997.0         1.13        213.4 
      1998.0         0.75        208.0 
      1999.0         0.87        183.3 
      2000.0         0.77        143.5 
      2001.0         0.80        130.7 
      2002.0         0.92        116.9 
      2003.0         1.00        125.4 
      2004.0         0.73        167.0 
      2005.0         1.65        456.4 
      2006.0         1.30       1484.9 
      2007.0         0.83       1636.9 
      2008.0         1.42       2024.7 
      2009.0         1.47       1801.6 
      2010.0         0.83        616.7 
      2011.0         2.62        662.2 
      2012.0         0.80         49.0 
      2013.0         0.88         29.7 
      2014.0         0.50         52.5 
      2015.0         0.47         94.5 
      2016.0         0.53        126.4 
      2017.0         0.70        127.0 
      2018.0         0.58        112.9 
      2019.0         0.53        116.5 
      2020.0         0.57        137.0 
      2021.0         0.57        151.8 
      2022.0         0.57        154.9 
      2023.0         0.98        154.2 
      2024.0         0.80        160.9 
      2025.0         0.80        167.2 
      2026.0         0.77        166.4 
      2027.0         0.77        180.0 
      2028.0         0.15        186.4 
      2029.0         0.67        218.9 
      2030.0         0.83        235.2 
      2031.0         0.93        391.3 
      2032.0         0.70        398.1 
      2033.0         0.45        355.4 
      2034.0         0.10        351.4 
      2035.0         0.23        355.9 
      2036.0         0.13        356.7 
      2037.0         0.10        353.3 
      2038.0         0.23        342.9 
      2039.0         0.10        304.5 
      2040.0         0.13        285.8 
      2041.0        12.43       2755.8 
      2042.0         0.77         55.7 
      2043.0         1.20         90.2 
      2044.0         0.83        142.3 
      2045.0         1.35        175.7 
      2046.0         0.10        176.7 
      2047.0         1.20        197.9 
      2048.0         0.40        199.0 
      2049.0         1.95        204.1 
      2050.0         0.60        179.8 
      2051.0         1.48        178.9 
      2052.0         0.03         97.1 
      2053.0         0.93         95.5 
      2054.0         0.07         67.8 
      2055.0         0.67        107.3 
      2056.0         0.03        109.8 
      2057.0         0.70        162.5 
      2058.0         0.30        190.6 
      2059.0         0.65        267.9 
      2060.0         0.23        297.3 
      2061.0         0.73        384.3 
      2062.0         0.13        394.9 
      2063.0         0.13        408.2 
      2064.0         0.83        476.2 
      2065.0         1.35       1344.8 
      2066.0         1.03       1520.3 
      2067.0         0.13       1501.5 
      2068.0         0.27       1445.2 
      2069.0         0.13       1284.1 
      2070.0         0.10       1208.7 
      2071.0         0.07       1164.2 
      2072.0         0.30       1132.5 
      2073.0         0.93       1019.3 
      2074.0         0.45        883.9 
      2075.0         0.20        870.4 
      2076.0         0.23        869.7 
      2077.0         0.23        868.7 
      2078.0         0.40        872.4 
      2079.0         0.53        884.6 
      2080.0         0.43        904.1 
      2081.0         0.20        970.1 
      2082.0         0.57       1206.7 
      2083.0         0.85        798.3 
      2084.0         0.83         47.5 
