~Version Information
VERS.                      2.0: CWLS Log ASCII Standard - VERSION 2.0
WRAP.                       NO: One line per depth step
~Well Information Block
STRT.FT               970.5000: 
STOP.FT              2720.0000: 
STEP.FT                 0.1000: 
NULL.                -999.2500: 
COMP.          Petrogulf Corporation: COMPANY
WELL.             Burson 8-31V: WELL
FLD.           Purgatorie River: FIELD
LOC.           1113' FNL & 2152' FEL: LOCATION
CNTY.               Las Animas: COUNTY
SRVC.                         : SERVICE COMPANY
DATE.          Wed Nov 12 14:59:14 2003: LOG DATE
UWI.                          : UNIQUE WELL ID
STAT.                 Colorado: STATE
~Curve Information Block
DEPT.FT            0 000 00 00: Depth
DCAL.in                       : CDL Caliper
DPOR.pu                       : CDL Density Porosity
NEU.NAPI                      : Neutron
NPOR.pu                       : Neutron Porosity
RHOB.g/cc                     : CDL Bulk Density
RHOC.g/cc                     : CDL Density Correction
GR.GAPI                       : Gamma Ray
~Parameter Information Block
~A  Depth       DCAL        DPOR        NEU         NPOR        RHOB        RHOC         GR     
# ...
  2364.9000      7.9023     10.3074    277.3050     20.7137      2.4799      0.0190     87.3657
  2365.0000      7.9038     10.0425    275.4673     20.8857      2.4843      0.0227     71.6708
  2365.1000      7.9038      8.0291    272.8835     21.1282      2.5175      0.0471     71.6708
  2365.2000      7.9038      5.4383    271.9402     21.2169      2.5603      0.1231     71.6708
  2365.3000      7.8826      4.0111    269.5642     21.4410      2.5838      0.1289     78.9369
  2365.4000      7.8826      3.3926    267.1704     21.6675      2.5940      0.0705     78.9369
  2365.5000      7.8420      2.5126    268.2617     21.5642      2.6085      0.0649     73.7684
  2365.6000      7.8420      1.9955    270.1893     21.3820      2.6171      0.1526     73.7684
  2365.7000      7.8420      2.8780    270.0883     21.3915      2.6025      0.0662     73.7684
  2365.8000      7.8318      4.0759    269.5889     21.4387      2.5827     -0.0080     64.9697
  2365.9000      7.8318      3.9034    268.1982     21.5702      2.5856      0.0420     64.9697
  2366.0000      7.8257      2.5071    266.1533     21.7640      2.6086      0.0642     69.0500
  2366.1000      7.8257      0.8068    265.2375     21.8509      2.6367      0.1053     69.0500
  2366.2000      7.8257     -1.0256    261.8920     22.1695      2.6669      0.0466     69.0500
  2366.3000      7.8124     -2.6418    253.1104     23.0122      2.6936      0.1509     66.7873
  2366.4000      7.8124     -3.2191    244.8289     23.8150      2.7031      0.1214     66.7873
  2366.5000      7.8120     -3.1297    242.3705     24.0548      2.7016      0.0621     63.8377
  2366.6000      7.8120     -3.1422    245.9959     23.7014      2.7018      0.0741     63.8377
  2366.7000      7.8120     -3.0129    254.6130     22.8674      2.6997      0.0849     63.8377
  2366.8000      7.8196     -2.0996    263.4876     22.0174      2.6846      0.0902     54.0051
  2366.9000      7.8196     -0.5289    266.7145     21.7107      2.6587      0.0192     54.0051
  2367.0000      7.8551      0.2362    263.6436     22.0025      2.6461      0.0099     46.2293
  2367.1000      7.8551      0.0379    258.3418     22.5091      2.6494      0.1049     46.2293
  2367.2000      7.8551      0.5321    255.5202     22.7800      2.6412     -0.0084     46.2293
  2367.3000      7.8616      1.7633    255.9586     22.7379      2.6209     -0.0261     59.3136
  2367.4000      7.8616      2.6779    258.1041     22.5319      2.6058     -0.0184     59.3136
  2367.5000      7.8681      3.0728    262.0750     22.1521      2.5993      0.0250     64.9409
  2367.6000      7.8681      3.1156    267.5744     21.6292      2.5986      0.0502     64.9409
  2367.7000      7.8681      2.5662    271.0777     21.2982      2.6077      0.0502     64.9409
  2367.8000      7.8675      1.8963    273.2081     21.0977      2.6187      0.1059     70.1975
  2367.9000      7.8675      2.0487    277.0571     20.7369      2.6162      0.0411     70.1975
  2368.0000      7.8646      2.9368    280.2531     20.4389      2.6015      0.0797     74.4528
  2368.1000      7.8646      4.4035    281.3284     20.3389      2.5773      0.0946     74.4528
  2368.2000      7.8646      6.3562    284.6881     20.0277      2.5451      0.0437     74.4528
  2368.3000      7.8729      8.2443    290.4261     19.4998      2.5140      0.0279     73.5020
  2368.4000      7.8729      9.4002    289.9341     19.5449      2.4949     -0.0096     73.5020
  2368.5000      7.8879      9.2628    281.7760     20.2973      2.4972      0.0166     89.0339
  2368.6000      7.8879      7.8544    275.4542     20.8869      2.5204      0.0200     89.0339
  2368.7000      7.8879      6.0663    275.7115     20.8628      2.5499      0.0857     89.0339
  2368.8000      7.8643      4.9903    280.0313     20.4595      2.5677      0.0543     62.2997
  2368.9000      7.8643      5.0737    287.4418     19.7738      2.5663      0.0937     62.2997
  2369.0000      7.8584      5.8547    295.1260     19.0711      2.5534      0.0414     62.9809
  2369.1000      7.8584      6.2240    297.7570     18.8326      2.5473      0.0493     62.9809
  2369.2000      7.8584      5.5921    295.1681     19.0673      2.5577      0.0628     62.9809
  2369.3000      7.8971      4.3312    289.2921     19.6038      2.5785      0.0565     65.0855
  2369.4000      7.8971      3.4397    281.2950     20.3420      2.5932      0.1241     65.0855
  2369.5000      7.8868      3.9443    277.3703     20.7076      2.5849      0.1419     67.9853
  2369.6000      7.8868      5.6260    282.8933     20.1937      2.5572      0.0291     67.9853
  2369.7000      7.8868      7.0754    290.1021     19.5295      2.5333     -0.0002     67.9853
  2369.8000      7.8987      7.3778    289.6150     19.5742      2.5283      0.0386     65.2340
  2369.9000      7.8987      6.5506    284.8278     20.0148      2.5419      0.0298     65.2340
  2370.0000      7.8824      4.9879    282.3572     20.2434      2.5677      0.0680     65.9472
  2370.1000      7.8824      3.7824    285.1802     19.9822      2.5876      0.1510     65.9472
  2370.2000      7.8824      4.2220    293.1577     19.2503      2.5803      0.0667     65.9472
  2370.3000      7.9109      5.8371    302.0325     18.4473      2.5537      0.0343     71.8593
  2370.4000      7.9109      7.0810    307.6642     17.9442      2.5332      0.0312     71.8593
  2370.5000      7.9094      7.1526    309.4252     17.7879      2.5320     -0.0109     55.9054
  2370.6000      7.9094      6.1583    305.8736     18.1036      2.5484      0.0770     55.9054
  2370.7000      7.9094      4.9019    297.0206     18.8993      2.5691      0.0577     55.9054
  2370.8000      7.8976      3.9679    289.1536     19.6165      2.5845      0.0327     67.4681
  2370.9000      7.8976      3.5011    286.8896     19.8246      2.5922      0.0923     67.4681
  2371.0000      7.8830      3.6296    288.2862     19.6961      2.5901      0.0692     63.7331
  2371.1000      7.8830      4.0055    291.3526     19.4151      2.5839      0.0743     63.7331
  2371.2000      7.8830      4.3011    294.1595     19.1590      2.5790      0.0869     63.7331
  2371.3000      7.8939      4.1102    294.0194     19.1718      2.5822      0.0432     59.8315
  2371.4000      7.8939      2.8123    291.6283     19.3899      2.6036      0.0795     59.8315
  2371.5000      7.9127      1.3178    291.7387     19.3798      2.6283      0.1233     58.3965
  2371.6000      7.9127      1.7456    293.0594     19.2592      2.6212      0.1494     58.3965
  2371.7000      7.9127      4.1892    289.3153     19.6016      2.5809      0.0053     58.3965
  2371.8000      7.8937      5.8281    282.9393     20.1895      2.5538     -0.0447     52.5471
  2371.9000      7.8937      4.9524    279.6244     20.4974      2.5683      0.0600     52.5471
  2372.0000      7.8799      3.1773    277.6578     20.6808      2.5976      0.1061     64.7993
  2372.1000      7.8799      2.2516    275.6768     20.8660      2.6128      0.0865     64.7993
  2372.2000      7.8799      1.9669    273.9800     21.0251      2.6175      0.0632     64.7993
  2372.3000      7.8782      1.8307    269.5567     21.4417      2.6198      0.1249     76.7717
  2372.4000      7.8782      1.8618    260.2020     22.3310      2.6193      0.0831     76.7717
  2372.5000      7.8776      1.6888    249.8524     23.3271      2.6221      0.0987     71.5735
  2372.6000      7.8776      1.2492    243.2227     23.9716      2.6294      0.1229     71.5735
  2372.7000      7.8776      0.9696    236.5153     24.6284      2.6340      0.0975     71.5735
  2372.8000      7.8837      0.9705    226.1881     25.6483      2.6340      0.0897     89.0565
  2372.9000      7.8837      1.8752    216.8313     26.5807      2.6191      0.1217     89.0565
  2373.0000      7.8644      4.3751    211.3023     27.1351      2.5778      0.1169     84.9094
  2373.1000      7.8644      7.7046    207.0078     27.5674      2.5229      0.0568     84.9094
  2373.2000      7.8644     10.6136    202.3582     28.0369      2.4749      0.0721     84.9094
