~Version Information
VERS.                      2.0: CWLS Log ASCII Standard - VERSION 2.0
WRAP.                       NO: One line per depth step
~Well Information Block
STRT.FT                -0.2500: 
STOP.FT              2376.7500: 
STEP.FT                 0.2500: 
NULL.                -999.2500: 
COMP.          Petrogulf Corporation: COMPANY
WELL.             State 16-23V: WELL
FLD.           Purgatorie River: FIELD
LOC.           2414' FSL & 2215' FWL: LOCATION
PROV.                 Colorado: PROVINCE
CNTY.               Las Animas: COUNTRY
SRVC.          Patterson Wireline: SERVICE COMPANY
DATE.          Wed Jun 25 14:56:54 2003: LOG DATE
UWI.           05 071 07865 00: UNIQUE WELL ID
~Curve Information Block
DEPT.FT            0 000 00 00: Depth
CCL.                          : Casing Collar Locator
TT3.usec                      : CBL 3' Travel Time
AMP3.mV                       : CBL 3' Amplitude
GR.GAPI                       : Gamma Ray
~Parameter Information Block
~A  Depth       CCL         TT3         AMP3         GR     
# ...
   468.7500      0.0000    263.5827     47.7597     73.1860
   469.0000      0.0000    263.1830     49.8187     70.4980
   469.2500      0.0000    262.4366     52.9814     69.3126
   469.5000      0.0000    261.3188     57.0136     70.9209
   469.7500      0.0000    259.9978     61.6727     74.8273
   470.0000      0.0000    258.7591     66.8061     79.3354
   470.2500      0.0000    257.8365     71.9813     83.1521
   470.5000      0.0000    257.2982     76.3801     85.9447
   470.7500      0.0000    257.0628     79.3593     87.6801
   471.0000      0.0000    256.9948     80.9463     88.3286
   471.2500      0.0000    256.9889     81.6547     88.2863
   471.5000      0.0000    256.9942     81.9832     88.2084
   471.7500      0.0000    256.9962     82.1765     88.1637
   472.0000      0.0000    256.9909     82.3048     87.5075
   472.2500      0.0000    256.9729     82.3852     85.5882
   472.5000      0.0000    256.9353     82.4195     82.1033
   472.7500      0.0000    256.8790     82.4012     77.1125
   473.0000      0.0000    256.8239     82.3403     71.4418
   473.2500      0.0000    256.8000     82.2722     66.8576
   473.5000      0.0000    256.8213     82.2374     65.0602
   473.7500      0.0000    256.8681     82.2652     66.2940
   474.0000      0.0000    256.8996     82.3666     69.2296
   474.2500      0.0000    256.8817     82.5179     72.2023
   474.5000      0.0000    256.8077     82.6489     74.2896
   474.7500      0.0000    256.7096     82.6797     75.3262
   475.0000      0.0000    256.6510     82.5894     75.4573
   475.2500      0.0000    256.6888     82.4404     75.0503
   475.5000      0.0000    256.8218     82.3237     74.7840
   475.7500      0.0000    256.9816     82.2868     75.3913
   476.0000      0.0000    257.0807     82.3110     77.2402
   476.2500      0.0000    257.0755     82.3421     80.2910
   476.5000      0.0000    256.9890     82.3473     84.2137
   476.7500      0.0000    256.8860     82.3482     88.2242
   477.0000      0.0000    256.8266     82.3889     91.1629
   477.2500      0.0000    256.8304     82.4631     92.4948
   477.5000      0.0000    256.8725     82.4996     93.3468
   477.7500      0.0000    256.9087     82.4457     95.8972
   478.0000      0.0000    256.9083     82.3493    101.2577
   478.2500      0.0000    256.8703     82.3168    108.2564
   478.5000      0.0000    256.8218     82.3851    114.5444
   478.7500      0.0000    256.8001     82.4744    118.5017
   479.0000      0.0000    256.8239     82.4762    119.9849
   479.2500      0.0000    256.8790     82.3584    119.7985
   479.5000      0.0000    256.9353     82.1744    118.6876
   479.7500      0.0000    256.9730     82.0042    116.6019
   480.0000      0.0000    256.9912     81.9020    112.9568
   480.2500      0.0000    256.9978     81.8760    107.7769
   480.5000      0.0000    256.9991     81.8968    102.4023
   480.7500      0.0000    256.9977     81.9236     98.8579
   481.0000      0.0000    256.9913     81.9251     98.3848
   481.2500      0.0000    256.9730     81.8878    100.4620
   481.5000      0.0000    256.9353     81.8173    103.2853
   481.7500      0.0000    256.8790     81.7325    105.3181
   482.0000      0.0000    256.8240     81.6588    106.3572
   482.2500      0.0000    256.8005     81.6202    107.1086
   482.5000      0.0000    256.8240     81.6282    107.9688
   482.7500      0.0000    256.8790     81.6650    108.4511
   483.0000      0.0000    256.9353     81.6835    107.7735
   483.2500      0.0000    256.9730     81.6366    105.7845
   483.5000      0.0000    256.9912     81.5250    103.2045
   483.7500      0.0000    256.9978     81.4182    101.0517
   484.0000      0.0000    256.9996     81.4078    100.0140
   484.2500      0.0000    256.9999     81.5224    100.3692
   484.5000      0.0000    257.0000     81.6808    102.1895
   484.7500      0.0000    257.0000     81.7425    105.3584
   485.0000      0.0000    257.0000     81.6295    109.4149
   485.2500      0.0000    257.0000     81.4093    113.6177
   485.5000      0.0000    257.0000     81.2439    117.3818
   485.7500      0.0000    257.0000     81.2498    120.5920
   486.0000      0.0000    257.0000     81.4042    123.2138
   486.2500      0.0000    257.0000     81.5738    124.6678
   486.5000      0.0000    257.0000     81.6218    124.0447
   486.7500      0.0000    257.0000     81.5040    121.0747
   487.0000      0.0000    257.0000     81.2928    116.5835
   487.2500      0.0000    257.0000     81.1150    111.9947
   487.5000      0.0000    257.0000     81.0517    108.6383
   487.7500      0.0000    257.0000     81.0895    107.2171
   488.0000      0.0000    257.0000     81.1627    107.4222
   488.2500      0.0000    256.9996     81.2261    108.1435
   488.5000      0.0000    256.9978     81.2838    108.3907
   488.7500      0.0000    256.9913     81.3711    108.1304
   489.0000      0.0000    256.9730     81.5230    108.3085
   489.2500      0.0000    256.9353     81.7420    110.0887
   489.5000      0.0000    256.8790     81.9783    113.8959
   489.7500      0.0000    256.8239     82.1453    119.0485
   490.0000      0.0000    256.8001     82.1677    124.3721
   490.2500      0.0000    256.8217     82.0239    129.1164
   490.5000      0.0000    256.8698     81.7586    133.1539
   490.7500      0.0000    256.9060     81.4621    136.4290
   491.0000      0.0000    256.8991     81.2233    138.4999
   491.2500      0.0000    256.8411     81.0823    138.7096
   491.5000      0.0000    256.7483     81.0206    136.6530
   491.7500      0.0000    256.6521     80.9865    132.3916
   492.0000      0.0000    256.5830     80.9279    126.3973
   492.2500      0.0000    256.5581     80.8188    119.5147
   492.5000      0.0000    256.5810     80.6783    112.9063
   492.7500      0.0000    256.6438     80.5640    107.7553
   493.0000      0.0000    256.7234     80.5404    104.8664
   493.2500      0.0000    256.7851     80.6375    104.4221
   493.5000      0.0000    256.8050     80.8245    105.7950
   493.7500      0.0000    256.7947     81.0191    107.4903
   494.0000      0.0000    256.7913     81.1316    107.7593
   494.2500      0.0000    256.8217     81.1121    105.8522
   494.5000      0.0000    256.8785     80.9813    102.8017
   494.7500      0.0000    256.9347     80.8154    100.7662
   495.0000      0.0000    256.9704     80.6892    101.2763
   495.2500      0.0000    256.9803     80.6274    103.9370
   495.5000      0.0000    256.9621     80.6093    106.9412
   495.7500      0.0000    256.9078     80.6013    108.9768
   496.0000      0.0000    256.8142     80.5783    110.3585
   496.2500      0.0000    256.7030     80.5266    112.0209
   496.5000      0.0000    256.6245     80.4348    113.8089
   496.7500      0.0000    256.6245     80.2848    114.4193
   497.0000      0.0000    256.7026     80.0692    112.8167
   497.2500      0.0000    256.8121     79.8296    109.1223
   497.5000      0.0000    256.8994     79.6585    104.2806
   497.7500      0.0000    256.9369     79.6395     99.4013
   498.0000      0.0000    256.9225     79.7868     95.4260
   498.2500      0.0000    256.8698     80.0453     93.0484
   498.5000      0.0000    256.8052     80.3331     92.6626
   498.7500      0.0000    256.7627     80.5882     94.2020
   499.0000      0.0000    256.7678     80.7987     96.9906
   499.2500      0.0000    256.8240     80.9872     99.9684
   499.5000      0.0000    256.9118     81.1433    102.2447
   499.7500      0.0000    256.9965     81.1859    103.4268
   500.0000      0.0000    257.0463     81.0376    103.6223
   500.2500      0.0000    257.0540     80.7412    103.3826
   500.5000      0.0000    257.0373     80.4597    103.3425
   500.7500      0.0000    257.0182     80.3437    103.4005
   501.0000      0.0000    257.0066     80.4137    102.3458
   501.2500      0.0000    257.0019     80.5715     98.9614
   501.5000      0.0000    257.0011     80.6837     93.7269
   501.7500      0.0000    257.0045     80.6039     88.9137
   502.0000      0.0000    257.0211     80.0929     86.5900
