~Version Information
 VERS.                                  2.0 : CWLS LAS VERSION
 WRAP.                                   NO : WRAPING MODE
 SWARE .                 MController 2.5.0N : SOFTWARE VERSION
~Well Information
 WELL.                   Uintah 21-27 Tr CH : WELL
 COMP.    Pioneer Natural Resources USA Inc : COMPANY
 FLD.                      Purgatoire River : FIELD
 LOC.                NE/NW Sec 27 T33S R67W : LOCATION
 DATE.                         5/14-16/2005 : DATE(S) LOGGED
 SRVC.       Blanco Geological Services LLC : SERVICE COMPANY
 STAT.                                   CO : STATE
 CNTY.                           Las Animas : COUNTY
 CTRY.                                  USA : COUNTRY
 API.                       05-071-08311-00 : API NUMBER
 STRT.FT                             394.00 : START DEPTH
 STOP.FT                            1538.00 : STOP DEPTH
 STEP.FT                               1.00 : DEPTH INCREMENT
 NULL.                                -9999 : NULL VALUE
~Curve information
 DEPTH.FT                                   :
 ROP.MIN/FT                                 :
 GAS.UNITS                                  :
~ASCII Log data
# ...
      1194.0         0.23        145.9 
      1195.0         0.27        144.8 
      1196.0         5.87       4667.0 
      1197.0         0.17       4855.1 
      1198.0         0.37       4846.4 
      1199.0         0.27       3960.6 
      1200.0         0.30       2909.9 
      1201.0         0.20       1866.6 
      1202.0         0.20       1409.3 
      1203.0         0.20       1099.3 
      1204.0         0.17        890.7 
      1205.0         0.22        770.3 
      1206.0         0.17        664.1 
      1207.0         0.17        607.7 
      1208.0         0.23        570.9 
      1209.0         0.27        535.0 
      1210.0         0.20        515.9 
      1211.0         0.23        507.2 
      1212.0         0.33        496.0 
      1213.0         0.33        480.5 
      1214.0         0.23        466.8 
      1215.0         0.20        462.5 
      1216.0         0.28        458.9 
      1217.0         0.33        451.0 
      1218.0         0.37        440.0 
      1219.0         0.30        144.5 
      1220.0         0.30        136.3 
      1221.0         0.47        141.5 
      1222.0         0.23        141.6 
      1223.0         0.20        139.6 
      1224.0         0.33        135.6 
      1225.0         0.28        128.3 
      1226.0         3.12        154.6 
      1227.0         0.60        410.3 
      1228.0         0.40       1297.3 
      1229.0         0.30       1297.5 
      1230.0         0.27       1193.1 
      1231.0         0.30       1040.6 
      1232.0         0.23        876.1 
      1233.0         0.27        759.0 
      1234.0         0.23        646.7 
      1235.0         0.28        577.7 
      1236.0         0.27        527.7 
      1237.0         0.30        503.5 
      1238.0         0.33        495.4 
      1239.0         0.30        485.9 
      1240.0         0.27        464.8 
      1241.0         0.27        440.1 
      1242.0         0.30        440.0 
      1243.0         0.27        144.3 
      1244.0         0.23        136.5 
      1245.0         0.37        132.3 
      1246.0         0.35        127.5 
      1247.0         0.27        128.8 
      1248.0         0.23        129.3 
      1249.0         0.30        129.1 
      1250.0         0.30        126.7 
      1251.0         0.23        125.8 
      1252.0         0.30        128.9 
      1253.0         0.30        135.9 
      1254.0         0.33        139.2 
      1255.0         0.33        138.2 
      1256.0         4.97        280.7 
      1257.0         0.67       1579.1 
      1258.0         0.70       1827.1 
      1259.0         0.50       1439.9 
      1260.0         0.45        923.0 
      1261.0         0.33        645.9 
      1262.0         0.23        537.2 
      1263.0         0.20        490.6 
      1264.0         0.23        474.6 
      1265.0         0.20        465.4 
      1266.0         0.23        457.8 
      1267.0         0.20        446.0 
      1268.0         0.23        440.0 
      1269.0         0.37        165.8 
      1270.0         0.27        156.1 
      1271.0         0.37        155.7 
      1272.0         0.32        151.9 
      1273.0         0.30        145.6 
      1274.0         0.27        139.8 
      1275.0         0.27        135.7 
      1276.0         0.37        132.2 
      1277.0         0.30        129.6 
      1278.0         0.27        130.4 
      1279.0         0.23        130.4 
      1280.0         0.23        129.8 
      1281.0         0.27        128.2 
      1282.0         0.23        125.4 
      1283.0         0.27        127.2 
      1284.0         0.25        128.5 
      1285.0         0.20        129.2 
      1286.0         3.52        168.0 
      1287.0         0.40        294.4 
      1288.0         0.50       1323.1 
      1289.0         0.20       1345.0 
      1290.0         0.30       1317.7 
      1291.0         0.27       1143.1 
      1292.0         0.17        980.3 
      1293.0         0.23        880.3 
      1294.0         0.30        753.1 
      1295.0         0.35        621.7 
      1296.0         0.37        515.3 
      1297.0         0.33        512.5 
      1298.0         0.37        508.0 
      1299.0         0.37        491.7 
      1300.0         0.27        454.1 
      1301.0         0.30        440.0 
      1302.0         0.23        157.0 
      1303.0         0.27        149.9 
      1304.0         0.27        143.5 
      1305.0         0.27        137.2 
      1306.0         0.25        134.1 
      1307.0         0.27        134.6 
      1308.0         0.23        135.0 
      1309.0         0.23        135.2 
      1310.0         0.27        134.8 
      1311.0         0.27        136.7 
      1312.0         0.33        139.4 
      1313.0         0.20        139.9 
      1314.0         0.13        140.0 
      1315.0         0.13        139.9 
      1316.0         4.70       1629.1 
      1317.0         0.37       1657.8 
      1318.0         0.27       1528.9 
      1319.0         0.30       1299.5 
      1320.0         0.23       1056.1 
      1321.0         0.27        891.6 
      1322.0         0.37        743.9 
      1323.0         0.27        608.3 
      1324.0         0.37        556.9 
      1325.0         0.30        524.0 
      1326.0         0.35        503.8 
      1327.0         0.33        478.6 
      1328.0         0.27        460.0 
      1329.0         0.30        441.8 
      1330.0         0.20        440.0 
      1331.0         0.20        137.1 
      1332.0         0.37        125.1 
      1333.0         0.23        135.0 
      1334.0         0.27        138.2 
      1335.0         0.20        138.5 
      1336.0         0.20        139.1 
      1337.0         0.25        139.4 
      1338.0         0.20        138.8 
      1339.0         0.20        138.0 
      1340.0         0.23        137.2 
      1341.0         0.20        136.6 
      1342.0         0.20        136.1 
      1343.0         0.20        135.8 
      1344.0         0.20        138.2 
      1345.0         0.17        141.2 
      1346.0         5.63       1905.7 
      1347.0         0.23       2438.8 
      1348.0         0.40       2974.5 
      1349.0         0.30       2957.1 
      1350.0         0.37       2516.0 
      1351.0         0.33       1783.5 
      1352.0         0.27       1268.3 
      1353.0         0.22       1003.3 
      1354.0         0.20        843.0 
      1355.0         0.27        732.6 
      1356.0         0.57        633.8 
      1357.0         0.37        550.4 
      1358.0         0.47        514.5 
      1359.0         0.43        472.9 
      1360.0         0.43        442.6 
      1361.0         0.47        440.0 
      1362.0         0.55        135.4 
      1363.0         0.50        139.0 
      1364.0         0.33        141.9 
      1365.0         0.27        142.0 
      1366.0         0.30        138.6 
      1367.0         0.27        133.3 
      1368.0         0.23        130.7 
      1369.0         0.23        134.4 
      1370.0         0.23        140.1 
      1371.0         0.23        143.3 
      1372.0         0.32        145.1 
      1373.0         0.30        146.4 
      1374.0         0.27        147.2 
      1375.0         0.27        147.4 
      1376.0       224.45       8826.4 
      1377.0         0.73        197.0 
      1378.0         0.92        202.8 
      1379.0         0.90        208.0 
      1380.0         0.93        208.8 
      1381.0         0.85        207.7 
      1382.0         0.87        206.4 
      1383.0         0.87        205.4 
      1384.0         0.97        204.8 
      1385.0         0.95        204.3 
      1386.0         0.90        203.2 
      1387.0         1.37        202.6 
      1388.0         0.58        203.4 
      1389.0         1.47        426.8 
      1390.0         0.93        426.7 
      1391.0         1.05        302.5 
      1392.0         0.80        212.7 
      1393.0         0.80        212.0 
