~Version Information
VERS.                      2.0: CWLS Log ASCII Standard - VERSION 2.0
WRAP.                       NO: One line per depth step
~Well Information Block
STRT.FT               488.0000: 
STOP.FT              1824.7000: 
STEP.FT                 0.1000: 
NULL.                -999.2500: 
COMP.          Pioneer Natural Resources: COMPANY
WELL.            Buckeye 11-13: WELL
FLD.           Purgatoire River: FIELD
LOC.           211' FNL & 1054' FWL: LOCATION
STAT.                 Colorado: State
CNTY.               Las Animas: COUNTY
CTRY. USA : Country
SECT. 13 : Section
TOWN. 33S : Township
RANG. 67W : Range
SRVC.                Patterson: SERVICE COMPANY
DATE.          Mon Mar 07 02:06:39 2005: LOG DATE
API.           05 071 08317 00: UNIQUE WELL ID
~Curve Information Block
DEPT.FT            0 000 00 00: Depth
DCAL.in                       : CDL Caliper
RHOB.g/cc                     : CDL Bulk Density
RHOC.g/cc                     : CDL Density Correction
DPOR.pu                       : CDL Density Porosity
GR.GAPI                       : Gamma Ray
NPOR.pu                       : Neutron Porosity
~Parameter Information Block
~A  Depth       DCAL        RHOB        RHOC        DPOR         GR         NPOR    
# ...
  1284.8000      7.9341      2.4122      0.0322     14.4119     79.4708     14.9699
  1284.9000      7.9341      2.3834      0.0045     16.1574     76.6734     14.2812
  1285.0000      7.9359      2.3650     -0.0528     17.2736     78.9878     13.9043
  1285.1000      7.9359      2.3700     -0.0164     16.9692     82.5006     14.2313
  1285.2000      7.9359      2.3850      0.0093     16.0616     81.4525     14.8594
  1285.3000      7.9363      2.3834      0.0040     16.1566     77.1112     14.9784
  1285.4000      7.9363      2.3667     -0.0146     17.1691     72.8588     14.7480
  1285.5000      7.9346      2.3551      0.0020     17.8748     69.0102     14.9893
  1285.6000      7.9346      2.3534      0.0056     17.9773     67.0425     15.7243
  1285.7000      7.9346      2.3529      0.0095     18.0058     69.0817     16.1162
  1285.8000      7.9366      2.3466     -0.0177     18.3864     72.5308     15.9095
  1285.9000      7.9366      2.3348     -0.0369     19.1020     71.6029     15.6988
  1286.0000      7.9336      2.3234     -0.0179     19.7965     64.5793     15.6774
  1286.1000      7.9336      2.3197     -0.0457     20.0207     57.8292     15.6328
  1286.2000      7.9336      2.3282     -0.0335     19.5050     55.8627     15.7903
  1286.3000      7.9358      2.3476     -0.0278     18.3243     54.6784     16.2973
  1286.4000      7.9358      2.3666      0.0377     17.1776     52.5875     16.5565
  1286.5000      7.9357      2.3706      0.0171     16.9312     52.0659     16.2429
  1286.6000      7.9357      2.3605      0.0478     17.5466     53.4371     15.7650
  1286.7000      7.9357      2.3508     -0.0027     18.1352     55.1919     15.3796
  1286.8000      7.9360      2.3527      0.0400     18.0157     55.8615     15.0459
  1286.9000      7.9360      2.3586      0.0612     17.6602     56.6849     14.7005
  1287.0000      7.9343      2.3559      0.0544     17.8263     59.6650     14.3396
  1287.1000      7.9343      2.3469      0.0476     18.3715     61.7721     14.1253
  1287.2000      7.9343      2.3430      0.0544     18.6048     59.1310     14.2529
  1287.3000      7.9354      2.3470      0.0714     18.3636     53.4166     14.6174
  1287.4000      7.9354      2.3516      0.0645     18.0856     48.8198     14.8139
  1287.5000      7.9359      2.3466      0.0150     18.3860     47.9101     14.5845
  1287.6000      7.9359      2.3297      0.0185     19.4106     49.7359     14.2719
  1287.7000      7.9359      2.3113     -0.0042     20.5270     51.9876     14.2018
  1287.8000      7.9359      2.3008      0.0010     21.1645     54.0691     14.1927
  1287.9000      7.9359      2.3034      0.0005     21.0085     54.6501     14.3991
  1288.0000      7.9354      2.3251     -0.0398     19.6894     52.8493     14.8462
  1288.1000      7.9354      2.3545      0.0380     17.9107     50.8673     14.8060
  1288.2000      7.9354      2.3622      0.0290     17.4413     49.9995     14.3900
  1288.3000      7.9344      2.3431     -0.0042     18.5978     50.9051     14.3688
  1288.4000      7.9344      2.3240     -0.0516     19.7563     55.6755     14.3445
  1288.5000      7.9337      2.3220     -0.0109     19.8814     63.6291     13.7688
  1288.6000      7.9337      2.3241     -0.0259     19.7540     70.8753     13.1905
  1288.7000      7.9337      2.3175     -0.0200     20.1499     74.4598     13.2537
  1288.8000      7.9321      2.3096     -0.0211     20.6291     74.2779     13.9290
  1288.9000      7.9321      2.3164     -0.0401     20.2208     71.4977     14.5550
  1289.0000      7.9327      2.3415     -0.0228     18.6973     68.2580     14.4916
  1289.1000      7.9327      2.3703      0.0286     16.9500     65.9935     13.9815
  1289.2000      7.9327      2.3853      0.0607     16.0409     65.5803     13.7247
  1289.3000      7.9341      2.3866      0.0124     15.9624     67.8115     13.9574
  1289.4000      7.9341      2.3896     -0.0026     15.7811     71.6331     14.2416
  1289.5000      7.9340      2.3999     -0.0129     15.1599     74.4301     14.2853
  1289.6000      7.9340      2.4099     -0.0136     14.5539     75.3995     14.2418
  1289.7000      7.9340      2.4143      0.0195     14.2840     74.8367     13.9173
  1289.8000      7.9340      2.4121      0.0100     14.4170     73.1089     13.3290
  1289.9000      7.9340      2.4043     -0.0001     14.8898     71.3503     13.2974
  1290.0000      7.9300      2.3892      0.0013     15.8056     69.2663     14.0045
  1290.1000      7.9300      2.3664     -0.0325     17.1887     66.2557     14.4483
  1290.2000      7.9300      2.3477     -0.0734     18.3231     63.0825     14.3059
  1290.3000      7.9326      2.3457     -0.0351     18.4414     62.5185     14.3543
  1290.4000      7.9326      2.3542      0.0125     17.9291     65.5912     14.7911
  1290.5000      7.9354      2.3595     -0.0291     17.6039     68.5205     15.0918
  1290.6000      7.9354      2.3622     -0.0403     17.4435     67.3701     14.9814
  1290.7000      7.9354      2.3638     -0.0098     17.3480     62.4411     14.6062
  1290.8000      7.9344      2.3644     -0.0326     17.3102     57.6437     14.4211
  1290.9000      7.9344      2.3788     -0.0373     16.4359     55.7175     14.5994
  1291.0000      7.9336      2.4107      0.0436     14.5006     56.2919     14.8008
  1291.1000      7.9336      2.4345      0.0512     13.0628     59.6351     14.9298
  1291.2000      7.9336      2.4337      0.0049     13.1071     65.6776     14.9511
  1291.3000      7.9314      2.4197     -0.0031     13.9584     70.9786     14.9467
  1291.4000      7.9314      2.4127     -0.0056     14.3811     71.8714     15.1884
  1291.5000      7.9344      2.4283     -0.0367     13.4361     68.7977     15.4399
  1291.6000      7.9344      2.4593     -0.0117     11.5555     64.9835     15.1350
  1291.7000      7.9344      2.4825     -0.0038     10.1526     63.4425     14.4521
  1291.8000      7.9330      2.4904     -0.0089      9.6714     65.3243     13.9523
  1291.9000      7.9330      2.4862      0.0224      9.9270     69.1883     13.7752
  1292.0000      7.9334      2.4717     -0.0028     10.8088     72.3481     14.1016
  1292.1000      7.9334      2.4572     -0.0086     11.6857     73.5768     14.9894
  1292.2000      7.9334      2.4513     -0.0117     12.0440     74.1212     15.9356
  1292.3000      7.9336      2.4498     -0.0101     12.1334     74.6044     16.4146
  1292.4000      7.9336      2.4429      0.0521     12.5531     73.2178     16.4410
  1292.5000      7.9343      2.4266     -0.0302     13.5379     71.2506     16.5048
  1292.6000      7.9343      2.4140     -0.0529     14.3058     73.3107     16.3677
  1292.7000      7.9343      2.4149     -0.0047     14.2513     78.5494     15.4823
  1292.8000      7.9328      2.4166      0.0372     14.1483     80.5937     14.6616
  1292.9000      7.9328      2.4146     -0.0464     14.2638     78.7129     14.5380
  1293.0000      7.9324      2.4257     -0.0236     13.5938     76.8185     14.6623
  1293.1000      7.9324      2.4446      0.0035     12.4456     75.2823     14.7650
  1293.2000      7.9324      2.4493      0.0044     12.1651     72.9263     14.8826
  1293.3000      7.9331      2.4351     -0.0168     13.0233     69.5681     14.7922
  1293.4000      7.9331      2.4133     -0.0218     14.3441     67.4918     14.4517
  1293.5000      7.9319      2.3990     -0.0513     15.2112     68.3662     14.1367
  1293.6000      7.9319      2.4006     -0.0256     15.1136     69.5984     13.8646
  1293.7000      7.9319      2.4067      0.0128     14.7470     68.0262     13.5732
  1293.8000      7.9332      2.4023      0.0166     15.0108     64.0471     13.4344
  1293.9000      7.9332      2.3946     -0.0248     15.4804     58.9818     13.5253
  1294.0000      7.9328      2.3923      0.0148     15.6160     55.2991     13.6294
  1294.1000      7.9328      2.3850      0.0270     16.0636     57.2948     13.6870
  1294.2000      7.9328      2.3670     -0.0136     17.1518     61.8056     13.8204
  1294.3000      7.9333      2.3531     -0.0253     17.9961     63.0540     13.9702
