~Version Information
VERS.                      2.0: CWLS Log ASCII Standard - VERSION 2.0
WRAP.                       NO: One line per depth step
~Well Information Block
STRT.FT                 0.0000: 
STOP.FT              2159.0000: 
STEP.FT                 0.2500: 
NULL.                -999.2500: 
COMP.          Petrogulf Corporation: COMPANY
WELL.               Furu 6-23R: WELL
FLD.           Purgatoire River: FIELD
LOC.           2211' FSL & 1780' FWL: LOCATION
CNTY.               Las Animas: COUNTY
SRVC.                         : SERVICE COMPANY
DATE.          Fri Jul 14 16:00:32 2006: LOG DATE
UWI.           05 071 08266 00: UNIQUE WELL ID
STAT.                       CO: STATE
~Curve Information Block
DEPT.FT            0 000 00 00: Depth
GR.GAPI                       : Gamma Ray
CCL.                          : Casing Collar Locator
TT3.usec                      : CBL 3' Travel Time
AMP3.mV                       : CBL 3' Amplitude
~Parameter Information Block
~A  Depth        GR         CCL         TT3         AMP3    
# ...
  1273.0000    116.4955      0.0000    257.2820     74.4952
  1273.2500    116.5117      0.0000    257.2610     74.5166
  1273.5000    115.9691      0.0000    257.2401     74.5426
  1273.7500    116.6027      0.0000    257.2333     74.5706
  1274.0000    120.4804      0.0000    257.2479     74.5989
  1274.2500    127.2881      0.0000    257.2797     74.6258
  1274.5000    133.5553      0.0000    257.3174     74.6493
  1274.7500    135.4374      0.0000    257.3516     74.6705
  1275.0000    132.3877      0.0000    257.3769     74.6951
  1275.2500    127.6409      0.0000    257.3899     74.7318
  1275.5000    125.0445      0.0000    257.3891     74.7877
  1275.7500    125.7645      0.0000    257.3777     74.8638
  1276.0000    127.9043      0.0000    257.3626     74.9532
  1276.2500    128.7185      0.0000    257.3506     75.0437
  1276.5000    126.9544      0.0000    257.3454     75.1229
  1276.7500    123.4517      0.0000    257.3452     75.1829
  1277.0000    120.0857      0.0000    257.3449     75.2224
  1277.2500    118.4521      0.0000    257.3430     75.2456
  1277.5000    119.2738      0.0000    257.3455     75.2589
  1277.7500    122.3475      0.0000    257.3591     75.2669
  1278.0000    126.5784      0.0000    257.3803     75.2714
  1278.2500    130.3571      0.0000    257.3977     75.2720
  1278.5000    132.5935      0.0000    257.4044     75.2687
  1278.7500    133.5616      0.0000    257.4046     75.2643
  1279.0000    134.3534      0.0000    257.4063     75.2636
  1279.2500    135.5446      0.0000    257.4124     75.2707
  1279.5000    136.8258      0.0000    257.4181     75.2856
  1279.7500    137.8104      0.0000    257.4177     75.3027
  1280.0000    138.4446      0.0000    257.4103     75.3140
  1280.2500    138.5305      0.0000    257.4012     75.3134
  1280.5000    137.4069      0.0000    257.3969     75.2994
  1280.7500    134.2643      0.0000    257.4013     75.2747
  1281.0000    128.9670      0.0000    257.4131     75.2407
  1281.2500    123.1128      0.0000    257.4275     75.1922
  1281.5000    119.7596      0.0000    257.4397     75.1166
  1281.7500    120.9165      0.0000    257.4496     74.9993
  1282.0000    125.4625      0.0000    257.4573     74.8348
  1282.2500    130.2842      0.0000    257.4577     74.6366
  1282.5000    132.9150      0.0000    257.4420     74.4381
  1282.7500    132.5719      0.0000    257.4078     74.2822
  1283.0000    129.7890      0.0000    257.3644     74.2036
  1283.2500    126.0858      0.0000    257.3249     74.2141
  1283.5000    123.3858      0.0000    257.2970     74.3004
  1283.7500    122.7231      0.0000    257.2852     74.4323
  1284.0000    123.3849      0.0000    257.2946     74.5769
  1284.2500    123.8214      0.0000    257.3246     74.7086
  1284.5000    123.4083      0.0000    257.3636     74.8131
  1284.7500    122.7166      0.0000    257.3971     74.8857
  1285.0000    122.1306      0.0000    257.4168     74.9295
  1285.2500    121.1371      0.0000    257.4214     74.9532
  1285.5000    119.2485      0.0000    257.4129     74.9691
  1285.7500    116.9396      0.0000    257.3961     74.9891
  1286.0000    115.5095      0.0000    257.3799     75.0214
  1286.2500    116.5243      0.0000    257.3716     75.0669
  1286.5000    121.0840      0.0000    257.3731     75.1187
  1286.7500    128.7022      0.0000    257.3826     75.1664
  1287.0000    136.8316      0.0000    257.4005     75.2012
  1287.2500    142.1696      0.0000    257.4265     75.2223
  1287.5000    142.8924      0.0000    257.4545     75.2388
  1287.7500    139.7518      0.0000    257.4752     75.2655
  1288.0000    135.2627      0.0000    257.4826     75.3148
  1288.2500    131.9675      0.0000    257.4761     75.3846
  1288.5000    131.0667      0.0000    257.4585     75.4521
  1288.7500    132.0947      0.0000    257.4364     75.4748
  1289.0000    133.5876      0.0000    257.4209     75.4026
  1289.2500    133.9766      0.0000    257.4222     75.1969
  1289.5000    132.1682      0.0000    257.4439     74.8472
  1289.7500    127.9486      0.0000    257.4833     74.3785
  1290.0000    122.2430      0.0000    257.5346     73.8461
  1290.2500    116.7199      0.0000    257.5904     73.3194
  1290.5000    112.6740      0.0000    257.6418     72.8647
  1290.7500    110.3427      0.0000    257.6805     72.5295
  1291.0000    109.5551      0.0000    257.7003     72.3341
  1291.2500    110.8499      0.0000    257.6993     72.2688
  1291.5000    115.4923      0.0000    257.6819     72.2984
  1291.7500    124.2988      0.0000    257.6602     72.3728
  1292.0000    136.4619      0.0000    257.6489     72.4418
  1292.2500    149.3283      0.0000    257.6551     72.4684
  1292.5000    159.4336      0.0000    257.6729     72.4378
  1292.7500    164.4049      0.0000    257.6909     72.3572
  1293.0000    164.3653      0.0000    257.7021     72.2466
  1293.2500    161.5057      0.0000    257.7047     72.1276
  1293.5000    158.3576      0.0000    257.6983     72.0088
  1293.7500    156.5425      0.0000    257.6831     71.8801
  1294.0000    156.7013      0.0000    257.6651     71.7112
  1294.2500    158.6774      0.0000    257.6616     71.4505
  1294.5000    161.0707      0.0000    257.7274     71.0227
  1294.7500    161.2213      0.0000    258.0142     70.3231
  1295.0000    156.9297      0.0000    258.8347     69.2153
  1295.2500    148.3058      0.0000    260.6017     67.5429
  1295.5000    137.1513      0.0000    263.5246     65.1657
  1295.7500    125.0679      0.0000    267.3147     62.0170
  1296.0000    113.0796      0.0000    271.3907     58.1607
  1296.2500    102.2995      0.0000    275.3535     53.8236
  1296.5000     93.5592      0.0000    278.8187     49.3637
  1296.7500     86.7114      0.0000    280.8284     45.1831
  1297.0000     81.4449      0.0000    280.3034     41.6150
  1297.2500     78.5154      0.0000    277.4348     38.8383
  1297.5000     79.0956      0.0000    274.0560     36.8676
  1297.7500     83.1113      0.0000    272.3044     35.6217
  1298.0000     89.1435     -2.0000    273.1313     35.0353
  1298.2500     95.6678      0.0000    275.9360     35.1560
  1298.5000    101.5742      0.0000    279.1943     36.1670
  1298.7500    105.9927      0.0000    281.3642     38.3099
  1299.0000    108.6631      0.0000    281.4825     41.7334
  1299.2500    110.4136      0.0000    279.2665     46.3458
  1299.5000    112.4773      0.0000    275.0447     51.7634
  1299.7500    115.3068      0.0000    269.7449     57.3977
  1300.0000    118.5846      0.0000    264.6696     62.6351
  1300.2500    122.2346      0.0000    260.8817     67.0164
  1300.5000    126.5070      0.0000    258.6834     70.3323
  1300.7500    130.9476      0.0000    257.6965     72.6095
  1301.0000    134.2264      0.0000    257.3496     74.0282
  1301.2500    135.3639      0.0000    257.2372     74.8249
  1301.5000    134.6660      0.0000    257.1812     75.2214
  1301.7500    133.1952      0.0000    257.1346     75.3896
  1302.0000    131.5609      0.0000    257.1017     75.4449
  1302.2500    129.5597      0.0000    257.0925     75.4553
  1302.5000    127.2108      0.0000    257.1087     75.4528
  1302.7500    125.8417      0.0000    257.1400     75.4501
  1303.0000    127.3991      0.0000    257.1710     75.4493
  1303.2500    132.3005      0.0000    257.1922     75.4494
  1303.5000    138.4863      0.0000    257.2029     75.4503
  1303.7500    143.1934      0.0000    257.2075     75.4522
  1304.0000    145.2503      0.0000    257.2094     75.4553
  1304.2500    145.3119      0.0000    257.2079     75.4583
  1304.5000    144.5138      0.0000    257.2007     75.4591
  1304.7500    143.3302      0.0000    257.1885     75.4555
  1305.0000    141.4164      0.0000    257.1766     75.4462
  1305.2500    138.5274      0.0000    257.1701     75.4317
  1305.5000    135.7096      0.0000    257.1702     75.4143
  1305.7500    134.9697      0.0000    257.1747     75.3983
  1306.0000    137.1770      0.0000    257.1821     75.3887
  1306.2500    140.6259      0.0000    257.1938     75.3896
