~Version Information
VERS.                      2.0: CWLS Log ASCII Standard - VERSION 2.0
WRAP.                       NO: One line per depth step
~Well Information Block
STRT.FT               664.0000: 
STOP.FT              1615.5000: 
STEP.FT                 0.2500: 
NULL.                -999.2500: 
COMP.          Petrogulf Corporation: COMPANY
WELL.          Great Plains 22-21R: WELL
FLD.           Purgatorie River: FIELD
LOC.           73' FNL & 1992' FWL: LOCATION
PROV.                 Colorado: PROVINCE
CNTY.               Las Animas: COUNTRY
SRVC.                Patterson: SERVICE COMPANY
DATE.          Thu Sep 08 08:05:26 2005: LOG DATE
UWI.                          : UNIQUE WELL ID
~Curve Information Block
DEPT.FT            0 000 00 00: Depth
SP.mV                         : DIL Spontaneous Potential
RILD.Ohm-m                    : DIL Deep Resistivity
RILM.Ohm-m                    : DIL Medium Resistivity
RLL3.Ohm-m                    : DIL Shallow Resistivity
GR.GAPI                       : Gamma Ray
~Parameter Information Block
~A  Depth        SP         RILD        RILM        RLL3         GR     
# ...
   916.0000    167.7636      7.8854      8.2330      9.0925    182.5856
   916.2500    167.5706      7.8325      8.3234      9.1903    174.5031
   916.5000    167.5338      7.7444      8.3750      9.4621    171.0170
   916.7500    167.4623      7.6334      8.4117     10.1277    170.9660
   917.0000    167.4006      7.5109      8.3778     10.4530    160.8210
   917.2500    167.4710      7.4494      8.3123      9.9898    158.4644
   917.5000    167.5671      7.3449      8.3161     11.0393    165.2839
   917.7500    167.5791      7.2463      8.2110     10.7528    167.5612
   918.0000    167.5396      7.1614      8.1253     10.1950    167.2364
   918.2500    167.4721      7.1592      8.0934     10.4710    162.0766
   918.5000    167.3324      7.1145      8.0293     10.2816    153.7471
   918.7500    167.1246      7.1210      7.8471      9.5415    161.5602
   919.0000    166.8986      7.0243      7.6800      9.0787    167.8233
   919.2500    166.7248      7.0280      7.5171      8.9927    161.8365
   919.5000    166.7245      6.9370      7.3051      8.6719    145.6673
   919.7500    166.6056      6.9317      7.1933      8.2455    153.2466
   920.0000    166.3603      6.7895      7.0671      8.5992    150.8585
   920.2500    166.0695      6.7171      6.9810      8.6515    153.7472
   920.5000    165.6967      6.6362      6.8651      8.4095    157.2080
   920.7500    165.1338      6.6165      6.7786      8.7812    161.9704
   921.0000    164.6453      6.5862      6.6596      8.9781    153.5650
   921.2500    164.4198      6.6420      6.5641      7.9275    159.6194
   921.5000    164.3103      6.6918      6.5297      7.9575    166.8738
   921.7500    164.3669      6.7970      6.5266      7.9451    169.7042
   922.0000    164.7333      6.9071      6.6451      7.9452    158.9006
   922.2500    165.0602      7.1507      6.7984      7.9875    149.3345
   922.5000    165.4534      7.2392      7.0715      8.0551    166.6689
   922.7500    165.6142      7.3304      7.4807      8.3025    158.6000
   923.0000    165.6105      7.3320      8.0262      9.1273    144.6945
   923.2500    165.5202      7.3418      8.7479     13.1122    128.1734
   923.5000    165.3655      7.2063      9.4320     24.2002     94.9845
   923.7500    165.1939      7.1298      9.9277     49.1762     75.0375
   924.0000    165.1234      7.0545      9.9039     70.3090     53.9741
   924.2500    165.0745      6.9538      9.3823     60.7099     62.5923
   924.5000    165.1719      6.8503      8.6235     34.5540     88.9989
   924.7500    165.4536      6.8391      7.9631     15.3082    102.0986
   925.0000    165.7494      6.7855      7.3311      9.0474    127.5357
   925.2500    166.0072      6.7832      6.8957      6.8321    135.4357
   925.5000    166.1891      6.7338      6.6355      6.8124    155.4174
   925.7500    166.3080      6.7140      6.4760      6.7777    154.5723
   926.0000    166.5370      6.5569      6.3649      6.8574    157.0516
   926.2500    166.7174      6.4049      6.2326      7.0345    163.3702
   926.5000    166.9280      6.2474      6.0937      7.4637    158.3520
   926.7500    167.1100      6.0977      5.9468      7.4859    156.1095
   927.0000    167.2055      5.9970      5.8131      6.9852    152.5381
   927.2500    167.2327      5.8888      5.7403      6.9812    154.5738
   927.5000    167.1788      5.8323      5.7179      6.7269    153.4721
   927.7500    167.0811      5.8126      5.7779      7.2359    149.8685
   928.0000    166.8754      5.8164      5.8606      7.8877    150.8667
   928.2500    166.6971      5.8685      5.9174      8.4620    153.9814
   928.5000    166.5470      5.9835      5.9492      8.6110    152.4863
   928.7500    166.3608      6.1248      6.0016      8.1678    159.7816
   929.0000    166.1999      6.3072      6.0571      8.2563    160.9105
   929.2500    166.0846      6.5151      6.1274      8.3185    151.8230
   929.5000    165.8860      6.8211      6.2445      8.3709    142.7551
   929.7500    165.5619      7.0656      6.5032      8.4401    150.6123
   930.0000    165.1054      7.3943      6.8101      8.2953    144.9033
   930.2500    164.5283      7.6478      7.2247      7.7457    141.3929
   930.5000    163.8899      7.8422      7.7798      8.2262    148.7631
   930.7500    163.4648      8.0433      8.4259      9.7155    153.9873
   931.0000    163.1855      8.1569      9.3583     12.4744    148.8599
   931.2500    163.1328      8.2993     10.0763     15.4868    143.5247
   931.5000    163.2790      8.2763     10.7313     23.2298    126.2732
   931.7500    163.5155      8.3314     11.0489     40.4486    106.7406
   932.0000    163.7206      8.4096     11.0114     60.9224     81.0452
   932.2500    163.8300      8.5263     10.6110     62.9022     75.8715
   932.5000    163.9026      8.7350      9.8889     39.7186     95.6202
   932.7500    163.8313      9.0439      9.1722     17.2883    117.0848
   933.0000    163.7655      9.2905      8.7268      9.4527    142.3851
   933.2500    163.8445      9.3704      8.6135      7.6971    142.8730
   933.5000    163.9107      9.2765      8.8789      7.4157    157.6225
   933.7500    164.0007      9.1218      9.3600      9.7267    151.8029
   934.0000    164.2661      8.7674      9.7620     16.0913    131.9024
   934.2500    164.5750      8.3358      9.7424     24.8970    126.9388
   934.5000    164.8986      7.9637      9.2908     25.9620    119.5947
   934.7500    164.9868      7.6576      8.6419     16.6488    138.9648
   935.0000    164.9149      7.4594      7.9764     10.9436    159.9825
   935.2500    164.7263      7.3635      7.5068      9.0001    171.2899
   935.5000    164.5649      7.3691      7.1715      9.0015    154.1455
   935.7500    164.4838      7.5589      7.0874      9.3489    164.9527
   936.0000    164.5494      7.7222      7.1088      9.5319    162.4019
   936.2500    164.6714      7.9693      7.2509      8.9821    155.1708
   936.5000    164.8297      8.1405      7.5096      9.0643    148.4641
   936.7500    164.9782      8.3215      7.8231      9.7134    148.6689
   937.0000    165.1319      8.5255      8.2059     11.8400    134.1176
   937.2500    165.3644      8.6010      8.8006     13.3220    125.9595
   937.5000    165.7901      8.7059      9.5220     15.6076    119.1557
   937.7500    166.1714      8.8143     10.3459     24.3110    106.8355
   938.0000    166.3224      8.7729     11.0603     44.0966     90.1489
   938.2500    166.2697      8.8324     11.5708     56.2593     87.5118
   938.5000    166.1369      8.8053     11.9828     40.4677    103.2099
   938.7500    166.0380      8.7627     11.6801     25.4561    110.7147
   939.0000    165.9920      8.9418     11.1855     22.4455    117.0121
   939.2500    166.0884      9.0453     10.5255     25.5257    129.6723
   939.5000    166.2001      9.2886      9.7245     22.5056    127.4217
   939.7500    166.3053      9.5244      9.1863     13.2452    138.3266
   940.0000    166.3167      9.7313      8.7180      9.6535    136.2984
   940.2500    166.4711      9.7686      8.5402      8.4480    135.8358
   940.5000    166.7013      9.9361      8.4939      8.3230    132.2312
   940.7500    166.8194     10.0236      8.6521     10.2690    140.4991
   941.0000    166.9081     10.3127      9.0267     11.5450    158.6936
   941.2500    166.9980     10.4692      9.4106     12.8153    154.4784
   941.5000    167.0326     10.6575     10.0012     14.3586    148.1637
   941.7500    166.9703     10.7961     10.7505     15.9181    138.8370
   942.0000    166.6834     11.0937     11.8508     24.7344    117.5733
   942.2500    166.3023     11.4047     13.4527     49.8158     95.1377
   942.5000    165.9423     12.1790     15.6833    106.6122     57.2659
   942.7500    165.5047     12.9773     18.3311    189.6521     41.2924
   943.0000    165.1105     13.6003     21.4152    294.1841     35.3737
   943.2500    164.6998     14.2197     23.9397    360.6369     28.9950
   943.5000    164.2263     14.7339     25.8068    365.0086     20.6262
   943.7500    163.8246     14.6735     27.1995    319.6479     22.5381
