~Version Information
VERS.                      2.0: CWLS Log ASCII Standard - VERSION 2.0
WRAP.                       NO: One line per depth step
~Well Information Block
STRT.FT               906.0000: 
STOP.FT              1960.5000: 
STEP.FT                 0.2500: 
NULL.                -999.2500: 
COMP.          Petrogulf Corporation: COMPANY
WELL.            Torcom 17-33R: WELL
FLD.           Purgatorie River: FIELD
LOC.           1483' FSL & 1804' FEL: LOCATION
PROV.                 Colorado: PROVINCE
CNTY.               Las Animas: COUNTRY
SRVC.                Patterson: SERVICE COMPANY
DATE.          Thu Aug 18 08:33:01 2005: LOG DATE
UWI.                071 08069 : UNIQUE WELL ID
~Curve Information Block
DEPT.FT            0 000 00 00: Depth
SP.mV                         : DIL Spontaneous Potential
RILD.Ohm-m                    : DIL Deep Resistivity
RILM.Ohm-m                    : DIL Medium Resistivity
RLL3.Ohm-m                    : DIL Shallow Resistivity
GR.GAPI                       : Gamma Ray
~Parameter Information Block
~A  Depth        SP         RILD        RILM        RLL3         GR     
# ...
  1522.0000     85.4126     10.2902     11.2506     20.0321    145.2555
  1522.2500     83.7273     10.3807     11.0775     15.5803    147.8401
  1522.5000     81.9639     10.4851     11.0788     13.7011    151.6481
  1522.7500     80.2519     10.6190     11.1599     13.3712    148.3922
  1523.0000     78.0708     10.7537     11.5367     14.6563    146.2539
  1523.2500     76.0488     10.8178     11.9262     16.0877    144.7502
  1523.5000     74.1040     11.1153     12.4255     16.2556    144.3549
  1523.7500     72.5304     11.0187     12.8844     16.5284    146.0999
  1524.0000     70.6738     10.8653     13.0457     17.4584    138.8432
  1524.2500     68.6023     10.6213     13.0717     19.4894    139.4725
  1524.5000     67.4452     10.4846     12.7899     20.3562    144.7172
  1524.7500     66.2791     10.4687     12.5128     19.2623    144.5009
  1525.0000     65.4101     10.4721     12.0710     17.2519    158.5857
  1525.2500     65.2502     10.4254     11.4576     15.4484    161.8201
  1525.5000     65.2592     10.6441     11.1353     14.1052    163.5425
  1525.7500     65.1344     10.7132     10.9823     12.9649    164.5442
  1526.0000     65.7139     10.8198     10.9974     11.9232    151.4717
  1526.2500     65.4621     10.6733     11.2544     12.0304    143.6693
  1526.5000     65.9040     10.6439     11.6976     13.5484    142.0511
  1526.7500     66.9623     10.6474     12.0504     18.3501    138.6349
  1527.0000     68.7208     10.6254     12.1873     28.1344    134.0366
  1527.2500     70.8998     10.6082     12.0074     33.3225    143.4112
  1527.5000     72.5002     10.6477     11.7875     24.8086    157.8291
  1527.7500     73.2482     10.9176     11.5160     18.6337    159.1281
  1528.0000     73.8118     11.4150     11.4870     17.1520    166.9866
  1528.2500     73.6232     12.0706     11.6669     15.9409    166.8098
  1528.5000     74.6085     12.8597     12.2694     16.0386    163.4746
  1528.7500     75.7678     13.7759     13.1414     16.2565    165.9395
  1529.0000     75.7185     14.7926     14.6565     17.8767    139.1041
  1529.2500     75.7491     15.5330     16.4643     22.6821    128.8919
  1529.5000     75.7414     16.4499     18.3498     32.0255    113.5164
  1529.7500     75.6900     17.2463     20.6254     42.8677    101.6254
  1530.0000     76.1996     18.0926     23.1306     49.0429     87.3738
  1530.2500     76.7302     19.4376     25.3700     49.9494     84.1669
  1530.5000     77.2477     20.0895     28.4945     52.3864     78.3221
  1530.7500     77.2862     21.1374     30.5444     61.1225     74.6429
  1531.0000     77.4548     22.7004     32.9558     76.0578     70.7671
  1531.2500     76.9359     23.0137     36.7730     90.4818     75.9830
  1531.5000     76.1883     24.2973     39.8797     91.9157     70.8256
  1531.7500     75.3100     24.0384     39.0335     82.0353     83.7749
  1532.0000     73.9824     24.2209     38.2249     70.4275    104.3802
  1532.2500     72.3941     24.2382     34.7345     59.7584    123.0769
  1532.5000     70.7807     23.9013     29.4430     45.5037    148.1645
  1532.7500     68.7977     23.4111     26.0769     30.7219    152.5088
  1533.0000     66.2812     22.4325     22.9197     20.8606    156.6353
  1533.2500     62.9403     21.6128     21.1496     18.0374    157.0116
  1533.5000     60.5674     20.8558     20.5505     19.2887    154.2572
  1533.7500     58.4404     20.3745     19.7690     22.0964    144.5359
  1534.0000     56.6822     19.7645     19.3686     24.2904    140.8694
  1534.2500     55.3970     19.7592     18.9360     24.6803    142.8299
  1534.5000     54.4762     19.8580     18.3694     22.0884    147.9823
  1534.7500     53.8710     19.9152     18.4290     18.0652    145.2590
  1535.0000     53.5704     20.1633     18.8542     17.5868    136.8523
  1535.2500     53.3248     20.7438     19.8257     21.3785    131.9940
  1535.5000     53.6334     21.3809     21.5085     30.3023    100.6421
  1535.7500     54.5983     22.4641     23.6202     44.2410     98.3094
  1536.0000     55.5683     23.0494     25.7778     54.2281     94.4165
  1536.2500     56.1953     23.3618     27.4775     53.4356     92.0301
  1536.5000     56.7952     24.4369     28.7236     54.9228     92.6687
  1536.7500     57.2565     25.9520     29.8994     57.8360     92.2183
  1537.0000     58.1827     27.2011     31.6757     54.5762     96.5248
  1537.2500     59.1469     29.3041     32.8360     53.6861     99.3948
  1537.5000     59.7782     30.8045     34.1299     57.8171     96.4635
  1537.7500     60.8925     33.0515     35.7844     54.8727     91.5513
  1538.0000     61.3672     34.4258     37.5079     44.7110     86.0965
  1538.2500     61.4833     35.0652     38.6096     39.2180     82.8918
  1538.5000     61.4607     36.2141     38.9081     39.4656     71.9091
  1538.7500     61.5251     36.8965     38.8196     42.2634     67.6593
  1539.0000     61.7648     35.9386     40.4074     44.7026     67.3694
  1539.2500     61.8624     35.5417     41.1784     46.0326     71.4030
  1539.5000     62.1396     36.6741     39.5001     46.2442     58.6973
  1539.7500     62.1206     34.7339     38.3294     44.6844     70.3569
  1540.0000     61.9471     33.9521     38.6527     42.2725     83.4713
  1540.2500     61.5970     33.1604     38.1819     40.8354     75.8510
  1540.5000     60.8070     34.1238     37.2272     40.0809     72.0290
  1540.7500     59.4055     35.0260     36.7079     40.6590     76.9131
  1541.0000     57.5472     34.5487     35.9933     41.5038     74.0995
  1541.2500     55.7208     34.8590     35.6805     41.2636     73.6265
  1541.5000     53.6765     35.3336     36.4625     40.8690     78.5099
  1541.7500     51.4288     36.5534     36.2068     40.2960     83.9697
  1542.0000     49.1245     37.0468     36.1943     40.1422     85.7949
  1542.2500     47.1965     37.8774     34.9021     39.7336     97.4758
  1542.5000     45.3596     38.5453     37.2866     39.4099     97.0807
  1542.7500     43.6035     39.4138     39.8454     39.1151     96.5459
  1543.0000     41.8333     39.5528     42.2477     40.5653     86.0443
  1543.2500     39.9432     40.4163     45.8180     45.1876     82.8176
  1543.5000     38.5439     42.0851     45.4342     54.5577     78.7992
  1543.7500     37.6676     45.5406     52.0366     69.2115     80.2175
  1544.0000     37.2997     44.2457     55.9233     85.2326     74.7016
  1544.2500     37.2859     44.9688     59.6239    105.1212     72.7489
  1544.5000     37.7711     49.6422     65.2191    137.6843     62.2684
  1544.7500     38.2166     49.9649     67.7368    167.9007     62.8646
  1545.0000     39.0522     50.8841     70.6313    170.0059     69.5744
  1545.2500     39.8748     55.3552     73.6153    159.7147     65.9026
  1545.5000     40.7740     56.8667     75.5682    154.2992     60.9026
  1545.7500     41.9340     58.5496     82.5695    153.2266     68.6313
  1546.0000     42.8950     59.5240     91.0172    140.5626     66.7453
  1546.2500     43.9048     59.5238     93.3293    117.0130     62.7304
  1546.5000     44.8923     61.5993     91.0635    109.3034     73.2745
  1546.7500     45.8336     64.2846     83.2459    109.3669     71.1820
  1547.0000     46.7930     60.5618     81.6121     99.3935     67.6857
  1547.2500     48.1415     55.6601     83.7222     86.9900     66.2421
  1547.5000     49.5546     57.1955     77.4830     73.5085     64.7121
  1547.7500     50.5736     53.6943     72.5441     64.3019     67.4795
  1548.0000     51.5447     54.2537     67.5415     57.1343     68.4014
  1548.2500     52.5923     52.1707     62.0258     53.2703     67.4896
  1548.5000     53.8811     51.4381     58.7599     53.2589     57.7803
  1548.7500     55.4093     50.5595     56.0082     51.8454     55.9680
  1549.0000     57.3313     47.8203     52.2522     48.1952     62.3978
  1549.2500     59.8233     46.9363     49.9556     45.0203     67.9016
  1549.5000     61.3178     45.3336     48.3400     43.7032     75.1591
  1549.7500     62.8064     46.4928     48.7509     43.4819     72.1852
