~Version Information
VERS.                      2.0: CWLS Log ASCII Standard - VERSION 2.0
WRAP.                       NO: One line per depth step
~Well Information Block
STRT.FT               742.5000: 
STOP.FT              2463.5000: 
STEP.FT                 0.2500: 
NULL.                -999.2500: 
COMP.          Petrogulf Corporation: COMPANY
WELL.           Montoya 12-44V: WELL
FLD.           Purgatorie River: FIELD
LOC.           698' FSL & 599' FEL: LOCATION
CNTY.               Las Animas: COUNTY
SRVC.                         : SERVICE COMPANY
DATE.          Sun Aug 08 06:43:17 2004: LOG DATE
UWI.           05 071 08094 00: UNIQUE WELL ID
STAT.                 Colorado: STATE
~Curve Information Block
DEPT.FT            0 000 00 00: Depth
SN.Ohm-m                      : IEL Short Normal
SP.mV                         : IEL Spontaneous Potential
DIR.Ohm-m                     : IEL Induction Resistivity
GR.GAPI                       : Gamma Ray
~Parameter Information Block
~A  Depth        SN          SP         DIR          GR     
# ...
  1412.5000     13.9667    -63.9225     10.4330    108.5021
  1412.7500     14.2868    -64.2648     10.5078    103.4850
  1413.0000     14.6010    -64.8604     10.6908    100.3475
  1413.2500     14.8843    -65.7355     10.9840    101.6551
  1413.5000     15.1270    -66.8640     11.3925    108.3891
  1413.7500     15.3320    -68.1632     11.9195    115.1708
  1414.0000     15.5155    -69.5172     12.5454    126.2032
  1414.2500     15.7139    -70.8069     13.1943    132.2648
  1414.5000     15.9859    -71.9342     13.7167    136.3788
  1414.7500     16.3981    -72.8364     13.9298    134.7470
  1415.0000     16.9908    -73.4866     13.7301    126.2441
  1415.2500     17.7345    -73.8755     13.1810    118.2211
  1415.5000     18.5016    -74.0040     12.4702    106.5064
  1415.7500     19.0831    -73.8718     11.7889    100.6157
  1416.0000     19.2566    -73.4816     11.2486     95.5081
  1416.2500     18.8788    -72.8452     10.8712     94.1985
  1416.5000     17.9510    -71.9924     10.6154     94.8170
  1416.7500     16.6164    -70.9706     10.4121     97.2046
  1417.0000     15.0928    -69.8445     10.2018    104.5238
  1417.2500     13.5858    -68.6877      9.9580    111.8191
  1417.5000     12.2320    -67.5825      9.6853    124.7910
  1417.7500     11.0924    -66.6043      9.3962    133.2976
  1418.0000     10.1788    -65.8213      9.0929    143.3628
  1418.2500      9.4823    -65.2826      8.7670    147.5059
  1418.5000      8.9843    -65.0125      8.4138    150.4345
  1418.7500      8.6542    -65.0044      8.0440    151.2680
  1419.0000      8.4462    -65.2289      7.6824    152.0801
  1419.2500      8.3050    -65.6374      7.3555    152.1129
  1419.5000      8.1772    -66.1716      7.0811    150.5394
  1419.7500      8.0227    -66.7665      6.8651    148.6544
  1420.0000      7.8228    -67.3506      6.7052    146.3067
  1420.2500      7.5821    -67.8444      6.5943    145.8189
  1420.5000      7.3233    -68.1666      6.5231    146.3886
  1420.7500      7.0763    -68.2534      6.4826    146.9534
  1421.0000      6.8652    -68.0854      6.4649    147.3107
  1421.2500      6.7018    -67.7128      6.4618    147.1667
  1421.5000      6.5872    -67.2598      6.4615    146.7855
  1421.7500      6.5207    -66.9026      6.4496    146.8667
  1422.0000      6.5084    -66.8251      6.4157    148.0975
  1422.2500      6.5644    -67.1639      6.3596    149.5753
  1422.5000      6.7011    -67.9655      6.2918    151.8313
  1422.7500      6.9135    -69.1794      6.2272    152.6314
  1423.0000      7.1682    -70.6707      6.1783    152.0598
  1423.2500      7.4105    -72.2635      6.1524    150.7790
  1423.5000      7.5853    -73.7922      6.1505    148.9914
  1423.7500      7.6591    -75.1353      6.1688    148.6739
  1424.0000      7.6299    -76.2365      6.2011    149.6870
  1424.2500      7.5215    -77.0972      6.2419    150.8773
  1424.5000      7.3717    -77.7606      6.2871    152.4018
  1424.7500      7.2203    -78.2825      6.3327    152.7225
  1425.0000      7.0984    -78.7132      6.3755    151.5501
  1425.2500      7.0208    -79.0875      6.4159    149.6812
  1425.5000      6.9846    -79.4271      6.4599    146.1699
  1425.7500      6.9767    -79.7517      6.5186    144.1982
  1426.0000      6.9848    -80.0948      6.6026    142.8961
  1426.2500      7.0026    -80.4980      6.7189    143.1646
  1426.5000      7.0246    -81.0091      6.8694    144.1757
  1426.7500      7.0440    -81.6577      7.0537    144.3506
  1427.0000      7.0663    -82.4450      7.2731    142.9016
  1427.2500      7.1352    -83.3256      7.5350    140.7493
  1427.5000      7.3455    -84.2129      7.8535    136.0012
  1427.7500      7.8182    -84.9872      8.2428    131.8974
  1428.0000      8.6409    -85.5210      8.7060    124.6125
  1428.2500      9.8066    -85.6989      9.2230    119.5084
  1428.5000     11.1908    -85.4478      9.7470    112.6785
  1428.7500     12.5893    -84.7584     10.2166    109.1785
  1429.0000     13.8012    -83.6947     10.5845    105.6966
  1429.2500     14.7100    -82.3891     10.8472    104.3096
  1429.5000     15.3149    -81.0185     11.0514    102.7417
  1429.7500     15.6938    -79.7735     11.2664    101.4844
  1430.0000     15.9349    -78.8164     11.5441     99.1650
  1430.2500     16.0865    -78.2545     11.8900     98.0197
  1430.5000     16.1522    -78.1319     12.2603     98.5252
  1430.7500     16.1177    -78.4330     12.5853    100.6823
  1431.0000     15.9768    -79.1027     12.8074    105.5552
  1431.2500     15.7405    -80.0694     12.9091    108.8159
  1431.5000     15.4336    -81.2540     12.9144    112.4870
  1431.7500     15.0864    -82.5734     12.8698    114.0127
  1432.0000     14.7278    -83.9335     12.8237    115.3326
  1432.2500     14.3819    -85.2283     12.8115    115.8852
  1432.5000     14.0661    -86.3454     12.8437    116.8574
  1432.7500     13.7929    -87.1825     12.8997    118.0803
  1433.0000     13.5708    -87.6764     12.9338    121.3604
  1433.2500     13.4068    -87.8209     12.8979    124.2997
  1433.5000     13.3071    -87.6755     12.7748    128.4547
  1433.7500     13.2753    -87.3502     12.5941    130.1600
  1434.0000     13.3071    -86.9774     12.4148    130.4128
  1434.2500     13.3861    -86.6693     12.2874    129.1719
  1434.5000     13.4849    -86.4909     12.2294    125.8519
  1434.7500     13.5745    -86.4478     12.2297    123.0958
  1435.0000     13.6361    -86.5027     12.2734    118.8035
  1435.2500     13.6724    -86.5964     12.3599    116.0768
  1435.5000     13.7110    -86.6823     12.4934    112.2666
  1435.7500     13.7925    -86.7410     12.6529    109.9363
  1436.0000     13.9403    -86.7804     12.7765    107.2831
  1436.2500     14.1309    -86.8205     12.7887    106.6226
  1436.5000     14.2870    -86.8811     12.6551    107.7618
  1436.7500     14.3082    -86.9705     12.4045    109.4794
  1437.0000     14.1210    -87.0892     12.0933    111.6147
  1437.2500     13.7164    -87.2405     11.7559    111.6921
  1437.5000     13.1508    -87.4440     11.3918    109.4801
  1437.7500     12.5138    -87.7339     10.9894    107.4005
  1438.0000     11.8861    -88.1494     10.5537    105.9010
  1438.2500     11.3134    -88.7188     10.1099    107.0039
  1438.5000     10.8039    -89.4394      9.6851    111.6935
  1438.7500     10.3406    -90.2633      9.2869    116.0217
  1439.0000      9.8965    -91.1053      8.9005    123.1242
  1439.2500      9.4504    -91.8549      8.5040    128.1338
  1439.5000      9.0005    -92.3994      8.0908    136.3888
  1439.7500      8.5680    -92.6537      7.6802    142.4055
  1440.0000      8.1835    -92.5752      7.3083    151.3682
  1440.2500      7.8652    -92.1755      7.0090    156.3765
  1440.5000      7.6069    -91.5190      6.8001    160.9758
  1440.7500      7.3849    -90.7098      6.6806    161.8961
  1441.0000      7.1761    -89.8772      6.6358    161.0247
  1441.2500      6.9753    -89.1523      6.6463    159.7238
  1441.5000      6.8001    -88.6488      6.6937    157.1429
  1441.7500      6.6808    -88.4451      6.7611    154.6279
  1442.0000      6.6381    -88.5642      6.8299    148.9521
  1442.2500      6.6658    -88.9664      6.8791    144.1666
  1442.5000      6.7338    -89.5531      6.8915    137.4835
  1442.7500      6.8089    -90.1840      6.8662    134.7243
  1443.0000      6.8753    -90.7052      6.8223    133.6924
  1443.2500      6.9376    -90.9895      6.7901    133.9820
  1443.5000      7.0096    -90.9712      6.7935    133.2427
  1443.7500      7.1048    -90.6638      6.8405    131.1744
  1444.0000      7.2349    -90.1685      6.9252    126.0780
  1444.2500      7.4118    -89.6504      7.0370    122.0005
  1444.5000      7.6406    -89.3038      7.1666    115.9045
  1444.7500      7.9074    -89.3075      7.3051    112.4549
  1445.0000      8.1719    -89.7810      7.4405    109.1736
  1445.2500      8.3793    -90.7571      7.5601    108.3622
  1445.5000      8.4864    -92.1707      7.6563    108.2714
  1445.7500      8.4872    -93.8724      7.7301    108.2952
