~Version Information
VERS.                      2.0: CWLS Log ASCII Standard - VERSION 2.0
WRAP.                       NO: One line per depth step
~Well Information Block
STRT.FT               580.0000: 
STOP.FT              1756.0000: 
STEP.FT                 0.1000: 
NULL.                -999.2500: 
COMP.          Pioneer Natural Resources: COMPANY
WELL.          Lookout Point 31-23 Tr: WELL
FLD.           Purgatoire River: FIELD
LOC.           541' FNL & 1768' FEL: LOCATION
PROV.                 Colorado: PROVINCE
CNTY.               Las Animas: COUNTRY
SRVC.                Patterson: SERVICE COMPANY
DATE.          Mon Jan 24 07:20:20 2005: LOG DATE
UWI.           05 071 08260 00: UNIQUE WELL ID
~Curve Information Block
DEPT.FT            0 000 00 00: Depth
DCAL.in                       : CDL Caliper
DPOR.pu                       : CDL Density Porosity
GR.GAPI                       : Gamma Ray
NPOR.pu                       : Neutron Porosity
RHOB.g/cc                     : CDL Bulk Density
RHOC.g/cc                     : CDL Density Correction
~Parameter Information Block
~A  Depth       DCAL        DPOR         GR         NPOR        RHOB        RHOC    
# ...
   810.4000      7.9533      9.4958     88.0195     18.1747      2.4933      0.0718
   810.5000      7.9518      9.4542     95.8872     17.7008      2.4940      0.0764
   810.6000      7.9518      9.2714     98.5696     17.4884      2.4970      0.0606
   810.7000      7.9518      8.0374     97.7893     17.9605      2.5174      0.0719
   810.8000      7.9509      5.3118     97.2150     18.8328      2.5624      0.0708
   810.9000      7.9509      1.1648     94.6266     19.3566      2.6308      0.1088
   811.0000      7.9489     -4.1939     88.7187     19.1721      2.7192      0.1091
   811.1000      7.9489     -9.9213     82.6570     18.6069      2.8137      0.1780
   811.2000      7.9489    -13.8797     78.7411     18.4322      2.8790      0.2546
   811.3000      7.9492    -14.8285     76.4586     18.9451      2.8947      0.2285
   811.4000      7.9492    -14.0799     74.2209     19.5073      2.8823      0.2060
   811.5000      7.9609    -12.7384     69.0855     20.0051      2.8602      0.2030
   811.6000      7.9609    -10.5518     61.2665     20.7102      2.8241      0.0976
   811.7000      7.9609     -7.6724     57.2869     21.4299      2.7766      0.0201
   811.8000      7.9969     -4.7359     62.2569     21.8381      2.7281     -0.1156
   811.9000      7.9969     -1.7972     73.8823     21.5849      2.6797     -0.1468
   812.0000      8.0484      1.6427     84.1564     20.9155      2.6229     -0.1378
   812.1000      8.0484      4.8487     86.5967     20.4923      2.5700     -0.1103
   812.2000      8.0484      6.3133     85.2135     20.2468      2.5458     -0.1024
   812.3000      8.0756      6.2337     87.8065     19.8327      2.5471      0.0157
   812.4000      8.0756      5.9480     93.9842     19.2115      2.5519      0.0362
   812.5000      8.0691      5.7582     98.1878     18.6727      2.5550      0.0574
   812.6000      8.0691      5.2693     98.4448     18.5916      2.5631      0.0787
   812.7000      8.0691      4.6198     97.4175     18.5086      2.5738      0.0949
   812.8000      8.0506      4.5396     96.0992     17.7615      2.5751      0.1047
   812.9000      8.0506      5.1100     93.3781     16.8576      2.5657      0.0413
   813.0000      8.0406      5.5333     89.4932     16.5893      2.5587      0.0642
   813.1000      8.0406      5.7675     88.0560     16.4503      2.5548      0.0608
   813.2000      8.0406      6.2064     90.2731     16.0488      2.5476      0.0666
   813.3000      8.0438      6.4631     91.2052     16.3620      2.5434      0.0669
   813.4000      8.0438      6.1545     87.8265     17.5911      2.5485      0.0839
   813.5000      8.0516      5.7522     83.5348     18.8065      2.5551      0.0996
   813.6000      8.0516      5.9204     82.2473     19.5371      2.5523      0.1119
   813.7000      8.0516      6.7632     83.3690     19.8031      2.5384      0.0772
   813.8000      8.0597      7.7420     85.2381     19.6919      2.5223      0.0110
   813.9000      8.0597      8.3098     87.9000     19.3310      2.5129      0.0497
   814.0000      8.0640      8.9050     90.9891     19.3433      2.5031      0.0758
   814.1000      8.0640      9.9805     92.1535     20.1658      2.4853      0.0403
   814.2000      8.0640     10.9620     89.1921     21.1924      2.4691      0.0343
   814.3000      8.0676     11.4178     84.9465     22.2268      2.4616     -0.0013
   814.4000      8.0676     12.1219     83.8969     23.3700      2.4500      0.0608
   814.5000      8.0724     13.7651     85.8926     24.0096      2.4229      0.0440
   814.6000      8.0724     15.4985     85.8671     24.0162      2.3943      0.0230
   814.7000      8.0724     17.1300     80.4202     23.8704      2.3674      0.0667
   814.8000      8.0732     20.3313     74.1104     23.6074      2.3145      0.0659
   814.9000      8.0732     25.4503     72.9068     23.4655      2.2301      0.0097
   815.0000      8.0729     30.7901     75.3674     23.8250      2.1420     -0.0166
   815.1000      8.0729     35.5714     79.0976     24.4498      2.0631     -0.0092
   815.2000      8.0729     40.3303     81.6688     25.0602      1.9846      0.0114
   815.3000      8.0760     45.0616     77.8714     25.3427      1.9065     -0.0337
   815.4000      8.0760     49.2612     67.0582     25.0509      1.8372     -0.0357
   815.5000      8.0777     52.9397     56.1622     24.3543      1.7765     -0.0310
   815.6000      8.0777     56.1822     50.9010     23.7852      1.7230      0.0051
   815.7000      8.0777     58.4601     50.1246     23.8567      1.6854     -0.0061
   815.8000      8.0770     59.2611     49.4604     24.2824      1.6722      0.0603
   815.9000      8.0770     59.1374     46.0252     24.5158      1.6742      0.0859
   816.0000      8.0766     58.8110     41.5425     24.3201      1.6796      0.0319
   816.1000      8.0766     58.1251     39.8371     23.6292      1.6909      0.0224
   816.2000      8.0766     57.0479     42.0320     22.8348      1.7087      0.0336
   816.3000      8.0782     56.2730     46.1783     22.3221      1.7215      0.0425
   816.4000      8.0782     56.1084     49.2723     22.3102      1.7242      0.0256
   816.5000      8.0840     55.9052     50.2371     22.8682      1.7276      0.0495
   816.6000      8.0840     54.8313     50.4711     23.3638      1.7453      0.1054
   816.7000      8.0840     52.4245     51.3252     22.9578      1.7850      0.0846
   816.8000      8.0896     48.5579     54.4026     22.1700      1.8488      0.1125
   816.9000      8.0896     43.4000     59.1049     22.0238      1.9339      0.1052
   817.0000      8.0886     37.4976     63.2796     21.7538      2.0313      0.1643
   817.1000      8.0886     31.9702     66.3198     20.6412      2.1225      0.1907
   817.2000      8.0886     27.2766     69.3871     19.7638      2.1999      0.1473
   817.3000      8.0862     22.6677     73.8620     20.1029      2.2760      0.1832
   817.4000      8.0862     17.7722     79.6587     21.1788      2.3568      0.2507
   817.5000      8.0862     13.2544     85.6485     21.8441      2.4313      0.2748
   817.6000      8.0862      9.8519     90.2643     21.7863      2.4874      0.2343
   817.7000      8.0862      7.5433     92.0456     21.5511      2.5255      0.1569
   817.8000      8.0878      6.1592     90.2477     21.5714      2.5484      0.1113
   817.9000      8.0878      5.7913     86.6628     21.7876      2.5544      0.0932
   818.0000      8.0880      6.0406     85.4025     21.7092      2.5503      0.0567
   818.1000      8.0880      6.3994     88.4391     21.3587      2.5444      0.0709
   818.2000      8.0880      7.0861     94.1474     21.6880      2.5331      0.0675
   818.3000      8.0841      8.4369     99.5321     22.6115      2.5108      0.0595
   818.4000      8.0841     10.2476    100.7840     23.1432      2.4809      0.0358
   818.5000      8.0795     12.0250     97.9248     23.4571      2.4516      0.0296
   818.6000      8.0795     13.4491     94.8033     24.1030      2.4281      0.0128
   818.7000      8.0795     14.7949     92.4841     24.7872      2.4059      0.0242
   818.8000      8.0797     16.6739     89.9745     25.0681      2.3749      0.0123
   818.9000      8.0797     18.9935     87.7895     25.1958      2.3366     -0.0154
   819.0000      8.0825     21.1881     87.8050     25.6370      2.3004      0.0006
   819.1000      8.0825     23.3612     89.9862     26.1871      2.2645      0.0128
   819.2000      8.0825     26.2329     90.2356     26.2786      2.2172      0.0057
   819.3000      8.0825     30.3634     86.2481     25.9575      2.1490     -0.0042
   819.4000      8.0825     35.6555     79.8529     25.8812      2.0617     -0.0181
   819.5000      8.0795     41.4190     75.1651     26.3799      1.9666     -0.0472
   819.6000      8.0795     46.8068     76.3375     27.1644      1.8777     -0.0524
   819.7000      8.0795     51.1330     81.0993     27.7342      1.8063     -0.0694
   819.8000      8.0786     53.9215     82.8923     27.7268      1.7603     -0.0524
   819.9000      8.0786     54.8625     78.3372     27.0263      1.7448     -0.0441
