~Version Information
VERS.                      2.0: CWLS Log ASCII Standard - VERSION 2.0
WRAP.                       NO: One line per depth step
~Well Information Block
STRT.FT                -7.0000: 
STOP.FT              2730.2500: 
STEP.FT                 0.2500: 
NULL.                -999.2500: 
COMP.          Pioneer Natural Resources: COMPANY
WELL.             Squeal 11-26: WELL
FLD.           Purgatorie River: FIELD
LOC.           1186' FNL & 152' FWL--: LOCATION
PROV.                       CO: PROVINCE
CNTY.               Las Animas: COUNTRY
SRVC.          Patterson Wireline: SERVICE COMPANY
DATE.          Tue Jul 26 11:59:46 2005: LOG DATE
UWI.           05 071 08404 00: UNIQUE WELL ID
~Curve Information Block
DEPT.FT            0 000 00 00: Depth
CCL.                          : Casing Collar Locator
TT3.usec                      : CBL 3' Travel Time
AMP3.mV                       : CBL 3' Amplitude
GR.GAPI                       : Gamma Ray
~Parameter Information Block
~A  Depth       CCL         TT3         AMP3         GR     
# ...
  2706.5000      0.0000    738.6083      6.0695     77.5244
  2706.7500      0.0000    749.2980      6.2124     76.4197
  2707.0000      0.0000    754.7482      6.4286     74.3124
  2707.2500      0.0000    756.0340      6.6570     71.3294
  2707.5000      0.0000    755.9260      6.8646     68.1436
  2707.7500      0.0000    756.4870      7.0671     65.7184
  2708.0000      0.0000    758.1912      7.3208     64.7139
  2708.2500      0.0000    761.2604      7.6889     65.2053
  2708.5000      0.0000    766.7996      8.1987     66.9392
  2708.7500      0.0000    775.7310      8.8099     69.6175
  2709.0000      0.0000    786.9742      9.4207     72.7614
  2709.2500      0.0000    797.7322      9.9141     75.4766
  2709.5000      0.0000    805.9303     10.2186     76.7853
  2709.7500      0.0000    811.8618     10.3425     76.3791
  2710.0000      0.0000    817.1279     10.3678     74.8830
  2710.2500      0.0000    822.4247     10.4171     73.2842
  2710.5000      0.0000    827.0157     10.6116     72.2860
  2710.7500      0.0000    830.2579     11.0224     72.2269
  2711.0000      0.0000    832.5822     11.6273     73.1686
  2711.2500      0.0000    833.9002     12.3047     74.8376
  2711.5000      0.0000    831.9474     12.9004     76.8929
  2711.7500      0.0000    824.0567     13.3318     79.5067
  2712.0000      0.0000    810.1318     13.6464     83.2691
  2712.2500      0.0000    791.5733     13.9880     88.1735
  2712.5000      0.0000    767.5201     14.5178     92.9351
  2712.7500      0.0000    734.3876     15.3660     95.7216
  2713.0000      0.0000    689.3735     16.6335     95.5994
  2713.2500      0.0000    632.7254     18.3997     93.0588
  2713.5000      0.0000    567.0666     20.6902     89.2165
  2713.7500      0.0000    497.4601     23.4188     84.9096
  2714.0000      0.0000    432.1635     26.3752     80.7141
  2714.2500      0.0000    379.7207     29.3157     77.4164
  2714.5000      0.0000    343.8745     32.1171     75.9623
  2714.7500      0.0000    322.4814     34.8599     76.7517
  2715.0000      0.0000    310.9911     37.6999     79.0531
  2715.2500      0.0000    305.6009     40.5822     81.1585
  2715.5000      0.0000    303.7137     43.0479     81.1418
  2715.7500      0.0000    303.2891     44.3723     77.5739
  2716.0000      0.0000    302.9222     44.0061     69.7674
  2716.2500      0.0000    302.3251     42.0148     57.8315
  2716.5000      0.0000    302.0772     39.1293     43.0150
  2716.7500      0.0000    302.5992     36.2755     27.8667
  2717.0000      0.0000    303.6940     33.9865     15.2930
  2717.2500      0.0000    304.9922     32.2862      6.9495
  2717.5000      0.0000    306.3768     31.0674      2.5702
  2717.7500      0.0000    307.8021     30.4821      0.7635
  2718.0000      0.0000    308.8749     30.9783      0.1804
  2718.2500      0.0000    308.8355     32.9504      0.0332
  2718.5000      0.0000    307.2158     36.2274      0.0045
  2718.7500      0.0000    304.4863     39.9344      0.0000
  2719.0000      0.0000    301.6566     43.0919   -999.2500
  2719.2500      0.0000    299.0927     45.3760   -999.2500
  2719.5000      0.0000    296.0404     47.1169   -999.2500
  2719.7500      0.0000    291.4096     48.6815   -999.2500
  2720.0000      0.0000    284.9233     50.1091   -999.2500
  2720.2500      0.0000    277.5420     51.2316   -999.2500
  2720.5000      0.0000    270.5848     51.8430   -999.2500
  2720.7500      0.0000    263.9564     51.6708   -999.2500
  2721.0000      0.0000    254.6162     50.2157   -999.2500
  2721.2500      0.0000    236.7043     46.6793   -999.2500
  2721.5000      0.0000    204.5967     40.3187   -999.2500
  2721.7500      0.0000    158.1579     31.2887   -999.2500
  2722.0000      0.0000    105.5603     21.1762   -999.2500
  2722.2500      0.0000     59.1369     12.2947   -999.2500
  2722.5000      0.0000     27.2283      6.2001   -999.2500
  2722.7500      0.0000     10.1484      2.9387   -999.2500
  2723.0000      0.0000      3.0285      1.5788   -999.2500
  2723.2500      0.0000      0.7171      1.1371   -999.2500
  2723.5000      0.0000      0.1327      1.0254   -999.2500
  2723.7500      0.0000      0.0176      1.0034   -999.2500
  2724.0000      0.0000   -999.2500   -999.2500   -999.2500
  2724.2500      0.0000   -999.2500   -999.2500   -999.2500
  2724.5000      0.0000   -999.2500   -999.2500   -999.2500
  2724.7500      0.0000   -999.2500   -999.2500   -999.2500
  2725.0000      0.0000   -999.2500   -999.2500   -999.2500
  2725.2500      0.0000   -999.2500   -999.2500   -999.2500
  2725.5000      0.0000   -999.2500   -999.2500   -999.2500
  2725.7500      0.0000   -999.2500   -999.2500   -999.2500
  2726.0000      0.0000   -999.2500   -999.2500   -999.2500
  2726.2500      0.0000   -999.2500   -999.2500   -999.2500
  2726.5000      0.0000   -999.2500   -999.2500   -999.2500
  2726.7500      0.0000   -999.2500   -999.2500   -999.2500
  2727.0000      0.0000   -999.2500   -999.2500   -999.2500
  2727.2500      0.0000   -999.2500   -999.2500   -999.2500
  2727.5000      0.0000   -999.2500   -999.2500   -999.2500
  2727.7500      0.0000   -999.2500   -999.2500   -999.2500
  2728.0000      0.0000   -999.2500   -999.2500   -999.2500
  2728.2500      0.0000   -999.2500   -999.2500   -999.2500
  2728.5000      0.0000   -999.2500   -999.2500   -999.2500
  2728.7500      0.0000   -999.2500   -999.2500   -999.2500
  2729.0000      0.0000   -999.2500   -999.2500   -999.2500
  2729.2500      0.0000   -999.2500   -999.2500   -999.2500
  2729.5000      0.0000   -999.2500   -999.2500   -999.2500
  2729.7500   -999.2500   -999.2500   -999.2500   -999.2500
  2730.0000   -999.2500   -999.2500   -999.2500   -999.2500
  2730.2500   -999.2500   -999.2500   -999.2500   -999.2500
