~Version Information
VERS.                      2.0: CWLS Log ASCII Standard - VERSION 2.0
WRAP.                       NO: One line per depth step
~Well Information Block
STRT.FT               823.7000: 
STOP.FT              2444.0000: 
STEP.FT                 0.1000: 
NULL.                -999.2500: 
COMP.          Petrogulf Corporation: COMPANY
WELL.            Kraft 17-23 V: WELL
FLD.           Purgatorie River: FIELD
LOC.           1500' FSL & 1773' FWL: LOCATION
CNTY.               Las Animas: COUNTY
SRVC.                         : SERVICE COMPANY
DATE.          Thu Nov 20 07:09:00 2003: LOG DATE
UWI.                          : UNIQUE WELL ID
STAT.                 Colorado: STATE
~Curve Information Block
DEPT.FT            0 000 00 00: Depth
DCAL.in                       : CDL Caliper
RHOB.g/cc                     : CDL Bulk Density
RHOC.g/cc                     : CDL Density Correction
DPOR.pu                       : CDL Density Porosity
GR.GAPI                       : Gamma Ray
NPOR.pu                       : Neutron Porosity
~Parameter Information Block
~A  Depth       DCAL        RHOB        RHOC        DPOR         GR         NPOR    
# ...
  1476.5000      8.1577      2.5779      0.1246      4.3702    100.3407     24.1137
  1476.6000      8.1577      2.5642      0.0965      5.1985    101.8087     23.3857
  1476.7000      8.1577      2.5451      0.0264      6.3594    105.1612     23.5793
  1476.8000      8.2459      2.5288      0.0534      7.3471    110.0196     24.8598
  1476.9000      8.2459      2.5213      0.0093      7.8013    113.8952     26.5302
  1477.0000      8.2624      2.5214      0.0591      7.7929    114.9478     27.9545
  1477.1000      8.2624      2.5201      0.0250      7.8754    112.4477     28.4935
  1477.2000      8.2624      2.5114      0.0324      8.4008    108.6270     28.1184
  1477.3000      8.2500      2.5008      0.0278      9.0403    111.0216     27.5418
  1477.4000      8.2500      2.5020      0.0037      8.9692    123.8422     27.4214
  1477.5000      8.2599      2.5084      0.1004      8.5800    138.9919     27.8522
  1477.6000      8.2599      2.5024      0.0316      8.9478    145.7843     28.4753
  1477.7000      8.2599      2.4953      0.0342      9.3753    147.8215     28.7308
  1477.8000      8.2885      2.5020      0.0174      8.9687    150.3318     28.5048
  1477.9000      8.2885      2.5081      0.0967      8.6013    150.2242     28.2461
  1478.0000      8.3050      2.4978     -0.0195      9.2271    146.2103     28.2791
  1478.1000      8.3050      2.4834     -0.0138     10.0986    137.1432     28.6694
  1478.2000      8.3050      2.4806     -0.0047     10.2684    124.6827     29.2791
  1478.3000      8.3158      2.4902      0.0729      9.6875    116.0803     29.8190
  1478.4000      8.3158      2.4971      0.0956      9.2674    114.8456     30.2792
  1478.5000      8.3412      2.4936     -0.0171      9.4786    117.8635     30.9657
  1478.6000      8.3412      2.4948      0.0173      9.4040    121.0823     31.7987
  1478.7000      8.3412      2.5154      0.0412      8.1547    121.8914     32.1558
  1478.8000      8.3837      2.5574      0.0724      5.6133    122.3944     31.8383
  1478.9000      8.3837      2.5892      0.2304      3.6836    124.9508     31.4090
  1479.0000      8.4677      2.5677      0.1935      4.9888    128.7543     31.0678
  1479.1000      8.4677      2.5063      0.1131      8.7076    133.0290     30.4503
  1479.2000      8.4677      2.4649     -0.0089     11.2172    135.7611     29.7424
  1479.3000      8.5323      2.4742      0.1066     10.6544    135.7471     29.5111
  1479.4000      8.5323      2.5023      0.1728      8.9524    136.2344     29.7741
  1479.5000      8.4679      2.5069      0.1323      8.6709    138.5076     30.0302
  1479.6000      8.4679      2.4826      0.1030     10.1452    136.1644     29.7545
  1479.7000      8.4679      2.4488      0.0649     12.1939    130.3952     29.0508
  1479.8000      8.3791      2.4276     -0.0127     13.4805    129.6198     28.7101
  1479.9000      8.3791      2.4313      0.0305     13.2549    134.9118     29.1016
  1480.0000      8.4061      2.4542      0.0635     11.8672    142.1796     29.7211
  1480.1000      8.4061      2.4745      0.0812     10.6342    145.6169     30.0398
  1480.2000      8.4061      2.4772      0.0531     10.4742    142.9750     30.3013
  1480.3000      8.4821      2.4710      0.0038     10.8489    139.9293     30.9170
  1480.4000      8.4821      2.4693      0.0305     10.9543    143.7699     31.4216
  1480.5000      8.4525      2.4801      0.0548     10.2977    149.9701     31.1891
  1480.6000      8.4525      2.5080      0.1121      8.6062    151.5700     30.5968
  1480.7000      8.4525      2.5434      0.1485      6.4609    150.5876     30.3262
  1480.8000      8.3870      2.5709      0.1340      4.7958    149.3790     30.4317
  1480.9000      8.3870      2.5873      0.0961      3.8021    147.4028     30.5571
  1481.0000      8.3612      2.5906      0.2009      3.5989    144.6385     30.7242
  1481.1000      8.3612      2.5696      0.1563      4.8702    146.3147     31.1117
  1481.2000      8.3612      2.5381      0.0932      6.7817    154.1082     31.3598
  1481.3000      8.3564      2.5278      0.1019      7.4075    159.8789     31.2011
  1481.4000      8.3564      2.5369      0.1558      6.8523    154.7221     30.8544
  1481.5000      8.3404      2.5331      0.1207      7.0854    138.7257     30.7097
  1481.6000      8.3404      2.4959      0.0921      9.3401    125.3430     30.9419
  1481.7000      8.3404      2.4390      0.0012     12.7871    125.6083     31.0262
  1481.8000      8.3200      2.3993     -0.0345     15.1966    133.9821     30.3506
  1481.9000      8.3200      2.3957      0.0173     15.4138    139.0895     29.3760
  1482.0000      8.3230      2.4127      0.0503     14.3790    137.2553     29.0368
  1482.1000      8.3230      2.4298      0.0700     13.3438    132.3318     29.1037
  1482.2000      8.3230      2.4419      0.0618     12.6106    128.2430     29.0844
  1482.3000      8.3443      2.4660      0.0026     11.1543    126.1426     29.1690
  1482.4000      8.3443      2.5207      0.0982      7.8390    126.9857     29.2046
  1482.5000      8.3376      2.5780      0.1844      4.3660    131.6297     28.8908
  1482.6000      8.3376      2.5890      0.1786      3.6959    138.6019     28.3066
  1482.7000      8.3376      2.5562      0.0693      5.6850    141.3463     27.9665
  1482.8000      8.2945      2.5193      0.0706      7.9226    137.3417     28.5051
  1482.9000      8.2945      2.4967      0.0344      9.2934    135.6218     29.6184
  1483.0000      8.2786      2.4723      0.0579     10.7703    138.1107     30.6325
  1483.1000      8.2786      2.4130      0.0767     14.3640    138.6434     31.4062
  1483.2000      8.2786      2.3173     -0.0582     20.1659    139.5965     31.9973
  1483.3000      8.3152      2.2379     -0.0725     24.9756    140.0340     32.4279
  1483.4000      8.3152      2.2166     -0.0705     26.2664    131.3761     32.4334
  1483.5000      8.3583      2.2320      0.0432     25.3360    116.3418     31.8345
  1483.6000      8.3583      2.2475     -0.0263     24.3968    107.1771     30.7893
  1483.7000      8.3583      2.2655     -0.0104     23.3056    105.4323     29.5598
  1483.8000      8.3702      2.2900      0.1066     21.8211    105.5176     28.9332
  1483.9000      8.3702      2.3051      0.1420     20.9058    106.1858     29.2397
  1484.0000      8.3643      2.3215      0.0602     19.9081    107.2160     29.5156
  1484.1000      8.3643      2.3690      0.1623     17.0323    109.2441     28.9343
  1484.2000      8.3643      2.4389      0.1956     12.7946    116.0381     27.6809
  1484.3000      8.3664      2.4939      0.1160      9.4619    128.8043     26.6125
  1484.4000      8.3664      2.5197      0.0494      7.8952    142.5756     26.6009
  1484.5000      8.3637      2.5264      0.0971      7.4883    149.7403     27.5903
  1484.6000      8.3637      2.5195      0.0210      7.9088    150.6684     28.9264
  1484.7000      8.3637      2.5089      0.0576      8.5493    150.6292     29.9651
  1484.8000      8.3318      2.5028      0.0569      8.9196    148.1110     30.3607
  1484.9000      8.3318      2.5004     -0.0063      9.0637    142.3266     30.3512
  1485.0000      8.3066      2.5031      0.0633      8.9048    140.2265     30.1760
  1485.1000      8.3066      2.5040      0.0887      8.8489    141.5338     29.8687
  1485.2000      8.3066      2.4976      0.0184      9.2343    136.7390     29.5300
  1485.3000      8.3072      2.4934      0.0038      9.4889    127.5118     29.2215
  1485.4000      8.3072      2.4945      0.0249      9.4212    123.0288     28.9416
  1485.5000      8.3228      2.4877      0.0591      9.8336    119.9151     28.2601
  1485.6000      8.3228      2.4707     -0.0240     10.8655    111.2272     26.7314
  1485.7000      8.3228      2.4613      0.0026     11.4364    104.2315     24.7402
  1485.8000      8.3235      2.4545      0.0556     11.8490    108.3670     23.0265
  1485.9000      8.3235      2.4179      0.0903     14.0661    117.9185     21.9002
  1486.0000      8.3160      2.3412      0.0504     18.7180    120.1639     21.3205
