~Version Information
VERS.                      2.0: CWLS Log ASCII Standard - VERSION 2.0
WRAP.                       NO: One line per depth step
~Well Information Block
STRT.FT               451.7500: 
STOP.FT              1387.0000: 
STEP.FT                 0.2500: 
NULL.                -999.2500: 
COMP.          Petrogulf Corporation: COMPANY
WELL.          Great Plains 22-22R: WELL
FLD.           Purgatoire River: FIELD
LOC.           2042' FNL & 1657' FWL--: LOCATION
PROV.                 Colorado: PROVINCE
CNTY.               Las Animas: COUNTRY
SRVC.                Patterson: SERVICE COMPANY
DATE.          Fri Sep 09 10:42:01 2005: LOG DATE
UWI.           05 071 08028 00: UNIQUE WELL ID
~Curve Information Block
DEPT.FT            0 000 00 00: Depth
SP.mV                         : DIL Spontaneous Potential
RILD.Ohm-m                    : DIL Deep Resistivity
RILM.Ohm-m                    : DIL Medium Resistivity
RLL3.Ohm-m                    : DIL Shallow Resistivity
GR.GAPI                       : Gamma Ray
~Parameter Information Block
~A  Depth        SP         RILD        RILM        RLL3         GR     
# ...
   871.7500     61.4669     15.4593     17.9384     21.1944    123.7089
   872.0000     59.8072     14.9055     18.3407     21.4476    126.5814
   872.2500     58.1900     14.2216     18.8817     21.9175    128.4746
   872.5000     56.7737     13.4776     19.5700     22.5737    129.4592
   872.7500     55.7171     12.7878     20.3998     23.3765    128.2245
   873.0000     55.1333     12.2829     21.3552     24.3240    123.8478
   873.2500     55.0601     12.0970     22.4181     25.4808    120.0233
   873.5000     55.4619     12.3957     23.5728     27.0034    114.2523
   873.7500     56.2526     13.4720     24.8010     29.1629    110.8004
   874.0000     57.3248     16.0483     26.0665     32.3257    106.3671
   874.2500     58.5693     22.6054     27.2984     36.7853    103.9184
   874.5000     59.8855     50.3055     28.3892     42.3633    101.3477
   874.7500     61.1875 100000.0000     29.2164     47.9781    100.8043
   875.0000     62.4065 100000.0000     29.6827     51.7198    102.4082
   875.2500     63.4902 100000.0000     29.7544     51.7953    105.0597
   875.5000     64.3991 100000.0000     29.4791     47.8136    110.5360
   875.7500     65.1049 100000.0000     28.9714     41.2071    114.5253
   876.0000     65.5929 100000.0000     28.3704     34.2807    120.2617
   876.2500     65.8637 100000.0000     27.7887     28.7846    123.7403
   876.5000     65.9282 100000.0000     27.2878     25.2326    128.2456
   876.7500     65.7986 100000.0000     26.8896     23.1916    130.6609
   877.0000     65.4832 100000.0000     26.6182     21.9320    133.4153
   877.2500     64.9863 100000.0000     26.5433     20.9000    134.7786
   877.5000     64.3095 100000.0000     26.8116     19.8831    136.0817
   877.7500     63.4534 100000.0000     27.6778     18.9413    136.3721
   878.0000     62.4178 100000.0000     29.5926     18.2322    136.3448
   878.2500     61.2029 100000.0000     33.5036     17.8523    136.6320
   878.5000     59.8053 100000.0000     42.0134     17.7586    138.3242
   878.7500     58.2033 100000.0000     66.2929     17.7768    140.0801
   879.0000     56.3357 100000.0000    327.2780     17.6825    142.0531
   879.2500     54.0864 100000.0000 100000.0000     17.3177    141.9194
   879.5000     51.2874 100000.0000 100000.0000     16.6705    139.3578
   879.7500     47.7382 100000.0000 100000.0000     15.8643    137.1118
   880.0000     43.2250 100000.0000 100000.0000     15.0778    135.2453
   880.2500     37.5285 100000.0000 100000.0000     14.4655    135.6447
   880.5000     30.4250    132.4427 100000.0000     14.1317    137.9411
   880.7500     21.6897      5.8539 100000.0000     14.1656    139.3160
   881.0000     11.1106      2.3106 100000.0000     14.7212    138.2977
   881.2500     -1.4757      1.2136     17.0049     16.0828    134.1540
   881.5000    -16.1086      0.7214      3.8921     18.5892    122.2304
   881.7500    -32.5803      0.4572      1.7503     22.3012    111.6745
   882.0000    -50.3064      0.3001      0.9676     26.5170     95.5107
   882.2500    -68.2793      0.2028      0.5993     29.6118     86.3388
   882.5000    -85.1607      0.1426      0.4027     29.7190     76.0942
   882.7500    -99.4696      0.1057      0.2901     26.0559     71.0286
   883.0000   -109.7966      0.0834      0.2228     19.7923     64.1415
   883.2500   -115.0631      0.0698      0.1819     13.5609     59.1417
   883.5000   -114.8611      0.0618      0.1572     10.0577     50.7379
   883.7500   -109.7394      0.0573      0.1433     10.9768     44.9867
   884.0000   -101.1603      0.0556      0.1369     16.7750     37.3702
   884.2500    -91.0200      0.0559      0.1359     26.7635     33.6093
   884.5000    -81.0020      0.0583      0.1395     39.1688     30.3563
   884.7500    -72.1720      0.0633      0.1472     51.5362     29.4713
   885.0000    -64.9699      0.0717      0.1594     61.7545     28.9481
   885.2500    -59.4345      0.0853      0.1768     69.0726     28.5756
   885.5000    -55.4248      0.1060      0.2014     74.1880     27.7253
   885.7500    -52.7412      0.1356      0.2357     78.3856     27.1156
   886.0000    -51.1776      0.1745      0.2830     82.6063     26.3718
   886.2500    -50.5460      0.2208      0.3463     87.1603     26.0467
   886.5000    -50.6858      0.2708      0.4269     91.9813     26.0605
   886.7500    -51.4490      0.3206      0.5214     96.8579     26.6486
   887.0000    -52.6644      0.3676      0.6206    101.2619     28.6098
   887.2500    -54.0877      0.4109      0.7112    103.9397     30.5228
   887.5000    -55.3511      0.4504      0.7820    102.8687     34.0117
   887.7500    -55.9242      0.4862      0.8285     96.0464     36.8029
   888.0000    -55.0936      0.5188      0.8530     82.8204     42.3124
   888.2500    -51.9834      0.5499      0.8612     64.7787     47.4241
   888.5000    -45.6682      0.5823      0.8598     45.3792     58.1135
   888.7500    -35.4368      0.6190      0.8556     28.4502     67.3822
   889.0000    -21.1905      0.6623      0.8552     16.5585     83.4869
   889.2500     -3.7909      0.7134      0.8650     10.2277     94.4184
   889.5000     14.9633      0.7728      0.8907      8.2573    108.8982
   889.7500     32.8971      0.8414      0.9375      8.6856    116.6735
   890.0000     48.2767      0.9217      1.0101      9.7505    125.8250
   890.2500     60.3352      1.0180      1.1135     10.4218    130.6923
   890.5000     69.2141      1.1361      1.2536     10.4267    136.5858
   890.7500     75.5327      1.2821      1.4379      9.9565    139.6380
   891.0000     79.9809      1.4614      1.6760      9.3216    142.8671
   891.2500     83.1249      1.6780      1.9794      8.7406    144.1286
   891.5000     85.3768      1.9344      2.3603      8.2959    145.0081
   891.7500     87.0237      2.2314      2.8291      7.9807    145.3051
   892.0000     88.2628      2.5667      3.3908      7.7528    146.0036
   892.2500     89.2290      2.9317      4.0379      7.5678    146.8893
   892.5000     90.0135      3.3095      4.7428      7.4025    148.8629
   892.7500     90.6749      3.6762      5.4506      7.2676    150.2894
   893.0000     91.2458      4.0082      6.0843      7.1879    151.5481
   893.2500     91.7364      4.2906      6.5675      7.1614    151.1503
   893.5000     92.1389      4.5228      6.8562      7.1407    148.1187
   893.7500     92.4362      4.7151      6.9582      7.0630    144.6465
   894.0000     92.6141      4.8823      6.9255      6.9004    138.4029
   894.2500     92.6690      5.0374      6.8284      6.6814    134.4074
   894.5000     92.6059      5.1890      6.7299      6.4754    129.6013
   894.7500     92.4322      5.3406      6.6731      6.3617    127.0730
   895.0000     92.1547      5.4906      6.6805      6.4090    123.0859
   895.2500     91.7822      5.6340      6.7586      6.6749    119.5148
   895.5000     91.3270      5.7647      6.9016      7.2144    112.4425
   895.7500     90.8031      5.8791      7.0927      8.0671    107.2445
   896.0000     90.2238      5.9780      7.3047      9.1973    101.0818
   896.2500     89.6016      6.0663      7.5027     10.4107     99.6417
   896.5000     88.9472      6.1506      7.6527     11.3480    102.9371
   896.7500     88.2675      6.2377      7.7342     11.6385    108.1391
   897.0000     87.5646      6.3321      7.7488     11.1430    117.2138
   897.2500     86.8409      6.4346      7.7197     10.0725    122.1854
   897.5000     86.1047      6.5419      7.6796      8.8623    126.6755
   897.7500     85.3693      6.6461      7.6567      7.9165    128.0541
   898.0000     84.6485      6.7375      7.6654      7.4298    128.8208
   898.2500     83.9524      6.8068      7.7039      7.3748    128.7968
   898.5000     83.2871      6.8489      7.7572      7.5951    127.9877
   898.7500     82.6571      6.8639      7.8053      7.9116    126.9620
   899.0000     82.0673      6.8570      7.8316      8.1843    125.1267
   899.2500     81.5255      6.8365      7.8299      8.3296    124.1099
   899.5000     81.0420      6.8123      7.8054      8.3204    123.4762
