~Version Information
VERS.                      2.0: CWLS Log ASCII Standard - VERSION 2.0
WRAP.                       NO: One line per depth step
~Well Information Block
STRT.FT               577.8000: 
STOP.FT              2445.8000: 
STEP.FT                 0.1000: 
NULL.                -999.2500: 
COMP.          Petrogulf Corporation: COMPANY
WELL.             State 16-32V: WELL
FLD.           Purgatorie River: FIELD
LOC.           1599' FNL & 1783' FEL: LOCATION
CNTY.               Las Animas: COUNTY
SRVC.                         : SERVICE COMPANY
DATE.          Thu Jun 05 16:36:04 2003: LOG DATE
UWI.           05 071 07726 00: UNIQUE WELL ID
STAT.                 Colorado: STATE
~Curve Information Block
DEPT.FT            0 000 00 00: Depth
DCAL.in                       : Caliper from Density Tool
RHOB.g/cc                     : Bulk Density
RHOC.g/cc                     : Density Correction
DPOR.pu                       : Density Porosity
GR.GAPI                       : Gamma Ray
NPOR.pu                       : Neutron Porosity
~Parameter Information Block
~A  Depth       DCAL        RHOB        RHOC        DPOR         GR         NPOR    
# ...
  1566.6000      8.3573      2.5794      0.0364      4.2777    126.1488     23.5370
  1566.7000      8.3573      2.5794      0.0364      4.2777    127.0921     23.7313
  1566.8000      8.3124      2.5733      0.0382      4.6472    128.0158     23.9171
  1566.9000      8.3124      2.5733      0.0382      4.6472    128.8941     24.0912
  1567.0000      8.2871      2.5692      0.0396      4.8954    129.7164     24.2513
  1567.1000      8.2871      2.5692      0.0396      4.8954    130.4877     24.3957
  1567.2000      8.2871      2.5692      0.0396      4.8954    131.2244     24.5221
  1567.3000      8.2925      2.5649      0.0431      5.1570    131.9515     24.6279
  1567.4000      8.2925      2.5649      0.0431      5.1570    132.6966     24.7098
  1567.5000      8.3120      2.5640      0.0466      5.2128    133.4853     24.7635
  1567.6000      8.3120      2.5640      0.0466      5.2128    134.3355     24.7841
  1567.7000      8.3120      2.5640      0.0466      5.2128    135.2471     24.7662
  1567.8000      8.3515      2.5663      0.0536      5.0736    136.1976     24.7047
  1567.9000      8.3515      2.5663      0.0536      5.0736    137.1368     24.5948
  1568.0000      8.3662      2.5705      0.0596      4.8160    137.9878     24.4335
  1568.1000      8.3662      2.5705      0.0596      4.8160    138.6507     24.2192
  1568.2000      8.3662      2.5705      0.0596      4.8160    139.0168     23.9536
  1568.3000      8.3440      2.5807      0.0710      4.1986    138.9790     23.6413
  1568.4000      8.3440      2.5807      0.0710      4.1986    138.4512     23.2906
  1568.5000      8.3578      2.5889      0.0797      3.7060    137.3854     22.9133
  1568.6000      8.3578      2.5889      0.0797      3.7060    135.7773     22.5244
  1568.7000      8.3578      2.5889      0.0797      3.7060    133.6786     22.1415
  1568.8000      8.3756      2.5988      0.0919      3.1021    131.1887     21.7831
  1568.9000      8.3756      2.5988      0.0919      3.1021    128.4461     21.4673
  1569.0000      8.3525      2.6012      0.0970      2.9588    125.6136     21.2101
  1569.1000      8.3525      2.6012      0.0970      2.9588    122.8563     21.0240
  1569.2000      8.3525      2.6012      0.0970      2.9588    120.3257     20.9170
  1569.3000      8.2995      2.5961      0.0978      3.2668    118.1414     20.8913
  1569.4000      8.2995      2.5961      0.0978      3.2668    116.3844     20.9437
  1569.5000      8.2358      2.5882      0.0942      3.7482    115.0927     21.0660
  1569.6000      8.2358      2.5882      0.0942      3.7482    114.2646     21.2461
  1569.7000      8.2358      2.5882      0.0942      3.7482    113.8667     21.4693
  1569.8000      8.1966      2.5743      0.0861      4.5868    113.8443     21.7204
  1569.9000      8.1966      2.5743      0.0861      4.5868    114.1350     21.9853
  1570.0000      8.2339      2.5663      0.0809      5.0728    114.6736     22.2525
  1570.1000      8.2339      2.5663      0.0809      5.0728    115.4050     22.5142
  1570.2000      8.2339      2.5663      0.0809      5.0728    116.2860     22.7661
  1570.3000      8.2782      2.5568      0.0751      5.6495    117.2872     23.0070
  1570.4000      8.2782      2.5568      0.0751      5.6495    118.3915     23.2386
  1570.5000      8.3096      2.5507      0.0717      6.0183    119.5911     23.4637
  1570.6000      8.3096      2.5507      0.0717      6.0183    120.8841     23.6854
  1570.7000      8.3096      2.5507      0.0717      6.0183    122.2683     23.9062
  1570.8000      8.3734      2.5397      0.0656      6.6868    123.7400     24.1277
  1570.9000      8.3734      2.5397      0.0656      6.6868    125.2887     24.3495
  1571.0000      8.4243      2.5314      0.0601      7.1862    126.8945     24.5699
  1571.1000      8.4243      2.5314      0.0601      7.1862    128.5273     24.7853
  1571.2000      8.4243      2.5314      0.0601      7.1862    130.1464     24.9905
  1571.3000      8.4275      2.5213      0.0502      7.7971    131.7018     25.1791
  1571.4000      8.4275      2.5213      0.0502      7.7971    133.1357     25.3438
  1571.5000      8.3980      2.5187      0.0434      7.9604    134.3856     25.4759
  1571.6000      8.3980      2.5187      0.0434      7.9604    135.3868     25.5662
  1571.7000      8.3980      2.5187      0.0434      7.9604    136.0766     25.6052
  1571.8000      8.3865      2.5231      0.0341      7.6934    136.3998     25.5832
  1571.9000      8.3865      2.5231      0.0341      7.6934    136.3105     25.4913
  1572.0000      8.3991      2.5314      0.0290      7.1897    135.7768     25.3221
  1572.1000      8.3991      2.5314      0.0290      7.1897    134.7817     25.0705
  1572.2000      8.3991      2.5314      0.0290      7.1897    133.3272     24.7351
  1572.3000      8.4117      2.5490      0.0239      6.1196    131.4330     24.3183
  1572.4000      8.4117      2.5490      0.0239      6.1196    129.1411     23.8273
  1572.5000      8.4459      2.5618      0.0224      5.3445    126.5122     23.2738
  1572.6000      8.4459      2.5618      0.0224      5.3445    123.6238     22.6740
  1572.7000      8.4459      2.5618      0.0224      5.3445    120.5686     22.0470
  1572.8000      8.4533      2.5784      0.0235      4.3388    117.4445     21.4139
  1572.9000      8.4533      2.5784      0.0235      4.3388    114.3507     20.7966
  1573.0000      8.4693      2.5861      0.0264      3.8755    111.3783     20.2163
  1573.1000      8.4693      2.5861      0.0264      3.8755    108.6044     19.6925
  1573.2000      8.4693      2.5861      0.0264      3.8755    106.0900     19.2423
  1573.3000      8.4659      2.5912      0.0336      3.5633    103.8800     18.8800
  1573.4000      8.4659      2.5912      0.0336      3.5633    102.0035     18.6165
  1573.5000      8.4329      2.5903      0.0401      3.6164    100.4823     18.4598
  1573.6000      8.4329      2.5903      0.0401      3.6164     99.3295     18.4143
  1573.7000      8.4329      2.5903      0.0401      3.6164     98.5580     18.4816
  1573.8000      8.4036      2.5824      0.0514      4.0986     98.1788     18.6599
  1573.9000      8.4036      2.5824      0.0514      4.0986     98.2020     18.9447
  1574.0000      8.3720      2.5722      0.0598      4.7154     98.6312     19.3287
  1574.1000      8.3720      2.5722      0.0598      4.7154     99.4660     19.8023
  1574.2000      8.3720      2.5722      0.0598      4.7154    100.6985     20.3541
  1574.3000      8.3606      2.5485      0.0729      6.1532    102.3170     20.9711
  1574.4000      8.3606      2.5485      0.0729      6.1532    104.3089     21.6394
  1574.5000      8.3761      2.5265      0.0812      7.4848    106.6624     22.3443
  1574.6000      8.3761      2.5265      0.0812      7.4848    109.3711     23.0712
  1574.7000      8.3761      2.5265      0.0812      7.4848    112.4308     23.8055
  1574.8000      8.3649      2.4846      0.0906     10.0230    115.8349     24.5330
  1574.9000      8.3649      2.4846      0.0906     10.0230    119.5660     25.2402
  1575.0000      8.3211      2.4521      0.0930     11.9927    123.5881     25.9146
  1575.1000      8.3211      2.4521      0.0930     11.9927    127.8354     26.5440
  1575.2000      8.3211      2.4521      0.0930     11.9927    132.2068     27.1175
  1575.3000      8.3226      2.4015      0.0877     15.0630    136.5651     27.6236
  1575.4000      8.3226      2.4015      0.0877     15.0630    140.7399     28.0509
  1575.5000      8.3380      2.3708      0.0777     16.9192    144.5414     28.3869
  1575.6000      8.3380      2.3708      0.0777     16.9192    147.7751     28.6185
  1575.7000      8.3380      2.3708      0.0777     16.9192    150.2593     28.7325
  1575.8000      8.4088      2.3390      0.0556     18.8487    151.8426     28.7169
  1575.9000      8.4088      2.3390      0.0556     18.8487    152.4181     28.5630
  1576.0000      8.4816      2.3326      0.0397     19.2388    151.9358     28.2670
  1576.1000      8.4816      2.3326      0.0397     19.2388    150.4075     27.8326
