~Version Information
VERS.                      2.0: CWLS Log ASCII Standard - VERSION 2.0
WRAP.                       NO: One line per depth step
~Well Information Block
STRT.FT               460.5000: 
STOP.FT              2197.0000: 
STEP.FT                 0.2500: 
NULL.                -999.2500: 
COMP.          Petrogulf Corporation: COMPANY
WELL.              Silva 1-43R: WELL
FLD.           Purgatorie River: FIELD
LOC.           1971' FSL & 526' FEL: LOCATION
CNTY.               Las Animas: COUNTY
SRVC.                Patterson: SERVICE COMPANY
DATE.          Sun Jun 18 03:37:26 2006: LOG DATE
UWI.           05 071 08372 00: UNIQUE WELL ID
STAT.                 Colorado: STATE
~Curve Information Block
DEPT.FT            0 000 00 00: Depth
SN.Ohm-m                      : IEL Short Normal
SP.mV                         : IEL Spontaneous Potential
DIR.Ohm-m                     : IEL Induction Resistivity
GR.GAPI                       : Gamma Ray
~Parameter Information Block
~A  Depth        SN          SP         DIR          GR     
# ...
  1398.5000     67.0849     25.7920     43.6088     47.5693
  1398.7500     69.2807     25.7113     44.6062     47.2608
  1399.0000     70.9500     25.6097     45.0312     48.0338
  1399.2500     71.9380     25.5016     45.1324     49.7338
  1399.5000     72.1224     25.4029     45.1760     54.3133
  1399.7500     71.5218     25.3248     45.2724     58.4071
  1400.0000     70.3086     25.2705     45.3477     64.8111
  1400.2500     68.7679     25.2323     45.2411     68.3742
  1400.5000     67.2032     25.1952     44.8549     71.6038
  1400.7500     65.7879     25.1453     44.2506     72.1269
  1401.0000     64.5116     25.0778     43.6242     70.5564
  1401.2500     63.3298     25.0000     43.1904     68.0930
  1401.5000     62.3561     24.9290     43.0673     62.6067
  1401.7500     61.8407     24.8853     43.2189     58.0664
  1402.0000     61.9251     24.8836     43.4729     50.8003
  1402.2500     62.4801     24.9261     43.6048     46.2717
  1402.5000     63.2311     25.0029     43.4526     40.7720
  1402.7500     63.9850     25.1003     42.9890     38.1576
  1403.0000     64.6821     25.2084     42.2910     35.7954
  1403.2500     65.2901     25.3234     41.4418     35.2047
  1403.5000     65.7030     25.4441     40.4580     35.7142
  1403.7500     65.7198     25.5659     39.2949     36.9191
  1404.0000     65.0964     25.6791     37.9158     39.8971
  1404.2500     63.6012     25.7704     36.3513     42.7094
  1404.5000     61.0405     25.8289     34.6939     48.7516
  1404.7500     57.3581     25.8517     33.0430     54.5702
  1405.0000     52.7906     25.8453     31.4568     66.5490
  1405.2500     47.8408     25.8246     29.9459     76.2995
  1405.5000     43.0494     25.8079     28.4997     91.6562
  1405.7500     38.7858     25.8108     27.1157    101.0867
  1406.0000     35.1744     25.8391     25.8113    112.4519
  1406.2500     32.1532     25.8860     24.6161    117.8067
  1406.5000     29.6212     25.9375     23.5547    122.7600
  1406.7500     27.5372     25.9819     22.6383    124.5612
  1407.0000     25.8925     26.0162     21.8628    126.0812
  1407.2500     24.6614     26.0458     21.2134    126.6394
  1407.5000     23.8061     26.0802     20.6717    126.7182
  1407.7500     23.2771     26.1289     20.2295    126.0906
  1408.0000     23.0123     26.2003     19.9028    124.0498
  1408.2500     22.9535     26.3015     19.7324    122.0727
  1408.5000     23.0495     26.4355     19.7640    118.6004
  1408.7500     23.2639     26.5982     20.0181    116.3048
  1409.0000     23.6007     26.7763     20.4733    113.4916
  1409.2500     24.0990     26.9487     21.0727    112.1410
  1409.5000     24.7937     27.0922     21.7524    110.4601
  1409.7500     25.6916     27.1902     22.4682    109.1702
  1410.0000     26.7789     27.2421     23.2020    106.5969
  1410.2500     28.0381     27.2632     23.9439    104.4106
  1410.5000     29.4475     27.2758     24.6698    100.2924
  1410.7500     30.9623     27.2958     25.3363     96.9279
  1411.0000     32.5065     27.3260     25.9020     91.3952
  1411.2500     33.9838     27.3564     26.3619     87.9759
  1411.5000     35.2991     27.3697     26.7634     84.3273
  1411.7500     36.3988     27.3477     27.1834     83.3702
  1412.0000     37.3005     27.2798     27.6807     84.6537
  1412.2500     38.0328     27.1698     28.2665     87.1875
  1412.5000     38.5599     27.0346     28.9117     92.2590
  1412.7500     38.8535     26.8935     29.5810     95.5100
  1413.0000     39.0004     26.7543     30.2549     99.0177
  1413.2500     39.1307     26.6108     30.9212    100.1926
  1413.5000     39.2991     26.4530     31.5518    100.3855
  1413.7500     39.5137     26.2808     32.1024     99.8934
  1414.0000     39.7728     26.1091     32.5404     99.0759
  1414.2500     40.0406     25.9622     32.8750     98.5699
  1414.5000     40.2990     25.8629     33.1508     97.1180
  1414.7500     40.6306     25.8214     33.4091     95.2105
  1415.0000     41.1473     25.8300     33.6501     91.0751
  1415.2500     41.8232     25.8655     33.8268     88.1669
  1415.5000     42.4844     25.9007     33.8739     85.2270
  1415.7500     42.9508     25.9180     33.7486     85.0972
  1416.0000     43.0883     25.9182     33.4551     88.5063
  1416.2500     42.7730     25.9175     33.0391     93.0360
  1416.5000     41.9790     25.9367     32.5591    101.8042
  1416.7500     40.8970     25.9891     32.0563    107.8483
  1417.0000     39.8011     26.0749     31.5408    115.6491
  1417.2500     38.7753     26.1813     30.9984    119.4670
  1417.5000     37.6595     26.2864     30.4084    122.9231
  1417.7500     36.2612     26.3647     29.7570    124.0355
  1418.0000     34.5695     26.3959     29.0398    124.7452
  1418.2500     32.7841     26.3731     28.2577    124.8438
  1418.5000     31.1728     26.3054     27.4169    124.5619
  1418.7500     29.8989     26.2137     26.5335    124.2970
  1419.0000     28.9681     26.1180     25.6374    124.3603
  1419.2500     28.2990     26.0288     24.7669    124.8887
  1419.5000     27.8021     25.9473     23.9557    126.3754
  1419.7500     27.3840     25.8733     23.2196    127.7296
  1420.0000     26.9215     25.8094     22.5534    130.0298
  1420.2500     26.2986     25.7605     21.9426    131.5788
  1420.5000     25.4928     25.7288     21.3806    133.9509
  1420.7500     24.5988     25.7113     20.8773    135.6862
  1421.0000     23.7500     25.6990     20.4488    138.3209
  1421.2500     23.0157     25.6803     20.1013    139.7295
  1421.5000     22.3837     25.6447     19.8225    141.0635
  1421.7500     21.8282     25.5872     19.5898    141.7214
  1422.0000     21.3615     25.5106     19.3857    142.9513
  1422.2500     21.0263     25.4258     19.2085    143.9845
  1422.5000     20.8637     25.3496     19.0702    145.6102
  1422.7500     20.8585     25.2993     18.9855    146.6239
  1423.0000     20.9231     25.2849     18.9610    147.7454
  1423.2500     20.9852     25.3042     18.9902    147.7745
  1423.5000     21.0588     25.3449     19.0549    145.4067
  1423.7500     21.2007     25.3908     19.1307    141.5754
  1424.0000     21.4362     25.4301     19.1950    133.0321
  1424.2500     21.7483     25.4589     19.2368    127.0786
  1424.5000     22.1142     25.4828     19.2610    121.0554
  1424.7500     22.5323     25.5144     19.2852    119.9001
  1425.0000     23.0170     25.5693     19.3315    121.6525
  1425.2500     23.5695     25.6591     19.4195    124.0962
  1425.5000     24.1316     25.7862     19.5664    128.4537
  1425.7500     24.5689     25.9418     19.7877    131.5253
  1426.0000     24.7437     26.1089     20.0898    135.9156
  1426.2500     24.6296     26.2680     20.4568    138.2595
  1426.5000     24.3211     26.4027     20.8443    140.1736
  1426.7500     23.9415     26.5023     21.1917    140.2410
  1427.0000     23.6098     26.5636     21.4502    138.9390
  1427.2500     23.4507     26.5917     21.6061    137.5347
  1427.5000     23.5375     26.6011     21.6835    135.0146
  1427.7500     23.8456     26.6103     21.7298    133.0615
  1428.0000     24.2542     26.6316     21.7966    129.8992
  1428.2500     24.5986     26.6659     21.9280    128.0923
  1428.5000     24.8214     26.7055     22.1557    126.8652
  1428.7500     25.0535     26.7407     22.4981    127.3234
  1429.0000     25.4352     26.7616     22.9604    129.6345
  1429.2500     25.9343     26.7592     23.5354    131.9123
  1429.5000     26.4490     26.7269     24.2016    135.9413
  1429.7500     27.0338     26.6618     24.9251    138.6415
  1430.0000     27.9627     26.5627     25.6651    141.4011
  1430.2500     29.5529     26.4298     26.3840    141.4184
  1430.5000     31.8746     26.2675     27.0568    137.8213
  1430.7500     34.6209     26.0871     27.6722    133.3862
  1431.0000     37.2892     25.9057     28.2266    125.6036
  1431.2500     39.5009     25.7440     28.7149    120.9588
  1431.5000     41.1643     25.6221     29.1241    116.2743
  1431.7500     42.3836     25.5522     29.4329    114.9127
