~Version Information
VERS.                      2.0: CWLS Log ASCII Standard - VERSION 2.0
WRAP.                       NO: One line per depth step
~Well Information Block
STRT.FT               710.0000: 
STOP.FT              2922.5000: 
STEP.FT                 0.2500: 
NULL.                -999.2500: 
COMP.          Petrogulf Corporation: COMPANY
WELL.            Montoya 1-41V: WELL
FLD.           Purgatorie River: FIELD
LOC.           610' FNL & 1205' FEL: LOCATION
PROV.                 Colorado: PROVINCE
CNTY.               Las Animas: COUNTRY
SRVC.                Patterson: SERVICE COMPANY
DATE.          Mon Aug 22 08:00:56 2005: LOG DATE
UWI.                          : UNIQUE WELL ID
~Curve Information Block
DEPT.FT            0 000 00 00: Depth
SP.mV                         : DIL Spontaneous Potential
RILD.Ohm-m                    : DIL Deep Resistivity
RILM.Ohm-m                    : DIL Medium Resistivity
RLL3.Ohm-m                    : DIL Shallow Resistivity
GR.GAPI                       : Gamma Ray
~Parameter Information Block
~A  Depth        SP         RILD        RILM        RLL3         GR     
# ...
  2446.0000    102.4423      9.5362     10.5715     15.6005    124.8024
  2446.2500    101.6627      9.0788     10.0778     15.5938    122.2433
  2446.5000    100.8437      8.8823      9.7033     15.0927    114.3070
  2446.7500     99.7366      8.7570      9.2487     14.0950    113.9061
  2447.0000     98.3276      8.5554      8.8150     13.2670    107.4219
  2447.2500     96.5754      8.5690      8.3380     12.2132    110.3096
  2447.5000     94.4257      8.6209      8.0540     10.8626    127.4456
  2447.7500     91.8713      8.5263      7.8983     10.0423    121.0325
  2448.0000     88.9678      8.4540      7.9707      9.9417    114.8469
  2448.2500     85.6463      8.3588      8.1383     10.8443    125.3327
  2448.5000     81.9336      8.3316      8.3356     11.9624    122.4155
  2448.7500     78.2000      8.4011      8.2606     12.6870    112.1891
  2449.0000     74.6426      8.1369      8.4229     13.1339    122.1009
  2449.2500     70.9830      8.2363      8.4783     13.4598    105.5308
  2449.5000     67.1858      8.2866      8.4504     13.6059    115.4372
  2449.7500     63.1744      8.5309      8.5672     13.5210    107.2953
  2450.0000     59.0750      8.7703      8.6549     13.3180    105.1709
  2450.2500     54.9620      8.9303      8.7914     13.4601    109.7675
  2450.5000     50.5880      9.3973      8.9980     13.5165    116.4917
  2450.7500     46.5495      9.6671      9.4133     13.6114    122.6390
  2451.0000     42.5942      9.8713      9.6739     13.7978    113.4068
  2451.2500     38.6211     10.3750      9.9309     14.0933    105.2558
  2451.5000     34.3177     10.8278     10.4393     14.4682    102.9500
  2451.7500     30.2456     11.2873     10.8023     15.2201    107.4860
  2452.0000     26.0685     11.5066     11.5126     16.4574     93.8723
  2452.2500     21.6369     11.8152     12.1912     17.6899     85.1394
  2452.5000     17.0474     12.6913     12.9878     19.1841    107.3393
  2452.7500     12.4437     12.9456     14.3409     21.1334    108.2829
  2453.0000      7.6227     13.4702     14.8269     23.2142     78.3819
  2453.2500      3.5747     14.3234     15.8247     26.5107     72.0766
  2453.5000      0.0978     14.7198     16.3164     32.1122     66.9248
  2453.7500     -3.0178     15.5251     17.4142     35.2211     64.8891
  2454.0000     -5.8614     16.4878     18.5688     32.5789     87.2636
  2454.2500     -8.7742     17.6804     18.2470     27.8862     87.6945
  2454.5000    -11.6599     18.6475     19.4313     23.5105    114.7169
  2454.7500    -14.3654     20.0186     20.4181     21.4468    112.6866
  2455.0000    -16.9028     20.9535     20.6831     22.4963     87.4818
  2455.2500    -19.0930     21.4927     23.3896     26.9851     77.0398
  2455.5000    -20.9354     21.8761     25.2268     34.6268     81.1169
  2455.7500    -22.3483     22.5427     28.1399     45.9687     74.8598
  2456.0000    -23.3833     22.6702     29.8768     59.7946     70.0453
  2456.2500    -24.0264     22.7515     29.3686     73.9924     73.2907
  2456.5000    -24.2696     22.6663     29.0874     78.8131     67.8847
  2456.7500    -24.2833     24.6528     28.3784     63.2771     68.3611
  2457.0000    -24.1223     24.3142     27.8014     43.9261     66.2194
  2457.2500    -23.9397     26.2845     27.2562     34.6215     68.3104
  2457.5000    -23.6397     28.8818     27.6791     34.5603     86.5983
  2457.7500    -22.9610     29.9125     27.7430     36.4565     88.5048
  2458.0000    -21.7842     31.2814     29.4780     34.1005     90.2228
  2458.2500    -20.5039     32.1327     32.0633     32.0661     97.0501
  2458.5000    -19.1790     32.9337     33.3375     34.9329     95.3856
  2458.7500    -17.7694     33.1834     35.7828     45.4598     71.1965
  2459.0000    -16.2855     35.2173     39.5308     65.1277     59.2808
  2459.2500    -14.5241     35.9431     43.7193     86.8131     47.6466
  2459.5000    -12.6155     36.3662     46.5827     98.9495     69.8738
  2459.7500    -10.6392     35.3133     51.1545    102.2682     50.7876
  2460.0000     -8.5750     36.4232     54.4236    108.6925     45.8058
  2460.2500     -6.1810     36.2549     57.2145    119.3183     42.9964
  2460.5000     -3.6551     38.5355     55.9591    128.1219     42.3083
  2460.7500     -0.8492     43.7954     67.3180    122.6870     46.7484
  2461.0000      2.3265     44.0962     61.3706    105.9667     32.1102
  2461.2500      5.8406     44.7021     54.8194    101.6527     31.3509
  2461.5000      9.8561     41.0759     62.3613    104.6265     37.0535
  2461.7500     13.7978     42.4057     65.3547     93.7950     37.0747
  2462.0000     17.7243     48.1709     72.0638     78.3694     48.2976
  2462.2500     21.5007     47.6637     73.2889     78.1223     45.4494
  2462.5000     25.4013     46.4597     75.1663     95.2881     45.6087
  2462.7500     28.8682     47.3435     74.1690    114.2253     44.5967
  2463.0000     32.2843     47.4791     81.0097    114.4097     39.4804
  2463.2500     35.9409     42.1060     77.4236    107.0157     39.7701
  2463.5000     40.2530     40.5459     69.9619    100.9822     60.2185
  2463.7500     44.5426     38.2830     65.5841    101.6959     60.4438
  2464.0000     49.0263     38.9070     58.6278    109.7530     59.8637
  2464.2500     53.8991     41.5334     53.3762    101.2815     69.8131
  2464.5000     59.2984     39.8171     44.5956     63.8808     65.8660
  2464.7500     64.0122     40.8146     42.2487     41.1034     73.3006
  2465.0000     67.7631     40.3887     40.3969     32.9511     90.3645
  2465.2500     70.9076     38.7099     42.6495     30.3003     78.4280
  2465.5000     73.5125     40.7774     42.9632     32.9975     80.1065
  2465.7500     76.0066     41.3539     42.8259     42.7474     85.1160
  2466.0000     78.7085     38.0901     44.1385     55.3493     72.4089
  2466.2500     81.4170     38.0934     45.8022     64.1624     63.9940
  2466.5000     84.0642     38.1176     45.5417     66.3045     62.0887
  2466.7500     86.4853     36.1859     43.8430     62.9908     61.6124
  2467.0000     88.8018     35.1475     42.9905     55.6027     66.7170
  2467.2500     90.5835     33.6436     41.1695     46.3885     71.3842
  2467.5000     91.8910     30.9746     43.8317     39.9846     65.6513
  2467.7500     93.0129     29.7484     43.4473     37.7933     77.9452
  2468.0000     94.0176     27.2273     40.2525     37.3875    103.1903
  2468.2500     95.1627     24.5693     35.6027     36.9390     79.9718
  2468.5000     96.2106     22.6378     33.2360     34.0409     70.2248
  2468.7500     97.1929     20.7175     29.1072     29.9349     79.5259
  2469.0000     98.0914     18.7829     26.9806     27.9959     97.6282
  2469.2500     99.0304     16.8486     23.1006     28.1039     92.7557
  2469.5000     99.9101     14.8267     19.6585     26.7668     85.8758
  2469.7500    100.5162     13.8806     17.0621     22.1583     91.4352
  2470.0000    100.6387     12.9223     14.9193     17.0631    110.6422
  2470.2500    100.4704     11.7937     12.9833     14.2157    122.5671
  2470.5000    100.3082     10.9299     11.7277     13.0353    121.5945
  2470.7500    100.0502      9.8680     10.5817     12.1500    123.8001
  2471.0000     99.4991      9.3713      9.7372     11.4391    104.3992
  2471.2500     98.7278      8.7540      9.1740     11.2150    100.0033
  2471.5000     97.8865      8.2894      8.5870     11.0598     98.3818
  2471.7500     96.8428      7.9194      8.0165     11.2759     91.4195
  2472.0000     95.7270      7.3909      7.5819     11.4957     90.7481
  2472.2500     94.6325      7.0153      7.0992     11.6472     93.2282
  2472.5000     93.1052      6.9348      6.7272     11.2355     87.0851
  2472.7500     91.3651      6.9528      6.4261     10.0091     85.8547
  2473.0000     89.5875      7.0252      6.1392      9.0251     79.0518
  2473.2500     87.2553      7.1398      6.0567      8.5554     86.0779
  2473.5000     84.6405      7.2929      6.0069      8.3047     89.1134
  2473.7500     81.7757      7.5829      6.2291      8.2056     94.1917
