~Version Information
VERS.                      2.0: CWLS Log ASCII Standard - VERSION 2.0
WRAP.                       NO: One line per depth step
~Well Information Block
STRT.FT                -7.5000: 
STOP.FT              2304.7500: 
STEP.FT                 0.2500: 
NULL.                -999.2500: 
COMP.          Pioneer Natural Resources: COMPANY
WELL.          Foothills 12-36: WELL
FLD.           Purgatorie River: FIELD
LOC.           2450' FNL & 201' FWL--: LOCATION
PROV.                       CO: PROVINCE
CNTY.               Las Animas: COUNTRY
SRVC.          Patterson Wireline: SERVICE COMPANY
DATE.          Tue Apr 26 11:10:08 2005: LOG DATE
UWI.           05 071 08339 00: UNIQUE WELL ID
~Curve Information Block
DEPT.FT            0 000 00 00: Depth
CCL.                          : Casing Collar Locator
TT3.usec                      : CBL 3' Travel Time
AMP3.mV                       : CBL 3' Amplitude
GR.GAPI                       : Gamma Ray
~Parameter Information Block
~A  Depth       CCL         TT3         AMP3         GR     
# ...
  1500.0000      0.0000    807.6199      5.1377    128.6602
  1500.2500      0.0000    806.5108      4.9218    134.6596
  1500.5000      0.0000    807.4365      4.6756    141.9301
  1500.7500      0.0000    809.6979      4.5436    150.8497
  1501.0000      0.0000    812.0319      4.5942    160.2859
  1501.2500      0.0000    813.6078      4.7789    167.6783
  1501.5000      0.0000    814.3596      4.9762    170.8217
  1501.7500      0.0000    814.6382      5.0699    169.4565
  1502.0000      0.0000    814.8881      5.0024    164.9718
  1502.2500      0.0000    815.6257      4.7905    159.1411
  1502.5000      0.0000    817.4781      4.5155    153.4123
  1502.7500      0.0000    820.8964      4.2924    148.7736
  1503.0000      0.0000    825.5832      4.2136    145.6741
  1503.2500      0.0000    830.3668      4.2943    144.0258
  1503.5000      0.0000    833.9875      4.4597    143.5104
  1503.7500      0.0000    835.9493      4.5915    143.8707
  1504.0000      0.0000    836.3849      4.6048    144.6822
  1504.2500      0.0000    835.3942      4.5029    144.9484
  1504.5000      0.0000    832.9187      4.3710    143.4015
  1504.7500      0.0000    829.1008      4.3160    139.2909
  1505.0000      0.0000    824.5281      4.3931    132.6440
  1505.2500      0.0000    819.9600      4.5721    124.1848
  1505.5000      0.0000    815.5400      4.7609    115.6259
  1505.7500      0.0000    810.1921      4.8630    109.4244
  1506.0000      0.0000    802.2246      4.8308    107.0378
  1506.2500      0.0000    790.9944      4.6910    107.5540
  1506.5000      0.0000    778.0204      4.5340    108.7663
  1506.7500      0.0000    766.2267      4.4617    109.2588
  1507.0000      0.0000    757.8175      4.5191    108.8452
  1507.2500      0.0000    752.8441      4.6570    107.6823
  1507.5000      0.0000    749.9985      4.7666    105.8964
  1507.7500      0.0000    748.6669      4.7626    103.7688
  1508.0000      0.0000    749.8191      4.6534    101.7469
  1508.2500      0.0000    754.9694      4.5386    100.5275
  1508.5000      0.0000    764.7277      4.5261    101.1563
  1508.7500      0.0000    778.2064      4.6327    104.4033
  1509.0000      0.0000    793.0486      4.7632    109.9730
  1509.2500      0.0000    805.6885      4.7937    116.8520
  1509.5000      0.0000    812.3433      4.6850    124.4046
  1509.7500      0.0000    810.9042      4.5190    132.3830
  1510.0000      0.0000    802.6633      4.4255    139.6138
  1510.2500      0.0000    792.0673      4.4649    143.5874
  1510.5000      0.0000    784.1533      4.5785    142.3988
  1510.7500      0.0000    781.7872      4.6547    136.8826
  1511.0000      0.0000    784.9490      4.6462    129.7783
  1511.2500      0.0000    791.5962      4.6148    122.7727
  1511.5000      0.0000    798.3698      4.6563    115.5100
  1511.7500      0.0000    801.5200      4.7884    107.6148
  1512.0000      0.0000    799.4404      4.9279    100.4068
  1512.2500      0.0000    794.9339      4.9831     96.0655
  1512.5000      0.0000    793.5153      4.9510     95.6654
  1512.7500      0.0000    798.2852      4.9101     98.2367
  1513.0000      0.0000    806.9196      4.9235    101.6792
  1513.2500      0.0000    814.3959      4.9715    104.8337
  1513.5000      0.0000    818.2681      4.9824    108.6267
  1513.7500      0.0000    820.2208      4.9183    114.7049
  1514.0000      0.0000    822.6420      4.8197    123.0658
  1514.2500      0.0000    825.4611      4.7660    131.5638
  1514.5000      0.0000    827.3752      4.7952    137.7312
  1514.7500      0.0000    828.5802      4.8664    140.4961
  1515.0000      0.0000    830.4513      4.9051    139.9176
  1515.2500      0.0000    833.1832      4.8850    135.9895
  1515.5000      0.0000    835.3192      4.8553    128.7420
  1515.7500      0.0000    835.5439      4.8832    119.5241
  1516.0000      0.0000    834.0780      4.9731    111.2982
  1516.2500      0.0000    832.2283      5.0581    107.0176
  1516.5000      0.0000    831.0848      5.0752    107.7151
  1516.7500      0.0000    830.9583      5.0336    112.3446
  1517.0000      0.0000    831.6577      4.9965    119.3003
  1517.2500      0.0000    832.4382      4.9997    127.4711
  1517.5000      0.0000    831.4813      5.0133    135.6951
  1517.7500      0.0000    826.1995      4.9945    141.9547
  1518.0000      0.0000    815.0148      4.9554    143.8760
  1518.2500      0.0000    799.3444      4.9489    140.1250
  1518.5000      0.0000    783.6133      4.9916    131.3331
  1518.7500      0.0000    772.4532      5.0363    119.9546
  1519.0000      0.0000    767.4080      5.0347    109.3939
  1519.2500      0.0000    766.4063      4.9968    102.6991
  1519.5000      0.0000    766.1974      4.9634    101.0534
  1519.7500      0.0000    764.9682      4.9377    103.1091
  1520.0000      0.0000    762.9480      4.8870    106.0899
  1520.2500      0.0000    761.3032      4.8099    107.7481
  1520.5000      0.0000    761.0408      4.7584    107.4747
  1520.7500      0.0000    762.8195      4.7716    106.1357
  1521.0000      0.0000    766.9951      4.8214    105.2110
  1521.2500      0.0000    773.0401      4.8576    105.8829
  1521.5000      0.0000    778.8657      4.8791    108.4118
  1521.7500      0.0000    781.6005      4.9197    111.7065
  1522.0000      0.0000    779.9129      4.9737    113.5459
  1522.2500      0.0000    775.3770      4.9908    112.1186
  1522.5000      0.0000    770.8295      4.9529    107.7523
  1522.7500      0.0000    767.6469      4.9091    102.6218
  1523.0000      0.0000    765.3500      4.9080     98.7631
  1523.2500      0.0000    763.2618      4.9330     96.8941
  1523.5000      0.0000    761.4449      4.9401     96.8368
  1523.7500      0.0000    760.2098      4.9295     98.3181
  1524.0000      0.0000    759.6038      4.9326    101.4901
  1524.2500      0.0000    759.5123      4.9477    107.2256
  1524.5000      0.0000    760.0596      4.9379    116.6717
  1524.7500      0.0000    761.7250      4.8925    129.8138
  1525.0000      0.0000    764.5276      4.8447    144.3327
  1525.2500      0.0000    766.7515      4.8212    156.3725
  1525.5000      0.0000    765.4181      4.8125    162.9864
  1525.7500      0.0000    759.2991      4.8067    163.9793
  1526.0000      0.0000    750.9502      4.8127    161.2493
  1526.2500      0.0000    744.6869      4.8349    156.4850
  1526.5000      0.0000    742.8020      4.8576    149.9208
  1526.7500      0.0000    744.1726      4.8689    141.1420
  1527.0000      0.0000    746.0613      4.8759    130.3227
  1527.2500      0.0000    747.0069      4.8958    118.3378
  1527.5000      0.0000    748.2033      4.9514    106.1150
  1527.7500      0.0000    751.9174      5.0596     94.2626
  1528.0000      0.0000    758.3818      5.1954     83.3601
  1528.2500      0.0000    764.7155      5.2883     74.5449
  1528.5000      0.0000    767.3554      5.2864     69.5022
  1528.7500      0.0000    765.0013      5.1980     69.3290
  1529.0000      0.0000    758.7878      5.0508     73.1657
  1529.2500      0.0000    750.4097      4.8494     78.3575
  1529.5000      0.0000    741.0600      4.6110     82.3742
  1529.7500      0.0000    731.8931      4.3971     84.4086
  1530.0000      0.0000    724.2902      4.2652     85.0685
  1530.2500      0.0000    719.1819      4.2174     85.0110
  1530.5000      0.0000    716.4626      4.2269     84.1966
  1530.7500      0.0000    715.3190      4.2777     82.2555
  1531.0000      0.0000    714.9582      4.3477     79.3085
  1531.2500      0.0000    714.9997      4.3990     76.3528
  1531.5000      0.0000    715.4597      4.4218     74.8752
  1531.7500      0.0000    716.6014      4.4557     75.8918
  1532.0000      0.0000    718.7010      4.5336     79.0257
  1532.2500      0.0000    721.6250      4.6350     82.5048
  1532.5000      0.0000    724.5178      4.7205     84.4810
  1532.7500      0.0000    726.2687      4.7778     84.5468
  1533.0000      0.0000    726.7618      4.8119     83.6497
  1533.2500      0.0000    727.5886      4.8242     82.5195
