~Version Information
VERS.                      2.0: CWLS Log ASCII Standard - VERSION 2.0
WRAP.                       NO: One line per depth step
~Well Information Block
STRT.FT               962.7000: 
STOP.FT              2435.5000: 
STEP.FT                 0.1000: 
NULL.                -999.2500: 
COMP.          Petrogulf Corporation: COMPANY
WELL.              Hand 8-44 V: WELL
FLD.           Purgatorie River: FIELD
LOC.           1076' FEL & 820' FSL: LOCATION
CNTY.               Las Animas: COUNTY
SRVC.                         : SERVICE COMPANY
DATE.          Fri Nov 21 14:12:41 2003: LOG DATE
UWI.                          : UNIQUE WELL ID
STAT.                 Colorado: STATE
~Curve Information Block
DEPT.FT            0 000 00 00: Depth
DCAL.in                       : CDL Caliper
RHOB.g/cc                     : CDL Bulk Density
RHOC.g/cc                     : CDL Density Correction
DPOR.pu                       : CDL Density Porosity
GR.GAPI                       : Gamma Ray
NPOR.pu                       : Neutron Porosity
~Parameter Information Block
~A  Depth       DCAL        RHOB        RHOC        DPOR         GR         NPOR    
# ...
  1173.9000      8.4489      1.6165      0.1392     62.6335     59.2034     16.6665
  1174.0000      8.4699      1.6292      0.0906     61.8671     63.3560     17.1082
  1174.1000      8.4699      1.6576      0.1312     60.1437     63.9647     16.5948
  1174.2000      8.4699      1.6718      0.1098     59.2872     59.7615     15.8002
  1174.3000      8.4470      1.6552      0.1119     60.2886     57.5132     15.3487
  1174.4000      8.4470      1.6256      0.0914     62.0831     60.5326     15.2910
  1174.5000      8.4148      1.6098      0.1634     63.0407     62.4857     15.7055
  1174.6000      8.4148      1.6214      0.1454     62.3403     59.7900     16.2903
  1174.7000      8.4148      1.6565      0.1997     60.2092     57.8098     16.4415
  1174.8000      8.3858      1.6851      0.2087     58.4811     60.6155     16.3743
  1174.9000      8.3858      1.6737      0.1587     59.1711     66.1248     16.7012
  1175.0000      8.3730      1.6345      0.0018     61.5462     69.8040     17.3390
  1175.1000      8.3730      1.6148     -0.0062     62.7393     69.0004     17.9600
  1175.2000      8.3730      1.6371      0.0556     61.3909     65.5145     18.5458
  1175.3000      8.3736      1.6910      0.1247     58.1189     64.7559     19.0440
  1175.4000      8.3736      1.7700      0.1720     53.3314     70.0466     19.6238
  1175.5000      8.3850      1.8567      0.2700     48.0816     75.9460     20.8218
  1175.6000      8.3850      1.9064      0.3060     45.0672     74.9300     22.4318
  1175.7000      8.3850      1.9057      0.1451     45.1093     69.3771     23.5865
  1175.8000      8.3680      1.8892      0.2000     46.1115     67.0681     24.2875
  1175.9000      8.3680      1.8798      0.2056     46.6809     69.4293     25.3701
  1176.0000      8.3603      1.8904      0.1834     46.0358     71.6735     26.6583
  1176.1000      8.3603      1.9375      0.2596     43.1792     73.6082     27.5592
  1176.2000      8.3603      2.0179      0.2615     38.3103     78.8277     28.3548
  1176.3000      8.3568      2.1032      0.2991     33.1374     85.9933     29.2843
  1176.4000      8.3568      2.1690      0.2405     29.1524     89.1145     30.0902
  1176.5000      8.3435      2.2393      0.1848     24.8884     89.0537     30.7547
  1176.6000      8.3435      2.3527      0.2785     18.0192     93.2293     31.4125
  1176.7000      8.3435      2.4848      0.3754     10.0124    102.4338     31.7153
  1176.8000      8.3468      2.5759      0.4333      4.4893    109.4212     31.5534
  1176.9000      8.3468      2.6165      0.2994      2.0319    109.6303     31.5523
  1177.0000      8.3609      2.6389      0.2883      0.6738    106.5730     31.9059
  1177.1000      8.3609      2.6453      0.2549      0.2853    105.1136     32.0210
  1177.2000      8.3609      2.6218      0.1568      1.7121    106.2978     31.6989
  1177.3000      8.4057      2.5940      0.0381      3.3950    106.8250     31.2572
  1177.4000      8.4057      2.5952      0.0821      3.3198    104.3838     31.1386
  1177.5000      8.3255      2.6121      0.1017      2.2955    103.6733     31.4410
  1177.6000      8.3255      2.6148      0.0611      2.1304    107.8850     31.5744
  1177.7000      8.3255      2.5995      0.0554      3.0614    115.5037     31.1409
  1177.8000      8.3227      2.5828     -0.0040      4.0751    125.7818     30.5566
  1177.9000      8.3227      2.5804      0.0187      4.2188    136.3475     30.0612
  1178.0000      8.2838      2.5933      0.0908      3.4374    142.2023     29.4517
  1178.1000      8.2838      2.5983      0.0999      3.1312    141.6147     28.9593
  1178.2000      8.2838      2.5754      0.0926      4.5234    135.9213     28.9823
  1178.3000      8.2701      2.5515      0.0531      5.9682    126.9537     29.2734
  1178.4000      8.2701      2.5567      0.0901      5.6537    118.5352     29.5983
  1178.5000      8.2740      2.5679      0.1424      4.9739    115.4961     30.1295
  1178.6000      8.2740      2.5672      0.0321      5.0171    118.4904     30.7572
  1178.7000      8.2740      2.5830      0.1065      4.0593    123.9121     31.4067
  1178.8000      8.2953      2.6185      0.1947      1.9077    129.0723     31.9088
  1178.9000      8.2953      2.6318      0.2480      1.1007    132.9735     32.0222
  1179.0000      8.3207      2.6165      0.1537      2.0298    135.2926     32.0160
  1179.1000      8.3207      2.6106      0.1485      2.3889    136.2288     32.1437
  1179.2000      8.3207      2.6211      0.1971      1.7506    135.9721     32.2985
  1179.3000      8.3405      2.6244      0.1700      1.5544    132.9179     32.3885
  1179.4000      8.3405      2.6204      0.1071      1.7954    127.4184     32.2023
  1179.5000      8.3485      2.6293      0.1347      1.2525    122.7383     31.8370
  1179.6000      8.3485      2.6566      0.1742     -0.4016    122.5198     31.7655
  1179.7000      8.3485      2.6877      0.1907     -2.2849    128.1956     31.9383
  1179.8000      8.3619      2.6956      0.1723     -2.7662    133.5314     31.9880
  1179.9000      8.3619      2.6617      0.1684     -0.7075    132.4926     31.9169
  1180.0000      8.3759      2.6055      0.0528      2.6987    128.3055     31.8636
  1180.1000      8.3759      2.5651      0.0039      5.1468    129.0388     31.7847
  1180.2000      8.3759      2.5447      0.0546      6.3797    135.8103     31.7453
  1180.3000      8.3870      2.5162      0.0436      8.1116    141.7022     31.7556
  1180.4000      8.3870      2.4724      0.0403     10.7613    144.1823     31.5740
  1180.5000      8.3882      2.4393      0.0340     12.7694    146.1788     31.2109
  1180.6000      8.3882      2.4401      0.0685     12.7212    145.3271     30.9809
  1180.7000      8.3882      2.4977      0.0282      9.2311    136.0100     30.9458
  1180.8000      8.3715      2.6298      0.0652      1.2266    121.6673     30.9505
  1180.9000      8.3715      2.7976      0.2308     -8.9432    116.3033     30.9560
  1181.0000      8.2939      2.9421      0.2730    -17.7037    123.4658     30.8713
  1181.1000      8.2939      3.0487      0.4040    -24.1619    130.1130     30.8404
  1181.2000      8.2939      3.1081      0.4347    -27.7617    127.0295     31.1351
  1181.3000      8.2584      3.1020      0.3634    -27.3934    119.7478     31.4156
  1181.4000      8.2584      3.0357      0.1977    -23.3731    115.1349     31.2222
  1181.5000      8.2388      2.9434     -0.0060    -17.7813    111.7610     30.8234
  1181.6000      8.2388      2.8611     -0.1022    -12.7924    108.7500     30.8054
  1181.7000      8.2388      2.7977     -0.0688     -8.9531    105.8577     31.3664
  1181.8000      8.2026      2.7342     -0.1177     -5.1036     99.8595     32.3053
  1181.9000      8.2026      2.6531     -0.0629     -0.1902     94.2999     33.3603
  1182.0000      8.2724      2.5738     -0.0589      4.6157     95.3675     34.4964
  1182.1000      8.2724      2.5392     -0.0283      6.7151    101.2139     35.7337
  1182.2000      8.2724      2.5528      0.0750      5.8921    106.0034     36.8621
  1182.3000      8.3285      2.5746      0.0660      4.5716    107.5760     37.5976
  1182.4000      8.3285      2.5866      0.0796      3.8404    107.6993     37.9824
  1182.5000      8.2671      2.6167      0.0135      2.0166    109.7584     38.0854
  1182.6000      8.2671      2.6803      0.0905     -1.8373    114.8720     37.6772
  1182.7000      8.2671      2.7456      0.1085     -5.7969    119.4939     36.7414
  1182.8000      8.2482      2.7907      0.0894     -8.5282    122.1570     35.6140
  1182.9000      8.2482      2.8546      0.0750    -12.3988    124.9207     34.6098
  1183.0000      8.2166      2.9784      0.2162    -19.9003    125.9842     34.0271
  1183.1000      8.2166      3.1203      0.3064    -28.5008    121.3984     33.7253
  1183.2000      8.2166      3.2048      0.3032    -33.6226    114.4388     33.0092
  1183.3000      8.1823      3.2029      0.1825    -33.5116    109.0259     31.7020
  1183.4000      8.1823      3.1256      0.1269    -28.8253    104.4874     30.1988
