~Version Information
VERS.                      2.0: CWLS Log ASCII Standard - VERSION 2.0
WRAP.                       NO: One line per depth step
~Well Information Block
STRT.FT                -7.5000: 
STOP.FT               978.5000: 
STEP.FT                 0.2500: 
NULL.                -999.2500: 
COMP.          Pioneer Natural Resources: COMPANY
WELL.          Piggyback 33-25: WELL
FLD.           Purgatoire River: FIELD
LOC.           1600' FSL & 1800' FEL: LOCATION
PROV.                 Colorado: PROVINCE
CNTY.               Las Animas: COUNTRY
SRVC.                Patterson: SERVICE COMPANY
DATE.          Mon May 09 09:22:28 2005: LOG DATE
UWI.           05 071 08233 00: UNIQUE WELL ID
~Curve Information Block
DEPT.FT            0 000 00 00: Depth
CCL.                          : Casing Collar Locator
TT3.usec                      : CBL 3' Travel Time
AMP3.mV                       : CBL 3' Amplitude
GR.GAPI                       : Gamma Ray
~Parameter Information Block
~A  Depth       CCL         TT3         AMP3         GR     
# ...
   193.5000      0.0000    759.9018      8.5374     84.5067
   193.7500      0.0000    767.0590      8.8134     80.5464
   194.0000      0.0000    771.6699      9.0201     76.8238
   194.2500      0.0000    771.5354      9.1471     72.8445
   194.5000      0.0000    767.4599      9.2013     68.1880
   194.7500      0.0000    762.2481      9.1978     63.3230
   195.0000      0.0000    758.4766      9.1590     59.1453
   195.2500      0.0000    757.1683      9.1136     56.1499
   195.5000      0.0000    757.3817      9.0893     54.3827
   195.7500      0.0000    756.6291      9.0989     53.9273
   196.0000      0.0000    752.5955      9.1260     55.0450
   196.2500      0.0000    745.4100      9.1239     57.7491
   196.5000      0.0000    738.2216      9.0449     61.4682
   196.7500      0.0000    734.7844      8.8824     65.2904
   197.0000      0.0000    735.9926      8.6797     68.4579
   197.2500      0.0000    739.1229      8.4920     70.6961
   197.5000      0.0000    740.8972      8.3467     72.4035
   197.7500      0.0000    740.9348      8.2408     74.5545
   198.0000      0.0000    741.7095      8.1639     77.9581
   198.2500      0.0000    745.3422      8.1090     82.3110
   198.5000      0.0000    751.0416      8.0696     86.2576
   198.7500      0.0000    755.5810      8.0398     88.6025
   199.0000      0.0000    755.6956      8.0254     89.2934
   199.2500      0.0000    750.1966      8.0490     89.0790
   199.5000      0.0000    740.7314      8.1273     88.4989
   199.7500      0.0000    730.7802      8.2383     87.4563
   200.0000      0.0000    723.1186      8.3222     85.6691
   200.2500      0.0000    717.8541      8.3277     83.2727
   200.5000      0.0000    713.3400      8.2525     80.8519
   200.7500      0.0000    709.0013      8.1328     79.0111
   201.0000      0.0000    706.6674      8.0051     78.0418
   201.2500      0.0000    708.7901      7.8872     77.8598
   201.5000      0.0000    715.6534      7.7829     78.1187
   201.7500      0.0000    724.8541      7.6941     78.5053
   202.0000      0.0000    733.6589      7.6295     79.0667
   202.2500      0.0000    741.4731      7.6075     80.2113
   202.5000      0.0000    749.6331      7.6458     82.2733
   202.7500      0.0000    758.9349      7.7454     84.8556
   203.0000      0.0000    767.8700      7.8797     86.5918
   203.2500      0.0000    773.3582      8.0047     86.0201
   203.5000      0.0000    772.9807      8.0808     83.1268
   203.7500      0.0000    766.7446      8.0923     79.7198
   204.0000      0.0000    757.4489      8.0538     77.8866
   204.2500      0.0000    749.7295      8.0019     78.2215
   204.5000      0.0000    748.4488      7.9813     79.6576
   204.7500      0.0000    757.1229      8.0280     80.6604
   205.0000      0.0000    777.0488      8.1515     80.3720
   205.2500      0.0000    806.5020      8.3212     78.9028
   205.5000      0.0000    839.1409      8.4732     76.8699
   205.7500      0.0000    863.8468      8.5427     74.8091
   206.0000      0.0000    870.1239      8.5041     73.0299
   206.2500      0.0000    856.6971      8.3915     71.8396
   206.5000      0.0000    833.2133      8.2775     71.6114
   206.7500      0.0000    811.5197      8.2259     72.4443
   207.0000      0.0000    796.7243      8.2598     73.8811
   207.2500      0.0000    787.2291      8.3680     75.1571
   207.5000      0.0000    780.1935      8.5213     75.7630
   207.7500      0.0000    774.6472      8.6723     75.8302
   208.0000      0.0000    770.7344      8.7588     76.1756
   208.2500      0.0000    768.2655      8.7315     77.7763
   208.5000      0.0000    766.6169      8.5873     80.6758
   208.7500      0.0000    765.7140      8.3727     83.3197
   209.0000      0.0000    767.0571      8.1586     83.5408
   209.2500      0.0000    773.1405      8.0030     80.5857
   209.5000      0.0000    784.5925      7.9191     76.0657
   209.7500      0.0000    797.7637      7.8706     72.7844
   210.0000      0.0000    806.7307      7.8020     72.5817
   210.2500      0.0000    808.3204      7.6768     75.0226
   210.5000      0.0000    804.1232      7.4956     77.8792
   210.7500      0.0000    797.6518      7.2883     78.9460
   211.0000      0.0000    790.6655      7.0975     77.6729
   211.2500      0.0000    782.1298      6.9625     75.2192
   211.5000      0.0000    770.2020      6.9100     73.0684
   211.7500      0.0000    755.6668      6.9438     71.7815
   212.0000      0.0000    743.3296      7.0385     71.0798
   212.2500      0.0000    738.7381      7.1522     70.6867
   212.5000      0.0000    743.2213      7.2616     70.6150
   212.7500      0.0000    752.9798      7.3931     70.7284
   213.0000      0.0000    762.6235      7.6161     70.6705
   213.2500      0.0000    768.2898      7.9911     70.4572
   213.5000      0.0000    768.3090      8.4981     70.6795
   213.7500      0.0000    763.6671      8.9865     71.8005
   214.0000      0.0000    758.6196      9.2108     73.5342
   214.2500      0.0000    759.0818      8.9805     75.0850
   214.5000      0.0000    769.5040      8.3284     75.7943
   214.7500      0.0000    792.6992      7.5152     75.4406
   215.0000      0.0000    831.2155      6.8371     74.1657
   215.2500     -2.0000    883.0375      6.4268     72.3722
   215.5000      2.0000    934.3018      6.2334     70.7676
   215.7500      2.0000    963.7455      6.1467     70.2587
   216.0000     -2.0000    960.7117      6.1146     71.2566
   216.2500      0.0000    934.9985      6.1683     72.8689
   216.5000      0.0000    904.5528      6.3613     73.2850
   216.7500      0.0000    878.0267      6.6900     71.4040
   217.0000      0.0000    853.4870      7.0908     67.9441
   217.2500      0.0000    828.7424      7.5230     64.7488
   217.5000      0.0000    806.6126      7.9997     63.0732
   217.7500      0.0000    791.1636      8.5063     62.6803
   218.0000      0.0000    782.9175      8.9471     62.6644
   218.2500      0.0000    778.8169      9.2221     62.9177
   218.5000      0.0000    775.3556      9.3252     64.3569
   218.7500      0.0000    770.7233      9.3420     67.6212
   219.0000      0.0000    764.2861      9.3679     71.9992
   219.2500      0.0000    755.5478      9.4343     75.9513
   219.5000      0.0000    744.7603      9.4994     78.4588
   219.7500      0.0000    734.2297      9.5046     79.4375
   220.0000      0.0000    727.6913      9.4371     79.0182
   220.2500      0.0000    727.4114      9.3342     77.1140
   220.5000      0.0000    731.8966      9.2404     73.8709
   220.7500      0.0000    736.8775      9.1732     70.0200
   221.0000      0.0000    738.7426      9.1253     66.5131
   221.2500      0.0000    737.1403      9.0885     64.0067
   221.5000      0.0000    734.4302      9.0655     62.7117
   221.7500      0.0000    732.9139      9.0603     62.4419
   222.0000      0.0000    732.7835      9.0660     62.6840
   222.2500      0.0000    732.5604      9.0669     62.9227
   222.5000      0.0000    731.0406      9.0493     63.2612
   222.7500      0.0000    728.4415      9.0076     64.6739
   223.0000      0.0000    725.8141      8.9466     68.2446
   223.2500      0.0000    723.9164      8.8784     73.8890
   223.5000      0.0000    722.8466      8.8133     79.9372
   223.7500      0.0000    722.3609      8.7544     84.2121
   224.0000      0.0000    722.1959      8.6969     85.6783
   224.2500      0.0000    722.1674      8.6315     85.0801
   224.5000      0.0000    722.1761      8.5509     83.9850
   224.7500      0.0000    722.1947      8.4639     83.2639
   225.0000      0.0000    722.2314      8.3991     82.5400
   225.2500      0.0000    722.2982      8.3862     81.0251
   225.5000      0.0000    722.3953      8.4304     78.6619
   225.7500      0.0000    722.5211      8.5061     76.2805
   226.0000      0.0000    722.6830      8.5758     74.8099
   226.2500      0.0000    722.9189      8.6109     74.6752
   226.5000      0.0000    723.3419      8.6019     76.0101
   226.7500      0.0000    724.2168      8.5531     78.9757
