~Version Information
VERS.                      2.0: CWLS Log ASCII Standard - VERSION 2.0
WRAP.                       NO: One line per depth step
~Well Information Block
STRT.FT               -12.5000: 
STOP.FT              1613.0000: 
STEP.FT                 0.2500: 
NULL.                -999.2500: 
COMP.          Pioneer Natural Resources: COMPANY
WELL.          Peregrine 12-20: WELL
FLD.           Purgatorie River: FIELD
LOC.           1722' FNL & 999' FWL--: LOCATION
PROV.                       CO: PROVINCE
CNTY.               Las Animas: COUNTRY
SRVC.          Patterson Wireline: SERVICE COMPANY
DATE.          Fri Jul 22 12:50:00 2005: LOG DATE
UWI.           05 071 08428 00: UNIQUE WELL ID
~Curve Information Block
DEPT.FT            0 000 00 00: Depth
CCL.                          : Casing Collar Locator
TT3.usec                      : CBL 3' Travel Time
AMP3.mV                       : CBL 3' Amplitude
GR.GAPI                       : Gamma Ray
~Parameter Information Block
~A  Depth       CCL         TT3         AMP3         GR     
# ...
   959.0000      0.0000    761.1023      5.4827     62.6044
   959.2500      0.0000    763.3665      5.6071     62.4396
   959.5000      0.0000    764.3547      5.6907     61.3462
   959.7500      0.0000    764.7521      5.6515     60.0373
   960.0000      0.0000    764.9318      5.4953     59.1347
   960.2500      0.0000    765.0091      5.3051     58.3796
   960.5000      0.0000    764.9046      5.1841     57.3441
   960.7500      0.0000    764.2838      5.1897     56.4195
   961.0000      0.0000    762.5613      5.2962     56.6602
   961.2500      0.0000    759.2985      5.4159     59.1007
   961.5000      0.0000    754.9082      5.4685     64.6832
   961.7500      0.0000    750.7331      5.4379     74.4354
   962.0000      0.0000    747.8283      5.3751     88.8795
   962.2500      0.0000    745.7072      5.3524    106.9698
   962.5000      0.0000    742.9800      5.4046    125.8649
   962.7500      0.0000    739.3569      5.5061    142.0526
   963.0000      0.0000    736.2870      5.6062    152.8653
   963.2500      0.0000    735.3126      5.6838    157.1099
   963.5000      0.0000    736.1763      5.7590    154.7608
   963.7500      0.0000    736.8576      5.8504    146.6638
   964.0000      0.0000    735.4630      5.9403    134.7879
   964.2500      0.0000    732.1140      5.9948    122.4609
   964.5000      0.0000    728.9805      6.0091    113.5157
   964.7500      0.0000    728.3136      6.0084    110.2517
   965.0000      0.0000    730.4915      6.0001    112.0275
   965.2500      0.0000    734.1984      5.9412    116.2987
   965.5000      0.0000    738.1616      5.7613    120.9058
   965.7500      0.0000    741.8999      5.4213    124.8643
   966.0000      0.0000    744.8652      4.9547    127.5772
   966.2500      0.0000    746.0854      4.4463    128.4706
   966.5000      0.0000    745.4151      3.9769    127.3588
   966.7500      0.0000    744.5839      3.5957    124.6759
   967.0000      0.0000    746.3610      3.3360    121.6390
   967.2500      0.0000    752.8558      3.2218    120.3534
   967.5000      0.0000    764.4315      3.2509    123.1284
   967.7500      0.0000    778.9504      3.3913    130.8491
   968.0000      0.0000    791.4833      3.5953    141.8528
   968.2500      0.0000    796.4874      3.8124    152.8770
   968.5000      0.0000    791.9883      3.9962    161.2491
   968.7500      0.0000    781.3859      4.1073    165.9809
   969.0000      0.0000    770.8975      4.1108    167.3997
   969.2500      0.0000    765.9078      3.9846    166.6089
   969.5000      0.0000    769.1227      3.7451    164.7349
   969.7500      0.0000    779.7091      3.4559    161.6526
   970.0000      0.0000    793.1227      3.1957    155.8755
   970.2500      0.0000    803.6309      3.0073    146.5056
   970.5000      0.0000    809.0595      2.8777    134.8752
   970.7500      0.0000    812.8645      2.7635    123.8581
   971.0000      0.0000    820.3050      2.6326    115.8866
   971.2500      0.0000    832.5817      2.4780    111.6732
   971.5000      0.0000    845.2377      2.3053    110.3835
   971.7500      0.0000    851.7966      2.1292    110.6536
   972.0000      0.0000    848.3263      1.9927    111.3344
   972.2500      0.0000    835.1838      1.9746    111.5245
   972.5000      0.0000    815.8704      2.1539    110.5590
   972.7500      0.0000    795.0064      2.5555    108.4512
   973.0000      0.0000    776.7833      3.1261    106.0481
   973.2500      0.0000    764.0345      3.7579    104.4587
   973.5000      0.0000    757.5890      4.3397    104.6272
   973.7500      0.0000    755.8528      4.7970    107.5862
   974.0000      0.0000    755.3543      5.1019    114.5328
   974.2500      0.0000    752.5801      5.2617    125.9709
   974.5000      0.0000    745.7609      5.3025    140.4344
   974.7500      0.0000    735.0009      5.2493    154.3009
   975.0000      0.0000    720.9195      5.1243    163.6922
   975.2500      0.0000    703.9579      4.9692    167.1369
   975.5000      0.0000    685.6550      4.8528    166.0632
   975.7500      0.0000    670.1096      4.8263    162.5928
   976.0000      0.0000    662.4852      4.8763    157.6367
   976.2500      0.0000    664.8823      4.9436    151.7256
   976.5000      0.0000    674.0979      4.9915    146.8512
   976.7500      0.0000    684.0659      5.0379    145.9249
   977.0000      0.0000    690.2171      5.1231    149.9646
   977.2500      0.0000    691.6356      5.2635    156.8783
   977.5000      0.0000    690.1777      5.4334    163.5410
   977.7500      0.0000    688.3746      5.5762    168.1743
   978.0000      0.0000    688.1379      5.6369    170.3614
   978.2500      0.0000    690.7915      5.6074    170.0963
   978.5000      0.0000    697.3608      5.5411    167.7910
   978.7500      0.0000    708.0818      5.5087    164.8622
   979.0000      0.0000    721.4344      5.5350    163.3966
   979.2500      0.0000    734.2904      5.5844    164.4419
   979.5000      0.0000    743.8570      5.5964    166.4653
   979.7500      0.0000    749.9020      5.5206    166.1355
   980.0000      0.0000    754.8221      5.3299    161.0862
   980.2500      0.0000    761.1262      5.0374    151.8470
   980.5000      0.0000    768.4405      4.7129    141.1145
   980.7500      0.0000    772.6275      4.4561    131.3996
   981.0000      0.0000    768.5283      4.3284    123.5727
   981.2500      0.0000    754.8784      4.3112    117.6290
   981.5000      0.0000    736.6572      4.3399    114.0949
   981.7500      0.0000    721.9048      4.3693    113.7369
   982.0000      2.0000    716.1427      4.3978    115.9968
   982.2500      0.0000    719.7170      4.4462    118.7215
   982.5000      0.0000    729.3430      4.5348    119.9069
   982.7500      0.0000    740.7438      4.6650    119.3779
   983.0000      0.0000    750.1369      4.7976    118.4896
   983.2500      0.0000    755.3848      4.8613    118.4841
   983.5000      0.0000    756.9962      4.8053    119.4709
   983.7500      0.0000    757.4391      4.6380    120.7247
   984.0000      0.0000    758.6803      4.4092    121.3001
   984.2500      0.0000    760.2234      4.1801    120.3768
   984.5000      0.0000    759.5718      4.0096    117.7249
   984.7500      0.0000    754.8790      3.9382    114.1389
   985.0000      0.0000    747.2890      3.9691    111.1502
   985.2500      0.0000    740.2119      4.0637    110.1523
   985.5000      0.0000    736.0150      4.1502    111.7346
   985.7500      0.0000    733.9190      4.1469    115.4723
   986.0000      0.0000    731.4683      4.0065    119.8675
   986.2500      0.0000    727.4424      3.7538    122.6396
   986.5000      0.0000    722.7486      3.4761    121.9550
   986.7500      0.0000    718.9429      3.2695    117.9435
   987.0000      0.0000    716.7521      3.1880    112.6217
   987.2500      0.0000    715.9683      3.2335    107.9180
   987.5000      0.0000    716.0024      3.3713    104.1984
   987.7500      0.0000    716.2198      3.5426    100.9653
   988.0000      0.0000    716.1152      3.6730     98.2615
   988.2500      0.0000    715.5444      3.7059     96.6253
   988.5000      0.0000    714.7874      3.6504     96.0111
   988.7500      0.0000    714.3000      3.5865     95.6799
   989.0000      0.0000    714.4072      3.6104     95.4484
   989.2500      0.0000    715.2294      3.7732     96.4099
   989.5000      0.0000    716.7672      4.0691     99.7044
   989.7500      0.0000    718.9070      4.4570    104.8207
   990.0000      0.0000    721.1434      4.8716    109.9545
   990.2500      0.0000    722.0886      5.2336    114.0288
   990.5000      0.0000    719.3062      5.4865    117.4550
   990.7500      0.0000    710.1188      5.6335    120.7621
   991.0000      0.0000    693.1018      5.7215    123.4525
   991.2500      0.0000    669.0669      5.7831    124.7298
   991.5000      0.0000    640.9647      5.8070    124.8215
   991.7500      0.0000    613.0912      5.7701    125.0780
   992.0000      0.0000    589.7519      5.6857    126.9754
   992.2500      0.0000    573.5583      5.6119    131.1817
