~Version Information
VERS.                      2.0: CWLS Log ASCII Standard - VERSION 2.0
WRAP.                       NO: One line per depth step
~Well Information Block
STRT.FT               825.0000: 
STOP.FT              2446.5000: 
STEP.FT                 0.2500: 
NULL.                -999.2500: 
COMP.          Petrogulf Corporation: COMPANY
WELL.            Kraft 17-23 V: WELL
FLD.           Purgatorie River: FIELD
LOC.           1500' FSL & 1773' FWL: LOCATION
CNTY.               Las Animas: COUNTY
SRVC.                         : SERVICE COMPANY
DATE.          Thu Nov 20 06:35:41 2003: LOG DATE
UWI.                          : UNIQUE WELL ID
STAT.                 Colorado: STATE
~Curve Information Block
DEPT.FT            0 000 00 00: Depth
SN.Ohm-m                      : IEL Short Normal
SP.mV                         : IEL Spontaneous Potential
DIR.Ohm-m                     : IEL Induction Resistivity
GR.GAPI                       : Gamma Ray
~Parameter Information Block
~A  Depth        SN          SP         DIR          GR     
# ...
  2399.5000     16.8216     -0.1425      9.7109     69.3762
  2399.7500     17.7197     -0.5385     10.0201     65.7215
  2400.0000     18.4312     -0.9999     10.3261     63.1177
  2400.2500     18.7887     -1.2653     10.5660     62.8202
  2400.5000     18.3975     -1.1949     10.6653     63.0950
  2400.7500     17.1362     -0.9107     10.5693     63.1361
  2401.0000     15.5925     -0.6884     10.2779     62.9507
  2401.2500     14.4479     -0.6583      9.8487     63.0908
  2401.5000     13.7321     -0.6233      9.3654     64.4658
  2401.7500     13.0113     -0.2229      8.8972     66.3662
  2402.0000     11.9295      0.6898      8.4810     70.5798
  2402.2500     10.5716      1.8763      8.1271     73.9520
  2402.5000      9.4723      2.9334      7.8321     78.7503
  2402.7500      9.0201      3.6018      7.5873     81.1367
  2403.0000      8.9392      3.8378      7.3809     83.4265
  2403.2500      8.6315      3.7150      7.1974     84.7229
  2403.5000      7.9347      3.3627      7.0215     87.3297
  2403.7500      7.3450      2.9503      6.8467     89.4546
  2404.0000      7.3070      2.6312      6.6833     92.3000
  2404.2500      7.6470      2.4700      6.5565     93.4278
  2404.5000      8.0318      2.4256      6.4949     93.5665
  2404.7500      8.4124      2.3660      6.5179     92.7837
  2405.0000      8.8208      2.0931      6.6274     90.9728
  2405.2500      9.1458      1.4385      6.8063     89.6159
  2405.5000      9.2146      0.4261      7.0233     87.4821
  2405.7500      8.9903     -0.6813      7.2423     86.2538
  2406.0000      8.5974     -1.5777      7.4333     85.7459
  2406.2500      8.2085     -2.1716      7.5793     86.6874
  2406.5000      8.0990     -2.6232      7.6759     89.2206
  2406.7500      8.6546     -3.1454      7.7279     90.5944
  2407.0000      9.8448     -3.7972      7.7454     90.9140
  2407.2500     11.0348     -4.4576      7.7436     90.0143
  2407.5000     11.7535     -4.9419      7.7432     88.0153
  2407.7500     11.9528     -5.1150      7.7694     86.9905
  2408.0000     11.6929     -4.9374      7.8487     86.8311
  2408.2500     11.2917     -4.4790      8.0021     87.6617
  2408.5000     11.1853     -3.9169      8.2400     89.2810
  2408.7500     11.3720     -3.4760      8.5596     89.8668
  2409.0000     11.5625     -3.3063      8.9472     89.7087
  2409.2500     11.6432     -3.3845      9.3839     89.3713
  2409.5000     11.6884     -3.5179      9.8508     89.2039
  2409.7500     11.8451     -3.4664     10.3268     89.0896
  2410.0000     12.2530     -3.1502     10.7833     87.7390
  2410.2500     12.9349     -2.7887     11.1838     85.5798
  2410.5000     13.8337     -2.7314     11.5014     80.8778
  2410.7500     14.8305     -3.0597     11.7454     77.5751
  2411.0000     15.6235     -3.4685     11.9733     73.6015
  2411.2500     15.8868     -3.6252     12.2708     71.7978
  2411.5000     15.8062     -3.5101     12.7148     69.8617
  2411.7500     16.1098     -3.3374     13.3380     68.6594
  2412.0000     17.0832     -3.2967     14.1095     66.7435
  2412.2500     18.3259     -3.4600     14.9367     65.7269
  2412.5000     19.7833     -3.8188     15.7003     65.4824
  2412.7500     21.6523     -4.3001     16.3132     66.2356
  2413.0000     23.3706     -4.7704     16.7594     67.5222
  2413.2500     23.8470     -5.1033     17.0739     67.4620
  2413.5000     22.8516     -5.2666     17.2806     65.2637
  2413.7500     21.3428     -5.3189     17.3455     63.0698
  2414.0000     20.1819     -5.3064     17.1834     61.1389
  2414.2500     19.5398     -5.1938     16.7226     61.9203
  2414.5000     19.3382     -4.9279     15.9768     66.2943
  2414.7500     19.2960     -4.5382     15.0549     70.5205
  2415.0000     18.7717     -4.1268     14.1015     77.3528
  2415.2500     17.4219     -3.7568     13.2252     81.7625
  2415.5000     15.8417     -3.3693     12.4690     87.7320
  2415.7500     14.6434     -2.7970     11.8237     91.0178
  2416.0000     13.6643     -1.8710     11.2603     94.4914
  2416.2500     12.8804     -0.6002     10.7557     95.7807
  2416.5000     12.7217      0.6996     10.3049     96.3003
  2416.7500     13.0604      1.5452      9.9138     95.6450
  2417.0000     13.1730      1.6693      9.5849     92.9052
  2417.2500     12.6311      1.2257      9.3101     90.1369
  2417.5000     11.7250      0.5785      9.0749     85.9396
  2417.7500     11.1893      0.0267      8.8702     83.9632
  2418.0000     11.3892     -0.1809      8.7005     82.7980
  2418.2500     11.8416      0.2382      8.5796     83.1315
  2418.5000     11.8283      1.4274      8.5161     85.0417
  2418.7500     11.2544      3.1581      8.4974     87.0688
  2419.0000     10.6647      4.9057      8.4859     90.6440
  2419.2500     10.4748      6.1507      8.4328     92.9143
  2419.5000     10.5613      6.6013      8.3052     95.3515
  2419.7500     10.6403      6.2839      8.1070     95.9943
  2420.0000     10.5912      5.5394      7.8761     95.3582
  2420.2500     10.4699      4.8354      7.6606     93.9590
  2420.5000     10.4695      4.4364      7.4979     90.3438
  2420.7500     10.8011      4.2733      7.4080     86.7880
  2421.0000     11.5379      4.1601      7.3972     80.2181
  2421.2500     12.4001      4.0289      7.4665     76.0894
  2421.5000     12.7477      3.8993      7.6169     72.8902
  2421.7500     12.2936      3.7303      7.8518     73.8979
  2422.0000     11.5144      3.4053      8.1715     80.2042
  2422.2500     10.9202      2.8451      8.5628     86.4690
  2422.5000     10.6231      2.0774      8.9881     95.8306
  2422.7500     10.5894      1.1771      9.3810    100.3987
  2423.0000     10.7458      0.1831      9.6664    103.6894
  2423.2500     11.0233     -0.8837      9.7993    103.9743
  2423.5000     11.4165     -1.9398      9.7948    102.7914
  2423.7500     11.9298     -2.8356      9.7187    101.2568
  2424.0000     12.3912     -3.4384      9.6468     97.7950
  2424.2500     12.6364     -3.6834      9.6312     94.8203
  2424.5000     13.0593     -3.5613      9.6887     90.2236
  2424.7500     14.1098     -3.1164      9.8063     87.7337
  2425.0000     15.3503     -2.4634      9.9553     85.4945
  2425.2500     16.0299     -1.7646     10.1053     84.9311
  2425.5000     16.1653     -1.1758     10.2334     85.0634
  2425.7500     16.4095     -0.8024     10.3257     85.6465
  2426.0000     17.0049     -0.6685     10.3730     86.7798
  2426.2500     17.3864     -0.7173     10.3662     86.7397
  2426.5000     16.9188     -0.8608     10.2984     82.3653
  2426.7500     15.5669     -1.0398     10.1679     74.8028
  2427.0000     13.9885     -1.2411      9.9821     56.3480
  2427.2500     13.0475     -1.4837      9.7582     41.5710
  2427.5000     13.1146     -1.8255      9.5206     21.4850
  2427.7500     13.9308     -2.3737      9.2973     11.9098
  2428.0000     14.8167     -3.2319      9.1144      3.8525
  2428.2500     14.8534     -4.3814      8.9919      1.5302
  2428.5000     13.7387     -5.6495      8.9412      0.2920
  2428.7500     12.3921     -6.8808      8.9633      0.0796
  2429.0000     11.7442     -8.1278      9.0500      0.0073
  2429.2500     11.7841     -9.5668      9.1848      0.0000
  2429.5000     12.2222    -11.2117      9.3441   -999.2500
  2429.7500     12.9391    -12.7990      9.5023   -999.2500
  2430.0000     13.7557    -13.9736      9.6385   -999.2500
  2430.2500     14.4840    -14.5164      9.7444   -999.2500
  2430.5000     15.0208    -14.4029      9.8260   -999.2500
  2430.7500     15.1223    -13.7637      9.8973   -999.2500
  2431.0000     14.5400    -12.8473      9.9695   -999.2500
  2431.2500     13.5050    -11.9448     10.0401   -999.2500
  2431.5000     12.5232    -11.2690     10.0918   -999.2500
  2431.7500     11.6834    -10.8872     10.1009   -999.2500
  2432.0000     10.9142    -10.7434     10.0541   -999.2500
  2432.2500     10.7360    -10.6999      9.9621   -999.2500
  2432.5000     11.4675    -10.5755      9.8612   -999.2500
  2432.7500     12.3404    -10.2115      9.7994   -999.2500
