~Version Information
 VERS.                                  2.0 : CWLS LAS VERSION
 WRAP.                                   NO : WRAPING MODE
 SWARE .                 MController 2.5.0J : SOFTWARE VERSION
~Well Information
 WELL.                       Ei-Ei-Oh 31-24 : WELL
 COMP.    Pioneer Natural Resources USA Inc : COMPANY
 FLD.                      Purgatoire River : FIELD
 LOC.                NW/NE Sec 24 T32S R67W : LOCATION
 DATE.                         6/12-13/2005 : DATE(S) LOGGED
 SRVC.       Blanco Geological Services LLC : SERVICE COMPANY
 STAT.                                   CO : STATE
 CNTY.                           Las Animas : COUNTY
 CTRY.                                  USA : COUNTRY
 API.                       05-071-08403-00 : API NUMBER
 STRT.FT                             436.00 : START DEPTH
 STOP.FT                            2853.00 : STOP DEPTH
 STEP.FT                               1.00 : DEPTH INCREMENT
 NULL.                                -9999 : NULL VALUE
~Curve information
 DEPTH.FT                                   :
 ROP.MIN/FT                                 :
 GAS.UNITS                                  :
~ASCII Log data
# ...
      2236.0         0.30        500.4 
      2237.0         0.23        492.8 
      2238.0         0.40        537.3 
      2239.0         0.37        469.6 
      2240.0         0.33        455.2 
      2241.0         0.42        502.3 
      2242.0         0.37        515.7 
      2243.0         0.33        477.8 
      2244.0         0.33        475.8 
      2245.0         0.40        482.4 
      2246.0         7.03       1145.2 
      2247.0         0.43        610.6 
      2248.0         0.40        733.0 
      2249.0         0.35        849.1 
      2250.0         0.37        871.0 
      2251.0         0.27        819.0 
      2252.0         0.27        684.2 
      2253.0         0.43        562.5 
      2254.0         0.40        440.0 
      2255.0         0.50        489.9 
      2256.0         0.57        537.3 
      2257.0         0.43        522.3 
      2258.0         0.58        522.6 
      2259.0         0.43        498.1 
      2260.0         0.40        476.2 
      2261.0         0.43        467.3 
      2262.0         0.53        474.8 
      2263.0         0.73        526.5 
      2264.0         0.45        564.8 
      2265.0         0.67        582.5 
      2266.0         0.40        532.4 
      2267.0         0.43        495.1 
      2268.0         0.33        492.8 
      2269.0         0.40        482.4 
      2270.0         0.27        487.9 
      2271.0         0.27        488.9 
      2272.0         0.35        493.2 
      2273.0         0.23        489.9 
      2274.0         0.27        493.8 
      2275.0         0.27        531.8 
      2276.0         4.78       1236.8 
      2277.0         0.50       1381.4 
      2278.0         0.62       1398.1 
      2279.0         0.40       1194.2 
      2280.0         0.43        922.1 
      2281.0         0.57        702.5 
      2282.0         0.60        519.7 
      2283.0         0.57        529.8 
      2284.0         0.62        546.2 
      2285.0         0.53        570.7 
      2286.0         0.60        495.1 
      2287.0         0.60        523.9 
      2288.0         0.60        528.8 
      2289.0         0.63        521.6 
      2290.0         0.48        527.2 
      2291.0         0.27        530.1 
      2292.0         0.17        530.1 
      2293.0         0.23        527.5 
      2294.0         0.27        539.0 
      2295.0         0.23        559.6 
      2296.0         0.27        579.9 
      2297.0         0.33        604.7 
      2298.0         0.33        612.9 
      2299.0         0.30        609.0 
      2300.0         0.33        603.1 
      2301.0         0.35        589.7 
      2302.0         0.30        568.1 
      2303.0         0.30        538.6 
      2304.0         0.30        524.6 
      2305.0         0.60        520.3 
      2306.0         2.92        502.7 
      2307.0         0.70       1125.5 
      2308.0         0.53       1256.7 
      2309.0         0.37       1348.3 
      2310.0         0.27       1353.2 
      2311.0         0.42       1301.6 
      2312.0         0.40       1023.8 
      2313.0         0.37        786.0 
      2314.0         0.43        650.5 
      2315.0         0.43        545.2 
      2316.0         0.47        504.0 
      2317.0         0.47        550.4 
      2318.0         0.38        569.1 
      2319.0         0.43        585.8 
      2320.0         0.37        581.2 
      2321.0         0.23        548.8 
      2322.0         0.27        512.5 
      2323.0         0.30        476.5 
      2324.0         0.30        495.8 
      2325.0         0.37        507.2 
      2326.0         0.27        508.9 
      2327.0         0.27        533.4 
      2328.0         0.23        557.0 
      2329.0         0.38        571.4 
      2330.0         0.30        574.3 
      2331.0         0.30        575.6 
      2332.0         0.37        572.3 
      2333.0         0.40        562.2 
      2334.0         0.40        552.4 
      2335.0         0.53        541.9 
      2336.0        10.60       1197.5 
      2337.0         0.40        441.2 
      2338.0         0.80        440.0 
      2339.0         0.33         66.5 
      2340.0         0.20         73.7 
      2341.0         0.47        108.9 
      2342.0         0.40        175.7 
      2343.0         0.40        307.4 
      2344.0         0.38        417.2 
      2345.0         0.30        454.6 
      2346.0         0.30        456.7 
      2347.0         0.23        443.9 
      2348.0         0.23        418.9 
      2349.0         0.40        383.7 
      2350.0         0.37        318.6 
      2351.0         0.37        275.2 
      2352.0         0.33        276.8 
      2353.0         0.38        286.5 
      2354.0         0.33        286.2 
      2355.0         0.30        265.7 
      2356.0         0.27        233.5 
      2357.0         0.30        211.7 
      2358.0         0.30        194.9 
      2359.0         0.40        180.0 
      2360.0         0.30        178.6 
      2361.0         0.23        239.3 
      2362.0         0.23        338.3 
      2363.0         0.23        422.6 
      2364.0         0.27        461.8 
      2365.0         0.25        462.5 
      2366.0         0.23        448.3 
      2367.0         0.23        416.3 
      2368.0         0.23        384.6 
      2369.0         0.27        355.6 
      2370.0         0.27        322.7 
      2371.0         0.27        289.0 
      2372.0         0.20        258.8 
      2373.0         0.33        243.3 
      2374.0         0.33        233.0 
      2375.0         0.33        216.2 
      2376.0        17.67       1093.2 
      2377.0         0.43        487.0 
      2378.0         0.50        469.0 
      2379.0         0.47        587.7 
      2380.0         0.40        782.0 
      2381.0         0.43        905.7 
      2382.0         0.45        918.1 
      2383.0         0.37        891.6 
      2384.0         0.37        836.3 
      2385.0         0.33        777.5 
      2386.0         0.37        727.1 
      2387.0         0.43        677.7 
      2388.0         0.30        639.4 
      2389.0         0.50        642.7 
      2390.0         0.17        642.0 
      2391.0         0.38        634.2 
      2392.0         0.37        600.1 
      2393.0         0.33        534.1 
      2394.0         0.33        502.3 
      2395.0         0.33        513.8 
      2396.0         0.30        566.5 
      2397.0         0.33        588.4 
      2398.0         0.37        587.7 
      2399.0         0.40        583.5 
      2400.0         0.35        579.2 
      2401.0         0.37        574.6 
      2402.0         0.37        571.4 
      2403.0         0.33        568.4 
      2404.0         0.30        566.8 
      2405.0         0.33        564.2 
      2406.0         3.68        573.0 
      2407.0         0.95        213.0 
      2408.0         1.03        316.0 
      2409.0         0.33        311.1 
      2410.0         0.20        278.9 
      2411.0         0.57        252.4 
      2412.0         0.37        198.8 
      2413.0         0.40        281.8 
      2414.0         0.35        377.9 
      2415.0         0.27        426.6 
      2416.0         0.30        437.6 
      2417.0         0.33        435.1 
      2418.0         0.40        393.0 
      2419.0         0.53        316.7 
      2420.0         0.60        253.3 
      2421.0         0.60        273.4 
      2422.0         0.48        277.5 
      2423.0         0.47        276.2 
      2424.0         0.37        261.8 
      2425.0         0.43        246.3 
      2426.0         0.47        227.1 
      2427.0         0.37        208.1 
      2428.0         0.20        197.9 
      2429.0         2.02        192.5 
      2430.0         0.63         67.5 
      2431.0         0.73        125.8 
      2432.0         0.33        177.9 
      2433.0         0.52        278.8 
      2434.0         1.10        320.7 
      2435.0         0.60        151.5 
