~Version Information
VERS.                      2.0: CWLS Log ASCII Standard - VERSION 2.0
WRAP.                       NO: One line per depth step
~Well Information Block
STRT.FT               660.8000: 
STOP.FT              2375.1000: 
STEP.FT                 0.1000: 
NULL.                -999.2500: 
COMP.          Petrogulf Corporation: COMPANY
WELL.             State 16-34V: WELL
FLD.           Purgatorie River: FIELD
LOC.           1146' FSL & 1393' FEL: LOCATION
CNTY.               Las Animas: COUNTY
SRVC.                         : SERVICE COMPANY
DATE.          Sat Jun 07 20:51:20 2003: LOG DATE
UWI.           05 071 07724 00: UNIQUE WELL ID
STAT.                 Colorado: STATE
~Curve Information Block
DEPT.FT            0 000 00 00: Depth
DCAL.in                       : Caliper from Density Tool
RHOB.g/cc                     : Bulk Density
RHOC.g/cc                     : Density Correction
DPOR.pu                       : Density Porosity
GR.GAPI                       : Gamma Ray
NPOR.pu                       : Neutron Porosity
~Parameter Information Block
~A  Depth       DCAL        RHOB        RHOC        DPOR         GR         NPOR    
# ...
   891.2000      7.9558      2.6160      0.0750      2.0596    107.4078     30.2963
   891.3000      7.9069      2.5757      0.0712      4.5030    109.6904     30.1236
   891.4000      7.9069      2.5757      0.0712      4.5030    112.3199     30.0099
   891.5000      7.9028      2.5545      0.0694      5.7903    115.2232     29.9584
   891.6000      7.9028      2.5545      0.0694      5.7903    118.3065     29.9638
   891.7000      7.9028      2.5545      0.0694      5.7903    121.4679     30.0153
   891.8000      7.8855      2.5349      0.0686      6.9779    124.6111     30.0981
   891.9000      7.8855      2.5349      0.0686      6.9779    127.6535     30.1965
   892.0000      7.8845      2.5280      0.0681      7.3969    130.5350     30.2963
   892.1000      7.8845      2.5280      0.0681      7.3969    133.2212     30.3866
   892.2000      7.8845      2.5280      0.0681      7.3969    135.6972     30.4609
   892.3000      7.8980      2.5210      0.0648      7.8174    137.9672     30.5174
   892.4000      7.8980      2.5210      0.0648      7.8174    140.0456     30.5583
   892.5000      7.9020      2.5168      0.0601      8.0751    141.9487     30.5896
   892.6000      7.9020      2.5168      0.0601      8.0751    143.6887     30.6190
   892.7000      7.9020      2.5168      0.0601      8.0751    145.2705     30.6553
   892.8000      7.8730      2.5121      0.0509      8.3604    146.6875     30.7068
   892.9000      7.8730      2.5121      0.0509      8.3604    147.9229     30.7809
   893.0000      7.8111      2.5121      0.0448      8.3573    148.9545     30.8832
   893.1000      7.8111      2.5121      0.0448      8.3573    149.7574     31.0164
   893.2000      7.8111      2.5121      0.0448      8.3573    150.3107     31.1807
   893.3000      7.7636      2.5197      0.0378      7.8959    150.6009     31.3730
   893.4000      7.7636      2.5197      0.0378      7.8959    150.6191     31.5868
   893.5000      7.7539      2.5301      0.0353      7.2689    150.3631     31.8124
   893.6000      7.7539      2.5301      0.0353      7.2689    149.8317     32.0379
   893.7000      7.7539      2.5301      0.0353      7.2689    149.0215     32.2487
   893.8000      7.7806      2.5516      0.0358      5.9635    147.9246     32.4294
   893.9000      7.7806      2.5516      0.0358      5.9635    146.5304     32.5643
   894.0000      7.7994      2.5675      0.0391      4.9978    144.8291     32.6390
   894.1000      7.7994      2.5675      0.0391      4.9978    142.8210     32.6417
   894.2000      7.7994      2.5675      0.0391      4.9978    140.5203     32.5636
   894.3000      7.7875      2.5872      0.0471      3.8050    137.9643     32.4009
   894.4000      7.7875      2.5872      0.0471      3.8050    135.2168     32.1542
   894.5000      7.8011      2.5929      0.0524      3.4589    132.3623     31.8295
   894.6000      7.8011      2.5929      0.0524      3.4589    129.5056     31.4373
   894.7000      7.8011      2.5929      0.0524      3.4589    126.7589     30.9921
   894.8000      7.8540      2.5848      0.0570      3.9507    124.2359     30.5111
   894.9000      7.8540      2.5848      0.0570      3.9507    122.0392     30.0125
   895.0000      7.9361      2.5683      0.0569      4.9535    120.2567     29.5144
   895.1000      7.9361      2.5683      0.0569      4.9535    118.9557     29.0327
   895.2000      7.9361      2.5683      0.0569      4.9535    118.1821     28.5806
   895.3000      8.0605      2.5324      0.0534      7.1278    117.9588     28.1676
   895.4000      8.0605      2.5324      0.0534      7.1278    118.2891     27.7997
   895.5000      8.1590      2.5058      0.0506      8.7403    119.1518     27.4795
   895.6000      8.1590      2.5058      0.0506      8.7403    120.5048     27.2074
   895.7000      8.1590      2.5058      0.0506      8.7403    122.2834     26.9820
   895.8000      8.1475      2.4679      0.0484     11.0361    124.4010     26.8008
   895.9000      8.1475      2.4679      0.0484     11.0361    126.7503     26.6606
   896.0000      8.0628      2.4450      0.0490     12.4250    129.2116     26.5576
   896.1000      8.0628      2.4450      0.0490     12.4250    131.6607     26.4870
   896.2000      8.0628      2.4450      0.0490     12.4250    133.9803     26.4428
   896.3000      8.0116      2.4109      0.0525     14.4898    136.0750     26.4170
   896.4000      8.0116      2.4109      0.0525     14.4898    137.8774     26.3994
   896.5000      8.0671      2.3840      0.0557     16.1214    139.3588     26.3778
   896.6000      8.0671      2.3840      0.0557     16.1214    140.5297     26.3373
   896.7000      8.0671      2.3840      0.0557     16.1214    141.4358     26.2621
   896.8000      8.1791      2.3271      0.0602     19.5689    142.1463     26.1352
   896.9000      8.1791      2.3271      0.0602     19.5689    142.7427     25.9403
   897.0000      8.2724      2.2730      0.0615     22.8504    143.2999     25.6622
   897.1000      8.2724      2.2730      0.0615     22.8504    143.8718     25.2893
   897.2000      8.2724      2.2730      0.0615     22.8504    144.4828     24.8146
   897.3000      8.3460      2.1662      0.0586     29.3233    145.1219     24.2375
   897.4000      8.3460      2.1662      0.0586     29.3233    145.7440     23.5654
   897.5000      8.3771      2.0837      0.0523     34.3217    146.2827     22.8155
   897.6000      8.3771      2.0837      0.0523     34.3217    146.6573     22.0144
   897.7000      8.3771      2.0837      0.0523     34.3217    146.7943     21.1976
   897.8000      8.3556      1.9609      0.0351     41.7622    146.6361     20.4075
   897.9000      8.3556      1.9609      0.0351     41.7622    146.1541     19.6900
   898.0000      8.3180      1.8911      0.0186     45.9922    145.3527     19.0900
   898.1000      8.3180      1.8911      0.0186     45.9922    144.2698     18.6477
   898.2000      8.3180      1.8911      0.0186     45.9922    142.9681     18.3947
   898.3000      8.2958      1.8214     -0.0114     50.2186    141.5334     18.3518
   898.4000      8.2958      1.8214     -0.0114     50.2186    140.0634     18.5270
   898.5000      8.3063      1.8058     -0.0319     51.1624    138.6596     18.9155
   898.6000      8.3063      1.8058     -0.0319     51.1624    137.4237     19.4998
   898.7000      8.3063      1.8058     -0.0319     51.1624    136.4486     20.2515
   898.8000      8.3191      1.8373     -0.0559     49.2547    135.8192     21.1336
   898.9000      8.3191      1.8373     -0.0559     49.2547    135.6035     22.1036
   899.0000      8.3222      1.8956     -0.0627     45.7234    135.8563     23.1171
   899.1000      8.3222      1.8956     -0.0627     45.7234    136.6125     24.1317
   899.2000      8.3222      1.8956     -0.0627     45.7234    137.8838     25.1094
   899.3000      8.3307      2.0280     -0.0553     37.6948    139.6587     26.0186
   899.4000      8.3307      2.0280     -0.0553     37.6948    141.9030     26.8349
   899.5000      8.4002      2.1317     -0.0407     31.4138    144.5573     27.5410
   899.6000      8.4002      2.1317     -0.0407     31.4138    147.5421     28.1262
   899.7000      8.4002      2.1317     -0.0407     31.4138    150.7613     28.5868
   899.8000      8.4492      2.2776     -0.0142     22.5670    154.1103     28.9250
   899.9000      8.4492      2.2776     -0.0142     22.5670    157.4809     29.1494
   900.0000      8.4151      2.3546      0.0006     17.9053    160.7678     29.2738
   900.1000      8.4151      2.3546      0.0006     17.9053    163.8732     29.3170
   900.2000      8.4151      2.3546      0.0006     17.9053    166.7077     29.3009
   900.3000      8.3748      2.4353      0.0140     13.0107    169.1919     29.2486
   900.4000      8.3748      2.4353      0.0140     13.0107    171.2561     29.1823
   900.5000      8.3489      2.4728      0.0178     10.7397    172.8405     29.1217
   900.6000      8.3489      2.4728      0.0178     10.7397    173.8966     29.0821
   900.7000      8.3489      2.4728      0.0178     10.7397    174.3922     29.0742
