~Version Information
VERS.                      2.0: CWLS Log ASCII Standard - VERSION 2.0
WRAP.                       NO: One line per depth step
~Well Information Block
STRT.FT               652.0000: 
STOP.FT              1880.5000: 
STEP.FT                 0.2500: 
NULL.                -999.2500: 
COMP.          Pioneer Natural Resources: COMPANY
WELL.          Corkscrew 33-12 Tr: WELL
FLD.           Purgatoire River: FIELD
LOC.           1870' FSL & 1706' FEL: LOCATION
PROV.                 Colorado: PROVINCE
CNTY.               Las Animas: COUNTRY
SRVC.                Patterson: SERVICE COMPANY
DATE.          Mon Mar 28 22:58:28 2005: LOG DATE
UWI.           05 071 08295 00: UNIQUE WELL ID
~Curve Information Block
DEPT.FT            0 000 00 00: Depth
SN.Ohm-m                      : IEL Short Normal
SP.mV                         : IEL Spontaneous Potential
DIR.Ohm-m                     : IEL Induction Resistivity
GR.GAPI                       : Gamma Ray
~Parameter Information Block
~A  Depth        SN          SP         DIR          GR     
# ...
   886.5000   2000.0000   2000.0000      8.5283    145.2818
   886.7500   2000.0000   2000.0000      8.6192    145.9119
   887.0000   2000.0000   2000.0000      8.6422    145.3009
   887.2500   2000.0000   2000.0000      8.6158    143.0209
   887.5000   2000.0000   2000.0000      8.5661    136.7697
   887.7500   2000.0000   2000.0000      8.5189    131.9089
   888.0000   2000.0000   2000.0000      8.4954    126.4946
   888.2500   2000.0000   2000.0000      8.5115    125.2271
   888.5000   2000.0000   2000.0000      8.5783    126.8076
   888.7500   2000.0000   2000.0000      8.6989    129.4751
   889.0000   2000.0000   2000.0000      8.8648    134.4557
   889.2500   2000.0000   2000.0000      9.0541    137.6196
   889.5000   2000.0000   2000.0000      9.2365    140.8367
   889.7500   2000.0000   2000.0000      9.3826    141.4443
   890.0000   2000.0000   2000.0000      9.4717    139.9446
   890.2500   2000.0000   2000.0000      9.4943    137.6991
   890.5000   2000.0000   2000.0000      9.4547    133.4356
   890.7500   2000.0000   2000.0000      9.3719    130.6356
   891.0000   2000.0000   2000.0000      9.2771    127.4650
   891.2500   2000.0000   2000.0000      9.2015    126.2830
   891.5000   2000.0000   2000.0000      9.1635    125.6961
   891.7500   2000.0000   2000.0000      9.1641    126.0005
   892.0000   2000.0000   2000.0000      9.1947    128.0773
   892.2500   2000.0000   2000.0000      9.2512    131.0132
   892.5000   2000.0000   2000.0000      9.3358    137.3129
   892.7500   2000.0000   2000.0000      9.4474    141.5012
   893.0000   2000.0000   2000.0000      9.5722    145.2171
   893.2500   2000.0000   2000.0000      9.6937    145.2803
   893.5000   2000.0000   2000.0000      9.8165    142.1177
   893.7500   2000.0000   2000.0000      9.9734    138.3778
   894.0000   2000.0000   2000.0000     10.2000    131.1178
   894.2500   2000.0000   2000.0000     10.4960    125.5236
   894.5000   2000.0000   2000.0000     10.8078    116.4412
   894.7500   2000.0000   2000.0000     11.0540    110.3074
   895.0000   2000.0000   2000.0000     11.1814    102.5489
   895.2500   2000.0000   2000.0000     11.2035     99.6899
   895.5000   2000.0000   2000.0000     11.1844    100.4722
   895.7500   2000.0000   2000.0000     11.1914    103.9975
   896.0000   2000.0000   2000.0000     11.2631    110.8627
   896.2500   2000.0000   2000.0000     11.4036    114.5200
   896.5000   2000.0000   2000.0000     11.5891    117.1596
   896.7500   2000.0000   2000.0000     11.7742    117.5041
   897.0000   2000.0000   2000.0000     11.8996    117.3501
   897.2500   2000.0000   2000.0000     11.9049    117.1854
   897.5000   2000.0000   2000.0000     11.7499    116.8456
   897.7500   2000.0000   2000.0000     11.4321    116.6255
   898.0000   2000.0000   2000.0000     10.9890    116.7032
   898.2500   2000.0000   2000.0000     10.4842    117.1740
   898.5000   2000.0000   2000.0000      9.9842    118.4115
   898.7500   2000.0000   2000.0000      9.5370    119.5107
   899.0000   2000.0000   2000.0000      9.1635    121.5752
   899.2500   2000.0000   2000.0000      8.8616    123.0705
   899.5000   2000.0000   2000.0000      8.6154    124.7190
   899.7500   2000.0000   2000.0000      8.4032    125.0905
   900.0000   2000.0000   2000.0000      8.2013    125.0115
   900.2500   2000.0000   2000.0000      7.9885    125.1731
   900.5000   2000.0000   2000.0000      7.7534    126.3557
   900.7500   2000.0000   2000.0000      7.5010    127.6173
   901.0000   2000.0000   2000.0000      7.2498    129.5322
   901.2500   2000.0000   2000.0000      7.0223    130.5825
   901.5000   2000.0000   2000.0000      6.8352    132.0183
   901.7500   2000.0000   2000.0000      6.6958    133.1731
   902.0000   2000.0000   2000.0000      6.6046    135.3928
   902.2500   2000.0000   2000.0000      6.5579    137.0449
   902.5000   2000.0000   2000.0000      6.5495    139.2669
   902.7500   2000.0000   2000.0000      6.5703    140.2397
   903.0000   2000.0000   2000.0000      6.6100    140.5325
   903.2500   2000.0000   2000.0000      6.6607    139.9495
   903.5000   2000.0000   2000.0000      6.7233    138.2379
   903.7500   2000.0000   2000.0000      6.8071    136.7839
   904.0000   2000.0000   2000.0000      6.9224    134.5218
   904.2500   2000.0000   2000.0000      7.0706    133.1663
   904.5000   2000.0000   2000.0000      7.2412    131.5742
   904.7500   2000.0000   2000.0000      7.4168    130.8273
   905.0000   2000.0000   2000.0000      7.5809    130.2469
   905.2500   2000.0000   2000.0000      7.7212    130.4197
   905.5000   2000.0000   2000.0000      7.8265    131.9068
   905.7500   2000.0000   2000.0000      7.8851    133.5692
   906.0000   2000.0000   2000.0000      7.8893    135.7188
   906.2500   2000.0000   2000.0000      7.8429    135.7697
   906.5000   2000.0000   2000.0000      7.7625    132.5107
   906.7500   2000.0000   2000.0000      7.6701    128.4848
   907.0000   2000.0000   2000.0000      7.5816    122.2544
   907.2500   2000.0000   2000.0000      7.5007    119.8263
   907.5000   2000.0000   2000.0000      7.4207    120.5556
   907.7500   2000.0000   2000.0000      7.3351    123.6363
   908.0000   2000.0000   2000.0000      7.2465    129.8304
   908.2500   2000.0000   2000.0000      7.1696    133.5840
   908.5000   2000.0000   2000.0000      7.1239    137.7521
   908.7500   2000.0000   2000.0000      7.1238    139.9494
   909.0000   2000.0000   2000.0000      7.1703    143.1669
   909.2500   2000.0000   2000.0000      7.2503    145.2642
   909.5000   2000.0000   2000.0000      7.3431    147.9956
   909.7500   2000.0000   2000.0000      7.4316    149.5126
   910.0000   2000.0000   2000.0000      7.5103    151.5493
   910.2500   2000.0000   2000.0000      7.5836    152.7956
   910.5000   2000.0000   2000.0000      7.6566    154.0234
   910.7500   2000.0000   2000.0000      7.7277    153.7339
   911.0000   2000.0000   2000.0000      7.7889    150.3658
   911.2500   2000.0000   2000.0000      7.8349    146.0339
   911.5000   2000.0000   2000.0000      7.8728    138.0542
   911.7500   2000.0000   2000.0000      7.9278    133.4336
   912.0000   2000.0000   2000.0000      8.0363    129.7103
   912.2500   2000.0000   2000.0000      8.2324    129.4051
   912.5000   2000.0000   2000.0000      8.5318    130.6917
   912.7500   2000.0000   2000.0000      8.9224    131.8384
   913.0000   2000.0000   2000.0000      9.3641    133.5334
   913.2500   2000.0000   2000.0000      9.8045    134.7630
   913.5000   2000.0000   2000.0000     10.2016    136.7071
   913.7500   2000.0000   2000.0000     10.5355    137.7508
   914.0000   2000.0000   2000.0000     10.8021    138.3345
   914.2500   2000.0000   2000.0000     11.0004    137.9900
   914.5000   2000.0000   2000.0000     11.1309    136.9949
   914.7500   2000.0000   2000.0000     11.2009    136.7003
   915.0000   2000.0000   2000.0000     11.2262    137.7703
   915.2500   2000.0000   2000.0000     11.2263    139.4005
   915.5000   2000.0000   2000.0000     11.2196    141.7922
   915.7500   2000.0000   2000.0000     11.2235    142.2830
   916.0000   2000.0000   2000.0000     11.2558    140.3730
   916.2500   2000.0000   2000.0000     11.3342    137.5106
   916.5000   2000.0000   2000.0000     11.4717    132.0628
   916.7500   2000.0000   2000.0000     11.6698    128.5826
   917.0000   2000.0000   2000.0000     11.9174    125.0380
   917.2500   2000.0000   2000.0000     12.1981    124.4658
   917.5000   2000.0000   2000.0000     12.5057    126.9685
   917.7500   2000.0000   2000.0000     12.8535    130.6669
   918.0000   2000.0000   2000.0000     13.2658    137.5789
   918.2500   2000.0000   2000.0000     13.7577    141.8295
   918.5000   2000.0000   2000.0000     14.3187    146.3501
   918.7500   2000.0000   2000.0000     14.9151    148.1195
   919.0000   2000.0000   2000.0000     15.5124    149.5149
   919.2500   2000.0000   2000.0000     16.1018    149.6782
   919.5000   2000.0000   2000.0000     16.7090    147.6511
   919.7500   2000.0000   2000.0000     17.3782    143.6465
