~Version Information
VERS.                      2.0: CWLS Log ASCII Standard - VERSION 2.0
WRAP.                       NO: One line per depth step
~Well Information Block
STRT.FT                -1.5000: 
STOP.FT              1317.0000: 
STEP.FT                 0.2500: 
NULL.                -999.2500: 
COMP.          Pioneer Natural Resources: COMPANY
WELL.              Border 21-3: WELL
FLD.           Purgatoire River: FIELD
LOC.           865' FNL & 1415' FWL: LOCATION
PROV.                 Colorado: PROVINCE
CNTY.               Las Animas: COUNTRY
SRVC.                Patterson: SERVICE COMPANY
DATE.          Tue Dec 14 14:08:05 2004: LOG DATE
UWI.           05 071 08169 00: UNIQUE WELL ID
~Curve Information Block
DEPT.FT            0 000 00 00: Depth
GR.GAPI                       : Gamma Ray
CCL.                          : Casing Collar Locator
TT3.usec                      : CBL 3' Travel Time
AMP3.mV                       : CBL 3' Amplitude
~Parameter Information Block
~A  Depth        GR         CCL         TT3         AMP3    
# ...
   166.0000     80.2655      0.0000    885.7375      8.8418
   166.2500     77.7125      0.0000    876.1245      8.8379
   166.5000     74.9287      0.0000    860.5704      8.8273
   166.7500     72.2214      0.0000    845.0855      8.8244
   167.0000     70.3569      0.0000    834.9259      8.8352
   167.2500     70.0106      0.0000    832.6691      8.8568
   167.5000     71.0801      0.0000    838.0735      8.8776
   167.7500     72.7516      0.0000    849.0534      8.8824
   168.0000     74.4030      0.0000    862.8914      8.8606
   168.2500     76.1569      0.0000    876.9604      8.8108
   168.5000     78.2837      0.0000    888.7617      8.7407
   168.7500     80.4587      0.0000    895.6077      8.6653
   169.0000     82.0388      0.0000    894.7107      8.6063
   169.2500     82.8158      0.0000    884.4526      8.5877
   169.5000     83.0450      0.0000    866.2112      8.6246
   169.7500     82.8678      0.0000    845.0105      8.7122
   170.0000     82.0558      0.0000    827.7266      8.8238
   170.2500     80.3494      0.0000    819.5187      8.9229
   170.5000     77.9229      0.0000    821.1068      8.9819
   170.7500     75.3555      0.0000    829.3464      8.9962
   171.0000     73.1001      0.0000    840.4315      8.9820
   171.2500     71.3773      0.0000    852.2399      8.9633
   171.5000     70.7974      0.0000    863.9079      8.9612
   171.7500     72.4403      0.0000    874.5141      8.9908
   172.0000     76.6206      0.0000    883.1017      9.0635
   172.2500     81.7869      0.0000    889.6331      9.1848
   172.5000     85.3018      0.0000    895.3121      9.3461
   172.7500     85.5539      0.0000    901.6003      9.5191
   173.0000     83.1890      0.0000    908.6849      9.6661
   173.2500     80.3094      0.0000    915.0383      9.7625
   173.5000     78.6870      0.0000    918.7296      9.8089
   173.7500     78.8685      0.0000    919.1638      9.8162
   174.0000     80.6469      0.0000    917.4063      9.7873
   174.2500     83.6384      0.0000    914.9919      9.7212
   174.5000     87.0382      0.0000    912.6924      9.6322
   174.7500     89.3429      0.0000    910.5215      9.5514
   175.0000     89.0866      0.0000    908.8847      9.5047
   175.2500     86.0389      0.0000    909.6921      9.4936
   175.5000     81.5049      0.0000    915.8234      9.4955
   175.7500     77.4498      0.0000    928.4153      9.4821
   176.0000     75.2802      0.0000    944.2256      9.4397
   176.2500     75.1705      0.0000    956.7618      9.3761
   176.5000     76.3252      0.0000    961.3290      9.3096
   176.7500     77.8205      0.0000    959.1553      9.2504
   177.0000     79.2113      0.0000    956.2087      9.1957
   177.2500     80.5325      0.0000    958.5898      9.1409
   177.5000     82.0101      0.0000    968.7398      9.0896
   177.7500     83.8206      0.0000    983.5150      9.0464
   178.0000     85.9421      0.0000    994.2421      9.0069
   178.2500     88.1528      0.0000    991.1068      8.9624
   178.5000     90.1464      0.0000    971.1058      8.9149
   178.7500     91.6757      0.0000    941.8376      8.8830
   179.0000     92.7664      0.0000    915.6528      8.8876
   179.2500     93.8211      0.0000    900.2046      8.9312
   179.5000     95.2238      0.0000    895.1235      8.9941
   179.7500     96.7404      0.0000    896.0089      9.0516
   180.0000     97.5808      0.0000    899.3638      9.0954
   180.2500     97.1550      0.0000    903.7597      9.1342
   180.5000     95.6260      0.0000    908.3907      9.1741
   180.7500     93.7622      0.0000    912.4017      9.2020
   181.0000     92.3657      0.0000    915.5925      9.1942
   181.2500     91.7477      0.0000    919.1627      9.1383
   181.5000     91.7128      0.0000    925.2390      9.0477
   181.7500     92.1632      0.0000    935.0723      8.9579
   182.0000     93.4830      0.0000    947.0045      8.9092
   182.2500     95.8887      0.0000    956.7079      8.9260
   182.5000     98.5899      0.0000    960.7286      9.0035
   182.7500    100.1356      0.0000    960.0951      9.1133
   183.0000     99.5424      0.0000    960.0341      9.2233
   183.2500     96.8568      0.0000    966.3134      9.3136
   183.5000     92.8113      0.0000    981.0352      9.3766
   183.7500     88.1730      0.0000    999.2701      9.4105
   184.0000     83.3183      0.0000   1008.9366      9.4155
   184.2500     78.2595      0.0000    997.6613      9.3961
   184.5000     73.0634      0.0000    963.6113      9.3657
   184.7500     68.1710      0.0000    919.1677      9.3456
   185.0000     64.1851      0.0000    881.9324      9.3543
   185.2500     61.4592      0.0000    861.4395      9.3934
   185.5000     60.0158      0.0000    853.9329      9.4514
   185.7500     59.6703      0.0000    848.6386      9.5227
   186.0000     60.0577      0.0000    838.1586      9.6146
   186.2500     60.6654      0.0000    823.2572      9.7273
   186.5000     61.0261      0.0000    809.4080      9.8345
   186.7500     60.8831      0.0000    800.7129      9.8959
   187.0000     60.0778      0.0000    797.5476      9.8902
   187.2500     58.4586      0.0000    798.3072      9.8302
   187.5000     56.2339      0.0000    801.2733      9.7468
   187.7500     54.2314      0.0000    804.6488      9.6674
   188.0000     53.3064      0.0000    806.6284      9.6074
   188.2500     53.5171      0.0000    806.8834      9.5733
   188.5000     54.3160      0.0000    807.8398      9.5642
   188.7500     55.5935      0.0000    813.9066      9.5670
   189.0000     58.1857      0.0000    829.2496      9.5575
   189.2500     63.0748      0.0000    855.7314      9.5120
   189.5000     70.1301      0.0000    891.5518      9.4221
   189.7500     77.8239      0.0000    930.4705      9.2996
   190.0000     84.2714      0.0000    962.6217      9.1701
   190.2500     88.4653      0.0000    978.6095      9.0563
   190.5000     90.4616      0.0000    975.6608      8.9644
   190.7500     90.8012      0.0000    960.0674      8.8860
   191.0000     90.3549      0.0000    942.5231      8.8096
   191.2500     90.4505      0.0000    931.1851      8.7292
   191.5000     92.1997      0.0000    928.7320      8.6477
   191.7500     95.4581      0.0000    933.3156      8.5780
   192.0000     98.9724      0.0000    940.2679      8.5336
   192.2500    101.6714      0.0000    943.4365      8.5085
   192.5000    103.4655      0.0000    936.6235      8.4659
   192.7500    104.7717      0.0000    915.8683      8.3617
   193.0000    105.7400      0.0000    882.7422      8.1933
   193.2500    106.0717      0.0000    845.9763      8.0195
   193.5000    105.1746      0.0000    817.4434      7.9067
   193.7500    102.2818      0.0000    804.2104      7.8584
   194.0000     96.8856      0.0000    804.6470      7.8226
   194.2500     89.4665      0.0000    812.4973      7.7640
   194.5000     81.6364      0.0000    823.2856      7.6941
   194.7500     75.4291      2.0000    835.8530      7.6380
   195.0000     72.5713     -2.0000    849.1701      7.6051
   195.2500     74.1117     -2.0000    859.5415      7.6001
   195.5000     79.8448      0.0000    861.3513      7.6559
   195.7500     87.7310      0.0000    850.6077      7.8441
   196.0000     94.5901      0.0000    828.6457      8.2179
   196.2500     98.1610      0.0000    802.5646      8.7152
   196.5000     98.4698      0.0000    781.0685      9.1536
   196.7500     96.9642      0.0000    769.3982      9.3736
   197.0000     94.7163      0.0000    768.1993      9.3720
   197.2500     91.9346      0.0000    776.3792      9.2659
   197.5000     88.8467      0.0000    793.9951      9.1636
   197.7500     86.1995      0.0000    821.7511      9.1027
   198.0000     84.6552      0.0000    857.5723      9.0739
   198.2500     84.1985      0.0000    894.8049      9.0599
   198.5000     84.5093      0.0000    925.4122      9.0530
   198.7500     85.5186      0.0000    945.1119      9.0540
   199.0000     87.1304      0.0000    954.9503      9.0668
   199.2500     88.6855      0.0000    958.5765      9.0916
