~Version Information
VERS.                      2.0: CWLS Log ASCII Standard - VERSION 2.0
WRAP.                       NO: One line per depth step
~Well Information Block
STRT.FT               430.0000: 
STOP.FT              1910.2500: 
STEP.FT                 0.2500: 
NULL.                -999.2500: 
COMP.          Pioneer Natural Resources: COMPANY
WELL.          Formula 23-11 Tr: WELL
FLD.           Purgatoire River: FIELD
LOC.           1976' FSL & 1935' FWL--: LOCATION
PROV.                 Colorado: PROVINCE
CNTY.               Las Animas: COUNTRY
SRVC.                Patterson: SERVICE COMPANY
DATE.          Fri Jun 10 22:41:39 2005: LOG DATE
UWI.           05 071 08399 00: UNIQUE WELL ID
~Curve Information Block
DEPT.FT            0 000 00 00: Depth
SN.Ohm-m                      : IEL Short Normal
SP.mV                         : IEL Spontaneous Potential
DIR.Ohm-m                     : IEL Induction Resistivity
GR.GAPI                       : Gamma Ray
~Parameter Information Block
~A  Depth        SN          SP         DIR          GR     
# ...
  1200.5000     16.7976   -142.8260     16.4347    126.8365
  1200.7500     16.9186   -143.0430     16.6213    127.5476
  1201.0000     17.0450   -143.2602     16.7775    126.4193
  1201.2500     17.2089   -143.4624     16.9116    124.7526
  1201.5000     17.4368   -143.6365     17.0441    121.8523
  1201.7500     17.7493   -143.7741     17.2014    119.9977
  1202.0000     18.1553   -143.8724     17.4081    117.7680
  1202.2500     18.6398   -143.9338     17.6803    116.8121
  1202.5000     19.1567   -143.9644     18.0230    115.8189
  1202.7500     19.6374   -143.9710     18.4285    114.7697
  1203.0000     20.0118   -143.9595     18.8753    111.2116
  1203.2500     20.2354   -143.9329     19.3302    107.1601
  1203.5000     20.3144   -143.8905     19.7569     99.6291
  1203.7500     20.3191   -143.8284     20.1289     95.0704
  1204.0000     20.3684   -143.7416     20.4392     91.2503
  1204.2500     20.5816   -143.6263     20.6992     91.2346
  1204.5000     21.0174   -143.4838     20.9305     94.2908
  1204.7500     21.6361   -143.3228     21.1539     97.3644
  1205.0000     22.3108   -143.1612     21.3791    101.4568
  1205.2500     22.8900   -143.0249     21.5980    102.8509
  1205.5000     23.2767   -142.9432     21.7859    102.5238
  1205.7500     23.4696   -142.9427     21.9132    101.3793
  1206.0000     23.5371   -143.0388     21.9640    100.2488
  1206.2500     23.5512   -143.2303     21.9463    100.7482
  1206.5000     23.5423   -143.4966     21.8858    103.4539
  1206.7500     23.5027   -143.8007     21.8101    105.8239
  1207.0000     23.4214   -144.0975     21.7367    108.4734
  1207.2500     23.3096   -144.3442     21.6731    108.9699
  1207.5000     23.1982   -144.5105     21.6232    107.9960
  1207.7500     23.1149   -144.5854     21.5879    106.8476
  1208.0000     23.0610   -144.5784     21.5585    105.3034
  1208.2500     23.0088   -144.5153     21.5101    104.5349
  1208.5000     22.9212   -144.4303     21.4061    103.7417
  1208.7500     22.7809   -144.3572     21.2161    103.5789
  1209.0000     22.6057   -144.3212     20.9353    104.2629
  1209.2500     22.4339   -144.3349     20.5903    105.3606
  1209.5000     22.2935   -144.3969     20.2274    107.4932
  1209.7500     22.1805   -144.4941     19.8955    108.8963
  1210.0000     22.0632   -144.6067     19.6336    110.7431
  1210.2500     21.9079   -144.7132     19.4623    111.8891
  1210.5000     21.7049   -144.7958     19.3798    113.7071
  1210.7500     21.4780   -144.8435     19.3601    114.9509
  1211.0000     21.2698   -144.8543     19.3604    116.2631
  1211.2500     21.1174   -144.8343     19.3359    116.2943
  1211.5000     21.0364   -144.7949     19.2574    115.0668
  1211.7500     21.0221   -144.7492     19.1220    114.1862
  1212.0000     21.0617   -144.7087     18.9499    114.5915
  1212.2500     21.1472   -144.6801     18.7745    116.4601
  1212.5000     21.2825   -144.6645     18.6333    120.7608
  1212.7500     21.4799   -144.6586     18.5617    123.6020
  1213.0000     21.7462   -144.6566     18.5882    126.3172
  1213.2500     22.0708   -144.6532     18.7278    126.4896
  1213.5000     22.4210   -144.6459     18.9767    123.5561
  1213.7500     22.7473   -144.6362     19.3129    119.4466
  1214.0000     23.0018   -144.6296     19.7032    111.4523
  1214.2500     23.1751   -144.6348     20.1149    106.3994
  1214.5000     23.3389   -144.6626     20.5300    101.3986
  1214.7500     23.6574   -144.7248     20.9570    100.0657
  1215.0000     24.3432   -144.8336     21.4347     99.9052
  1215.2500     25.5724   -145.0012     22.0247    100.0158
  1215.5000     27.4106   -145.2384     22.7923     99.3902
  1215.7500     29.7896   -145.5541     23.7820     98.2748
  1216.0000     32.5486   -145.9530     24.9934     95.3476
  1216.2500     35.5226   -146.4348     26.3695     92.1858
  1216.5000     38.6383   -146.9922     27.8133     85.1447
  1216.7500     41.9522   -147.6115     29.2361     79.2654
  1217.0000     45.5881   -148.2729     30.6080     70.2145
  1217.2500     49.5877   -148.9523     31.9692     64.7912
  1217.5000     53.7507   -149.6236     33.3896     57.8230
  1217.7500     57.5765   -150.2612     34.9033     53.8336
  1218.0000     60.4004   -150.8418     36.4535     49.4546
  1218.2500     61.6859   -151.3463     37.8725     48.6121
  1218.5000     61.2760   -151.7605     38.9189     52.0841
  1218.7500     59.4121   -152.0751     39.3671     57.6727
  1219.0000     56.5383   -152.2859     39.0983     69.5545
  1219.2500     53.0731   -152.3933     38.1330     78.5921
  1219.5000     49.3110   -152.4022     36.6044     92.0681
  1219.7500     45.4631   -152.3220     34.7126    100.3133
  1220.0000     41.7297   -152.1657     32.6770    110.7153
  1220.2500     38.3090   -151.9496     30.6919    115.9052
  1220.5000     35.3504   -151.6920     28.8953    120.6470
  1220.7500     32.9230   -151.4119     27.3583    122.0436
  1221.0000     31.0212   -151.1285     26.0907    122.9978
  1221.2500     29.5819   -150.8595     25.0564    123.8294
  1221.5000     28.5009   -150.6205     24.1978    125.6350
  1221.7500     27.6627   -150.4236     23.4637    126.4948
  1222.0000     26.9790   -150.2759     22.8280    126.1607
  1222.2500     26.4090   -150.1786     22.2889    124.9618
  1222.5000     25.9525   -150.1279     21.8580    122.6546
  1222.7500     25.6277   -150.1154     21.5499    121.1887
  1223.0000     25.4511   -150.1317     21.3796    119.2586
  1223.2500     25.4281   -150.1681     21.3600    117.9433
  1223.5000     25.5522   -150.2194     21.4965    115.0289
  1223.7500     25.8110   -150.2839     21.7813    111.9498
  1224.0000     26.1942   -150.3631     22.1896    105.8151
  1224.2500     26.6941   -150.4604     22.6840    101.4990
  1224.5000     27.2919   -150.5807     23.2241     96.0344
  1224.7500     27.9431   -150.7301     23.7793     93.2491
  1225.0000     28.5791   -150.9178     24.3342     89.7113
  1225.2500     29.1296   -151.1559     24.8820     87.3307
  1225.5000     29.5489   -151.4601     25.4085     83.6531
  1225.7500     29.8291   -151.8459     25.8811     81.5796
  1226.0000     29.9957   -152.3235     26.2552     80.1178
  1226.2500     30.0861   -152.8899     26.4929     80.6325
  1226.5000     30.1233   -153.5207     26.5841     83.5067
  1226.7500     30.1046   -154.1650     26.5545     86.3462
  1227.0000     30.0144   -154.7490     26.4567     90.7439
  1227.2500     29.8485   -155.1866     26.3491     92.9413
  1227.5000     29.6230   -155.4016     26.2745     94.0993
  1227.7500     29.3641   -155.3526     26.2477     93.3766
  1228.0000     29.0933   -155.0547     26.2592     90.9410
  1228.2500     28.8230   -154.5871     26.2900     89.2154
  1228.5000     28.5622   -154.0822     26.3247     87.4606
  1228.7500     28.3247   -153.6936     26.3565     86.8961
  1229.0000     28.1338   -153.5534     26.3833     86.4699
  1229.2500     28.0153   -153.7284     26.4056     86.3519
  1229.5000     27.9793   -154.1931     26.4261     86.9463
  1229.7500     28.0055   -154.8280     26.4503     88.2246
  1230.0000     28.0472   -155.4442     26.4843     91.1867
  1230.2500     28.0589   -155.8280     26.5345     93.0527
  1230.5000     28.0261   -155.7917     26.6091     94.2498
  1230.7500     27.9724   -155.2164     26.7132     93.8539
  1231.0000     27.9381   -154.0771     26.8376     92.5847
  1231.2500     27.9488   -152.4473     26.9536     91.9399
  1231.5000     27.9951   -150.4845     27.0268     91.0969
  1231.7500     28.0371   -148.4035     27.0431     89.9317
  1232.0000     28.0295   -146.4427     27.0217     86.5739
  1232.2500     27.9515   -144.8287     27.0004     83.6516
  1232.5000     27.8205   -143.7412     27.0085     79.7739
  1232.7500     27.6805   -143.2860     27.0514     78.2266
  1233.0000     27.5708   -143.4801     27.1134     77.7326
  1233.2500     27.4952   -144.2519     27.1682     78.5226
  1233.5000     27.4180   -145.4617     27.1848     81.3364
  1233.7500     27.2916   -146.9324     27.1283     84.1434
