~Version Information
VERS.                      2.0: CWLS Log ASCII Standard - VERSION 2.0
WRAP.                       NO: One line per depth step
~Well Information Block
STRT.FT              1882.7500: 
STOP.FT              2400.5000: 
STEP.FT                 0.2500: 
NULL.                -999.2500: 
COMP.          Pioneer Natural Resources: COMPANY
WELL.          Flying Horse 12-11: WELL
FLD.           Purgatoire River: FIELD
LOC.           2,428' FNL & 308' FWL------: LOCATION
PROV.                 Colorado: PROVINCE
CNTY.               Las Animas: COUNTRY
SRVC.                         : SERVICE COMPANY
DATE.          Fri Jun 10 06:52:30 2005: LOG DATE
UWI.                          : UNIQUE WELL ID
~Curve Information Block
DEPT.FT            0 000 00 00: Depth
CCL.                          : Casing Collar Locator
TT3.usec                      : CBL 3' Travel Time
AMP3.mV                       : CBL 3' Amplitude
AMP5.mV                       : CBL 5' Amplitude
GR.GAPI                       : Gamma Ray
~Parameter Information Block
~A  Depth       CCL         TT3         AMP3        AMP5         GR     
# ...
  2190.7500      0.0000    560.8117      6.6577      0.4741    104.2509
  2191.0000      0.0000    578.8237      6.4086      1.2575    101.1369
  2191.2500      0.0000    616.0289      6.1102      1.2575     99.2834
  2191.5000      0.0000    661.0192      5.7954      0.5611     99.0633
  2191.7500      0.0000    700.6050      5.4460      0.1259    100.1513
  2192.0000      0.0000    726.1291      5.0165      0.1259    102.0129
  2192.2500      0.0000    733.7859      4.5380      0.8223    104.3579
  2192.5000      0.0000    722.8377      4.1751      0.6482    106.8087
  2192.7500      0.0000    695.7435      4.1272      0.9964    108.1621
  2193.0000      0.0000    660.0495      4.4596      1.0834    106.6391
  2193.2500      0.0000    628.9235      5.0448      0.9964    101.4304
  2193.5000      0.0000    616.5753      5.6543      0.6482     93.9039
  2193.7500     -2.0000    629.0211      6.0764      0.8223     86.8469
  2194.0000      0.0000    658.6791      6.1699      0.8223     82.3761
  2194.2500      0.0000    690.1266      5.8937      0.5611     80.6335
  2194.5000      0.0000    711.2848      5.3501      0.7352     80.3610
  2194.7500      0.0000    718.4343      4.7763      0.9093     80.3434
  2195.0000      0.0000    713.7183      4.4219      0.9093     80.2388
  2195.2500      0.0000    702.1339      4.3984      1.0834     80.5345
  2195.5000      0.0000    690.5795      4.6375      0.4741     82.1306
  2195.7500      0.0000    685.5938      4.9828      0.3870     85.6106
  2196.0000      0.0000    689.3493      5.3089      0.9964     90.3763
  2196.2500      0.0000    698.5259      5.5662     -0.0482     94.6680
  2196.5000      0.0000    707.9490      5.7464      0.5611     96.7971
  2196.7500      0.0000    714.8970      5.8453      0.5611     96.2494
  2197.0000      0.0000    719.9802      5.8625      0.4741     93.5536
  2197.2500      0.0000    725.0089      5.8129      0.2129     89.5555
  2197.5000      0.0000    730.6427      5.7222      0.3870     85.1159
  2197.7500      0.0000    735.8555      5.6158      0.3870     81.1027
  2198.0000      0.0000    739.0529      5.5136      0.1259     78.2383
  2198.2500      0.0000    739.1636      5.4297      0.3000     76.9357
  2198.5000      0.0000    735.9089      5.3696      0.0389     77.2931
  2198.7500      0.0000    729.8283      5.3263      0.3000     79.0402
  2199.0000      0.0000    722.3916      5.2833      0.3000     81.5836
  2199.2500      0.0000    715.5415      5.2250      0.3000     84.3609
  2199.5000      0.0000    710.6808      5.1485      0.4741     87.0444
  2199.7500      0.0000    708.1459      5.0692      0.3870     89.2941
  2200.0000      0.0000    707.6843      5.0180      0.5611     90.7549
  2200.2500      0.0000    709.1514      5.0314      0.4741     91.6196
  2200.5000      0.0000    712.4124      5.1363      0.3000     92.6502
  2200.7500      0.0000    716.5587      5.3349      0.3000     94.1505
  2201.0000      0.0000    719.6887      5.6022      0.4741     95.4531
  2201.2500      0.0000    720.0685      5.8934      0.3000     96.0034
  2201.5000      0.0000    717.6059      6.1573      0.3870     96.4117
  2201.7500      0.0000    713.8300      6.3523      0.3870     97.6563
  2202.0000      0.0000    710.3829      6.4593      0.7352     99.4794
  2202.2500      0.0000    707.7840      6.4819      0.7352    100.3555
  2202.5000      0.0000    705.2448      6.4422      0.3870     99.1708
  2202.7500      0.0000    700.6767      6.3796      0.8223     96.4091
  2203.0000      0.0000    690.3476      6.3420      0.6482     93.5782
  2203.2500      0.0000    669.6580      6.3596      0.6482     92.0553
  2203.5000      0.0000    637.2407      6.4225      0.5611     92.7875
  2203.7500      0.0000    600.5820      6.4842      0.5611     96.3829
  2204.0000      0.0000    575.5889      6.4930      0.5611    102.5707
  2204.2500      0.0000    575.7332      6.4261      0.3870    109.6057
  2204.5000      0.0000    600.0822      6.3000      0.6482    114.8622
  2204.7500      0.0000    634.2731      6.1475      0.6482    116.4765
  2205.0000      0.0000    663.4194      5.9872      0.4741    114.5755
  2205.2500      0.0000    682.0476      5.8164      0.5611    110.9523
  2205.5000      0.0000    692.9549      5.6279      0.3000    107.6581
  2205.7500      0.0000    700.9117      5.4271      0.0389    105.8160
  2206.0000      0.0000    708.9118      5.2375      0.3000    105.2704
  2206.2500      0.0000    717.7300      5.0891      0.2129    104.9625
  2206.5000      0.0000    726.4436      4.9982      0.4741    103.8409
  2206.7500      0.0000    733.2795      4.9602      0.2129    101.6775
  2207.0000      0.0000    736.6794      4.9602      0.1259     98.9255
  2207.2500      0.0000    735.8916      4.9837      0.3000     95.9025
  2207.5000      0.0000    731.0031      5.0183      0.2129     92.4872
  2207.7500      0.0000    722.9908      5.0587      0.3870     88.5305
  2208.0000      0.0000    713.7899      5.1151     -0.1352     84.1771
  2208.2500      0.0000    705.8434      5.2045      0.3000     79.7677
  2208.5000      0.0000    701.1301      5.3259      0.4741     75.7031
  2208.7500      0.0000    700.0148      5.4532      0.1259     72.5953
  2209.0000      0.0000    700.8118      5.5591      0.1259     71.4658
  2209.2500      0.0000    701.1310      5.6383      0.2129     73.4525
  2209.5000      0.0000    700.0690      5.7032      0.3000     79.0371
  2209.7500      0.0000    698.5775      5.7609      0.4741     87.3759
  2210.0000      0.0000    697.5555      5.7961      0.1259     96.2763
  2210.2500      0.0000    696.3005      5.7817      0.4741    103.1492
  2210.5000      0.0000    693.1758      5.7101      0.3870    106.6426
  2210.7500      0.0000    687.3585      5.6145      0.3870    107.5933
  2211.0000      0.0000    679.4340      5.5501      0.3000    108.1810
  2211.2500      0.0000    670.2753      5.5487      0.4741    110.0831
  2211.5000      0.0000    659.7498      5.5975      0.2129    113.3031
  2211.7500      0.0000    647.0036      5.6627      0.4741    116.3507
  2212.0000      0.0000    632.3082      5.7292      0.5611    117.4447
  2212.2500      0.0000    618.5740      5.8092      0.4741    115.8924
  2212.5000      0.0000    610.6161      5.9157      0.6482    112.6180
  2212.7500      0.0000    611.7429      6.0387      0.7352    109.4718
  2213.0000      0.0000    619.8185      6.1511      0.4741    107.8654
  2213.2500      0.0000    626.2447      6.2310      0.3870    107.6888
  2213.5000      0.0000    619.5344      6.2751      0.5611    107.4481
  2213.7500      0.0000    591.9926      6.2939      0.9093    105.8059
  2214.0000      0.0000    545.8484      6.3052      0.3000    103.1052
  2214.2500      0.0000    494.1672      6.3309      0.7352    101.1579
  2214.5000      0.0000    454.8427      6.3902      0.8223    101.5992
  2214.7500      0.0000    441.7865      6.4872      0.3000    104.6827
  2215.0000      0.0000    458.5885      6.5993      0.6482    109.3190
  2215.2500      0.0000    495.7357      6.6851      0.2129    113.7122
  2215.5000      0.0000    532.6379      6.7088      0.6482    116.1913
  2215.7500      0.0000    547.9439      6.6630      0.3870    116.2167
  2216.0000      0.0000    534.5074      6.5664      0.9964    114.7836
  2216.2500      0.0000    505.4891      6.4474      0.4741    113.3834
  2216.5000      0.0000    483.0897      6.3343      0.4741    112.3467
  2216.7500      0.0000    479.3171      6.2548      0.4741    110.4861
  2217.0000      0.0000    487.9219      6.2304      0.3870    106.5315
  2217.2500      0.0000    495.6871      6.2648      0.5611    100.7113
  2217.5000      0.0000    499.9534      6.3403      0.6482     94.7590
  2217.7500      0.0000    511.4582      6.4331      0.8223     90.4592
  2218.0000      0.0000    539.5267      6.5364      0.8223     88.2396
  2218.2500      0.0000    579.1343      6.6703      0.4741     87.0479
  2218.5000      0.0000    615.8613      6.8659      0.7352     85.4307
