~Version Information
VERS.                      2.0: CWLS Log ASCII Standard - VERSION 2.0
WRAP.                       NO: One line per depth step
~Well Information Block
STRT.FT               475.0000: 
STOP.FT              2336.7000: 
STEP.FT                 0.1000: 
NULL.                -999.2500: 
COMP.          Pioneer Natural Resources: COMPANY
WELL.              Bobsy 34-11: WELL
FLD.           Purgatoire River: FIELD
LOC.           1937' FEL & 451' FSL----: LOCATION
PROV.                 Colorado: PROVINCE
CNTY.               Las Animas: COUNTRY
SRVC.                Patterson: SERVICE COMPANY
DATE.          Fri Apr 08 11:07:54 2005: LOG DATE
UWI.           05 071 08330 00: UNIQUE WELL ID
~Curve Information Block
DEPT.FT            0 000 00 00: Depth
DCAL.in                       : CDL Caliper
RHOB.g/cc                     : CDL Bulk Density
RHOC.g/cc                     : CDL Density Correction
DPOR.pu                       : CDL Density Porosity
NPOR.pu                       : Neutron Porosity
GR.GAPI                       : Gamma Ray
~Parameter Information Block
~A  Depth       DCAL        RHOB        RHOC        DPOR        NPOR         GR     
# ...
   839.8000      7.9395      2.5389      0.1002      6.7331     24.8783    102.2463
   839.9000      7.9395      2.5428      0.1177      6.4972     25.0064     99.3119
   840.0000      7.9197      2.5417      0.0635      6.5618     24.7196     95.0397
   840.1000      7.9197      2.5272      0.0444      7.4407     24.4131     94.5738
   840.2000      7.9197      2.5151      0.0396      8.1783     24.4321    100.1079
   840.3000      7.9196      2.5195      0.0450      7.9067     24.7750    103.0330
   840.4000      7.9196      2.5322      0.0607      7.1373     25.1612    101.2556
   840.5000      7.9199      2.5342      0.0757      7.0164     25.0595    103.6118
   840.6000      7.9199      2.5264      0.0502      7.4914     24.5788    109.9753
   840.7000      7.9199      2.5285      0.0289      7.3645     24.3310    113.9285
   840.8000      7.9180      2.5477      0.0592      6.2027     24.3063    118.1966
   840.9000      7.9180      2.5704      0.0710      4.8218     24.0704    120.4771
   841.0000      7.9151      2.5881      0.0669      3.7526     23.6499    112.9525
   841.1000      7.9151      2.5995      0.1104      3.0578     23.4390    102.9240
   841.2000      7.9151      2.6017      0.0989      2.9282     23.4836     99.8641
   841.3000      7.9135      2.5981      0.0730      3.1471     23.4858     98.0253
   841.4000      7.9135      2.5960      0.0442      3.2732     23.6132     92.0775
   841.5000      7.9142      2.5950      0.0610      3.3326     24.0031     86.4209
   841.6000      7.9142      2.5895      0.0610      3.6675     24.4032     84.4838
   841.7000      7.9142      2.5764      0.0735      4.4615     24.7743     83.8612
   841.8000      7.9155      2.5645      0.0396      5.1841     25.1967     83.1712
   841.9000      7.9155      2.5702      0.0129      4.8372     25.6834     84.2684
   842.0000      7.9168      2.5879      0.0592      3.7663     26.1123     86.9098
   842.1000      7.9168      2.5946      0.0261      3.3580     26.2137     89.3471
   842.2000      7.9168      2.5911     -0.0038      3.5668     26.2339     90.7879
   842.3000      7.9169      2.5921      0.0442      3.5110     26.7598     91.1088
   842.4000      7.9169      2.5987      0.0299      3.1109     27.3650     90.5946
   842.5000      7.9157      2.6058      0.0564      2.6772     27.3121     92.4897
   842.6000      7.9157      2.6089      0.0381      2.4891     26.7742     98.6490
   842.7000      7.9157      2.6076      0.0613      2.5721     26.2151    104.0314
   842.8000      7.9158      2.6063      0.0607      2.6474     25.8577    103.5285
   842.9000      7.9158      2.6143      0.0250      2.1656     25.7859     96.6827
   843.0000      7.9180      2.6324      0.0718      1.0668     26.0338     88.0306
   843.1000      7.9180      2.6449      0.0631      0.3103     26.4124     84.6828
   843.2000      7.9180      2.6432      0.0511      0.4099     26.7234     87.3569
   843.3000      7.9194      2.6380      0.0422      0.7260     26.8443     91.1271
   843.4000      7.9194      2.6401      0.0584      0.5984     26.6326     93.7777
   843.5000      7.9194      2.6452      0.0550      0.2933     26.3415     96.5972
   843.6000      7.9194      2.6445      0.0752      0.3327     26.2744     99.9218
   843.7000      7.9194      2.6411      0.0581      0.5423     26.3282    101.3287
   843.8000      7.9183      2.6443      0.0579      0.3441     26.4513     99.1558
   843.9000      7.9183      2.6508      0.0641     -0.0508     26.6907     95.4566
   844.0000      7.9171      2.6432      0.0598      0.4131     26.8467     93.6971
   844.1000      7.9171      2.6160      0.0290      2.0576     26.6213     93.4020
   844.2000      7.9171      2.5844      0.0242      3.9779     26.2057     92.7719
   844.3000      7.9173      2.5653      0.0337      5.1342     26.1881     92.9547
   844.4000      7.9173      2.5676      0.0026      4.9923     26.7041     94.3045
   844.5000      7.9170      2.5868      0.0037      3.8278     27.3463     95.6359
   844.6000      7.9170      2.6029      0.0387      2.8565     27.5762     95.7671
   844.7000      7.9170      2.6034      0.0503      2.8216     27.4151     92.9546
   844.8000      7.9164      2.5965      0.0491      3.2406     27.2411     87.4305
   844.9000      7.9164      2.5921      0.0280      3.5090     27.2409     82.7848
   845.0000      7.9158      2.5984      0.0339      3.1266     27.4755     79.8955
   845.1000      7.9158      2.6191      0.0378      1.8728     28.0024     76.0750
   845.2000      7.9158      2.6449      0.0353      0.3116     28.6529     73.3722
   845.3000      7.9146      2.6594      0.0606     -0.5699     28.9895     75.6906
   845.4000      7.9146      2.6531      0.0348     -0.1897     28.8683     81.7665
   845.5000      7.9140      2.6303      0.0321      1.1964     28.4723     87.6893
   845.6000      7.9140      2.6042      0.0108      2.7760     28.2923     90.5105
   845.7000      7.9140      2.5914     -0.0042      3.5518     28.4582     90.8476
   845.8000      7.9142      2.5957      0.0496      3.2928     28.4693     91.7478
   845.9000      7.9142      2.6084      0.0358      2.5227     28.1480     92.3955
   846.0000      7.9143      2.6224      0.0263      1.6716     27.8088     90.9419
   846.1000      7.9143      2.6305      0.0537      1.1804     27.4821     91.6505
   846.2000      7.9143      2.6306      0.0289      1.1784     26.8834     97.5631
   846.3000      7.9163      2.6256      0.0907      1.4795     26.0224    102.9051
   846.4000      7.9163      2.6154      0.0699      2.0949     25.4844    101.5927
   846.5000      7.9195      2.6056      0.0463      2.6937     25.7327     97.4089
   846.6000      7.9195      2.5981      0.0563      3.1440     26.4719     97.6935
   846.7000      7.9195      2.5853      0.0419      3.9231     27.0762    102.7833
   846.8000      7.9196      2.5703      0.0056      4.8332     27.4252    105.6871
   846.9000      7.9196      2.5648      0.0208      5.1665     27.5721    101.5799
   847.0000      7.9176      2.5657      0.0329      5.1066     27.4349     93.5722
   847.1000      7.9176      2.5656      0.0279      5.1125     27.1882     89.5073
   847.2000      7.9176      2.5639      0.0638      5.2203     27.0772     91.9566
   847.3000      7.9173      2.5567      0.0703      5.6526     27.0492     96.4200
   847.4000      7.9173      2.5458      0.0305      6.3132     26.9745    100.6197
   847.5000      7.9177      2.5399      0.0072      6.6733     27.1468    104.8065
   847.6000      7.9177      2.5332      0.0422      7.0788     27.6893    105.9418
   847.7000      7.9177      2.5210      0.0134      7.8202     28.0873    104.1607
   847.8000      7.9180      2.5221      0.0332      7.7509     28.0606    104.4002
   847.9000      7.9180      2.5462      0.0889      6.2881     28.0257    105.4515
   848.0000      7.9183      2.5738      0.0777      4.6180     28.4674    103.5045
   848.1000      7.9183      2.5809      0.1240      4.1909     29.1120    100.1184
   848.2000      7.9183      2.5620      0.0763      5.3335     29.6039     98.0079
   848.3000      7.9176      2.5374      0.0584      6.8257     29.9219     98.9560
   848.4000      7.9176      2.5233      0.0801      7.6789     29.6680    102.3257
   848.5000      7.9172      2.5168      0.0636      8.0746     28.6738    104.6448
   848.6000      7.9172      2.5185      0.0616      7.9717     27.6753    105.0410
   848.7000      7.9172      2.5398      0.0462      6.6806     27.4064    104.8210
   848.8000      7.9166      2.5786      0.1116      4.3250     27.8535    105.0267
   848.9000      7.9166      2.6129      0.1011      2.2493     28.4654    104.1034
   849.0000      7.9151      2.6316      0.0795      1.1138     28.9300    102.8906
   849.1000      7.9151      2.6408      0.1105      0.5594     29.4090    106.4067
   849.2000      7.9151      2.6424      0.1162      0.4578     29.9886    112.6519
   849.3000      7.9145      2.6345      0.0991      0.9379     30.3122    113.8064
