~Version Information
VERS.                      2.0: CWLS Log ASCII Standard - VERSION 2.0
WRAP.                       NO: One line per depth step
~Well Information Block
STRT.FT               899.1000: 
STOP.FT              2501.5000: 
STEP.FT                 0.1000: 
NULL.                -999.2500: 
COMP.          Petrogulf Corporation: COMPANY
WELL.           Deremer 17-21V: WELL
FLD.           Purgatorie River: FIELD
LOC.           851' FNL & 963' FWL: LOCATION
CNTY.               Las Animas: COUNTY
SRVC.                         : SERVICE COMPANY
DATE.          Tue Nov 18 09:12:06 2003: LOG DATE
UWI.                          : UNIQUE WELL ID
STAT.                 Colorado: STATE
~Curve Information Block
DEPT.FT            0 000 00 00: Depth
DPOR.pu                       : CDL Density Porosity
NEU.NAPI                      : Neutron
NPOR.pu                       : Neutron Porosity
RHOB.g/cc                     : CDL Bulk Density
RHOC.g/cc                     : CDL Density Correction
GR.GAPI                       : Gamma Ray
DCAL.in                       : CDL Caliper
~Parameter Information Block
~A  Depth       DPOR        NEU         NPOR        RHOB        RHOC         GR         DCAL    
# ...
   932.7000   -999.2500    647.2441     45.6196   -999.2500   -999.2500     49.0701   -999.2500
   932.8000   -999.2500    636.7759     46.0703   -999.2500   -999.2500     47.7620   -999.2500
   932.9000   -999.2500    632.2254     46.2665   -999.2500   -999.2500     49.9033   -999.2500
   933.0000   -999.2500    625.7288     46.5471   -999.2500   -999.2500     49.4785   -999.2500
   933.1000   -999.2500    614.3101     47.0414   -999.2500   -999.2500     44.9021   -999.2500
   933.2000   -999.2500    607.5135     47.3363   -999.2500   -999.2500     41.1009   -999.2500
   933.3000   -999.2500    610.4509     47.2088   -999.2500   -999.2500     39.3847   -999.2500
   933.4000   -999.2500    622.2929     46.6957   -999.2500   -999.2500     38.5318   -999.2500
   933.5000   -999.2500    641.1912     45.8800   -999.2500   -999.2500     39.1832   -999.2500
   933.6000   -999.2500    659.8237     45.0795   -999.2500   -999.2500     41.3556   -999.2500
   933.7000   -999.2500    671.9169     44.5616   -999.2500   -999.2500     43.6328   -999.2500
   933.8000   -999.2500    675.1611     44.4230   -999.2500   -999.2500     43.2481   -999.2500
   933.9000   -999.2500    666.8058     44.7803   -999.2500   -999.2500     40.2506   -999.2500
   934.0000   -999.2500    651.8303     45.4225   -999.2500   -999.2500     39.6377   -999.2500
   934.1000   -999.2500    644.6150     45.7327   -999.2500   -999.2500     43.3891   -999.2500
   934.2000   -999.2500    650.1162     45.4961   -999.2500   -999.2500     47.1990   -999.2500
   934.3000   -999.2500    657.5267     45.1780   -999.2500   -999.2500     46.7310   -999.2500
   934.4000   -999.2500    658.9561     45.1167   -999.2500   -999.2500     43.1834   -999.2500
   934.5000   -999.2500    657.6565     45.1724   -999.2500   -999.2500     40.7415   -999.2500
   934.6000   -999.2500    659.5065     45.0931   -999.2500   -999.2500     41.1546   -999.2500
   934.7000   -999.2500    663.6525     44.9154   -999.2500   -999.2500     41.8698   -999.2500
   934.8000   -999.2500    665.3381     44.8432   -999.2500   -999.2500     40.6680   -999.2500
   934.9000   -999.2500    665.1161     44.8527   -999.2500   -999.2500     39.1576   -999.2500
   935.0000   -999.2500    665.7383     44.8260   -999.2500   -999.2500     37.7908   -999.2500
   935.1000   -999.2500    665.7108     44.8272   -999.2500   -999.2500     36.2781   -999.2500
   935.2000   -999.2500    662.0596     44.9836   -999.2500   -999.2500     37.3330   -999.2500
   935.3000   -999.2500    657.4543     45.1811   -999.2500   -999.2500     41.2526   -999.2500
   935.4000   -999.2500    660.0771     45.0686   -999.2500   -999.2500     44.2878   -999.2500
   935.5000   -999.2500    670.4124     44.6260   -999.2500   -999.2500     43.9712   -999.2500
   935.6000   -999.2500    674.5923     44.4473   -999.2500   -999.2500     40.4277   -999.2500
   935.7000   -999.2500    665.2452     44.8472   -999.2500   -999.2500     36.1978   -999.2500
   935.8000   -999.2500    650.5179     45.4789   -999.2500   -999.2500     34.7749   -999.2500
   935.9000   -999.2500    643.4423     45.7831   -999.2500   -999.2500     35.9527   -999.2500
   936.0000   -999.2500    649.1549     45.5375   -999.2500   -999.2500     36.9661   -999.2500
   936.1000   -999.2500    659.8240     45.0795   -999.2500   -999.2500     37.6878   -999.2500
   936.2000   -999.2500    662.8350     44.9504   -999.2500   -999.2500     37.7255   -999.2500
   936.3000   -999.2500    655.9059     45.2475   -999.2500   -999.2500     36.8482   -999.2500
   936.4000   -999.2500    645.5936     45.6906   -999.2500   -999.2500     36.3710   -999.2500
   936.5000   -999.2500    634.8439     46.1536   -999.2500   -999.2500     36.3300   -999.2500
   936.6000   -999.2500    622.1561     46.7016   -999.2500   -999.2500     35.6412   -999.2500
   936.7000   -999.2500    608.4634     47.2951   -999.2500   -999.2500     33.9195   -999.2500
   936.8000   -999.2500    597.2360     47.7833   -999.2500   -999.2500     33.9455   -999.2500
   936.9000   -999.2500    588.9356     48.1453   -999.2500   -999.2500     37.0230   -999.2500
   937.0000   -999.2500    580.6891     48.5057   -999.2500   -999.2500     41.2074   -999.2500
   937.1000   -999.2500    567.5967     49.0798   -999.2500   -999.2500     46.7743   -999.2500
   937.2000   -999.2500    552.7984     49.7315   -999.2500   -999.2500     54.8352   -999.2500
   937.3000   -999.2500    547.1088     49.9829   -999.2500   -999.2500     62.3419   -999.2500
   937.4000   -999.2500    550.7484     49.8221   -999.2500   -999.2500     64.8811   -999.2500
   937.5000   -999.2500    552.6059     49.7400   -999.2500   -999.2500     63.6819   -999.2500
   937.6000   -999.2500    547.9911     49.9439   -999.2500   -999.2500     62.5492   -999.2500
   937.7000   -999.2500    543.2634     50.1531   -999.2500   -999.2500     65.3808   -999.2500
   937.8000   -999.2500    541.6945     50.2226   -999.2500   -999.2500     74.1470   -999.2500
   937.9000   -999.2500    541.4617     50.2329   -999.2500     -0.3365     84.6818   -999.2500
   938.0000   -999.2500    542.4245     50.1902   -999.2500     -0.3890     90.7239   -999.2500
   938.1000   -999.2500    543.8771     50.1259   -999.2500     -0.4430     90.9974   -999.2500
   938.2000   -999.2500    541.0388     50.2516   -999.2500     -0.4364     88.2656   -999.2500
   938.3000   -999.2500    535.2994     50.5062   -999.2500     -0.4443     83.0743   -999.2500
   938.4000     34.1427    535.9418     50.4777      2.0866     -0.3942     75.7539   -999.2500
   938.5000     35.1594    540.9531     50.2554      2.0699     -0.4450     72.7131      8.1633
   938.6000     35.7166    540.9000     50.2578      2.0607     -0.5485     79.0584      8.1633
   938.7000     35.4631    537.7831     50.3960      2.0649     -0.4342     89.0230      8.1633
   938.8000     35.4136    540.1768     50.2898      2.0657     -0.4998     92.9386      8.1617
   938.9000     35.6750    548.8127     49.9076      2.0614     -0.4965     90.5422      8.1617
   939.0000     34.9177    556.4709     49.5695      2.0739     -0.4580     88.9682      8.1618
   939.1000     32.7850    560.6826     49.3839      2.1090     -0.4403     90.0792      8.1618
   939.2000     30.3994    565.9993     49.1500      2.1484     -0.4252     90.5160      8.1618
   939.3000     29.1320    570.9930     48.9307      2.1693     -0.4224     90.4139      8.1633
   939.4000     29.3582    571.6905     48.9001      2.1656     -0.4232     91.7170      8.1633
   939.5000     30.1475    571.2957     48.9174      2.1526     -0.4637     92.4567      8.1641
   939.6000     30.9730    570.7897     48.9396      2.1389     -0.4168     90.2450      8.1641
   939.7000     32.5788    568.8551     49.0246      2.1125     -0.3873     86.7078      8.1641
   939.8000     34.3441    569.6757     48.9885      2.0833     -0.4597     83.9114      8.1626
   939.9000     34.3706    572.7011     48.8557      2.0829     -0.5125     82.9982      8.1626
   940.0000     33.0780    573.9437     48.8012      2.1042     -0.4093     81.7980      8.1614
   940.1000     32.6564    575.7482     48.7221      2.1112     -0.4270     77.6097      8.1614
   940.2000     32.9991    577.5962     48.6412      2.1055     -0.4303     72.7602      8.1614
   940.3000     32.4849    576.3425     48.6961      2.1140     -0.4345     69.6823      8.1629
   940.4000     31.8491    575.2068     48.7459      2.1245     -0.3527     67.8731      8.1629
   940.5000     33.1446    579.6393     48.5517      2.1031     -0.3969     66.0077      8.1662
   940.6000     36.1627    585.6330     48.2895      2.0533     -0.4137     63.9914      8.1662
   940.7000     38.5449    585.3096     48.3037      2.0140     -0.5553     64.5699      8.1662
   940.8000     38.1923    576.7900     48.6765      2.0198     -0.5130     69.4738      8.1711
   940.9000     35.2315    565.5001     49.1720      2.0687     -0.4420     75.8918      8.1711
   941.0000     32.1720    563.1181     49.2767      2.1192     -0.3448     78.8356      8.1733
