~Version Information
VERS.                      2.0: CWLS Log ASCII Standard - VERSION 2.0
WRAP.                       NO: One line per depth step
~Well Information Block
STRT.FT               675.0000: 
STOP.FT              2373.5000: 
STEP.FT                 0.2500: 
NULL.                -999.2500: 
COMP.          Pioneer Natural Resources: COMPANY
WELL.            Harrier 44-33: WELL
FLD.           Purgatoire River: FIELD
LOC.           456' FSL & 930' FEL: LOCATION
PROV.                 Colorado: PROVINCE
CNTY.               Las Animas: COUNTRY
SRVC.                Patterson: SERVICE COMPANY
DATE.          Mon Jun 20 07:40:56 2005: LOG DATE
UWI.           05 071 08398 00: UNIQUE WELL ID
~Curve Information Block
DEPT.FT            0 000 00 00: Depth
SN.Ohm-m                      : IEL Short Normal
SP.mV                         : IEL Spontaneous Potential
DIR.Ohm-m                     : IEL Induction Resistivity
GR.GAPI                       : Gamma Ray
~Parameter Information Block
~A  Depth        SN          SP         DIR          GR     
# ...
  2015.0000     29.7762    213.1644     25.1545     74.7294
  2015.2500     30.3250    213.7593     25.3582     75.4555
  2015.5000     30.6720    214.3554     25.4935     76.2733
  2015.7500     30.7568    214.9710     25.5534     75.9569
  2016.0000     30.6393    215.6004     25.5474     73.8205
  2016.2500     30.3882    216.2059     25.4890     71.6828
  2016.5000     30.0477    216.7303     25.3845     68.8956
  2016.7500     29.6625    217.1197     25.2330     68.0633
  2017.0000     29.2787    217.3464     25.0338     68.3216
  2017.2500     28.9435    217.4214     24.7913     68.7928
  2017.5000     28.6636    217.3865     24.5149     68.8848
  2017.7500     28.3606    217.2877     24.2163     68.5373
  2018.0000     27.9393    217.1517     23.9032     68.1507
  2018.2500     27.4202    216.9799     23.5724     68.3199
  2018.5000     26.9309    216.7583     23.2107     69.0187
  2018.7500     26.5163    216.4719     22.8098     69.3280
  2019.0000     26.0574    216.1182     22.3849     69.0510
  2019.2500     25.4283    215.7170     21.9747     68.5598
  2019.5000     24.6411    215.3091     21.6211     67.9734
  2019.7500     23.8435    214.9417     21.3453     67.6442
  2020.0000     23.1869    214.6501     21.1424     66.6796
  2020.2500     22.6522    214.4454     20.9931     65.7663
  2020.5000     22.0797    214.3166     20.8811     65.0655
  2020.7500     21.4197    214.2405     20.8018     65.6159
  2021.0000     20.8444    214.1922     20.7621     67.6786
  2021.2500     20.5550    214.1488     20.7754     69.1002
  2021.5000     20.5884    214.0921     20.8549     70.0965
  2021.7500     20.8484    214.0133     21.0061     69.7743
  2022.0000     21.2239    213.9206     21.2218     68.0609
  2022.2500     21.6561    213.8421     21.4830     66.4367
  2022.5000     22.1406    213.8147     21.7669     64.0958
  2022.7500     22.6876    213.8632     22.0556     63.0548
  2023.0000     23.3031    213.9833     22.3383     62.3772
  2023.2500     23.9746    214.1425     22.6070     62.1004
  2023.5000     24.6444    214.3029     22.8538     61.1675
  2023.7500     25.2763    214.4471     23.0703     60.1547
  2024.0000     25.9067    214.5895     23.2486     58.5697
  2024.2500     26.5350    214.7638     23.3826     57.6744
  2024.5000     27.0685    214.9976     23.4720     56.3796
  2024.7500     27.4024    215.2933     23.5221     55.4585
  2025.0000     27.4486    215.6290     23.5339     54.4570
  2025.2500     27.1617    215.9728     23.4908     54.3848
  2025.5000     26.6247    216.3020     23.3522     54.9864
  2025.7500     25.9973    216.6137     23.0624     55.3716
  2026.0000     25.3678    216.9274     22.5695     55.4129
  2026.2500     24.7155    217.2778     21.8468     55.2613
  2026.5000     23.9629    217.7013     20.9047     55.5374
  2026.7500     23.0604    218.2211     19.7909     56.4761
  2027.0000     22.0356    218.8398     18.5761     59.5338
  2027.2500     20.9533    219.5387     17.3350     62.8434
  2027.5000     19.8554    220.2838     16.1338     69.4944
  2027.7500     18.7131    221.0296     15.0233     74.5841
  2028.0000     17.4509    221.7247     14.0347     82.4884
  2028.2500     16.0384    222.3249     13.1787     87.9365
  2028.5000     14.5318    222.8094     12.4492     96.6669
  2028.7500     13.0734    223.1873     11.8324    102.6631
  2029.0000     11.8599    223.4870     11.3141    110.8050
  2029.2500     11.0245    223.7355     10.8834    114.9786
  2029.5000     10.5372    223.9417     10.5316    118.7716
  2029.7500     10.2276    224.0963     10.2494    119.7478
  2030.0000      9.9025    224.1854     10.0274    119.8052
  2030.2500      9.5218    224.2074      9.8577    119.7285
  2030.5000      9.2542    224.1785      9.7386    120.5348
  2030.7500      9.2440    224.1221      9.6756    121.7453
  2031.0000      9.4145    224.0544      9.6798    123.6971
  2031.2500      9.6315    223.9758      9.7641    124.3005
  2031.5000      9.8937    223.8734      9.9382    122.9223
  2031.7500     10.2592    223.7301     10.2071    120.1289
  2032.0000     10.7460    223.5387     10.5692    113.4936
  2032.2500     11.3535    223.3102     11.0168    108.0471
  2032.5000     12.0793    223.0673     11.5384     99.2989
  2032.7500     12.8866    222.8262     12.1230     93.3656
  2033.0000     13.7148    222.5857     12.7635     84.5637
  2033.2500     14.5397    222.3331     13.4544     78.9165
  2033.5000     15.3661    222.0599     14.1849     71.0627
  2033.7500     16.1738    221.7689     14.9333     66.4498
  2034.0000     16.9318    221.4656     15.6695     60.9220
  2034.2500     17.6336    221.1435     16.3643     58.2474
  2034.5000     18.2672    220.7846     16.9980     55.1426
  2034.7500     18.7682    220.3820     17.5637     53.1389
  2035.0000     19.0591    219.9580     18.0634     50.0721
  2035.2500     19.1524    219.5534     18.5016     48.4850
  2035.5000     19.1733    219.1999     18.8784     47.5693
  2035.7500     19.2510    218.9038     19.1879     47.7014
  2036.0000     19.3666    218.6517     19.4203     47.6280
  2036.2500     19.3628    218.4275     19.5651     46.7550
  2036.5000     19.1707    218.2259     19.6135     44.3476
  2036.7500     18.9005    218.0605     19.5610     42.6611
  2037.0000     18.6674    217.9584     19.4117     41.1752
  2037.2500     18.4839    217.9441     19.1825     41.2376
  2037.5000     18.3358    218.0215     18.9011     42.8750
  2037.7500     18.2408    218.1688     18.5984     44.7288
  2038.0000     18.1960    218.3490     18.3001     48.0545
  2038.2500     18.1380    218.5273     18.0243     50.2253
  2038.5000     18.0089    218.6800     17.7854     52.5048
  2038.7500     17.8268    218.7962     17.5976     52.8843
  2039.0000     17.6610    218.8723     17.4702     51.7646
  2039.2500     17.5659    218.9050     17.3962     50.5828
  2039.5000     17.5390    218.8888     17.3479     49.6232
  2039.7500     17.5234    218.8179     17.2882     49.8774
  2040.0000     17.4652    218.6914     17.1913     51.0264
  2040.2500     17.3770    218.5151     17.0582     51.6645
  2040.5000     17.3239    218.3010     16.9130     51.6647
  2040.7500     17.3449    218.0612     16.7874     50.9853
  2041.0000     17.4125    217.8004     16.7047     49.4425
  2041.2500     17.4685    217.5078     16.6734     48.4387
  2041.5000     17.4917    217.1531     16.6914     47.2961
  2041.7500     17.5107    216.6894     16.7537     46.7585
  2042.0000     17.5547    216.0703     16.8537     46.2918
  2042.2500     17.6412    215.2718     16.9781     46.3268
  2042.5000     17.8022    214.2983     17.1064     46.8943
  2042.7500     18.0587    213.1672     17.2237     47.3421
  2043.0000     18.3763    211.8999     17.3389     47.6646
  2043.2500     18.6912    210.5282     17.4856     47.6645
  2043.5000     18.9865    209.1035     17.7030     47.5425
  2043.7500     19.3263    207.6930     18.0146     47.2858
  2044.0000     19.7838    206.3726     18.4206     46.2010
  2044.2500     20.3627    205.2221     18.9007     44.9003
  2044.5000     21.0719    204.3202     19.4191     42.4277
  2044.7500     21.9764    203.7365     19.9250     40.8063
  2045.0000     23.0777    203.5209     20.3525     38.7913
  2045.2500     24.2651    203.6965     20.6247     37.6084
  2045.5000     25.4394    204.2586     20.6633     35.5747
  2045.7500     26.6093    205.1813     20.4084     33.9154
  2046.0000     27.8499    206.4255     19.8403     31.2554
  2046.2500     29.1785    207.9441     18.9904     29.7035
  2046.5000     30.4165    209.6746     17.9315     28.3666
  2046.7500     31.1255    211.5222     16.7545     28.5958
  2047.0000     30.7294    213.3512     15.5456     31.6276
  2047.2500     28.8135    215.0114     14.3726     36.1487
  2047.5000     25.4559    216.3954     13.2791     47.7868
  2047.7500     21.3388    217.4843     12.2865     58.9322
  2048.0000     17.4009    218.3422     11.3987     79.3563
  2048.2500     14.2559    219.0658     10.6082     93.7607
