~Version Information
 VERS.                                  2.0 : CWLS LAS VERSION
 WRAP.                                   NO : WRAPING MODE
 SWARE .                 MController 2.5.0N : SOFTWARE VERSION
~Well Information
 WELL.                   Blackjack 32-11 Tr : WELL
 COMP.  Pioneer Natural Resources USA, Inc. : COMPANY
 FLD.                      Purgatoire River : FIELD
 LOC.               SW/NE Sec 11 T32S  R66W : LOCATION
 DATE.                             08/14/05 : DATE(S) LOGGED
 SRVC.       BLANCO Geological Services LLC : SERVICE COMPANY
 STAT.                                   CO : STATE
 CNTY.                           Las Animas : COUNTY
 CTRY.                                  USA : COUNTRY
 API.                       05-071-08310-00 : API NUMBER
 STRT.FT                             521.00 : START DEPTH
 STOP.FT                            1862.00 : STOP DEPTH
 STEP.FT                               1.00 : DEPTH INCREMENT
 NULL.                                -9999 : NULL VALUE
~Curve information
 DEPTH.FT                                   :
 ROP.MIN/FT                                 :
 GAS.UNITS                                  :
~ASCII Log data
# ...
       921.0         0.17          3.7 
       922.0         0.22          2.5 
       923.0         0.27          2.7 
       924.0         0.23          3.1 
       925.0         0.40          3.1 
       926.0         0.83          5.1 
       927.0         0.30          2.7 
       928.0         0.17          3.7 
       929.0         0.50          3.1 
       930.0         0.30          2.9 
       931.0         0.22          2.8 
       932.0         0.23          4.2 
       933.0         0.20          2.2 
       934.0         0.20          2.9 
       935.0         0.20          2.7 
       936.0         0.23          3.0 
       937.0         0.27          3.0 
       938.0         0.23          2.7 
       939.0         0.27          2.9 
       940.0         0.27          3.1 
       941.0         0.20          4.3 
       942.0         0.20          4.1 
       943.0         0.23          3.0 
       944.0         0.17          3.0 
       945.0         0.17          3.1 
       946.0         0.13          3.4 
       947.0         0.22          2.5 
       948.0         0.17          4.1 
       949.0         0.20          3.2 
       950.0         0.17          4.5 
       951.0         0.13          2.6 
       952.0         0.17          3.3 
       953.0         0.13          2.6 
       954.0         0.20          3.0 
       955.0         0.23          3.0 
       956.0         1.27          4.2 
       957.0         0.47          4.1 
       958.0         0.52          6.4 
       959.0         0.33          6.8 
       960.0         0.27          7.5 
       961.0         0.20          5.5 
       962.0         0.23          5.1 
       963.0         0.23          5.9 
       964.0         0.17          3.7 
       965.0         0.20          3.6 
       966.0         0.20          5.1 
       967.0         0.23          3.3 
       968.0         0.20          4.7 
       969.0         0.17          3.1 
       970.0         0.20          3.3 
       971.0         0.20          3.3 
       972.0         0.22          3.5 
       973.0         0.17          3.5 
       974.0         0.13          3.5 
       975.0         0.20          2.9 
       976.0         0.23          3.9 
       977.0         0.20          4.7 
       978.0         0.10          3.3 
       979.0         0.17          4.7 
       980.0         0.17          5.3 
       981.0         0.10          7.6 
       982.0         0.10          7.8 
       983.0         0.30          8.0 
       984.0         0.23          7.2 
       985.0         0.27          6.9 
       986.0         1.68         10.9 
       987.0         0.10         13.6 
       988.0         0.10         15.8 
       989.0         0.30         18.7 
       990.0         0.30         18.1 
       991.0         0.20         13.5 
       992.0         0.20         12.4 
       993.0         0.30          9.0 
       994.0         0.17          8.5 
       995.0         0.30          6.4 
       996.0         0.20          6.0 
       997.0         0.27          6.1 
       998.0         0.22          4.9 
       999.0         0.17          4.6 
      1000.0         0.13          5.9 
      1001.0         0.23          8.1 
      1002.0         0.23          6.1 
      1003.0         0.20          6.1 
      1004.0         0.23          5.8 
      1005.0         0.20          5.6 
      1006.0         0.17          5.5 
      1007.0         0.17          7.5 
      1008.0         0.17          7.9 
      1009.0         0.10          6.5 
      1010.0         0.13          7.2 
      1011.0         0.17          7.5 
      1012.0         0.20          7.2 
      1013.0         0.20          6.0 
      1014.0         0.17          4.9 
      1015.0         0.20          5.2 
      1016.0         2.62         12.6 
      1017.0         0.23         11.7 
      1018.0         0.27         11.7 
      1019.0         0.42          8.8 
      1020.0         0.37          6.4 
      1021.0         0.27          5.0 
      1022.0         0.37          5.7 
      1023.0         0.17          4.3 
      1024.0         0.13          3.2 
      1025.0         0.13          3.4 
      1026.0         0.13          3.6 
      1027.0         0.13          4.7 
      1028.0         0.13          9.6 
      1029.0         0.13         25.8 
      1030.0         0.13         54.0 
      1031.0         0.13         72.2 
      1032.0         0.20        103.7 
      1033.0         0.20        131.9 
      1034.0         0.20        156.2 
      1035.0         0.28        168.2 
      1036.0         0.17        169.3 
      1037.0         0.17        169.6 
      1038.0         0.20        169.3 
      1039.0         0.20        166.4 
      1040.0         0.23        163.6 
      1041.0         0.20        150.5 
      1042.0         0.17        120.2 
      1043.0         0.17        109.1 
      1044.0         0.23        104.6 
      1045.0         0.13        100.7 
      1046.0         3.25       1501.9 
      1047.0         0.40        972.8 
      1048.0         0.17        784.5 
      1049.0         0.20        664.3 
      1050.0         0.27        602.5 
      1051.0         0.23        554.1 
      1052.0         0.32        508.7 
      1053.0         0.27        473.6 
      1054.0         0.20        464.2 
      1055.0         0.27        457.4 
      1056.0         0.20        451.6 
      1057.0         0.20        446.2 
      1058.0         0.20        440.7 
      1059.0         0.20        440.0 
      1060.0         0.20        440.4 
      1061.0         0.20        440.0 
      1062.0         0.20         99.2 
      1063.0         0.23        102.1 
      1064.0         0.20        102.3 
      1065.0         0.20        100.1 
      1066.0         0.23         95.8 
      1067.0         0.17         97.4 
      1068.0         0.18         96.3 
      1069.0         0.13         93.8 
      1070.0         0.13         83.1 
      1071.0         0.17         78.0 
      1072.0         0.23         71.6 
      1073.0         0.20         67.6 
      1074.0         0.17         65.2 
      1075.0         0.17         62.9 
      1076.0         1.73        243.5 
      1077.0         0.27        264.6 
      1078.0         0.15        267.7 
      1079.0         0.27        271.3 
      1080.0         0.33        261.5 
      1081.0         0.23        219.2 
      1082.0         0.20        187.8 
      1083.0         0.17        156.7 
      1084.0         0.20        141.6 
      1085.0         0.17        126.6 
      1086.0         0.20        116.1 
      1087.0         0.13        102.3 
      1088.0         0.17         98.2 
      1089.0         0.17         92.9 
      1090.0         0.10         92.1 
      1091.0         0.17         87.7 
      1092.0         0.20         84.5 
      1093.0         0.17         82.9 
      1094.0         0.13         81.1 
      1095.0         0.13         80.5 
      1096.0         0.15         79.2 
      1097.0         0.17         78.6 
      1098.0         0.23         78.2 
      1099.0         0.27         77.9 
      1100.0         0.27         77.8 
      1101.0         0.27         72.9 
      1102.0         0.23         61.3 
      1103.0         0.17         55.6 
      1104.0         0.17         55.0 
      1105.0         0.20         54.2 
      1106.0         2.08        240.4 
      1107.0         0.33        252.6 
      1108.0         0.33        230.1 
      1109.0         0.30        187.2 
      1110.0         0.20        172.8 
      1111.0         0.27        149.6 
      1112.0         0.27        129.6 
      1113.0         0.20        102.2 
      1114.0         0.20         96.3 
      1115.0         0.17         86.6 
      1116.0         0.17         81.8 
      1117.0         0.13         77.9 
      1118.0         0.18         76.4 
      1119.0         0.17         74.3 
      1120.0         0.17         73.7 
