~Version Information
VERS.                      2.0: CWLS Log ASCII Standard - VERSION 2.0
WRAP.                       NO: One line per depth step
~Well Information Block
STRT.FT               245.0000: 
STOP.FT              1919.7000: 
STEP.FT                 0.1000: 
NULL.                -999.2500: 
COMP.          Pioneer Natural Resources: COMPANY
WELL.          Oink Oink 14-36 Tr: WELL
FLD.           Purgatoire River: FIELD
LOC.           236' FSL & 164' FWL--: LOCATION
PROV.                 Colorado: PROVINCE
CNTY.               Las Animas: COUNTRY
SRVC.                Patterson: SERVICE COMPANY
DATE.          Fri Jun 10 08:23:18 2005: LOG DATE
UWI.           05 071 08393 00: UNIQUE WELL ID
~Curve Information Block
DEPT.FT            0 000 00 00: Depth
DCAL.in                       : CDL Caliper
RHOB.g/cc                     : CDL Bulk Density
RHOC.g/cc                     : CDL Density Correction
DPOR.pu                       : CDL Density Porosity
NPOR.pu                       : Neutron Porosity
GR.GAPI                       : Gamma Ray
~Parameter Information Block
~A  Depth       DCAL        RHOB        RHOC        DPOR        NPOR         GR     
# ...
   571.4000      8.0899      2.6204      0.0784      1.7927     28.4448    121.9056
   571.5000      8.0892      2.6188      0.0471      1.8883     28.6466    124.5007
   571.6000      8.0892      2.5870      0.0323      3.8205     29.2049    120.3270
   571.7000      8.0892      2.5451     -0.0091      6.3548     29.5293    113.3182
   571.8000      8.0878      2.5218     -0.0287      7.7679     28.8274    111.6020
   571.9000      8.0878      2.5191      0.0403      7.9309     27.5646    115.4173
   572.0000      8.0847      2.5182      0.0125      7.9890     26.8045    118.9322
   572.1000      8.0847      2.5198      0.0065      7.8907     26.5765    118.9650
   572.2000      8.0847      2.5301      0.0365      7.2648     26.0748    117.9881
   572.3000      8.0820      2.5396      0.0247      6.6917     24.9657    118.6572
   572.4000      8.0820      2.5381      0.0735      6.7848     23.6160    121.9571
   572.5000      8.0793      2.5310      0.0362      7.2115     22.7206    126.5538
   572.6000      8.0793      2.5427      0.0404      6.5052     22.6346    127.5349
   572.7000      8.0793      2.5832      0.0879      4.0490     23.0203    120.6304
   572.8000      8.0750      2.6252      0.1638      1.5032     23.7291    109.0072
   572.9000      8.0750      2.6429      0.1292      0.4302     24.7601    100.8732
   573.0000      8.0715      2.6512      0.1139     -0.0738     25.8020     98.9932
   573.1000      8.0715      2.6738      0.1184     -1.4408     26.5603    100.9904
   573.2000      8.0715      2.7012      0.1444     -3.1025     27.1694    103.4736
   573.3000      8.0702      2.7098      0.0937     -3.6228     27.9064    102.8671
   573.4000      8.0702      2.6984      0.0973     -2.9312     28.4340    100.8256
   573.5000      8.0754      2.6808      0.0806     -1.8645     28.4604    101.6057
   573.6000      8.0754      2.6578      0.0996     -0.4719     28.6162    104.9989
   573.7000      8.0754      2.6268      0.0392      1.4079     29.0656    105.2402
   573.8000      8.0929      2.6108      0.0247      2.3728     28.8001     98.5538
   573.9000      8.0929      2.6291      0.0601      1.2681     27.5949     89.3902
   574.0000      8.1167      2.6590      0.1090     -0.5440     26.4229     84.7542
   574.1000      8.1167      2.6676      0.0869     -1.0638     25.7565     86.2927
   574.2000      8.1167      2.6518      0.0435     -0.1113     25.3703     90.3095
   574.3000      8.1343      2.6314      0.0075      1.1284     25.0134     93.4151
   574.4000      8.1343      2.6232      0.0281      1.6231     24.7483     92.0271
   574.5000      8.1424      2.6341      0.0361      0.9619     24.6482     85.9028
   574.6000      8.1424      2.6605      0.0663     -0.6382     24.4252     82.9711
   574.7000      8.1424      2.6794      0.1320     -1.7800     24.0991     86.8744
   574.8000      8.1438      2.6644      0.0956     -0.8705     24.0929     90.5710
   574.9000      8.1438      2.6245      0.0325      1.5445     24.3581     88.1359
   575.0000      8.1409      2.5974      0.0038      3.1857     24.3915     82.5257
   575.1000      8.1409      2.6001      0.0240      3.0220     24.1523     80.1563
   575.2000      8.1409      2.6121      0.0501      2.2978     23.8682     82.7802
   575.3000      8.1367      2.6143      0.0142      2.1612     23.5981     87.3842
   575.4000      8.1367      2.6151      0.0306      2.1170     23.6610     90.2993
   575.5000      8.1346      2.6308      0.0054      1.1661     24.1888     89.1459
   575.6000      8.1346      2.6565      0.0567     -0.3920     24.8106     84.9396
   575.7000      8.1346      2.6690      0.0508     -1.1541     25.2789     80.0755
   575.8000      8.1348      2.6625      0.0233     -0.7595     25.4102     75.6360
   575.9000      8.1348      2.6499      0.0661      0.0089     25.1540     72.1686
   576.0000      8.1378      2.6402      0.0286      0.5946     24.9949     70.9885
   576.1000      8.1378      2.6380      0.0364      0.7297     25.1643     73.0408
   576.2000      8.1378      2.6445      0.0076      0.3341     25.1795     77.0977
   576.3000      8.1435      2.6568      0.0445     -0.4096     24.7962     80.8101
   576.4000      8.1435      2.6647      0.0453     -0.8931     24.4269     82.3969
   576.5000      8.1472      2.6607      0.0387     -0.6458     24.4453     81.4548
   576.6000      8.1472      2.6456      0.0423      0.2660     24.8213     80.0577
   576.7000      8.1472      2.6229      0.0141      1.6447     25.5702     80.0251
   576.8000      8.1467      2.5910      0.0315      3.5743     26.6918     80.0179
   576.9000      8.1467      2.5528     -0.0143      5.8881     27.7910     79.2373
   577.0000      8.1443      2.5266      0.0008      7.4759     28.4695     79.9073
   577.1000      8.1443      2.5294     -0.0083      7.3076     28.9325     83.9044
   577.2000      8.1443      2.5568      0.0104      5.6505     29.5869     89.6028
   577.3000      8.1451      2.5809      0.0419      4.1883     30.2690     92.7967
   577.4000      8.1451      2.5835      0.0338      4.0316     30.5768     93.4618
   577.5000      8.1505      2.5810      0.0310      4.1832     30.4498     96.3539
   577.6000      8.1505      2.5839      0.0735      4.0031     30.2080    102.4553
   577.7000      8.1505      2.5705      0.1097      4.8196     30.0106    109.5964
   577.8000      8.1597      2.5405     -0.0017      6.6350     29.7160    117.5918
   577.9000      8.1597      2.5315      0.0606      7.1832     29.0969    123.6292
   578.0000      8.1680      2.5479      0.1361      6.1888     28.1784    123.5613
   578.1000      8.1680      2.5539      0.1477      5.8265     27.1727    120.4787
   578.2000      8.1680      2.5305      0.0892      7.2407     26.4150    121.8923
   578.3000      8.1716      2.4944      0.0229      9.4330     26.1363    127.8217
   578.4000      8.1716      2.4723      0.0170     10.7721     25.9877    132.3554
   578.5000      8.1734      2.4755      0.0354     10.5733     25.6587    132.5948
   578.6000      8.1734      2.4989      0.0537      9.1597     25.3231    129.7835
   578.7000      8.1734      2.5310      0.0871      7.2096     24.9982    127.6300
   578.8000      8.1749      2.5563      0.1017      5.6802     24.6477    125.4326
   578.9000      8.1749      2.5673      0.0642      5.0100     24.4393    120.9901
   579.0000      8.1758      2.5723      0.1087      4.7102     24.1868    118.2442
   579.1000      8.1758      2.5802      0.0878      4.2313     23.8045    117.6413
   579.2000      8.1758      2.5944      0.1144      3.3687     23.7005    115.6994
   579.3000      8.1761      2.6141      0.0935      2.1731     24.1081    113.6870
   579.4000      8.1761      2.6403      0.1177      0.5887     24.8089    114.6476
   579.5000      8.1765      2.6728      0.1213     -1.3803     25.4878    116.7837
   579.6000      8.1765      2.7026      0.1476     -3.1896     26.1382    115.5485
   579.7000      8.1765      2.7159      0.0991     -3.9930     26.9623    111.4727
   579.8000      8.1821      2.7156      0.0857     -3.9744     27.8513    107.6848
   579.9000      8.1821      2.7176      0.0762     -4.0959     28.5862    106.3428
   580.0000      8.1999      2.7194      0.0844     -4.2059     29.4269    108.3262
   580.1000      8.1999      2.7035      0.0643     -3.2436     30.2821    112.9229
   580.2000      8.1999      2.6674      0.0406     -1.0522     30.5469    118.4625
   580.3000      8.2277      2.6281     -0.0394      1.3280     30.1876    121.8447
   580.4000      8.2277      2.6059     -0.0279      2.6724     29.7466    122.9807
   580.5000      8.2534      2.5993      0.0121      3.0706     29.5776    124.8815
   580.6000      8.2534      2.5904      0.0155      3.6102     29.5012    125.7793
   580.7000      8.2534      2.5756      0.0122      4.5074     29.3666    123.3241
   580.8000      8.2700      2.5681     -0.0033      4.9624     29.2989    120.2385
   580.9000      8.2700      2.5734      0.0058      4.6409     29.1700    120.2116
