~Version Information
 VERS.                                  2.0 : CWLS LAS VERSION
 WRAP.                                   NO : WRAPING MODE
 SWARE .                 MController 2.5.0J : SOFTWARE VERSION
~Well Information
 WELL.                        Rancher 12-35 : WELL
 COMP.        Pioneer Natural Resources Inc : COMPANY
 FLD.                      PURGATOIRE RIVER : FIELD
 LOC.                    SW/NW 35 T32S R67W : LOCATION
 DATE.                             10/11/04 : DATE(S) LOGGED
 SRVC.       BLANCO GEOLOGICAL SERVICES LLC : SERVICE COMPANY
 STAT.                             COLORADO : STATE
 CNTY.                           LAS ANIMAS : COUNTY
 CTRY.                                  USA : COUNTRY
 API.                       05-071-08179-00 : API NUMBER
 STRT.FT                             449.00 : START DEPTH
 STOP.FT                            2520.00 : STOP DEPTH
 STEP.FT                               1.00 : DEPTH INCREMENT
 NULL.                                -9999 : NULL VALUE
~Curve information
 DEPTH.FT                                   :
 ROP.MIN/FT                                 :
 GAS.UNITS                                  :
~ASCII Log data
       449.0     -9999.00          2.4 
       450.0        25.65          7.2 
       451.0         0.13          0.1 
       452.0         0.13          1.6 
       453.0         0.10          6.8 
       454.0         0.23          2.2 
       455.0         0.18          2.4 
       456.0         0.17          3.5 
       457.0         0.13          3.0 
       458.0         0.17          1.4 
       459.0         0.13          3.8 
       460.0         0.13          3.0 
       461.0         0.17          2.7 
       462.0         0.17         77.4 
       463.0         0.13        118.1 
       464.0         0.20         51.3 
       465.0         0.17         25.0 
       466.0         0.17         16.9 
       467.0         0.20         15.2 
       468.0         0.17         14.4 
       469.0         0.17         14.3 
       470.0         0.17         14.0 
       471.0         0.20         14.5 
       472.0         0.13         13.7 
       473.0         0.13         14.0 
       474.0         0.17         14.2 
       475.0         0.17         13.7 
       476.0         0.18         13.9 
       477.0         0.17         13.7 
       478.0         0.17         13.8 
       479.0         0.17         13.9 
       480.0         0.13         19.2 
       481.0         0.13         21.6 
       482.0         0.20         23.0 
       483.0         0.20         29.5 
       484.0         0.17         40.1 
       485.0         0.17         45.1 
       486.0         0.17         40.7 
       487.0         0.20         31.7 
       488.0         0.20         24.1 
       489.0         0.27         18.8 
       490.0         0.23         17.8 
       491.0         0.20         19.2 
       492.0         0.17         20.4 
       493.0         0.23         22.9 
       494.0         0.17         22.6 
       495.0         0.13         22.8 
       496.0         0.10         22.7 
       497.0         0.17         22.1 
       498.0         0.18         22.1 
       499.0         0.23         22.3 
       500.0         0.20         21.3 
       501.0         0.17         22.2 
       502.0         0.17         27.6 
       503.0         0.17         39.7 
       504.0         0.17         54.5 
       505.0         0.27         69.8 
       506.0         0.20         73.2 
       507.0         0.23         72.2 
       508.0         0.20         70.8 
       509.0         0.20         70.1 
       510.0         0.27        290.4 
       511.0         0.10        394.0 
       512.0         0.17       1097.8 
       513.0         0.27        877.8 
       514.0         0.23        593.1 
       515.0         0.30        440.0 
       516.0         0.32        127.6 
       517.0         0.23        111.1 
       518.0         0.20        101.1 
       519.0         0.20         97.1 
       520.0         0.17         96.9 
       521.0         0.17         96.6 
       522.0         0.20         95.4 
       523.0         0.13         94.6 
       524.0         0.20         93.6 
       525.0         0.13         92.5 
       526.0         0.17         90.8 
       527.0         0.17         89.2 
       528.0         0.17         87.8 
       529.0         0.17         86.6 
       530.0         0.17         85.7 
       531.0         0.17         85.1 
       532.0         0.17         84.5 
       533.0         0.17         84.1 
       534.0         0.17         83.9 
       535.0         0.18         83.9 
       536.0         0.13         83.8 
       537.0         0.17         83.6 
       538.0         0.20         83.5 
       539.0         0.17         83.3 
       540.0         0.27       1740.7 
       541.0         0.23       1341.1 
       542.0         0.20        962.7 
       543.0         0.13        760.6 
       544.0         0.10        646.0 
       545.0         0.13        532.8 
       546.0         0.13        447.6 
       547.0         0.27        138.8 
       548.0         0.17        119.1 
       549.0         0.17        105.7 
       550.0         0.17         96.6 
       551.0         0.13         92.3 
       552.0         0.18         89.7 
       553.0         0.13         88.5 
       554.0         0.13         87.0 
       555.0         0.17         83.9 
       556.0         0.20         79.9 
       557.0         0.20         79.2 
       558.0         0.17         81.1 
       559.0         0.13         83.0 
       560.0         0.13         84.6 
       561.0         0.10         85.5 
       562.0         0.13         85.9 
       563.0         0.13         85.8 
       564.0         0.13         85.2 
       565.0         0.10         84.7 
       566.0         0.13         83.9 
       567.0         0.10         83.4 
       568.0         0.13         82.6 
       569.0         0.17         81.4 
       570.0         2.75        288.5 
       571.0         0.23        367.5 
       572.0         0.17        321.5 
       573.0         0.17        225.3 
       574.0         0.20       1376.8 
       575.0         0.20       1709.3 
       576.0         0.13       1653.7 
       577.0         0.20       1265.9 
       578.0         0.17        916.2 
       579.0         0.22        629.9 
       580.0         0.17        492.4 
       581.0         0.17        440.0 
       582.0         0.17        440.0 
       583.0         0.17        120.5 
       584.0         0.13        110.8 
       585.0         0.13        104.0 
       586.0         0.10        100.2 
       587.0         0.17         95.8 
       588.0         0.10         93.5 
       589.0         0.17         62.3 
       590.0         0.20         20.6 
       591.0         0.17         14.4 
       592.0         0.20         55.4 
       593.0         0.23         79.5 
       594.0         0.27         84.1 
       595.0         0.20         84.1 
       596.0         0.20         83.3 
       597.0         0.20         81.5 
       598.0         0.28         80.0 
       599.0         0.27         81.7 
       600.0         2.83        255.1 
       601.0         0.18        316.1 
       602.0         0.27        448.3 
       603.0         0.23       1762.9 
       604.0         0.23       2113.3 
       605.0         0.20       1880.8 
       606.0         0.23       1297.3 
       607.0         0.20        910.8 
       608.0         0.23        665.9 
       609.0         0.27        518.3 
       610.0         0.20        441.2 
       611.0         0.17        440.0 
       612.0         0.20        138.0 
       613.0         0.20        125.0 
       614.0         0.20        116.7 
       615.0         0.33        108.2 
       616.0         0.35        105.3 
       617.0         0.27        105.4 
       618.0         0.17        105.6 
       619.0         0.20        105.3 
       620.0         0.17        104.1 
       621.0         0.20        101.2 
       622.0         0.17         98.6 
       623.0         0.10         97.6 
       624.0         0.10         97.4 
       625.0         0.13         98.8 
       626.0         0.17        102.1 
       627.0         0.13        104.9 
       628.0         0.20        107.7 
       629.0         0.17        108.1 
       630.0         3.18        305.3 
       631.0         0.23        388.9 
       632.0         0.10        424.0 
       633.0         0.27       1456.3 
       634.0         0.30       2308.7 
       635.0         0.18       2403.0 
       636.0         0.10       2254.8 
       637.0         0.13       1853.5 
       638.0         0.13       1429.4 
       639.0         0.17       1022.0 
       640.0         0.13        804.7 
       641.0         0.13        665.9 
       642.0         0.20        535.9 
       643.0         0.17        464.8 
       644.0         0.17        440.0 
       645.0         0.17        440.0 
       646.0         0.13        138.9 
       647.0         0.23        126.7 
       648.0         0.17        120.2 
