~Version Information
VERS.                      2.0: CWLS Log ASCII Standard - VERSION 2.0
WRAP.                       NO: One line per depth step
~Well Information Block
STRT.FT               780.0000: 
STOP.FT              3152.2500: 
STEP.FT                 0.2500: 
NULL.                -999.2500: 
COMP.          Pioneer Natural Resources: COMPANY
WELL.            Paradise 13-8: WELL
FLD.           Purgatoire River: FIELD
LOC.           1896' FSL & 1120' FWL: LOCATION
PROV.                 Colorado: PROVINCE
CNTY.               Las Animas: COUNTRY
SRVC.                Patterson: SERVICE COMPANY
DATE.          Sat Jan 22 20:39:47 2005: LOG DATE
UWI.           05 071 07946 00: UNIQUE WELL ID
~Curve Information Block
DEPT.FT            0 000 00 00: Depth
SN.Ohm-m                      : IEL Short Normal
SP.mV                         : IEL Spontaneous Potential
DIR.Ohm-m                     : IEL Induction Resistivity
GR.GAPI                       : Gamma Ray
~Parameter Information Block
~A  Depth        SN          SP         DIR          GR     
# ...
  2823.5000     24.6727    -14.3425     19.2496    124.8951
  2823.7500     24.5892    -14.0940     18.7477    127.1475
  2824.0000     24.6517    -14.2644     18.3061    128.7245
  2824.2500     24.8360    -14.9399     17.9820    128.5654
  2824.5000     25.0991    -16.2050     17.8117    127.1341
  2824.7500     25.4006    -18.1323     17.8076    125.6903
  2825.0000     25.7153    -20.7589     17.9652    122.3537
  2825.2500     26.0318    -24.0524     18.2734    118.5939
  2825.5000     26.3434    -27.8782     18.7228    109.5139
  2825.7500     26.6432    -31.9835     19.3042    101.1223
  2826.0000     26.9286    -36.0108     19.9953     86.3728
  2826.2500     27.2123    -39.5481     20.7414     76.5459
  2826.5000     27.5351    -42.2062     21.4467     64.6889
  2826.7500     27.9587    -43.6980     21.9909     60.1204
  2827.0000     28.5192    -43.8923     22.2720     59.5094
  2827.2500     29.1526    -42.8222     22.2457     63.0322
  2827.5000     29.6581    -40.6529     21.9323     72.2944
  2827.7500     29.7543    -37.6284     21.3871     79.6885
  2828.0000     29.2081    -34.0215     20.6667     90.8892
  2828.2500     27.9552    -30.1006     19.8165     97.9797
  2828.5000     26.1421    -26.1122     18.8769    107.4926
  2828.7500     24.0734    -22.2691     17.8936    112.6781
  2829.0000     22.0982    -18.7385     16.9191    118.3702
  2829.2500     20.4980    -15.6300     16.0061    121.0807
  2829.5000     19.4223    -12.9918     15.1977    124.6524
  2829.7500     18.8801    -10.8176     14.5196    127.1893
  2830.0000     18.7669     -9.0653     13.9784    131.1406
  2830.2500     18.9157     -7.6796     13.5652    133.4361
  2830.5000     19.1608     -6.6126     13.2642    135.6061
  2830.7500     19.3892     -5.8370     13.0604    135.9128
  2831.0000     19.5536     -5.3507     12.9446    134.5305
  2831.2500     19.6584     -5.1714     12.9151    132.5926
  2831.5000     19.7397     -5.3243     12.9773    129.0501
  2831.7500     19.8484     -5.8262     13.1400    126.9356
  2832.0000     20.0297     -6.6697     13.4093    124.9686
  2832.2500     20.3066     -7.8139     13.7829    124.4453
  2832.5000     20.6733     -9.1809     14.2453    123.9167
  2832.7500     21.0956    -10.6624     14.7684    123.0795
  2833.0000     21.5214    -12.1348     15.3148    120.7687
  2833.2500     21.9020    -13.4826     15.8438    118.9102
  2833.5000     22.2147    -14.6249     16.3169    116.5147
  2833.7500     22.4738    -15.5385     16.7027    115.4090
  2834.0000     22.7207    -16.2658     16.9829    114.4910
  2834.2500     22.9977    -16.9015     17.1587    114.3429
  2834.5000     23.3178    -17.5590     17.2523    114.7531
  2834.7500     23.6442    -18.3301     17.3009    115.4536
  2835.0000     23.8884    -19.2515     17.3455    117.3715
  2835.2500     23.9275    -20.2895     17.4171    119.1863
  2835.5000     23.6424    -21.3438     17.5252    121.4277
  2835.7500     22.9699    -22.2629     17.6533    121.3008
  2836.0000     21.9508    -22.8673     17.7632    117.3433
  2836.2500     20.7442    -22.9761     17.8108    112.7569
  2836.5000     19.5868    -22.4407     17.7645    105.7249
  2836.7500     18.7046    -21.1797     17.6169    102.6110
  2837.0000     18.2158    -19.2088     17.3819    101.9300
  2837.2500     18.0835    -16.6490     17.0803    104.1505
  2837.5000     18.1533    -13.7105     16.7254    109.9181
  2837.7500     18.2560    -10.6532     16.3200    113.8817
  2838.0000     18.2959     -7.7371     15.8662    117.9433
  2838.2500     18.2640     -5.1795     15.3784    119.1826
  2838.5000     18.1970     -3.1275     14.8878    119.8955
  2838.7500     18.1367     -1.6523     14.4359    120.2704
  2839.0000     18.1144     -0.7605     14.0622    120.6715
  2839.2500     18.1475     -0.4165     13.7968    120.1588
  2839.5000     18.2416     -0.5653     13.6578    117.1921
  2839.7500     18.4020     -1.1497     13.6550    113.9043
  2840.0000     18.6470     -2.1174     13.7940    108.3927
  2840.2500     19.0118     -3.4188     14.0804    105.0509
  2840.5000     19.5361     -5.0001     14.5213    100.5913
  2840.7500     20.2421     -6.7944     15.1238     97.4391
  2841.0000     21.1167     -8.7157     15.8899     91.5833
  2841.2500     22.1084    -10.6579     16.8077     86.9703
  2841.5000     23.1411    -12.5002     17.8405     79.9630
  2841.7500     24.1402    -14.1205     18.9212     75.9224
  2842.0000     25.0512    -15.4141     19.9606     71.5423
  2842.2500     25.8398    -16.3141     20.8726     69.8318
  2842.5000     26.4810    -16.8069     21.5991     68.7141
  2842.7500     26.9530    -16.9347     22.1134     68.4595
  2843.0000     27.2438    -16.7842     22.4099     67.9093
  2843.2500     27.3613    -16.4638     22.5015     67.2183
  2843.5000     27.3366    -16.0768     22.4305     66.1753
  2843.7500     27.2162    -15.7005     22.2689     65.9773
  2844.0000     27.0490    -15.3775     22.0964     66.8339
  2844.2500     26.8743    -15.1196     21.9682     67.8304
  2844.5000     26.7161    -14.9220     21.9001     68.5842
  2844.7500     26.5848    -14.7800     21.8779     67.9786
  2845.0000     26.4838    -14.6997     21.8802     65.9719
  2845.2500     26.4179    -14.7003     21.8980     65.0060
  2845.5000     26.3961    -14.8060     21.9381     65.4060
  2845.7500     26.4238    -15.0343     22.0115     66.5124
  2846.0000     26.4894    -15.3846     22.1212     67.4697
  2846.2500     26.5606    -15.8332     22.2592     66.8978
  2846.5000     26.5968    -16.3348     22.4100     64.8889
  2846.7500     26.5716    -16.8297     22.5501     63.8050
  2847.0000     26.4863    -17.2561     22.6441     63.5958
  2847.2500     26.3653    -17.5617     22.6508     64.2752
  2847.5000     26.2376    -17.7156     22.5457     65.9171
  2847.7500     26.1201    -17.7141     22.3445     67.2819
  2848.0000     26.0117    -17.5828     22.1017     69.7112
  2848.2500     25.9018    -17.3724     21.8829     71.4050
  2848.5000     25.7828    -17.1516     21.7345     73.3452
  2848.7500     25.6593    -16.9991     21.6682     73.9149
  2849.0000     25.5505    -16.9962     21.6680     73.9128
  2849.2500     25.4867    -17.2211     21.7069     73.8627
  2849.5000     25.5042    -17.7439     21.7652     74.4215
  2849.7500     25.6379    -18.6213     21.8357     75.0776
  2850.0000     25.9095    -19.8894     21.9174     75.3143
  2850.2500     26.3153    -21.5552     22.0082     74.2581
  2850.5000     26.8223    -23.5879     22.1078     70.6558
  2850.7500     27.3783    -25.9114     22.2257     67.4590
  2851.0000     27.9315    -28.4039     22.3804     62.7760
  2851.2500     28.4512    -30.9052     22.5865     60.2768
  2851.5000     28.9386    -33.2351     22.8439     57.6808
  2851.7500     29.4178    -35.2173     23.1392     56.3897
  2852.0000     29.9108    -36.7064     23.4542     54.2017
  2852.2500     30.4122    -37.6115     23.7718     52.3861
  2852.5000     30.8787    -37.9096     24.0753     50.0425
  2852.7500     31.2405    -37.6462     24.3426     49.6492
  2853.0000     31.4298    -36.9229     24.5431     51.6141
  2853.2500     31.4140    -35.8743     24.6431     54.2065
  2853.5000     31.2150    -34.6425     24.6288     58.3650
  2853.7500     30.9021    -33.3561     24.5337     60.5101
  2854.0000     30.5624    -32.1193     24.4399     62.4240
  2854.2500     30.2687    -31.0115     24.4358     63.0830
  2854.5000     30.0681    -30.0955     24.5537     63.6912
  2854.7500     29.9885    -29.4276     24.7320     64.0218
  2855.0000     30.0515    -29.0691     24.8379     64.5841
  2855.2500     30.2794    -29.0938     24.7562     65.1708
  2855.5000     30.6917    -29.5909     24.4798     66.5719
  2855.7500     31.2961    -30.6600     24.1171     67.6692
  2856.0000     32.0778    -32.3975     23.8182     68.7337
  2856.2500     32.9970    -34.8735     23.7024     68.6410
  2856.5000     33.9946    -38.1003     23.8334     67.1768
  2856.7500     34.9996    -41.9971     24.2263     65.4084
