~Version Information
VERS.                      2.0: CWLS Log ASCII Standard - VERSION 2.0
WRAP.                       NO: One line per depth step
~Well Information Block
STRT.FT               -17.7500: 
STOP.FT              1590.5000: 
STEP.FT                 0.2500: 
NULL.                -999.2500: 
COMP.          Petrogulf Corporation: COMPANY
WELL.          Great Plains 22-21V: WELL
FLD.           Purgatorie River: FIELD
LOC.           63' FNL & 1895' FWL--: LOCATION
CNTY.               Las Animas: COUNTY
SRVC.          Superior Well Services: SERVICE COMPANY
DATE.          Fri Dec 08 14:45:19 2006: LOG DATE
UWI.           05 071 08346 00: UNIQUE WELL ID
STAT.                       CO: STATE
~Curve Information Block
DEPT.FT            0 000 00 00: Depth
CCL.                          : Casing Collar Locator
TT3.usec                      : CBL 3' Travel Time
AMP3.mV                       : CBL 3' Amplitude
GR.GAPI                       : Gamma Ray
~Parameter Information Block
~A  Depth       CCL         TT3         AMP3         GR     
   -17.7500   -999.2500   -999.2500   -999.2500     77.5649
   -17.5000   -999.2500   -999.2500   -999.2500     81.2391
   -17.2500   -999.2500   -999.2500   -999.2500     82.3265
   -17.0000   -999.2500   -999.2500   -999.2500     80.7518
   -16.7500   -999.2500   -999.2500   -999.2500     77.6517
   -16.5000   -999.2500   -999.2500   -999.2500     74.5531
   -16.2500   -999.2500   -999.2500   -999.2500     72.4126
   -16.0000   -999.2500   -999.2500   -999.2500     71.5281
   -15.7500   -999.2500   -999.2500   -999.2500     71.8850
   -15.5000   -999.2500   -999.2500   -999.2500     73.0622
   -15.2500   -999.2500   -999.2500   -999.2500     74.0228
   -15.0000   -999.2500   -999.2500   -999.2500     73.5724
   -14.7500   -999.2500   -999.2500   -999.2500     71.2735
   -14.5000   -999.2500   -999.2500   -999.2500     67.7742
   -14.2500   -999.2500   -999.2500   -999.2500     64.1932
   -14.0000   -999.2500   -999.2500   -999.2500     61.2923
   -13.7500   -999.2500   -999.2500   -999.2500     59.3515
   -13.5000   -999.2500   -999.2500   -999.2500     58.6346
   -13.2500   -999.2500   -999.2500   -999.2500     59.4896
   -13.0000   -999.2500   1152.0000      2.6629     61.7270
   -12.7500   -999.2500   1152.0000      2.6765     64.3008
   -12.5000   -999.2500   1152.0000      2.6882     66.1690
   -12.2500   -999.2500   1152.0000      2.6973     67.3668
   -12.0000   -999.2500   1152.0000      2.7051     68.6664
   -11.7500   -999.2500   1152.0000      2.7110     70.0765
   -11.5000   -999.2500   1152.0000      2.7120     70.3950
   -11.2500   -999.2500   1152.0000      2.7059     68.6566
   -11.0000   -999.2500   1152.0000      2.6951     65.5293
   -10.7500   -999.2500   1152.0000      2.6855     62.7974
   -10.5000   -999.2500   1152.0000      2.6813     61.7322
   -10.2500   -999.2500   1152.0000      2.6815     62.3603
   -10.0000   -999.2500   1152.0000      2.6826     64.0989
    -9.7500   -999.2500   1152.0000      2.6823     66.4478
    -9.5000   -999.2500   1152.0000      2.6791     68.9127
    -9.2500   -999.2500   1152.0000      2.6710     70.8548
    -9.0000   -999.2500   1152.0000      2.6576     71.8038
    -8.7500   -999.2500   1152.0000      2.6418     71.6725
    -8.5000   -999.2500   1152.0000      2.6292     70.5586
    -8.2500   -999.2500   1152.0000      2.6247     68.6627
    -8.0000   -999.2500   1152.0000      2.6305     66.4360
    -7.7500   -999.2500   1152.0000      2.6447     64.4806
    -7.5000      0.0000   1152.0000      2.6609     63.2293
    -7.2500      0.0000   1152.0000      2.6704     62.7273
    -7.0000      0.0000   1152.0000      2.6674     62.5787
    -6.7500      0.0000   1152.0000      2.6528     62.1003
    -6.5000      0.0000   1152.0000      2.6333     60.7091
    -6.2500      0.0000   1152.0000      2.6158     58.1087
    -6.0000      2.0000   1152.0000      2.6043     54.0853
    -5.7500     -2.0000   1152.0000      2.6010     48.4684
    -5.5000      2.0000   1152.0000      2.6077     41.5743
    -5.2500      0.0000   1152.0000      2.6233     34.4228
    -5.0000      0.0000   1152.0000      2.6419     28.1974
    -4.7500      0.0000   1152.0000      2.6560     23.5696
    -4.5000     -2.0000   1152.0000      2.6624     20.5952
    -4.2500      0.0000   1152.0000      2.6641     19.1022
    -4.0000      2.0000   1152.0000      2.6669     19.0180
    -3.7500      0.0000   1152.0000      2.6735     20.2620
    -3.5000      0.0000   1152.0000      2.6809     22.4065
    -3.2500     -2.0000   1152.0000      2.6836     24.6171
    -3.0000      0.0000   1152.0000      2.6806     26.0589
    -2.7500      0.0000   1151.9403      2.6805     26.4268
    -2.5000     -2.0000   1151.5510      2.7041     26.1372
    -2.2500      0.0000   1149.5742      2.8130     26.0480
    -2.0000      0.0000   1141.7561      3.2124     27.0262
    -1.7500      0.0000   1117.6750      4.4436     29.6959
    -1.5000      0.0000   1059.9102      7.4964     34.2948
    -1.2500      0.0000    951.9968     13.4796     40.5222
    -1.0000      0.0000    794.9947     22.7334     47.6296
    -0.7500      0.0000    617.1046     34.0978     54.7138
    -0.5000     -2.0000    460.1380     45.3426     60.8061
    -0.2500      0.0000    352.2815     54.6125     64.9873
     0.0000      0.0000    294.5836     61.4772     67.0883
     0.2500      2.0000    262.8616     71.0122     70.8464
     0.5000      0.0000    260.9942     74.8161     75.5635
     0.7500      0.0000    260.7065     77.8594     81.6605
     1.0000      0.0000    260.7226     79.9217     87.3062
     1.2500      0.0000    260.7686     81.0996     91.3864
     1.5000      0.0000    260.7918     81.7301     94.2022
     1.7500      0.0000    260.8008     82.1211     96.6313
     2.0000      0.0000    260.8005     82.4071     98.7617
     2.2500      0.0000    260.7932     82.6021     99.6410
     2.5000      0.0000    260.7822     82.7167     98.5646
     2.7500      0.0000    260.7708     82.8018     96.2153
     3.0000      0.0000    260.7605     82.9099     93.9985
     3.2500      0.0000    260.7506     83.0508     92.5036
     3.5000      0.0000    260.7398     83.1962     91.1308
     3.7500     -2.0000    260.7275     83.3124     89.0057
     4.0000      0.0000    260.7151     83.3855     85.7426
     4.2500      0.0000    260.7055     83.4231     81.5233
     4.5000      0.0000    260.7010     83.4391     76.9097
     4.7500      0.0000    260.7007     83.4350     72.4166
     5.0000      0.0000    260.7006     83.3973     67.9417
     5.2500      0.0000    260.6949     83.3059     62.7997
     5.5000      0.0000    260.6803     83.1399     56.5758
     5.7500      0.0000    260.6577     82.8815     49.8669
     6.0000      0.0000    260.6304     82.5262     44.0299
     6.2500      0.0000    260.6013     82.0917     40.2715
     6.5000      0.0000    260.5721     81.6146     39.0397
     6.7500      0.0000    260.5457     81.1385     40.1630
     7.0000      0.0000    260.5276     80.7048     43.3299
     7.2500      0.0000    260.5221     80.3448     48.3024
     7.5000      0.0000    260.5293     80.0757     54.6419
     7.7500      0.0000    260.5452     79.9067     61.3455
     8.0000      0.0000    260.5648     79.8482     66.9824
     8.2500      0.0000    260.5847     79.9086     70.4191
     8.5000      0.0000    260.6037     80.0798     71.5046
     8.7500      0.0000    260.6210     80.3348     71.1304
     9.0000      0.0000    260.6359     80.6406     70.7079
     9.2500      0.0000    260.6474     80.9666     71.4355
     9.5000      0.0000    260.6549     81.2837     73.7447
     9.7500      0.0000    260.6589     81.5714     77.2517
    10.0000      0.0000    260.6609     81.8323     81.0379
    10.2500      0.0000    260.6628     82.0895     84.0518
    10.5000      0.0000    260.6668     82.3647     85.7811
    10.7500      0.0000    260.6742     82.6598     86.7712
    11.0000      0.0000    260.6852     82.9633     87.9993
    11.2500      0.0000    260.6996     83.2723     89.6808
    11.5000      0.0000    260.7161     83.5986     91.2914
    11.7500      0.0000    260.7327     83.9433     92.7502
    12.0000      0.0000    260.7475     84.2771     94.6509
    12.2500      0.0000    260.7591     84.5603     96.9250
    12.5000      0.0000    260.7661     84.7748     97.9767
    12.7500      0.0000    260.7665     84.9240     95.8662
    13.0000      0.0000    260.7581     85.0100     90.2868
    13.2500      0.0000    260.7387     85.0228     82.9214
    13.5000      0.0000    260.7063     84.9456     75.7827
    13.7500      0.0000    260.6605     84.7660     69.5748
    14.0000      0.0000    260.6035     84.4864     63.7776
    14.2500      0.0000    260.5407     84.1323     57.8271
    14.5000      0.0000    260.4796     83.7508     51.8895
    14.7500      0.0000    260.4262     83.3946     46.8475
    15.0000      0.0000    260.3832     83.0978     43.7099
    15.2500      0.0000    260.3488     82.8569     42.7058
    15.5000      0.0000    260.3205     82.6434     42.8785
