~Version Information
VERS.                      2.0: CWLS Log ASCII Standard - VERSION 2.0
WRAP.                       NO: One line per depth step
~Well Information Block
STRT.FT               660.8000: 
STOP.FT              2375.1000: 
STEP.FT                 0.1000: 
NULL.                -999.2500: 
COMP.          Petrogulf Corporation: COMPANY
WELL.             State 16-34V: WELL
FLD.           Purgatorie River: FIELD
LOC.           1146' FSL & 1393' FEL: LOCATION
CNTY.               Las Animas: COUNTY
SRVC.                         : SERVICE COMPANY
DATE.          Sat Jun 07 20:51:20 2003: LOG DATE
UWI.           05 071 07724 00: UNIQUE WELL ID
STAT.                 Colorado: STATE
~Curve Information Block
DEPT.FT            0 000 00 00: Depth
DCAL.in                       : Caliper from Density Tool
RHOB.g/cc                     : Bulk Density
RHOC.g/cc                     : Density Correction
DPOR.pu                       : Density Porosity
GR.GAPI                       : Gamma Ray
NPOR.pu                       : Neutron Porosity
~Parameter Information Block
~A  Depth       DCAL        RHOB        RHOC        DPOR         GR         NPOR    
# ...
  2139.2000      7.8435      2.2926      0.1173     21.6589     94.0632     14.0521
  2139.3000      7.8434      2.2124      0.1162     26.5205     94.1111     13.5763
  2139.4000      7.8434      2.2124      0.1162     26.5205     94.1603     13.2340
  2139.5000      7.8173      2.1676      0.1101     29.2356     94.2123     13.0420
  2139.6000      7.8173      2.1676      0.1101     29.2356     94.2765     13.0086
  2139.7000      7.8173      2.1676      0.1101     29.2356     94.3688     13.1328
  2139.8000      7.7945      2.1242      0.0958     31.8638     94.5120     13.4042
  2139.9000      7.7945      2.1242      0.0958     31.8638     94.7292     13.8032
  2140.0000      7.8243      2.1152      0.0859     32.4107     95.0401     14.3031
  2140.1000      7.8243      2.1152      0.0859     32.4107     95.4549     14.8721
  2140.2000      7.8243      2.1152      0.0859     32.4107     95.9730     15.4764
  2140.3000      7.8230      2.1321      0.0756     31.3875     96.5807     16.0834
  2140.4000      7.8230      2.1321      0.0756     31.3875     97.2531     16.6653
  2140.5000      7.7671      2.1597      0.0732     29.7127     97.9590     17.2014
  2140.6000      7.7671      2.1597      0.0732     29.7127     98.6650     17.6807
  2140.7000      7.7671      2.1597      0.0732     29.7127     99.3404     18.1023
  2140.8000      7.7239      2.2139      0.0748     26.4311     99.9614     18.4738
  2140.9000      7.7239      2.2139      0.0748     26.4311    100.5117     18.8087
  2141.0000      7.7003      2.2514      0.0769     24.1598    100.9832     19.1232
  2141.1000      7.7003      2.2514      0.0769     24.1598    101.3718     19.4327
  2141.2000      7.7003      2.2514      0.0769     24.1598    101.6767     19.7491
  2141.3000      7.7144      2.3022      0.0771     21.0793    101.8993     20.0791
  2141.4000      7.7144      2.3022      0.0771     21.0793    102.0426     20.4244
  2141.5000      7.7545      2.3314      0.0737     19.3111    102.1139     20.7813
  2141.6000      7.7545      2.3314      0.0737     19.3111    102.1269     21.1431
  2141.7000      7.7545      2.3314      0.0737     19.3111    102.1016     21.5016
  2141.8000      7.7880      2.3691      0.0636     17.0269    102.0663     21.8488
  2141.9000      7.7880      2.3691      0.0636     17.0269    102.0554     22.1782
  2142.0000      7.8078      2.3909      0.0548     15.7056    102.1058     22.4854
  2142.1000      7.8078      2.3909      0.0548     15.7056    102.2520     22.7680
  2142.2000      7.8078      2.3909      0.0548     15.7056    102.5221     23.0250
  2142.3000      7.7627      2.4189      0.0415     14.0045    102.9306     23.2563
  2142.4000      7.7627      2.4189      0.0415     14.0045    103.4788     23.4617
  2142.5000      7.7157      2.4345      0.0343     13.0607    104.1497     23.6410
  2142.6000      7.7157      2.4345      0.0343     13.0607    104.9086     23.7945
  2142.7000      7.7157      2.4345      0.0343     13.0607    105.7060     23.9223
  2142.8000      7.7229      2.4536      0.0279     11.9039    106.4810     24.0263
  2142.9000      7.7229      2.4536      0.0279     11.9039    107.1671     24.1100
  2143.0000      7.7804      2.4642      0.0272     11.2585    107.7008     24.1789
  2143.1000      7.7804      2.4642      0.0272     11.2585    108.0286     24.2408
  2143.2000      7.7804      2.4642      0.0272     11.2585    108.1157     24.3053
  2143.3000      7.8167      2.4791      0.0315     10.3601    107.9501     24.3829
  2143.4000      7.8167      2.4791      0.0315     10.3601    107.5446     24.4837
  2143.5000      7.7841      2.4893      0.0377      9.7373    106.9338     24.6164
  2143.6000      7.7841      2.4893      0.0377      9.7373    106.1675     24.7863
  2143.7000      7.7841      2.4893      0.0377      9.7373    105.3016     24.9946
  2143.8000      7.7389      2.5064      0.0507      8.7024    104.3905     25.2372
  2143.9000      7.7389      2.5064      0.0507      8.7024    103.4786     25.5043
  2144.0000      7.7068      2.5184      0.0611      7.9737    102.5975     25.7813
  2144.1000      7.7068      2.5184      0.0611      7.9737    101.7642     26.0496
  2144.2000      7.7068      2.5184      0.0611      7.9737    100.9860     26.2890
  2144.3000      7.7026      2.5343      0.0769      7.0113    100.2616     26.4796
  2144.4000      7.7026      2.5343      0.0769      7.0113     99.5891     26.6044
  2144.5000      7.7170      2.5409      0.0862      6.6100     98.9686     26.6511
  2144.6000      7.7170      2.5409      0.0862      6.6100     98.4053     26.6132
  2144.7000      7.7170      2.5409      0.0862      6.6100     97.9103     26.4905
  2144.8000      7.7401      2.5417      0.0972      6.5642     97.4991     26.2885
  2144.9000      7.7401      2.5417      0.0972      6.5642     97.1923     26.0177
  2145.0000      7.7854      2.5358      0.1031      6.9228     97.0133     25.6917
  2145.1000      7.7854      2.5358      0.1031      6.9228     96.9866     25.3253
  2145.2000      7.7854      2.5358      0.1031      6.9228     97.1366     24.9336
  2145.3000      7.8158      2.5191      0.1107      7.9322     97.4857     24.5296
  2145.4000      7.8158      2.5191      0.1107      7.9322     98.0494     24.1239
  2145.5000      7.7900      2.5044      0.1148      8.8261     98.8345     23.7239
  2145.6000      7.7900      2.5044      0.1148      8.8261     99.8348     23.3337
  2145.7000      7.7900      2.5044      0.1148      8.8261    101.0281     22.9551
  2145.8000      7.7552      2.4793      0.1176     10.3467    102.3741     22.5880
  2145.9000      7.7552      2.4793      0.1176     10.3467    103.8170     22.2322
  2146.0000      7.7543      2.4622      0.1163     11.3816    105.2892     21.8880
  2146.1000      7.7543      2.4622      0.1163     11.3816    106.7185     21.5571
  2146.2000      7.7543      2.4622      0.1163     11.3816    108.0359     21.2427
  2146.3000      7.7785      2.4395      0.1100     12.7583    109.1853     20.9497
  2146.4000      7.7785      2.4395      0.1100     12.7583    110.1305     20.6833
  2146.5000      7.7925      2.4281      0.1043     13.4480    110.8579     20.4485
  2146.6000      7.7925      2.4281      0.1043     13.4480    111.3779     20.2493
  2146.7000      7.7925      2.4281      0.1043     13.4480    111.7194     20.0875
  2146.8000      7.7929      2.4178      0.0960     14.0714    111.9230     19.9628
  2146.9000      7.7929      2.4178      0.0960     14.0714    112.0327     19.8726
  2147.0000      7.7910      2.4147      0.0914     14.2605    112.0875     19.8125
  2147.1000      7.7910      2.4147      0.0914     14.2605    112.1159     19.7770
  2147.2000      7.7910      2.4147      0.0914     14.2605    112.1327     19.7603
  2147.3000      7.7935      2.4136      0.0861     14.3298    112.1397     19.7571
  2147.4000      7.7935      2.4136      0.0861     14.3298    112.1260     19.7637
  2147.5000      7.8030      2.4148      0.0840     14.2522    112.0731     19.7784
  2147.6000      7.8030      2.4148      0.0840     14.2522    111.9586     19.8018
  2147.7000      7.8030      2.4148      0.0840     14.2522    111.7602     19.8361
  2147.8000      7.8170      2.4212      0.0840     13.8658    111.4601     19.8854
  2147.9000      7.8170      2.4212      0.0840     13.8658    111.0477     19.9541
  2148.0000      7.8422      2.4291      0.0864     13.3859    110.5216     20.0455
  2148.1000      7.8422      2.4291      0.0864     13.3859    109.8948     20.1615
  2148.2000      7.8422      2.4291      0.0864     13.3859    109.1910     20.3012
  2148.3000      7.8173      2.4450      0.0927     12.4270    108.4443     20.4606
  2148.4000      7.8173      2.4450      0.0927     12.4270    107.6954     20.6328
  2148.5000      7.7704      2.4555      0.0972     11.7885    106.9862     20.8085
  2148.6000      7.7704      2.4555      0.0972     11.7885    106.3525     20.9775
  2148.7000      7.7704      2.4555      0.0972     11.7885    105.8187     21.1296
