~Version Information
VERS.                      2.0: CWLS Log ASCII Standard - VERSION 2.0
WRAP.                       NO: One line per depth step
~Well Information Block
STRT.FT               550.0000: 
STOP.FT              1577.7500: 
STEP.FT                 0.2500: 
NULL.                -999.2500: 
COMP.          Pioneer Natural Resources: COMPANY
WELL.          Kristin 22-23 Tr: WELL
FLD.           Purgatoire River: FIELD
LOC.           2273' FNL & 2029' FWL: LOCATION
PROV.                 Colorado: PROVINCE
CNTY.               Las Animas: COUNTRY
SRVC.                Patterson: SERVICE COMPANY
DATE.          Thu Jan 20 21:18:23 2005: LOG DATE
UWI.           05 071 08259 00: UNIQUE WELL ID
~Curve Information Block
DEPT.FT            0 000 00 00: Depth
SN.Ohm-m                      : IEL Short Normal
SP.mV                         : IEL Spontaneous Potential
DIR.Ohm-m                     : IEL Induction Resistivity
GR.GAPI                       : Gamma Ray
~Parameter Information Block
~A  Depth        SN          SP         DIR          GR     
# ...
   684.0000     74.0050   -319.1176     47.4778     67.0184
   684.2500     75.0285   -320.1810     48.0887     65.5644
   684.5000     76.0634   -322.6987     48.3780     64.5327
   684.7500     77.1184   -326.6121     48.4747     64.6545
   685.0000     78.1890   -331.2729     48.5640     65.6518
   685.2500     79.2684   -335.6057     48.7734     66.4928
   685.5000     80.3525   -338.5002     49.1089     67.4444
   685.7500     81.4368   -339.2389     49.4879     67.5777
   686.0000     82.5060   -337.7396     49.8308     66.5798
   686.2500     83.5265   -334.5048     50.1198     65.0490
   686.5000     84.4522   -330.3320     50.3737     61.9399
   686.7500     85.2342   -325.9590     50.5868     59.8593
   687.0000     85.8280   -321.8293     50.7127     57.6073
   687.2500     86.1978   -318.0682     50.7092     56.9412
   687.5000     86.3209   -314.6235     50.5801     56.9226
   687.7500     86.1880   -311.4390     50.3528     57.1301
   688.0000     85.7994   -308.5510     50.0211     57.3036
   688.2500     85.1567   -306.0698     49.5203     57.4428
   688.5000     84.2534   -304.1085     48.7755     58.0847
   688.7500     83.0684   -302.7290     47.7834     58.7965
   689.0000     81.5700   -301.9407     46.6528     59.9170
   689.2500     79.7344   -301.7457     45.5632     60.5523
   689.5000     77.5650   -302.1781     44.6754     61.4513
   689.7500     75.0917   -303.2927     44.0410     62.1739
   690.0000     72.3444   -305.1001     43.5525     63.7088
   690.2500     69.3259   -307.4855     42.9665     65.2319
   690.5000     66.0137   -310.1692     42.0149     68.6126
   690.7500     62.3902   -312.7582     40.5446     71.6104
   691.0000     58.4767   -314.8658     38.5765     76.8364
   691.2500     54.3569   -316.2437     36.2455     80.5434
   691.5000     50.1802   -316.8378     33.7110     86.2981
   691.7500     46.1317   -316.7474     31.1174     90.3862
   692.0000     42.3773   -316.1356     28.5959     97.1739
   692.2500     39.0140   -315.1549     26.2637    102.0832
   692.5000     36.0593   -313.9240     24.2067    109.2640
   692.7500     33.4748   -312.5425     22.4630    113.2227
   693.0000     31.1968   -311.1078     21.0227    116.8941
   693.2500     29.1588   -309.7150     19.8422    117.6887
   693.5000     27.3105   -308.4438     18.8672    117.0612
   693.7500     25.6360   -307.3466     18.0543    116.0682
   694.0000     24.1609   -306.4442     17.3836    114.6051
   694.2500     22.9433   -305.7291     16.8585    113.9247
   694.5000     22.0490   -305.1739     16.4936    113.5105
   694.7500     21.5201   -304.7376     16.2963    113.5782
   695.0000     21.3449   -304.3727     16.2526    113.8966
   695.2500     21.4443   -304.0354     16.3236    114.0766
   695.5000     21.6864   -303.6895     16.4543    114.1986
   695.7500     21.9269   -303.3126     16.5863    114.3497
   696.0000     22.0578   -302.8984     16.6693    115.2953
   696.2500     22.0358   -302.4554     16.6662    116.6742
   696.5000     21.8793   -302.0032     16.5576    119.7557
   696.7500     21.6426   -301.5669     16.3477    122.2988
   697.0000     21.3903   -301.1717     16.0681    126.8303
   697.2500     21.1787   -300.8396     15.7720    130.2658
   697.5000     21.0431   -300.5865     15.5181    135.0622
   697.7500     20.9875   -300.4202     15.3536    137.0406
   698.0000     20.9843   -300.3386     15.3055    136.9399
   698.2500     20.9886   -300.3295     15.3824    134.8616
   698.5000     20.9642   -300.3722     15.5789    129.9374
   698.7500     20.9055   -300.4410     15.8776    126.3110
   699.0000     20.8430   -300.5083     16.2460    121.3154
   699.2500     20.8303   -300.5463     16.6371    118.5561
   699.5000     20.9201   -300.5285     16.9978    115.9665
   699.7500     21.1357   -300.4316     17.2828    116.0518
   700.0000     21.4512   -300.2407     17.4641    120.2212
   700.2500     21.7990   -299.9551     17.5302    125.6219
   700.5000     22.1033   -299.5930     17.4811    135.3987
   700.7500     22.3126   -299.1905     17.3284    141.2232
   701.0000     22.4090   -298.7947     17.0984    147.1522
   701.2500     22.3970   -298.4542     16.8322    149.3414
   701.5000     22.2909   -298.2071     16.5751    150.7183
   701.7500     22.1094   -298.0720     16.3624    150.2190
   702.0000     21.8718   -298.0420     16.2126    146.1211
   702.2500     21.5967   -298.0836     16.1319    140.7379
   702.5000     21.3047   -298.1418     16.1237    129.7544
   702.7500     21.0221   -298.1516     16.1934    121.9955
   703.0000     20.7810   -298.0532     16.3434    112.3887
   703.2500     20.6192   -297.8078     16.5657    108.2785
   703.5000     20.5719   -297.4059     16.8396    105.8308
   703.7500     20.6498   -296.8674     17.1349    106.4756
   704.0000     20.8131   -296.2323     17.4153    110.6558
   704.2500     20.9716   -295.5475     17.6386    115.3804
   704.5000     21.0165   -294.8544     17.7555    123.9566
   704.7500     20.8645   -294.1826     17.7179    129.1968
   705.0000     20.4878   -293.5491     17.4958    134.0260
   705.2500     19.9213   -292.9623     17.0948    134.7456
   705.5000     19.2426   -292.4266     16.5607    133.0656
   705.7500     18.5348   -291.9461     15.9643    131.3423
   706.0000     17.8557   -291.5253     15.3754    129.8228
   706.2500     17.2288   -291.1671     14.8415    129.8327
   706.5000     16.6551   -290.8696     14.3798    130.0004
   706.7500     16.1324   -290.6232     13.9829    129.0445
   707.0000     15.6667   -290.4114     13.6317    125.7073
   707.2500     15.2693   -290.2163     13.3077    123.4450
   707.5000     14.9432   -290.0260     13.0008    122.6659
   707.7500     14.6728   -289.8410     12.7104    124.4333
   708.0000     14.4306   -289.6743     12.4402    129.0047
   708.2500     14.1916   -289.5450     12.1936    131.7221
   708.5000     13.9448   -289.4682     11.9718    133.1445
   708.7500     13.6958   -289.4488     11.7764    132.0576
   709.0000     13.4622   -289.4804     11.6124    128.6697
   709.2500     13.2668   -289.5527     11.4869    126.4817
   709.5000     13.1290   -289.6591     11.4071    124.8341
   709.7500     13.0597   -289.8008     11.3780    124.8385
   710.0000     13.0594   -289.9854     11.4026    125.2402
   710.2500     13.1172   -290.2200     11.4818    125.0006
   710.5000     13.2146   -290.5037     11.6128    123.7561
   710.7500     13.3351   -290.8234     11.7880    122.9857
   711.0000     13.4740   -291.1545     11.9970    123.0254
   711.2500     13.6387   -291.4648     12.2287    123.7932
   711.5000     13.8373   -291.7197     12.4708    124.8205
   711.7500     14.0652   -291.8873     12.7063    124.6942
   712.0000     14.2985   -291.9432     12.9116    122.9300
   712.2500     14.5014   -291.8748     13.0639    120.9720
   712.5000     14.6409   -291.6878     13.1503    117.7258
   712.7500     14.7011   -291.4117     13.1752    116.0007
   713.0000     14.6886   -291.0993     13.1571    115.1422
   713.2500     14.6253   -290.8166     13.1205    116.0329
   713.5000     14.5325   -290.6251     13.0843    119.2015
   713.7500     14.4182   -290.5633     13.0552    121.8803
   714.0000     14.2798   -290.6372     13.0265    125.3232
   714.2500     14.1174   -290.8242     12.9876    126.5127
   714.5000     13.9433   -291.0875     12.9347    126.0871
   714.7500     13.7803   -291.3904     12.8759    124.5783
   715.0000     13.6523   -291.7046     12.8242    121.9043
   715.2500     13.5743   -292.0095     12.7888    120.9485
   715.5000     13.5470   -292.2872     12.7730    121.8188
   715.7500     13.5565   -292.5193     12.7774    123.6189
   716.0000     13.5779   -292.6864     12.8021    126.8725
   716.2500     13.5834   -292.7713     12.8436    129.1078
   716.5000     13.5511   -292.7629     12.8900    133.0067
   716.7500     13.4726   -292.6597     12.9229    136.1383
   717.0000     13.3519   -292.4730     12.9243    140.9931
   717.2500     13.1992   -292.2292     12.8835    143.6602
