~Version Information
VERS.                      2.0: CWLS Log ASCII Standard - VERSION 2.0
WRAP.                       NO: One line per depth step
~Well Information Block
STRT.FT               450.0000: 
STOP.FT              2756.0000: 
STEP.FT                 0.2500: 
NULL.                -999.2500: 
COMP.          Pioneer Natural Resources: COMPANY
WELL.             Squeal 11-26: WELL
FLD.           Purgatoire River: FIELD
LOC.           1186' FNL & 152' FWL: LOCATION
PROV.                 Colorado: PROVINCE
CNTY.               Las Animas: COUNTRY
SRVC.                Patterson: SERVICE COMPANY
DATE.          Wed Jun 15 02:22:08 2005: LOG DATE
UWI.           05 071 08404 00: UNIQUE WELL ID
~Curve Information Block
DEPT.FT            0 000 00 00: Depth
SN.Ohm-m                      : IEL Short Normal
SP.mV                         : IEL Spontaneous Potential
DIR.Ohm-m                     : IEL Induction Resistivity
GR.GAPI                       : Gamma Ray
~Parameter Information Block
~A  Depth        SN          SP         DIR          GR     
# ...
   919.0000   2000.0000   2000.0000     32.1710    110.0064
   919.2500   2000.0000   2000.0000     33.4985    107.9038
   919.5000   2000.0000   2000.0000     34.8637    104.1300
   919.7500   2000.0000   2000.0000     36.3162    100.7217
   920.0000   2000.0000   2000.0000     37.8864     94.5652
   920.2500   2000.0000   2000.0000     39.5443     90.4657
   920.5000     48.8186   -200.0001     41.1954     85.5342
   920.7500     50.1879   -200.0001     42.7213     83.4154
   921.0000     51.9656   -200.0001     44.0432     81.8333
   921.2500     53.9977   -200.0001     45.1589     81.3565
   921.5000     55.9856   -200.0001     46.1184     80.4209
   921.7500     57.6761   -200.0001     46.9501     79.2852
   922.0000     59.0353   -200.0001     47.6092     77.1366
   922.2500     60.1870   -200.0001     48.0046     75.9065
   922.5000     61.1927   -200.0001     48.0918     74.8241
   922.7500     61.9789   -200.0001     47.9464     74.4363
   923.0000     62.4637   -200.0001     47.7424     73.6285
   923.2500     62.6569   -200.0001     47.6563     72.5137
   923.5000     62.6671   -200.0001     47.7870     69.6237
   923.7500     62.6425   -200.0001     48.1454     67.0997
   924.0000     62.6894   -200.0001     48.6909     63.4815
   924.2500     62.8375   -200.0001     49.3673     61.8166
   924.5000     63.0322   -200.0001     50.1032     60.6884
   924.7500     63.2208   -200.0001     50.8016     60.3989
   925.0000     63.4323   -200.0001     51.3591     59.4726
   925.2500     63.6258   -200.0001     51.7096     58.0641
   925.5000     63.6398   -200.0001     51.8380     54.8819
   925.7500     63.4270   -200.0001     51.7525     52.5732
   926.0000     63.1542   -200.0001     51.4671     49.8151
   926.2500     63.0660   -200.0001     51.0385     48.6255
   926.5000     63.3357   -200.0001     50.6120     47.2421
   926.7500     63.9913   -200.0001     50.3923     46.1280
   927.0000     64.9040   -200.0001     50.5464     44.1223
   927.2500     65.8807   -200.0001     51.1087     43.0110
   927.5000     66.8165   -200.0001     51.9780     42.3784
   927.7500     67.7387   -200.0001     53.0093     42.5761
   928.0000     68.7202   -200.0001     54.1213     43.0698
   928.2500     69.7786   -200.0001     55.3190     43.1833
   928.5000     70.9077   -200.0001     56.6192     42.9895
   928.7500     72.1479   -200.0001     57.9653     42.7588
   929.0000     73.4864   -200.0001     59.2055     42.3004
   929.2500     74.8308   -200.0001     60.1347     41.7998
   929.5000     76.2079   -200.0001     60.5454     40.7702
   929.7500     77.7397   -200.0001     60.2852     40.2214
   930.0000     79.3201   -200.0001     59.3366     40.3432
   930.2500     80.5825   -200.0001     57.8583     41.1931
   930.5000     81.2060   -200.0001     56.1357     43.2098
   930.7500     80.9548   -200.0001     54.4700     44.8075
   931.0000     79.4963   -200.0001     53.0781     47.8892
   931.2500     76.5393   -200.0001     52.0280     50.9897
   931.5000     72.1915   -200.0001     51.1925     58.2755
   931.7500     67.0462   -200.0001     50.2666     65.1388
   932.0000     61.9021   -200.0001     48.9217     77.7983
   932.2500     57.3787   -200.0001     47.0532     86.9046
   932.5000     53.7256   -200.0001     44.8746     99.7193
   932.7500     50.8581   -200.0001     42.7328    106.7511
   933.0000     48.5045   -200.0001     40.8558    114.0448
   933.2500     46.4279   -200.0001     39.2708    116.7963
   933.5000     44.5672   -200.0001     37.8893    118.8065
   933.7500     43.0041   -200.0001     36.6374    119.2370
   934.0000     41.8426   -200.0001     35.5223    118.2250
   934.2500     41.0983   -200.0001     34.6083    115.9936
   934.5000     40.6883   -200.0001     33.9505    110.6349
   934.7500     40.4938   -200.0001     33.5540    106.8234
   935.0000     40.3900   -200.0001     33.3755    103.1173
   935.2500     40.2881   -200.0001     33.3501    102.8172
   935.5000     40.1653   -200.0001     33.4179    105.4377
   935.7500     39.9984   -200.0001     33.5314    108.4138
   936.0000     39.7728   -200.0001     33.6511    112.8920
   936.2500     39.5396   -200.0001     33.7449    114.9490
   936.5000     39.3991   -200.0001     33.7983    115.8342
   936.7500     39.5148   -200.0001     33.8289    115.0661
   937.0000     40.0343   -200.0001     33.8813    112.6370
   937.2500     40.9108   -200.0001     33.9996    110.5400
   937.5000     41.9563   -200.0001     34.1994    106.9033
   937.7500     43.0788   -200.0001     34.4718    104.2196
   938.0000     44.3495   -200.0001     34.8191    100.1278
   938.2500     45.8070   -200.0001     35.2868     97.5496
   938.5000     47.2929   -200.0001     35.9554     93.8737
   938.7500     48.6105   -200.0001     36.8884     91.3529
   939.0000     49.7883   -200.0001     38.0768     87.3274
   939.2500     51.0889   -200.0001     39.4140     84.7317
   939.5000     52.7101   -200.0001     40.7217     81.7681
   939.7500     54.4644   -200.0001     41.8248     80.7324
   940.0000     55.9179   -200.0001     42.6406     80.5143
   940.2500     56.8454   -200.0001     43.2242     81.0637
   940.5000     57.3470   -200.0001     43.7244     82.8950
   940.7500     57.6232   -200.0001     44.2844     84.8636
   941.0000     57.8251   -200.0001     44.9566     88.4946
   941.2500     58.1062   -200.0001     45.6827     90.5946
   941.5000     58.6537   -200.0001     46.3505     91.6408
   941.7500     59.5654   -200.0001     46.8837     90.3784
   942.0000     60.8136   -200.0001     47.2989     85.9040
   942.2500     62.3933   -200.0001     47.6974     82.0693
   942.5000     64.3973   -200.0001     48.2156     76.7948
   942.7500     66.9734   -200.0001     48.9621     74.2988
   943.0000     70.2532   -200.0001     49.9572     72.3502
   943.2500     74.1543   -200.0001     51.0969     71.9097
   943.5000     78.1897   -200.0001     52.1863     71.4703
   943.7500     81.6737   -200.0001     53.0378     70.7708
   944.0000     84.2049   -200.0001     53.5338     68.9662
   944.2500     85.8832   -200.0001     53.5822     67.6726
   944.5000     87.0557   -200.0001     53.0478     66.3031
   944.7500     87.8722   -200.0001     51.7936     65.7028
   945.0000     88.0131   -200.0001     49.8113     64.5148
   945.2500     86.7979   -200.0001     47.2696     63.3197
   945.5000     83.6362   -200.0001     44.4111     61.7125
   945.7500     78.4387   -200.0001     41.4226     61.7195
   946.0000     71.6879   -200.0001     38.4088     64.9080
   946.2500     64.2475   -200.0001     35.4547     69.5600
   946.5000     57.0100   -200.0001     32.6721     79.7195
   946.7500     50.5106   -200.0001     30.1757     87.6390
   947.0000     44.7715   -200.0001     28.0301     99.5387
   947.2500     39.5483   -200.0001     26.2242    106.9609
   947.5000     34.8083   -200.0001     24.6891    117.1262
   947.7500     30.8899   -200.0001     23.3373    123.2053
   948.0000     28.1307   -200.0001     22.0965    131.1792
   948.2500     26.4558   -200.0001     20.9270    135.7946
   948.5000     25.3517   -200.0001     19.8235    141.8068
   948.7500     24.1718   -200.0001     18.8018    145.0588
   949.0000     22.5197   -200.0001     17.8799    148.2829
   949.2500     20.4139   -200.0001     17.0659    149.2462
   949.5000     18.1712   -200.0001     16.3589    149.4608
   949.7500     16.2768   -200.0001     15.7613    149.2101
   950.0000     15.2021   -200.0001     15.2847    148.5209
   950.2500     15.0818   -200.0001     14.9435    147.7924
   950.5000     15.6853   -200.0001     14.7416    146.2926
   950.7500     16.7221   -200.0001     14.6625    145.1787
   951.0000     17.9579   -200.0001     14.6710    143.7336
   951.2500     19.1029   -200.0001     14.7238    143.0690
   951.5000     19.8840   -200.0001     14.7833    142.2688
   951.7500     20.2282   -200.0001     14.8255    141.4127
   952.0000     20.2023   -200.0001     14.8396    138.9786
   952.2500     19.8757   -200.0001     14.8228    136.6120
