~Version Information
VERS.                      2.0: CWLS Log ASCII Standard - VERSION 2.0
WRAP.                       NO: One line per depth step
~Well Information Block
STRT.FT               475.0000: 
STOP.FT              2336.7000: 
STEP.FT                 0.1000: 
NULL.                -999.2500: 
COMP.          Pioneer Natural Resources: COMPANY
WELL.              Bobsy 34-11: WELL
FLD.           Purgatoire River: FIELD
LOC.           1937' FEL & 451' FSL----: LOCATION
PROV.                 Colorado: PROVINCE
CNTY.               Las Animas: COUNTRY
SRVC.                Patterson: SERVICE COMPANY
DATE.          Fri Apr 08 11:07:54 2005: LOG DATE
UWI.           05 071 08330 00: UNIQUE WELL ID
~Curve Information Block
DEPT.FT            0 000 00 00: Depth
DCAL.in                       : CDL Caliper
RHOB.g/cc                     : CDL Bulk Density
RHOC.g/cc                     : CDL Density Correction
DPOR.pu                       : CDL Density Porosity
NPOR.pu                       : Neutron Porosity
GR.GAPI                       : Gamma Ray
~Parameter Information Block
~A  Depth       DCAL        RHOB        RHOC        DPOR        NPOR         GR     
# ...
  2308.6000      7.7877      2.4717      0.0153     10.8070     17.7848   -999.2500
  2308.7000      7.7877      2.4697      0.0440     10.9248     17.6933   -999.2500
  2308.8000      7.7866      2.4731      0.0439     10.7205     17.9716   -999.2500
  2308.9000      7.7866      2.4820      0.0436     10.1800     17.5446   -999.2500
  2309.0000      7.7859      2.5008      0.0532      9.0430     16.5046   -999.2500
  2309.1000      7.7859      2.5244      0.0507      7.6128     15.9114   -999.2500
  2309.2000      7.7859      2.5356      0.0764      6.9304     16.0552   -999.2500
  2309.3000      7.7883      2.5187      0.0732      7.9590     16.6364   -999.2500
  2309.4000      7.7883      2.4894      0.0057      9.7342     17.5254   -999.2500
  2309.5000      7.7900      2.4819     -0.0040     10.1900     18.3643   -999.2500
  2309.6000      7.7900      2.4963      0.0383      9.3181     18.4997   -999.2500
  2309.7000      7.7900      2.5053      0.0457      8.7695     18.2497   -999.2500
  2309.8000      7.7896      2.4995      0.0307      9.1192     18.7863   -999.2500
  2309.9000      7.7896      2.4902      0.0214      9.6820     21.8526   -999.2500
  2310.0000      7.7893      2.4817      0.0118     10.1995     29.7945   -999.2500
  2310.1000      7.7893      2.4742     -0.0083     10.6519     40.8640   -999.2500
  2310.2000      7.7893      2.4720      0.0180     10.7903     48.4706   -999.2500
  2310.3000      7.7887      2.4695      0.0277     10.9397     51.1731   -999.2500
  2310.4000      7.7887      2.4666     -0.0088     11.1140     51.7000   -999.2500
  2310.5000      7.7879      2.4754      0.0169     10.5805     51.7556   -999.2500
  2310.6000      7.7879      2.4894      0.0475      9.7337     51.7587   -999.2500
  2310.7000      7.7879      2.4886      0.0398      9.7833   -999.2500   -999.2500
  2310.8000      7.7884      2.4749      0.0303     10.6092   -999.2500   -999.2500
  2310.9000      7.7884      2.4696     -0.0064     10.9346   -999.2500   -999.2500
  2311.0000      7.7896      2.4838      0.0179     10.0735   -999.2500   -999.2500
  2311.1000      7.7896      2.5061      0.0705      8.7193   -999.2500   -999.2500
  2311.2000      7.7896      2.5202      0.0546      7.8639   -999.2500   -999.2500
  2311.3000      7.7915      2.5227      0.0484      7.7174   -999.2500   -999.2500
  2311.4000      7.7915      2.5151      0.0468      8.1752   -999.2500   -999.2500
  2311.5000      7.7945      2.5000      0.0442      9.0939   -999.2500   -999.2500
  2311.6000      7.7945      2.4879      0.0468      9.8244   -999.2500   -999.2500
  2311.7000      7.7945      2.4895      0.0432      9.7281   -999.2500   -999.2500
  2311.8000      7.7958      2.5002      0.0538      9.0789   -999.2500   -999.2500
  2311.9000      7.7958      2.5103      0.0380      8.4691   -999.2500   -999.2500
  2312.0000      7.7947      2.5146      0.0236      8.2079   -999.2500   -999.2500
  2312.1000      7.7947      2.5099      0.0287      8.4938   -999.2500   -999.2500
  2312.2000      7.7947      2.4987      0.0208      9.1669   -999.2500   -999.2500
  2312.3000      7.7936      2.4910      0.0043      9.6386   -999.2500   -999.2500
  2312.4000      7.7936      2.4923      0.0359      9.5599   -999.2500   -999.2500
  2312.5000      7.7935      2.4947      0.0216      9.4108   -999.2500   -999.2500
  2312.6000      7.7935      2.4938     -0.0181      9.4659   -999.2500   -999.2500
  2312.7000      7.7935      2.5001      0.0199      9.0837   -999.2500   -999.2500
  2312.8000      7.7930      2.5164      0.0229      8.0947   -999.2500   -999.2500
  2312.9000      7.7930      2.5314      0.0226      7.1903   -999.2500   -999.2500
  2313.0000      7.7936      2.5309      0.0723      7.2168   -999.2500   -999.2500
  2313.1000      7.7936      2.5172      0.0113      8.0512   -999.2500   -999.2500
  2313.2000      7.7936      2.5132      0.0216      8.2895   -999.2500   -999.2500
  2313.3000      7.7957      2.5268      0.0194      7.4642   -999.2500   -999.2500
  2313.4000      7.7957      2.5412      0.0500      6.5956   -999.2500   -999.2500
  2313.5000      7.7984      2.5516     -0.0121      5.9649   -999.2500   -999.2500
  2313.6000      7.7984      2.5702      0.0355      4.8386   -999.2500   -999.2500
  2313.7000      7.7984      2.5896      0.0541      3.6619   -999.2500   -999.2500
  2313.8000      7.8001      2.5940      0.0503      3.3970   -999.2500   -999.2500
  2313.9000      7.8001      2.5918      0.0361      3.5291   -999.2500   -999.2500
  2314.0000      7.8014      2.5973      0.0463      3.1944   -999.2500   -999.2500
  2314.1000      7.8014      2.6061      0.0471      2.6608   -999.2500   -999.2500
  2314.2000      7.8014      2.6069      0.0616      2.6112   -999.2500   -999.2500
  2314.3000      7.8015      2.5971      0.0693      3.2040   -999.2500   -999.2500
  2314.4000      7.8015      2.5806      0.0555      4.2058   -999.2500   -999.2500
  2314.5000      7.7995      2.5627      0.0055      5.2937   -999.2500   -999.2500
  2314.6000      7.7995      2.5513      0.0177      5.9791   -999.2500   -999.2500
  2314.7000      7.7995      2.5520      0.0042      5.9393   -999.2500   -999.2500
  2314.8000      7.7972      2.5610      0.0161      5.3964   -999.2500   -999.2500
  2314.9000      7.7972      2.5684      0.0108      4.9475   -999.2500   -999.2500
  2315.0000      7.7948      2.5688      0.0283      4.9206   -999.2500   -999.2500
  2315.1000      7.7948      2.5620      0.0540      5.3353   -999.2500   -999.2500
  2315.2000      7.7948      2.5511      0.0031      5.9939   -999.2500   -999.2500
  2315.3000      7.7937      2.5477      0.0318      6.1992   -999.2500   -999.2500
  2315.4000      7.7937      2.5573      0.0257      5.6192   -999.2500   -999.2500
  2315.5000      7.7939      2.5689      0.0509      4.9152   -999.2500   -999.2500
  2315.6000      7.7939      2.5711      0.0259      4.7813   -999.2500   -999.2500
  2315.7000      7.7939      2.5693      0.0307      4.8890   -999.2500   -999.2500
  2315.8000      7.7916      2.5709      0.0335      4.7963   -999.2500   -999.2500
  2315.9000      7.7916      2.5685      0.0436      4.9365   -999.2500   -999.2500
  2316.0000      7.7822      2.5499      0.0474      6.0683   -999.2500   -999.2500
  2316.1000      7.7822      2.5166      0.0005      8.0846   -999.2500   -999.2500
  2316.2000      7.7822      2.4850     -0.0118     10.0018   -999.2500   -999.2500
  2316.3000      7.7602      2.4666     -0.0228     11.1137   -999.2500   -999.2500
  2316.4000      7.7602      2.4582     -0.0275     11.6261   -999.2500   -999.2500
  2316.5000      7.7216      2.4502     -0.0339     12.1065   -999.2500   -999.2500
  2316.6000      7.7216      2.4484     -0.0901     12.2166   -999.2500   -999.2500
  2316.7000      7.7216      2.4692     -0.0437     10.9591   -999.2500   -999.2500
  2316.8000      7.6794      2.5074      0.0544      8.6430   -999.2500   -999.2500
  2316.9000      7.6794      2.5413      0.0409      6.5861   -999.2500   -999.2500
  2317.0000      7.6489      2.5652      0.0423      5.1397   -999.2500   -999.2500
  2317.1000      7.6489      2.5812      0.0792      4.1670   -999.2500   -999.2500
  2317.2000      7.6489      2.5854      0.0917      3.9181   -999.2500   -999.2500
  2317.3000      7.6363      2.5813      0.0965      4.1625   -999.2500   -999.2500
  2317.4000      7.6363      2.5980      0.0613      3.1489   -999.2500   -999.2500
  2317.5000      7.6018      2.6760      0.0448     -1.5782   -999.2500   -999.2500
  2317.6000      7.6018      2.6932      0.0715     -2.6177   -999.2500   -999.2500
  2317.7000      7.6018      2.2387      0.6039     24.9301   -999.2500   -999.2500
  2317.8000      7.2526      1.2646      0.0650     83.9616   -999.2500   -999.2500
  2317.9000      7.2526      0.4274      0.0650    134.7006   -999.2500   -999.2500
  2318.0000      5.7502      0.0810   -999.2500    155.6959   -999.2500   -999.2500
  2318.1000      5.7502      0.0083   -999.2500    160.1004   -999.2500   -999.2500
