~Version Information
VERS.                      2.0: CWLS Log ASCII Standard - VERSION 2.0
WRAP.                       NO: One line per depth step
~Well Information Block
STRT.FT                -0.2500: 
STOP.FT              2376.7500: 
STEP.FT                 0.2500: 
NULL.                -999.2500: 
COMP.          Petrogulf Corporation: COMPANY
WELL.             State 16-23V: WELL
FLD.           Purgatorie River: FIELD
LOC.           2414' FSL & 2215' FWL: LOCATION
PROV.                 Colorado: PROVINCE
CNTY.               Las Animas: COUNTRY
SRVC.          Patterson Wireline: SERVICE COMPANY
DATE.          Wed Jun 25 14:56:54 2003: LOG DATE
UWI.           05 071 07865 00: UNIQUE WELL ID
~Curve Information Block
DEPT.FT            0 000 00 00: Depth
CCL.                          : Casing Collar Locator
TT3.usec                      : CBL 3' Travel Time
AMP3.mV                       : CBL 3' Amplitude
GR.GAPI                       : Gamma Ray
~Parameter Information Block
~A  Depth       CCL         TT3         AMP3         GR     
# ...
  2344.7500      0.0000    656.4525      1.4712    105.5993
  2345.0000      0.0000    663.9623      1.4648    108.2694
  2345.2500      0.0000    670.8285      1.5175    110.3547
  2345.5000      0.0000    673.8550      1.6110    112.7290
  2345.7500      0.0000    671.5363      1.6950    115.6680
  2346.0000      0.0000    665.2661      1.7259    118.7532
  2346.2500      0.0000    658.1219      1.7018    120.9175
  2346.5000      0.0000    652.5783      1.6652    120.8006
  2346.7500      0.0000    649.3613      1.6657    117.7574
  2347.0000      0.0000    647.9429      1.7154    112.9414
  2347.2500      0.0000    647.5344      1.7762    109.1889
  2347.5000      0.0000    647.5976      1.7967    109.3411
  2347.7500      0.0000    647.9128      1.7574    114.2291
  2348.0000      0.0000    648.5989      1.6804    121.9279
  2348.2500      0.0000    650.2343      1.6065    128.5983
  2348.5000      0.0000    653.7415      1.5733    130.3681
  2348.7500      0.0000    659.6846      1.5984    125.3903
  2349.0000      0.0000    667.4067      1.6646    114.8130
  2349.2500      0.0000    675.2242      1.7295    101.9717
  2349.5000      0.0000    681.9144      1.7602     90.6482
  2349.7500      0.0000    687.6375      1.7523     83.5435
  2350.0000      0.0000    692.9265      1.7217     81.4244
  2350.2500      0.0000    697.3271      1.6986     83.0685
  2350.5000      0.0000    699.6796      1.7266     85.9943
  2350.7500      0.0000    699.2985      1.8389     87.5461
  2351.0000      0.0000    696.4470      2.0177     85.8081
  2351.2500      0.0000    692.4501      2.1904     80.1646
  2351.5000      0.0000    689.8240      2.2839     71.5626
  2351.7500      0.0000    691.3117      2.2821     62.3215
  2352.0000      0.0000    697.7950      2.2239     55.2729
  2352.2500      0.0000    707.2463      2.1499     52.3270
  2352.5000      0.0000    715.9225      2.0664     53.3729
  2352.7500      0.0000    720.5469      1.9675     56.6692
  2353.0000      0.0000    719.9953      1.8732     60.5563
  2353.2500      0.0000    715.9409      1.8216     64.6348
  2353.5000      0.0000    711.9311      1.8213     69.0911
  2353.7500      0.0000    710.8831      1.8385     73.3388
  2354.0000      0.0000    712.9326      1.8430     76.0240
  2354.2500      0.0000    715.7623      1.8421     76.3435
  2354.5000      0.0000    717.0734      1.8567     74.9744
  2354.7500      0.0000    716.2780      1.8804     73.7932
  2355.0000      0.0000    713.5986      1.8831     74.9139
  2355.2500      0.0000    708.6390      1.8492     79.6823
  2355.5000      0.0000    701.0312      1.8010     87.9044
  2355.7500      0.0000    692.0814      1.7897     97.6635
  2356.0000      0.0000    684.4681      1.8604    106.2491
  2356.2500      0.0000    680.0284      2.0132    111.9909
  2356.5000      0.0000    678.4221      2.1845    115.3554
  2356.7500      0.0000    677.9066      2.2702    117.8209
  2357.0000      0.0000    676.7543      2.1903    119.6203
  2357.2500      0.0000    674.1627      1.9472    119.0654
  2357.5000      0.0000    670.7444      1.6242    114.2474
  2357.7500      0.0000    668.3525      1.3343    105.0745
  2358.0000      0.0000    668.9395      1.1667     93.5823
  2358.2500      0.0000    673.4946      1.1555     82.7101
  2358.5000      0.0000    682.2538      1.2687     75.0240
  2358.7500      0.0000    695.2877      1.4230     72.0681
  2359.0000      0.0000    711.8464      1.5233     73.9824
  2359.2500      0.0000    729.2045      1.5072     79.1597
  2359.5000      0.0000    743.2385      1.3825     84.4810
  2359.7500      0.0000    750.6362      1.2279     86.8742
  2360.0000      0.0000    750.0273      1.1446     85.6899
  2360.2500      0.0000    741.4034      1.1915     83.6044
  2360.5000      0.0000    725.9891      1.3529     84.4735
  2360.7500      0.0000    706.7766      1.5575     89.9711
  2361.0000      0.0000    687.6544      1.7239     98.3694
  2361.2500      0.0000    671.4075      1.8115    106.2125
  2361.5000      0.0000    658.9591      1.8539    110.7375
  2361.7500      0.0000    650.2082      1.9235    111.0063
  2362.0000      0.0000    644.7413      2.0451    107.4905
  2362.2500      0.0000    641.8533      2.1711    100.7983
  2362.5000      0.0000    640.5999      2.2611     90.6313
  2362.7500      0.0000    640.1664      2.3437     76.1468
  2363.0000      0.0000    640.0866      2.4638     57.7001
  2363.2500      0.0000    640.1200      2.6028     38.0472
  2363.5000      0.0000    639.9469      2.6804     21.1843
  2363.7500      0.0000    639.0923      2.6173      9.7331
  2364.0000      0.0000    637.3209      2.3906      3.6289
  2364.2500      0.0000    635.1996      2.0666      1.0848
  2364.5000      0.0000    633.9494      1.7898      0.2575
  2364.7500      0.0000    634.3851      1.6961      0.0477
  2365.0000      0.0000    636.1330      1.8069      0.0064
  2365.2500      0.0000    638.1142      2.0177      0.0000
  2365.5000      0.0000    639.5832      2.1874   -999.2500
  2365.7500      0.0000    640.4941      2.2265   -999.2500
  2366.0000      0.0000    641.1341      2.1198   -999.2500
  2366.2500      0.0000    641.7280      1.9033   -999.2500
  2366.5000      0.0000    642.3046      1.6274   -999.2500
  2366.7500      0.0000    642.6633      1.3316   -999.2500
  2367.0000      0.0000    641.8766      1.0469   -999.2500
  2367.2500      0.0000    636.8622      0.8022   -999.2500
  2367.5000      0.0000    620.0718      0.6044   -999.2500
  2367.7500      0.0000    578.8509      0.4163   -999.2500
  2368.0000      0.0000    501.1832      0.1833   -999.2500
  2368.2500      0.0000    387.7394     -0.1108   -999.2500
  2368.5000      0.0000    258.9275     -0.4232   -999.2500
  2368.7500      0.0000    145.1160     -0.6872   -999.2500
  2369.0000      0.0000     66.8372     -0.8632   -999.2500
  2369.2500      0.0000     24.9177     -0.9555   -999.2500
  2369.5000      0.0000      7.4376     -0.9935   -999.2500
  2369.7500      2.0000      1.7614     -1.0058   -999.2500
  2370.0000      0.0000      0.3260     -1.0089   -999.2500
  2370.2500      0.0000      0.0434     -1.0095   -999.2500
  2370.5000      0.0000   -999.2500   -999.2500   -999.2500
  2370.7500      0.0000   -999.2500   -999.2500   -999.2500
  2371.0000      0.0000   -999.2500   -999.2500   -999.2500
  2371.2500      0.0000   -999.2500   -999.2500   -999.2500
  2371.5000      0.0000   -999.2500   -999.2500   -999.2500
  2371.7500      0.0000   -999.2500   -999.2500   -999.2500
  2372.0000      0.0000   -999.2500   -999.2500   -999.2500
  2372.2500      0.0000   -999.2500   -999.2500   -999.2500
  2372.5000      0.0000   -999.2500   -999.2500   -999.2500
  2372.7500      0.0000   -999.2500   -999.2500   -999.2500
  2373.0000   -999.2500   -999.2500   -999.2500   -999.2500
  2373.2500   -999.2500   -999.2500   -999.2500   -999.2500
  2373.5000   -999.2500   -999.2500   -999.2500   -999.2500
  2373.7500   -999.2500   -999.2500   -999.2500   -999.2500
  2374.0000   -999.2500   -999.2500   -999.2500   -999.2500
  2374.2500   -999.2500   -999.2500   -999.2500   -999.2500
  2374.5000   -999.2500   -999.2500   -999.2500   -999.2500
  2374.7500   -999.2500   -999.2500   -999.2500   -999.2500
  2375.0000   -999.2500   -999.2500   -999.2500   -999.2500
  2375.2500   -999.2500   -999.2500   -999.2500   -999.2500
  2375.5000   -999.2500   -999.2500   -999.2500   -999.2500
  2375.7500   -999.2500   -999.2500   -999.2500   -999.2500
  2376.0000   -999.2500   -999.2500   -999.2500   -999.2500
  2376.2500   -999.2500   -999.2500   -999.2500   -999.2500
  2376.5000   -999.2500   -999.2500   -999.2500   -999.2500
  2376.7500   -999.2500   -999.2500   -999.2500   -999.2500
