~Version Information
 VERS.                                  2.0 : CWLS LAS VERSION
 WRAP.                                   NO : WRAPING MODE
 SWARE .                 MController 2.5.0J : SOFTWARE VERSION
~Well Information
 WELL.                        Montoya 1-44R : WELL
 COMP.                       Petrogulf Corp : COMPANY
 FLD.                      Purgatoire River : FIELD
 LOC.                 SE/SE Sec 1 T33S R68W : LOCATION
 DATE.                             11/15/04 : DATE(S) LOGGED
 SRVC.       Blanco Geological Services LLC : SERVICE COMPANY
 STAT.                                   CO : STATE
 CNTY.                           Las Animas : COUNTY
 CTRY.                                  USA : COUNTRY
 API.                       05-071-08239-00 : API NUMBER
 STRT.FT                             615.00 : START DEPTH
 STOP.FT                            2140.00 : STOP DEPTH
 STEP.FT                               1.00 : DEPTH INCREMENT
 NULL.                                -9999 : NULL VALUE
~Curve information
 DEPTH.FT                                   :
 ROP.MIN/FT                                 :
 GAS.UNITS                                  :
~ASCII Log data
# ...
      1015.0         0.27         13.1 
      1016.0         0.27         16.9 
      1017.0         0.10         18.0 
      1018.0         0.37         17.7 
      1019.0         0.23         15.3 
      1020.0         0.23         12.7 
      1021.0         0.20         11.7 
      1022.0         0.17          8.0 
      1023.0         0.20          7.5 
      1024.0         0.20          5.6 
      1025.0         0.25          4.5 
      1026.0         0.20          3.8 
      1027.0         0.20          2.9 
      1028.0         0.20          2.7 
      1029.0         0.17          1.8 
      1030.0         0.20          1.1 
      1031.0         0.20          1.3 
      1032.0         0.23          1.3 
      1033.0         0.17          0.7 
      1034.0         0.20          1.8 
      1035.0         0.20          3.4 
      1036.0         0.17          1.7 
      1037.0         0.17          1.5 
      1038.0         0.17          1.2 
      1039.0         0.17          1.2 
      1040.0         0.17          1.6 
      1041.0         0.17          2.3 
      1042.0         0.22          2.5 
      1043.0         0.17          2.5 
      1044.0         0.17          7.4 
      1045.0         0.13          7.4 
      1046.0         0.27         11.4 
      1047.0         0.43         18.1 
      1048.0         0.37         17.7 
      1049.0         0.35         16.4 
      1050.0         0.27         12.5 
      1051.0         0.30         12.2 
      1052.0         0.27          8.0 
      1053.0         0.30          6.2 
      1054.0         0.20          2.9 
      1055.0         0.23          3.4 
      1056.0         0.33          3.1 
      1057.0         0.27          2.8 
      1058.0         0.20          2.6 
      1059.0         0.17          2.4 
      1060.0         0.20          1.7 
      1061.0         0.23          1.4 
      1062.0         0.20          1.3 
      1063.0         0.25          2.1 
      1064.0         0.27          2.1 
      1065.0         0.33          2.1 
      1066.0         0.30          1.6 
      1067.0         0.20          1.1 
      1068.0         0.20          2.2 
      1069.0         0.23          1.8 
      1070.0         0.23          3.7 
      1071.0         0.23          8.4 
      1072.0         0.20         10.1 
      1073.0         0.27         17.6 
      1074.0         0.23         18.0 
      1075.0         0.20         19.2 
      1076.0         0.27         18.5 
      1077.0         0.27         17.4 
      1078.0         0.20         13.6 
      1079.0         0.23         13.0 
      1080.0         0.27          9.2 
      1081.0         0.17          6.9 
      1082.0         0.22          5.1 
      1083.0         0.17          5.3 
      1084.0         0.20          3.8 
      1085.0         0.20          2.7 
      1086.0         0.17          2.9 
      1087.0         0.17          2.3 
      1088.0         0.17          1.9 
      1089.0         0.20          2.0 
      1090.0         0.13          1.5 
      1091.0         0.20          1.1 
      1092.0         0.17          1.2 
      1093.0         0.30          1.8 
      1094.0         0.27          1.6 
      1095.0         0.17          2.0 
      1096.0         0.17          1.9 
      1097.0         0.17          1.1 
      1098.0         0.20          1.6 
      1099.0         0.25          1.8 
      1100.0         0.20          1.7 
      1101.0         0.13          2.8 
      1102.0         0.13          4.4 
      1103.0         0.20          6.5 
      1104.0         0.17         11.2 
      1105.0         0.27         15.0 
      1106.0         0.17         17.5 
      1107.0         0.33         17.9 
      1108.0         0.32         17.6 
      1109.0         0.30         14.1 
      1110.0         0.23         12.1 
      1111.0         0.23          9.6 
      1112.0         0.23          7.8 
      1113.0         0.20          6.0 
      1114.0         0.23          5.4 
      1115.0         0.17          2.9 
      1116.0         0.20          2.2 
      1117.0         0.20          2.0 
      1118.0         0.20          2.0 
      1119.0         0.20          2.3 
      1120.0         0.20          2.1 
      1121.0         0.23          2.6 
      1122.0         0.20          2.2 
      1123.0         0.25          2.3 
      1124.0         0.17          2.3 
      1125.0         0.20          1.2 
      1126.0         0.23          0.2 
      1127.0         0.23          1.4 
      1128.0         0.20          2.2 
      1129.0         0.17          1.5 
      1130.0         0.20          1.6 
      1131.0         0.20          1.6 
      1132.0         0.23          4.5 
      1133.0         0.23          5.8 
      1134.0         0.20          9.7 
      1135.0         0.27         13.1 
      1136.0         0.30         15.6 
      1137.0         0.40         16.9 
      1138.0         0.37         14.2 
      1139.0         0.30         12.3 
      1140.0         0.23          9.0 
      1141.0         0.20          6.9 
      1142.0         0.23          5.8 
      1143.0         0.25          2.9 
      1144.0         0.23          2.8 
      1145.0         0.20          2.0 
      1146.0         0.27          3.0 
      1147.0         0.23          2.6 
      1148.0         0.27          2.8 
      1149.0         0.23          3.3 
      1150.0         0.23          3.4 
      1151.0         0.27          3.8 
      1152.0         0.23          3.2 
      1153.0         0.23          2.5 
      1154.0         0.27          6.1 
      1155.0         0.23          6.1 
      1156.0         0.20          7.2 
      1157.0         0.25          8.5 
      1158.0         0.23          8.3 
      1159.0         0.20          8.3 
      1160.0         0.23         18.4 
      1161.0         0.20         18.4 
      1162.0         0.17         27.9 
      1163.0         0.17         30.2 
      1164.0         0.17         32.3 
      1165.0         0.27         30.3 
      1166.0         0.27         26.9 
      1167.0         0.22         21.9 
      1168.0         0.27         15.5 
      1169.0         0.13         11.6 
      1170.0         0.30         10.3 
      1171.0         0.30          8.6 
      1172.0         0.20          6.9 
      1173.0         0.20          6.9 
      1174.0         0.13          6.2 
      1175.0         0.17          6.1 
      1176.0         0.20          6.7 
      1177.0         0.17          6.8 
      1178.0         0.20          6.5 
      1179.0         0.20          6.6 
      1180.0         0.20          7.0 
      1181.0         0.20          7.0 
      1182.0         0.20          6.2 
      1183.0         0.25          6.2 
      1184.0         0.27          7.1 
      1185.0         0.20          6.3 
      1186.0         0.17          6.2 
      1187.0         0.20          6.7 
      1188.0         0.20          7.5 
      1189.0         0.17          6.5 
      1190.0         0.23          6.3 
      1191.0         0.20          7.7 
      1192.0         0.27         11.0 
      1193.0         0.27         17.7 
      1194.0         0.20         21.3 
      1195.0         0.20         24.8 
      1196.0         0.20         29.4 
      1197.0         0.27         28.7 
      1198.0         0.30         26.3 
      1199.0         0.33         20.1 
      1200.0         0.27         13.9 
      1201.0         0.23         11.3 
      1202.0         0.17          9.9 
      1203.0         0.17          8.7 
      1204.0         0.23          8.0 
      1205.0         0.20          7.1 
      1206.0         0.25          7.2 
      1207.0         0.20          7.1 
      1208.0         0.23          6.8 
      1209.0         0.17          6.9 
      1210.0         0.20          7.3 
      1211.0         0.17          6.4 
      1212.0         0.17          6.7 
      1213.0         0.17          6.9 
      1214.0         0.17          6.9 
