~Version Information
VERS.                      2.0: CWLS Log ASCII Standard - VERSION 2.0
WRAP.                       NO: One line per depth step
~Well Information Block
STRT.FT               577.0000: 
STOP.FT              2643.2000: 
STEP.FT                 0.1000: 
NULL.                -999.2500: 
COMP.          Petrogulf Corporation: COMPANY
WELL.           Montoya 12-41V: WELL
FLD.           Purgatorie River: FIELD
LOC.           1081' FNL & 605' FEL: LOCATION
CNTY.               Las Animas: COUNTY
SRVC.                         : SERVICE COMPANY
DATE.          Tue Aug 10 14:17:12 2004: LOG DATE
UWI.           05 071 08094 00: UNIQUE WELL ID
STAT.                 Colorado: STATE
~Curve Information Block
DEPT.FT            0 000 00 00: Depth
DCAL.in                       : CDL Caliper
RHOB.g/cc                     : CDL Bulk Density
RHOC.g/cc                     : CDL Density Correction
DPOR.pu                       : CDL Density Porosity
GR.GAPI                       : Gamma Ray
NPOR.pu                       : Neutron Porosity
~Parameter Information Block
~A  Depth       DCAL        RHOB        RHOC        DPOR         GR         NPOR    
# ...
  2362.6000      7.7153      2.5681      0.0634      4.9638     51.9785     18.9314
  2362.7000      7.7153      2.5711      0.0567      4.7823     55.8272     17.4019
  2362.8000      7.7120      2.5802      0.0767      4.2286     63.0010     16.6791
  2362.9000      7.7120      2.5845      0.0618      3.9712     68.6807     16.5112
  2363.0000      7.7205      2.5742      0.0600      4.5962     69.4279     16.8758
  2363.1000      7.7205      2.5529      0.0177      5.8826     65.0783     17.3518
  2363.2000      7.7205      2.5371      0.0125      6.8415     56.3919     17.3289
  2363.3000      7.7414      2.5302      0.0269      7.2626     47.3708     17.1442
  2363.4000      7.7414      2.5225      0.0128      7.7273     41.4820     17.2213
  2363.5000      7.7488      2.5164      0.0010      8.0993     41.4466     17.2109
  2363.6000      7.7488      2.5200      0.0079      7.8763     48.1777     16.8796
  2363.7000      7.7488      2.5304      0.0186      7.2504     55.1413     16.3920
  2363.8000      7.7485      2.5383      0.0239      6.7722     55.9781     15.9580
  2363.9000      7.7485      2.5383      0.0497      6.7685     53.1753     15.7552
  2364.0000      7.7499      2.5273      0.0495      7.4342     52.4003     15.9492
  2364.1000      7.7499      2.5116     -0.0132      8.3865     54.1499     16.6433
  2364.2000      7.7499      2.5029      0.0012      8.9147     53.4437     17.7666
  2364.3000      7.7466      2.4978      0.0145      9.2267     48.6677     18.9373
  2364.4000      7.7466      2.4882     -0.0003      9.8087     44.6625     19.7407
  2364.5000      7.7387      2.4773     -0.0076     10.4646     46.5540     20.3467
  2364.6000      7.7387      2.4689      0.0196     10.9773     50.3923     21.0206
  2364.7000      7.7387      2.4672     -0.0378     11.0769     48.3129     21.2705
  2364.8000      7.7355      2.4770      0.0312     10.4876     42.8833     20.9566
  2364.9000      7.7355      2.4930     -0.0080      9.5175     38.6995     20.8451
  2365.0000      7.7230      2.5086      0.0392      8.5695     34.7738     21.1266
  2365.1000      7.7230      2.5201      0.0297      7.8714     31.7880     21.2132
  2365.2000      7.7230      2.5301      0.0421      7.2673     30.1678     20.7653
  2365.3000      7.7270      2.5417      0.0298      6.5612     29.6033     20.0167
  2365.4000      7.7270      2.5501      0.0761      6.0557     31.1491     19.4329
  2365.5000      7.6624      2.5515      0.0701      5.9700     33.9307     19.1519
  2365.6000      7.6624      2.5514      0.0817      5.9728     34.2198     18.7841
  2365.7000      7.6624      2.5575      0.0685      5.6056     31.6868     18.2458
  2365.8000      7.6390      2.5751      0.0826      4.5372     29.5053     17.9940
  2365.9000      7.6390      2.6049      0.1454      2.7309     27.4267     17.9454
  2366.0000      7.6351      2.6404      0.1269      0.5800     24.5414     17.8747
  2366.1000      7.6351      2.6721      0.1547     -1.3383     23.1856     17.9788
  2366.2000      7.6351      2.6887      0.1175     -2.3438     24.6462     18.0626
  2366.3000      7.6249      2.6887      0.1008     -2.3434     25.9150     17.8944
  2366.4000      7.6249      2.6821      0.1125     -1.9438     25.0922     17.6486
  2366.5000      7.6304      2.6732      0.0975     -1.4064     23.5854     17.2725
  2366.6000      7.6304      2.6536      0.1063     -0.2183     23.3773     17.0004
  2366.7000      7.6304      2.6200      0.0528      1.8170     24.6098     17.2414
  2366.8000      7.6286      2.5900      0.0285      3.6386     24.6559     17.6192
  2366.9000      7.6286      2.5778      0.0364      4.3743     23.1703     17.6260
  2367.0000      7.6546      2.5797      0.0130      4.2594     22.9254     16.9344
  2367.1000      7.6546      2.5879      0.0164      3.7609     24.0662     15.7266
  2367.2000      7.6546      2.5931      0.0674      3.4503     24.4357     15.1395
  2367.3000      7.7018      2.5818      0.0433      4.1324     24.0866     15.5595
  2367.4000      7.7018      2.5561      0.0369      5.6885     25.0133     16.2059
  2367.5000      7.6814      2.5420     -0.0295      6.5457     27.9834     16.7203
  2367.6000      7.6814      2.5494      0.0577      6.0995     33.1717     17.5517
  2367.7000      7.6814      2.5433      0.0855      6.4644     39.4519     18.4234
  2367.8000      7.6392      2.5055      0.0223      8.7581     44.1919     18.8986
  2367.9000      7.6392      2.4650     -0.0255     11.2132     47.1714     19.4364
  2368.0000      7.6360      2.4392      0.0214     12.7771     51.7583     20.5416
  2368.1000      7.6360      2.4188     -0.0337     14.0113     59.8538     22.1714
  2368.2000      7.6360      2.4009     -0.0110     15.0956     67.9030     23.8673
  2368.3000      7.6761      2.3865      0.0364     15.9674     73.1796     24.9525
  2368.4000      7.6761      2.3688      0.0505     17.0415     79.8828     25.1268
  2368.5000      7.7101      2.3446      0.0275     18.5103     89.0338     24.9856
  2368.6000      7.7101      2.3206      0.0049     19.9647     94.2798     25.2179
  2368.7000      7.7101      2.2944      0.0302     21.5487     95.5215     25.8225
  2368.8000      7.7130      2.2551      0.0484     23.9359     98.2936     26.9705
  2368.9000      7.7130      2.2068      0.0364     26.8589    100.0862     28.3873
  2369.0000      7.7213      2.1537      0.0803     30.0810     97.0386     29.3348
  2369.1000      7.7213      2.0829      0.0621     34.3703     91.1130     30.0724
  2369.2000      7.7213      1.9937      0.0030     39.7764     83.2662     31.0146
  2369.3000      7.7424      1.9011      0.0125     45.3874     76.2027     31.7976
  2369.4000      7.7424      1.8215     -0.0201     50.2149     73.4460     32.1189
  2369.5000      7.7569      1.7763     -0.0404     52.9495     71.5960     32.1963
  2369.6000      7.7569      1.7784     -0.0182     52.8263     65.8491     32.4405
  2369.7000      7.7569      1.8177      0.0494     50.4434     61.0199     32.7386
  2369.8000      7.8105      1.8755      0.1033     46.9365     65.5496     32.6574
  2369.9000      7.8105      1.9392      0.1445     43.0779     76.1746     32.1009
  2370.0000      8.0659      2.0037      0.1938     39.1708     84.0911     31.2983
  2370.1000      8.0659      2.0710      0.1736     35.0903     87.2165     30.6331
  2370.2000      8.0659      2.1422      0.1392     30.7747     89.9203     30.6386
  2370.3000      8.1995      2.2024      0.1262     27.1294     96.4594     31.1885
  2370.4000      8.1995      2.2295      0.1065     25.4836    103.9121     31.6401
  2370.5000      7.9525      2.2184      0.0127     26.1572    105.5982     31.5533
  2370.6000      7.9525      2.1760      0.0206     28.7292    100.9290     30.9683
  2370.7000      7.9525      2.1012      0.0183     33.2591     96.9476     30.5569
  2370.8000      7.8259      1.9980     -0.0491     39.5144     98.7667     30.4771
  2370.9000      7.8259      1.8936     -0.0475     45.8415    103.1274     30.0331
  2371.0000      7.8251      1.8204     -0.0744     50.2773    106.9906     29.4524
  2371.1000      7.8251      1.7890     -0.0656     52.1832    109.7946     29.6100
  2371.2000      7.8251      1.7901     -0.0714     52.1144    108.4421     30.3820
  2371.3000      7.8473      1.8186     -0.0394     50.3904    101.1149     31.1391
  2371.4000      7.8473      1.8768     -0.0175     46.8612     91.5271     31.5741
  2371.5000      7.9337      1.9516      0.1330     42.3268     85.1786     31.5117
  2371.6000      7.9337      2.0063      0.1303     39.0112     83.3548     31.2664
  2371.7000      7.9337      2.0123      0.1370     38.6503     80.3825     31.2071
  2371.8000      7.8756      1.9705      0.1066     41.1793     72.1113     31.0012
  2371.9000      7.8756      1.9001      0.0397     45.4484     61.9222     30.5698
  2372.0000      7.7675      1.8190     -0.0260     50.3617     56.8641     30.4744
  2372.1000      7.7675      1.7421     -0.0843     55.0219     59.4560     30.8925
