~Version Information
VERS.                      2.0: CWLS Log ASCII Standard - VERSION 2.0
WRAP.                       NO: One line per depth step
~Well Information Block
STRT.FT                 0.0000: 
STOP.FT              2430.7500: 
STEP.FT                 0.2500: 
NULL.                -999.2500: 
COMP.          Petrogulf Corporation: COMPANY
WELL.             Leier 17-42V: WELL
FLD.           Purgatorie River: FIELD
LOC.           2309' FNL & 1062' FEL: LOCATION
PROV.                 Colorado: PROVINCE
CNTY.               Las Animas: COUNTRY
SRVC.                Patterson: SERVICE COMPANY
DATE.          Thu Oct 06 10:18:00 2005: LOG DATE
UWI.                          : UNIQUE WELL ID
~Curve Information Block
DEPT.FT            0 000 00 00: Depth
CCL.                          : Casing Collar Locator
TT3.usec                      : CBL 3' Travel Time
AMP3.mV                       : CBL 3' Amplitude
GR.GAPI                       : Gamma Ray
~Parameter Information Block
~A  Depth       CCL         TT3         AMP3         GR     
# ...
  1273.0000     -2.0000    849.3007      8.7898    137.0881
  1273.2500     -2.0000    836.4275      8.7778    132.7113
  1273.5000      0.0000    816.7532      8.6278    127.5064
  1273.7500      0.0000    802.7245      8.3556    121.6698
  1274.0000      0.0000    797.8151      8.1053    115.8350
  1274.2500      0.0000    795.3782      8.1181    111.0948
  1274.5000      0.0000    788.8970      8.4492    108.1556
  1274.7500      0.0000    782.6548      8.7886    106.5535
  1275.0000      0.0000    784.0169      8.8229    104.8945
  1275.2500      0.0000    793.5110      8.6033    102.0431
  1275.5000      0.0000    808.1335      8.3323     97.9907
  1275.7500      0.0000    824.9199      8.1013     93.6119
  1276.0000      0.0000    839.2885      7.9345     89.8755
  1276.2500      0.0000    847.4443      7.8515     87.2863
  1276.5000      0.0000    851.3003      7.8386     85.6039
  1276.7500      0.0000    855.3456      7.8423     83.7237
  1277.0000      0.0000    860.2377      7.8270     80.1786
  1277.2500      0.0000    865.0296      7.8307     74.4077
  1277.5000      0.0000    871.0309      7.9288     67.5857
  1277.7500      0.0000    879.1166      8.1220     61.7775
  1278.0000      0.0000    886.2480      8.3221     58.2116
  1278.2500      0.0000    887.2771      8.4716     56.5440
  1278.5000      0.0000    877.3726      8.6035     55.4977
  1278.7500      0.0000    853.8917      8.7701     53.8566
  1279.0000      0.0000    820.7944      8.9728     51.1248
  1279.2500      0.0000    787.8375      9.1762     47.7951
  1279.5000      0.0000    762.9808      9.3563     45.1722
  1279.7500      0.0000    748.5959      9.5319     44.8320
  1280.0000      0.0000    742.7307      9.7528     48.0304
  1280.2500      0.0000    741.6530     10.0555     55.2604
  1280.5000      0.0000    742.2825     10.4443     65.9214
  1280.7500      0.0000    743.2027     10.9151     78.2340
  1281.0000      0.0000    744.7637     11.4618     89.7714
  1281.2500      0.0000    748.4969     12.0572     98.4110
  1281.5000      0.0000    754.0344     12.6517    103.0205
  1281.7500      0.0000    755.9220     13.1916    103.6384
  1282.0000      0.0000    749.7824     13.6398    101.4171
  1282.2500      0.0000    742.3777     13.9995     98.2314
  1282.5000      0.0000    743.1907     14.3349     95.8177
  1282.7500      0.0000    748.7762     14.7674     94.9515
  1283.0000      0.0000    750.0936     15.4235     95.3306
  1283.2500      0.0000    746.5309     16.3434     96.1345
  1283.5000      0.0000    742.4260     17.4070     96.6489
  1283.7500      0.0000    739.8660     18.3670     96.2841
  1284.0000      0.0000    739.8911     19.0023     94.2623
  1284.2500      0.0000    743.4958     19.2514     90.1474
  1284.5000      0.0000    748.4102     19.1864     85.0110
  1284.7500      0.0000    751.8327     18.8985     81.3269
  1285.0000      0.0000    757.0344     18.4468     81.2856
  1285.2500      0.0000    767.4846     17.8743     85.5314
  1285.5000      0.0000    777.3039     17.1786     93.2545
  1285.7500      0.0000    779.1339     16.2936    102.7723
  1286.0000      0.0000    776.4948     15.1965    112.1304
  1286.2500      0.0000    776.7976     13.9942    119.8031
  1286.5000      0.0000    779.5092     12.8554    125.1745
  1286.7500      0.0000    779.6013     11.9011    128.5567
  1287.0000      0.0000    775.6957     11.1577    130.8271
  1287.2500      0.0000    771.0130     10.5673    132.6898
  1287.5000      0.0000    769.2707     10.0259    134.1267
  1287.7500      0.0000    771.8927      9.4534    134.7371
  1288.0000      0.0000    777.9079      8.8674    134.5181
  1288.2500      0.0000    784.2388      8.3605    134.0475
  1288.5000      0.0000    788.2473      7.9735    133.9813
  1288.7500      0.0000    789.9407      7.6339    134.5548
  1289.0000      0.0000    790.5068      7.2655    135.4894
  1289.2500      0.0000    790.5651      6.8695    136.2280
  1289.5000      0.0000    790.2100      6.4527    136.2208
  1289.7500      0.0000    789.3861      6.0080    134.9898
  1290.0000      0.0000    787.4785      5.5756    132.1404
  1290.2500      0.0000    783.2448      5.2279    127.7434
  1290.5000      0.0000    777.2258      5.0060    122.6347
  1290.7500      0.0000    773.6172      4.8934    117.8633
  1291.0000      0.0000    775.7364      4.8505    114.0820
  1291.2500      0.0000    781.2421      4.8648    111.9421
  1291.5000      0.0000    785.7986      4.9390    112.5425
  1291.7500      0.0000    787.8334      5.0630    116.6617
  1292.0000      0.0000    787.9694      5.2293    123.6702
  1292.2500      0.0000    787.0038      5.4433    131.5968
  1292.5000      0.0000    784.5551      5.7110    138.1440
  1292.7500      0.0000    779.0288      6.0262    141.6702
  1293.0000      0.0000    771.2535      6.3765    141.7791
  1293.2500      0.0000    766.9473      6.7636    139.5473
  1293.5000      0.0000    769.0928      7.1802    137.0483
  1293.7500      0.0000    771.5301      7.5767    136.0314
  1294.0000      0.0000    769.2762      7.8893    136.8073
  1294.2500      0.0000    767.9336      8.1019    138.3761
  1294.5000      0.0000    773.7172      8.2710    139.3462
  1294.7500      0.0000    782.9886      8.4896    138.6352
  1295.0000      0.0000    789.1766      8.8234    135.8263
  1295.2500      0.0000    791.1752      9.2595    131.4068
  1295.5000      0.0000    791.2526      9.7121    126.7251
  1295.7500      0.0000    791.0565     10.0836    123.4489
  1296.0000      0.0000    791.0057     10.2999    122.6551
  1296.2500      0.0000    791.0181     10.3253    123.9739
  1296.5000      0.0000    790.9805     10.2414    125.5130
  1296.7500      0.0000    790.8651     10.2957    125.0657
  1297.0000      0.0000    790.7521     10.7862    121.8701
  1297.2500      0.0000    790.7341     11.8812    117.3786
  1297.5000      0.0000    790.5097     13.5806    114.0762
  1297.7500      0.0000    787.7273     15.8263    113.3115
  1298.0000      0.0000    773.6155     18.5518    114.2727
  1298.2500      0.0000    731.8558     21.5960    114.8619
  1298.5000      0.0000    658.5979     24.6176    113.1912
  1298.7500      0.0000    590.5204     27.1629    108.4757
  1299.0000      0.0000    573.0834     29.0314    101.2803
  1299.2500      0.0000    584.3029     30.6611     93.3056
  1299.5000      0.0000    553.2266     32.8226     86.5897
  1299.7500      0.0000    465.5066     35.7004     82.5165
  1300.0000      0.0000    379.1856     38.5182     81.4520
  1300.2500      0.0000    346.1915     40.1635     83.0807
  1300.5000      0.0000    382.6404     40.0007     86.7802
  1300.7500      0.0000    483.5198     38.2572     91.7723
  1301.0000      0.0000    613.3740     35.7899     97.1846
  1301.2500      0.0000    717.2202     33.3193    102.1631
  1301.5000      0.0000    767.7220     31.0360    106.0208
  1301.7500      0.0000    770.9911     29.0385    108.4048
  1302.0000      0.0000    732.7046     27.6841    109.3474
  1302.2500      0.0000    660.1216     27.2004    109.1088
  1302.5000      0.0000    595.5842     27.1904    108.1415
  1302.7500      0.0000    595.7336     26.8555    107.4291
  1303.0000      0.0000    660.4983     25.7490    108.4522
  1303.2500      0.0000    733.8082     24.0531    112.1347
  1303.5000      0.0000    777.0123     22.1081    117.7681
  1303.7500      0.0000    794.5048     20.0382    123.4262
  1304.0000      0.0000    801.5234     17.8233    127.4859
  1304.2500      0.0000    802.7689     15.4770    129.4556
  1304.5000      0.0000    797.1718     13.1611    129.4891
  1304.7500      0.0000    785.9182     11.1140    127.8089
  1305.0000      0.0000    773.1522      9.4602    124.8211
  1305.2500      0.0000    765.8695      8.1813    121.2383
  1305.5000      0.0000    770.7595      7.1984    117.6627
  1305.7500      0.0000    785.7621      6.4121    114.2255
  1306.0000      0.0000    799.9381      5.7486    110.7714
  1306.2500      0.0000    802.7452      5.2000    107.2682
