~Version Information
VERS.                      2.0: CWLS Log ASCII Standard - VERSION 2.0
WRAP.                       NO: One line per depth step
~Well Information Block
STRT.FT               523.0000: 
STOP.FT              1709.0000: 
STEP.FT                 0.1000: 
NULL.                -999.2500: 
COMP.          Evergreen Operating Corporation: COMPANY
WELL.            Rimrock 14-29: WELL
FLD.           Purgatorie River: FIELD
LOC.           945' FSL & 604' FWL: LOCATION
PROV.                 Colorado: PROVINCE
CNTY.               Las Animas: COUNTRY
SRVC.                         : SERVICE COMPANY
DATE.          Tue Sep 21 04:15:40 2004: LOG DATE
UWI.           05 071 08136 00: UNIQUE WELL ID
~Curve Information Block
DEPT.FT            0 000 00 00: Depth
DCAL.in                       : CDL Caliper
RHOB.g/cc                     : CDL Bulk Density
RHOC.g/cc                     : CDL Density Correction
DPOR.pu                       : CDL Density Porosity
GR.GAPI                       : Gamma Ray
NPOR.pu                       : Neutron Porosity
~Parameter Information Block
~A  Depth       DCAL        RHOB        RHOC        DPOR         GR         NPOR    
# ...
  1463.8000      7.8604      2.5765      0.0587      4.4551    100.6993     22.7873
  1463.9000      7.8604      2.5625      0.0802      5.3046    104.0308     22.8210
  1464.0000      7.8891      2.5487      0.0172      6.1393    102.8360     22.6007
  1464.1000      7.8891      2.5481      0.0075      6.1771     98.2240     22.2411
  1464.2000      7.8891      2.5620      0.0501      5.3344     94.4134     21.8536
  1464.3000      7.8756      2.5742      0.0610      4.5928     93.5831     21.5286
  1464.4000      7.8756      2.5774      0.0594      4.3994     95.2600     21.5356
  1464.5000      7.8548      2.5738      0.0687      4.6200     97.6711     21.9816
  1464.6000      7.8548      2.5633      0.0469      5.2540     97.9005     22.2800
  1464.7000      7.8548      2.5466      0.0672      6.2689     94.9383     22.0798
  1464.8000      7.8778      2.5290      0.0234      7.3344     90.5879     21.7951
  1464.9000      7.8778      2.5235      0.0135      7.6644     88.4356     21.6637
  1465.0000      7.8846      2.5332      0.0478      7.0780     89.8584     21.6056
  1465.1000      7.8846      2.5419      0.0662      6.5515     91.8637     21.4220
  1465.2000      7.8846      2.5341      0.0841      7.0224     91.5860     20.9777
  1465.3000      7.8771      2.5212     -0.0010      7.8077     89.7881     20.5101
  1465.4000      7.8771      2.5273      0.0491      7.4369     88.7502     20.2400
  1465.5000      7.8711      2.5482      0.0743      6.1706     90.5024     20.0471
  1465.6000      7.8711      2.5675      0.0596      4.9990     93.2289     19.8865
  1465.7000      7.8711      2.5809      0.1289      4.1870     91.7539     19.7595
  1465.8000      7.8809      2.5851      0.1250      3.9306     86.7025     19.5454
  1465.9000      7.8809      2.5768      0.1338      4.4387     83.0750     19.4578
  1466.0000      7.8657      2.5551      0.1253      5.7515     83.8283     19.8918
  1466.1000      7.8657      2.5257      0.0800      7.5346     90.5462     20.7888
  1466.2000      7.8657      2.5040      0.0685      8.8486    100.5461     21.7854
  1466.3000      7.8615      2.5064      0.0442      8.7048    106.0102     22.3620
  1466.4000      7.8615      2.5274      0.0836      7.4304    106.3318     22.1084
  1466.5000      7.8863      2.5417      0.0960      6.5613    107.7267     21.4681
  1466.6000      7.8863      2.5415      0.0909      6.5783    110.3277     21.4285
  1466.7000      7.8863      2.5392      0.0808      6.7160    109.6636     21.9988
  1466.8000      7.8772      2.5402      0.1096      6.6544    108.4365     22.3338
  1466.9000      7.8772      2.5433      0.0827      6.4650    110.5461     22.1767
  1467.0000      7.8745      2.5523      0.0958      5.9207    111.5688     21.8605
  1467.1000      7.8745      2.5618      0.0961      5.3443    108.2075     21.7562
  1467.2000      7.8745      2.5608      0.1108      5.4078    104.2758     21.9052
  1467.3000      7.8988      2.5569      0.0671      5.6406    103.5328     21.9355
  1467.4000      7.8988      2.5615      0.0923      5.3607    105.6521     21.7680
  1467.5000      7.8899      2.5646      0.1017      5.1787    109.2390     21.5929
  1467.6000      7.8899      2.5574      0.0944      5.6092    112.3779     21.4808
  1467.7000      7.8899      2.5479      0.1076      6.1904    115.1559     21.3683
  1467.8000      7.8853      2.5387      0.0851      6.7485    118.3970     21.1621
  1467.9000      7.8853      2.5331      0.0324      7.0859    119.5552     21.1597
  1468.0000      7.8943      2.5431      0.0600      6.4782    115.0882     21.6373
  1468.1000      7.8943      2.5593      0.0833      5.4986    107.1453     22.1999
  1468.2000      7.8943      2.5586      0.0410      5.5365    101.8768     22.4605
  1468.3000      7.8780      2.5446      0.0203      6.3892    100.9826     22.6804
  1468.4000      7.8780      2.5353      0.0251      6.9537    102.1554     22.9790
  1468.5000      7.8804      2.5330      0.0450      7.0883    103.3044     23.0103
  1468.6000      7.8804      2.5374      0.0133      6.8261    103.5513     22.7857
  1468.7000      7.8804      2.5504      0.0511      6.0346    101.6582     22.5553
  1468.8000      7.8805      2.5608      0.0587      5.4076     98.0046     22.2786
  1468.9000      7.8805      2.5602      0.0557      5.4402     97.4984     21.8789
  1469.0000      7.8786      2.5586      0.0486      5.5411    100.4561     21.5300
  1469.1000      7.8786      2.5611      0.0783      5.3895    100.4239     21.2272
  1469.2000      7.8786      2.5585      0.0512      5.5457     93.3852     20.8694
  1469.3000      7.8786      2.5479      0.0207      6.1903     85.1885     20.7419
  1469.4000      7.8786      2.5403     -0.0082      6.6485     84.6149     20.8973
  1469.5000      7.8785      2.5457      0.0387      6.3189     88.2716     21.2088
  1469.6000      7.8785      2.5643      0.0182      5.1963     85.9613     21.7485
  1469.7000      7.8785      2.5822      0.0613      4.1089     79.0073     22.1394
  1469.8000      7.8555      2.5822      0.0581      4.1072     75.8544     21.7922
  1469.9000      7.8555      2.5724      0.0239      4.7006     77.3309     20.8397
  1470.0000      7.8884      2.5707      0.0361      4.8032     78.6721     20.1455
  1470.1000      7.8884      2.5769      0.0313      4.4306     78.2622     20.1838
  1470.2000      7.8884      2.5831      0.0599      4.0566     77.8498     20.4465
  1470.3000      7.8673      2.5846      0.0400      3.9657     76.6548     20.3897
  1470.4000      7.8673      2.5777      0.0628      4.3838     72.0147     20.1498
  1470.5000      7.8692      2.5596      0.0146      5.4799     66.0736     20.0671
  1470.6000      7.8692      2.5377      0.0153      6.8080     64.4155     20.3118
  1470.7000      7.8692      2.5268     -0.0090      7.4693     66.9965     20.7753
  1470.8000      7.8573      2.5307      0.0633      7.2289     70.2777     20.9827
  1470.9000      7.8573      2.5383      0.0542      6.7720     73.9101     20.7097
  1471.0000      7.8806      2.5431      0.0195      6.4784     76.7030     20.2893
  1471.1000      7.8806      2.5451      0.0450      6.3587     76.6564     20.0421
  1471.2000      7.8806      2.5409      0.0415      6.6099     75.6234     20.0112
  1471.3000      7.8775      2.5353      0.0364      6.9525     75.7060     19.8989
  1471.4000      7.8775      2.5367      0.0518      6.8652     77.5501     19.5039
  1471.5000      7.8660      2.5421      0.0477      6.5391     80.2279     19.2904
  1471.6000      7.8660      2.5452      0.0463      6.3504     80.9323     19.5692
  1471.7000      7.8660      2.5518      0.0558      5.9525     79.2476     19.8514
  1471.8000      7.8703      2.5692      0.0699      4.8950     75.9827     19.9299
  1471.9000      7.8703      2.5910      0.1038      3.5781     73.8279     20.1626
  1472.0000      7.8595      2.6026      0.1023      2.8742     75.4355     20.4512
  1472.1000      7.8595      2.5958      0.1270      3.2834     77.2904     20.5478
  1472.2000      7.8595      2.5730      0.1008      4.6676     75.4068     20.6251
  1472.3000      7.8639      2.5444      0.0889      6.4009     71.1494     20.5419
  1472.4000      7.8639      2.5218      0.0440      7.7702     70.2925     19.9896
  1472.5000      7.8847      2.5146      0.0354      8.2055     74.4254     19.2894
  1472.6000      7.8847      2.5201      0.0563      7.8732     77.8389     19.0203
  1472.7000      7.8847      2.5279      0.0577      7.3998     74.5317     19.2254
  1472.8000      7.8825      2.5389      0.0728      6.7315     66.3204     19.3314
  1472.9000      7.8825      2.5556      0.1017      5.7204     62.9007     19.1582
  1473.0000      7.8750      2.5689      0.1110      4.9171     70.0961     19.2695
  1473.1000      7.8750      2.5693      0.1145      4.8903     81.2629     19.6337
  1473.2000      7.8750      2.5639      0.0725      5.2201     85.1443     19.7287
  1473.3000      7.8814      2.5689      0.1156      4.9133     82.1358     19.6653
