~Version Information
VERS.                      2.0: CWLS Log ASCII Standard - VERSION 2.0
WRAP.                       NO: One line per depth step
~Well Information Block
STRT.FT                10.0000: 
STOP.FT              1066.5000: 
STEP.FT                 0.2500: 
NULL.                -999.2500: 
COMP.          Pioneer Natural Resources: COMPANY
WELL.            Redland 23-24: WELL
FLD.           Purgatoire River: FIELD
LOC.           2356' FSL & 1880' FWL----: LOCATION
PROV.                 Colorado: PROVINCE
CNTY.               Las Animas: COUNTRY
SRVC.                         : SERVICE COMPANY
DATE.          Thu Mar 24 10:01:02 2005: LOG DATE
UWI.           05 071 08221   : UNIQUE WELL ID
~Curve Information Block
DEPT.FT            0 000 00 00: Depth
CCL.                          : Casing Collar Locator
TT3.usec                      : CBL 3' Travel Time
AMP3.mV                       : CBL 3' Amplitude
AMP5.mV                       : CBL 5' Amplitude
GR.GAPI                       : Gamma Ray
~Parameter Information Block
~A  Depth       CCL         TT3         AMP3        AMP5         GR     
# ...
   290.0000      0.0000    859.4248      5.3841      2.9984     75.8211
   290.2500      0.0000    864.7830      5.5987      3.7819     76.4243
   290.5000      0.0000    865.4285      5.7344      2.1280     77.4782
   290.7500      0.0000    862.1339      5.7849      2.8244     79.1462
   291.0000      0.0000    856.1920      5.7694      3.7819     80.5878
   291.2500      0.0000    851.3149      5.7077      3.7819     80.8956
   291.5000      0.0000    852.6538      5.6170      2.9984     79.9937
   291.7500      0.0000    862.0465      5.5162      3.2596     78.5245
   292.0000      0.0000    875.3014      5.4250      3.0855     77.1269
   292.2500      0.0000    886.0972      5.3640      3.2596     76.0540
   292.5000      0.0000    891.8608      5.3551      2.9984     75.3382
   292.7500      0.0000    894.6246      5.4077      3.5207     75.1010
   293.0000      0.0000    897.0745      5.5007      2.9984     75.6310
   293.2500      0.0000    899.2863      5.5800      2.3021     77.1315
   293.5000      0.0000    899.1418      5.5821      2.2150     79.3308
   293.7500      0.0000    894.8765      5.4751      2.7373     81.5635
   294.0000      0.0000    886.8801      5.2943      3.2596     83.3456
   294.2500      0.0000    877.4445      5.1303      2.9984     84.4667
   294.5000      0.0000    868.6437      5.0578      2.8244     84.5095
   294.7500      0.0000    860.6953      5.0648      2.5632     83.0777
   295.0000      0.0000    853.2467      5.0696      2.6503     80.6869
   295.2500      0.0000    848.1955      5.0109      1.7798     78.7462
   295.5000      0.0000    849.3327      4.9095      2.5632     78.3752
   295.7500      0.0000    857.9818      4.8388      2.8244     79.5232
   296.0000      0.0000    870.4844      4.8522      2.4762     81.2304
   296.2500      0.0000    881.3068      4.9379      2.7373     82.5220
   296.5000      0.0000    887.1776      5.0287      1.6057     82.9625
   296.7500      0.0000    887.0865      5.0525      1.1705     82.5259
   297.0000      0.0000    880.2659      4.9865      1.9539     81.3354
   297.2500      0.0000    866.6100      4.8726      1.6057     79.8029
   297.5000      0.0000    849.1681      4.7816      2.3021     78.7407
   297.7500      0.0000    834.8071      4.7680      2.6503     78.8824
   298.0000      0.0000    830.9517      4.8510      2.1280     80.1415
   298.2500      0.0000    840.5126      5.0118      1.8668     81.4174
   298.5000      0.0000    859.3420      5.2009      2.0409     81.3160
   298.7500      0.0000    879.0053      5.3594      2.2150     79.3056
   299.0000      0.0000    892.3561      5.4509      3.1725     76.2663
   299.2500      0.0000    896.9227      5.4752      2.4762     73.8877
   299.5000      0.0000    894.6398      5.4556      2.9114     73.5767
   299.7500      0.0000    890.0263      5.4190      2.6503     75.7919
   300.0000      0.0000    887.8353      5.3841      3.4337     79.9466
   300.2500      0.0000    890.2865      5.3650      3.2596     84.7177
   300.5000      0.0000    895.8698      5.3776      4.4782     88.7737
   300.7500      0.0000    901.2990      5.4343      3.4337     91.5781
   301.0000      0.0000    904.4656      5.5265      4.2171     93.4820
   301.2500      0.0000    905.3538      5.6166      3.6078     95.0385
   301.5000      0.0000    904.7651      5.6620      3.4337     96.3533
   301.7500      0.0000    902.5618      5.6483      3.8689     96.9430
   302.0000      0.0000    896.5688      5.6000      3.6078     95.9051
   302.2500      0.0000    882.8389      5.5531      3.4337     92.2082
   302.5000      0.0000    858.3055      5.5201      3.6078     85.2721
   302.7500      0.0000    825.3866      5.4849      3.2596     75.8259
   303.0000      0.0000    794.0134      5.4352      3.0855     66.2503
   303.2500      0.0000    776.6257      5.3923      3.8689     59.5435
   303.5000      0.0000    779.5715      5.3970      3.9560     57.4934
   303.7500      0.0000    799.6879      5.4650      3.6948     59.6717
   304.0000      0.0000    828.3318      5.5646      3.8689     64.0290
   304.2500      0.0000    856.9703      5.6367      3.2596     68.4257
   304.5000      0.0000    879.9203      5.6356      2.6503     71.8075
   304.7500      0.0000    894.8763      5.5557      2.5632     74.2006
   305.0000      0.0000    902.4749      5.4260      2.5632     76.0151
   305.2500      0.0000    905.0610      5.2826      3.1725     77.6890
   305.5000      0.0000    905.2039      5.1508      2.6503     79.6558
   305.7500      0.0000    904.6223      5.0525      2.7373     82.0359
   306.0000      0.0000    903.5217      5.0100      2.5632     84.3806
   306.2500      0.0000    900.3459      5.0294      2.7373     86.0385
   306.5000      0.0000    892.2402      5.0868      3.2596     86.5864
   306.7500      0.0000    876.5493      5.1454      3.1725     85.6949
   307.0000      0.0000    853.1757      5.1810      2.1280     83.0095
   307.2500      0.0000    826.5402      5.1888      2.8244     78.6296
   307.5000      0.0000    804.5790      5.1726      2.7373     73.5856
   307.7500      0.0000    793.9361      5.1328      2.5632     69.4743
   308.0000      0.0000    795.1515      5.0607      2.3891     67.5399
   308.2500      0.0000    803.3893      4.9449      3.0855     68.0520
   308.5000      0.0000    814.1973      4.7862      2.8244     70.2620
   308.7500      0.0000    826.9856      4.6063      2.7373     72.7570
   309.0000      0.0000    841.9179      4.4383      2.2150     74.1263
   309.2500      0.0000    855.5247      4.3052      2.6503     73.8887
   309.5000      0.0000    861.8144      4.2103      2.2150     73.0122
   309.7500      0.0000    857.8115      4.1463      2.8244     73.1653
   310.0000      0.0000    847.1351      4.1106      1.7798     75.0240
   310.2500      0.0000    838.1107      4.1039      2.3891     77.3527
   310.5000      0.0000    837.9282      4.1146      2.3021     77.9857
   310.7500      0.0000    847.1550      4.1147      1.5187     75.6921
   311.0000      0.0000    859.1705      4.0806      2.3021     71.0386
   311.2500      0.0000    865.6367      4.0135      2.3891     65.7581
   311.5000      0.0000    863.2473      3.9367      1.9539     61.6166
   311.7500      0.0000    855.8170      3.8753      2.7373     59.6220
   312.0000      0.0000    849.8865      3.8463      2.4762     59.7774
   312.2500      0.0000    847.7230      3.8598      2.6503     61.5184
   312.5000      0.0000    845.0332      3.9142      2.9114     64.6955
   312.7500      0.0000    836.4429      3.9857      2.2150     69.9393
   313.0000      0.0000    822.1558      4.0371      1.8668     77.5225
   313.2500      0.0000    807.8010      4.0446      1.6927     85.9754
   313.5000      0.0000    798.5736      4.0168      2.1280     92.5577
   313.7500      0.0000    795.2541      3.9885      2.4762     95.3916
   314.0000      0.0000    795.3985      4.0015      2.4762     94.8373
   314.2500      0.0000    796.5673      4.0856      3.3466     92.8064
   314.5000      0.0000    797.9579      4.2475      2.8244     91.1848
   314.7500      0.0000    800.2172      4.4634      2.9114     91.0180
   315.0000      0.0000    804.4312      4.6780      2.6503     92.6500
   315.2500      0.0000    810.7773      4.8190      3.0855     95.8452
   315.5000      0.0000    817.5504      4.8339      2.7373     99.4452
   315.7500      0.0000    822.2521      4.7264      2.2150    101.4225
   316.0000      0.0000    824.4158      4.5539      2.6503    100.0415
   316.2500      0.0000    826.5948      4.3818      2.7373     95.1298
   316.5000      0.0000    831.7006      4.2490      2.2150     88.0172
   316.7500      0.0000    839.9744      4.1705      2.5632     80.3286
   317.0000      0.0000    849.1409      4.1532      1.3446     73.0957
   317.2500      0.0000    856.8200      4.1975      1.6057     66.9473
   317.5000      0.0000    862.4044      4.2964      1.6927     62.7101
   317.7500      0.0000    866.8243      4.4324      2.1280     61.3861
