~Version Information
VERS.                      2.0: CWLS Log ASCII Standard - VERSION 2.0
WRAP.                       NO: One line per depth step
~Well Information Block
STRT.FT               387.1000: 
STOP.FT              1748.0000: 
STEP.FT                 0.1000: 
NULL.                -999.2500: 
COMP.          Evergreen Operating Corp.: COMPANY
WELL.          Pachorek 13-31 Tr: WELL
FLD.           Cottontail Pass: FIELD
LOC.           1575' FSL & 900' FWL--API# 05-071-07019-00: LOCATION
PROV.                 Colorado: PROVINCE
CNTY.               Las Animas: COUNTRY
SRVC.          Scientific Data Systems, Inc.: SERVICE COMPANY
DATE.          Tue Aug 08 15:02:37 2000: LOG DATE
UWI.                      05071070190000:UNIQUE WELL IDENTIFICATION
~Curve Information Block
DEPT.FT            0 000 00 00: Depth
DCAL.in                       : CDL Caliper
RHOB.g/cc                     : CDL Bulk Density
RHOC.g/cc                     : CDL Density Correction
DPOR.pu                       : CDL Density Porosity
GR.GAPI                       : Gamma Ray
NPOR.pu                       : Neutron Porosity
~Parameter Information Block
~A  Depth       DCAL        RHOB        RHOC        DPOR         GR         NPOR    
# ...
   751.9000      7.8916      2.4637      0.0491     11.2921    106.4702     13.4977
   752.0000      7.8613      2.4639      0.0509     11.2767    106.5107     13.5377
   752.1000      7.8613      2.4643      0.0517     11.2551    106.6916     13.5725
   752.2000      7.8613      2.4647      0.0518     11.2317    106.9601     13.6011
   752.3000      7.8501      2.4650      0.0516     11.2094    107.2457     13.6237
   752.4000      7.8501      2.4654      0.0512     11.1902    107.4713     13.6412
   752.5000      7.8564      2.4656      0.0512     11.1751    107.5704     13.6543
   752.6000      7.8564      2.4658      0.0515     11.1654    107.4969     13.6638
   752.7000      7.8564      2.4658      0.0523     11.1620    107.2457     13.6707
   752.8000      7.8690      2.4658      0.0536     11.1661    106.8653     13.6766
   752.9000      7.8690      2.4655      0.0553     11.1794    106.4512     13.6849
   753.0000      7.8753      2.4651      0.0573     11.2039    106.1484     13.7015
   753.1000      7.8753      2.4645      0.0594     11.2418    106.1366     13.7356
   753.2000      7.8753      2.4636      0.0614     11.2952    106.6049     13.7993
   753.3000      7.8763      2.4625      0.0633     11.3660    107.7285     13.9072
   753.4000      7.8763      2.4610      0.0648     11.4552    109.6467     14.0744
   753.5000      7.8783      2.4592      0.0660     11.5629    112.4408     14.3153
   753.6000      7.8783      2.4572      0.0668     11.6875    116.1226     14.6412
   753.7000      7.8783      2.4549      0.0672     11.8263    120.6307     15.0593
   753.8000      7.8823      2.4524      0.0675     11.9745    125.8402     15.5719
   753.9000      7.8823      2.4499      0.0676     12.1261    131.5678     16.1762
   754.0000      7.8842      2.4475      0.0679     12.2731    137.5957     16.8655
   754.1000      7.8842      2.4453      0.0685     12.4063    143.6895     17.6301
   754.2000      7.8842      2.4435      0.0694     12.5154    149.6211     18.4591
   754.3000      7.8855      2.4423      0.0708     12.5894    155.1859     19.3421
   754.4000      7.8855      2.4418      0.0725     12.6166    160.2225     20.2703
   754.5000      7.8997      2.4423      0.0745     12.5857    164.6161     21.2369
   754.6000      7.8997      2.4440      0.0765     12.4854    168.3066     22.2371
   754.7000      7.8997      2.4470      0.0784     12.3057    171.2774     23.2677
   754.8000      7.9205      2.4514      0.0800     12.0378    173.5599     24.3255
   754.9000      7.9205      2.4574      0.0812     11.6752    175.2105     25.4063
   755.0000      7.9215      2.4650      0.0817     11.2135    176.3098     26.5039
   755.1000      7.9215      2.4743      0.0815     10.6515    176.9513     27.6090
   755.2000      7.9215      2.4851      0.0806      9.9914    177.2322     28.7094
   755.3000      7.9290      2.4976      0.0790      9.2393    177.2497     29.7898
   755.4000      7.9290      2.5113      0.0766      8.4051    177.0944     30.8324
   755.5000      7.9548      2.5262      0.0737      7.5026    176.8392     31.8178
   755.6000      7.9548      2.5419      0.0700      6.5494    176.5361     32.7261
   755.7000      7.9548      2.5582      0.0658      5.5662    176.2059     33.5380
   755.8000      7.9642      2.5745      0.0610      4.5760    175.8377     34.2362
   755.9000      7.9642      2.5905      0.0556      3.6032    175.3927     34.8061
   756.0000      7.9543      2.6059      0.0495      2.6722    174.8168     35.2369
   756.1000      7.9543      2.6202      0.0428      1.8065    174.0570     35.5233
   756.2000      7.9543      2.6331      0.0353      1.0271    173.0755     35.6653
   756.3000      7.9472      2.6442      0.0273      0.3510    171.8714     35.6696
   756.4000      7.9472      2.6535      0.0188     -0.2091    170.4831     35.5489
   756.5000      7.9441      2.6607      0.0102     -0.6458    168.9910     35.3212
   756.6000      7.9441      2.6658      0.0017     -0.9572    167.5034     35.0089
   756.7000      7.9441      2.6689     -0.0062     -1.1473    166.1462     34.6364
   756.8000      7.9295      2.6702     -0.0133     -1.2248    165.0427     34.2286
   756.9000      7.9295      2.6698     -0.0193     -1.2027    164.2964     33.8086
   757.0000      7.9064      2.6681     -0.0240     -1.0976    163.9867     33.3966
   757.1000      7.9064      2.6653     -0.0274     -0.9279    164.1538     33.0087
   757.2000      7.9064      2.6618     -0.0297     -0.7134    164.8037     32.6572
   757.3000      7.8944      2.6578     -0.0310     -0.4734    165.9036     32.3503
   757.4000      7.8944      2.6537     -0.0314     -0.2269    167.3922     32.0932
   757.5000      7.8984      2.6499     -0.0313      0.0090    169.1791     31.8892
   757.6000      7.8984      2.6464     -0.0307      0.2190    171.1545     31.7407
   757.7000      7.8984      2.6436     -0.0297      0.3900    173.1916     31.6493
   757.8000      7.9044      2.6416     -0.0282      0.5109    175.1607     31.6176
   757.9000      7.9044      2.6406     -0.0265      0.5724    176.9362     31.6477
   758.0000      7.9063      2.6406     -0.0245      0.5673    178.4150     31.7417
   758.1000      7.9063      2.6419     -0.0221      0.4896    179.5240     31.9000
   758.2000      7.9063      2.6445     -0.0196      0.3346    180.2351     32.1204
   758.3000      7.9078      2.6484     -0.0167      0.0991    180.5696     32.3967
   758.4000      7.9078      2.6536     -0.0136     -0.2192    180.5974     32.7175
   758.5000      7.9103      2.6602     -0.0102     -0.6207    180.4286     33.0669
   758.6000      7.9103      2.6682     -0.0065     -1.1042    180.2020     33.4244
   758.7000      7.9103      2.6775     -0.0024     -1.6659    180.0573     33.7671
   758.8000      7.9131      2.6879      0.0022     -2.2994    180.1203     34.0715
   758.9000      7.9131      2.6994      0.0073     -2.9946    180.4767     34.3160
   759.0000      7.9175      2.7117      0.0133     -3.7374    181.1685     34.4824
   759.1000      7.9175      2.7244      0.0200     -4.5094    182.1789     34.5579
   759.2000      7.9175      2.7372      0.0275     -5.2877    183.4430     34.5348
   759.3000      7.9222      2.7497      0.0357     -6.0448    184.8614     34.4108
   759.4000      7.9222      2.7614      0.0443     -6.7499    186.3125     34.1876
   759.5000      7.9226      2.7716      0.0529     -7.3692    187.6765     33.8701
   759.6000      7.9226      2.7798      0.0609     -7.8681    188.8426     33.4657
   759.7000      7.9226      2.7855      0.0674     -8.2128    189.7271     32.9832
   759.8000      7.9189      2.7881      0.0717     -8.3727    190.2725     32.4326
   759.9000      7.9189      2.7873      0.0729     -8.3226    190.4487     31.8253
   760.0000      7.9161      2.7827      0.0706     -8.0451    190.2510     31.1739
   760.1000      7.9161      2.7743      0.0643     -7.5321    189.7021     30.4931
   760.2000      7.9161      2.7620      0.0543     -6.7864    188.8418     29.7986
   760.3000      7.9146      2.7461      0.0409     -5.8218    187.7377     29.1075
   760.4000      7.9146      2.7269      0.0252     -4.6625    186.4724     28.4374
   760.5000      7.9120      2.7051      0.0085     -3.3421    185.1543     27.8057
   760.6000      7.9120      2.6814     -0.0077     -1.9009    183.9046     27.2282
   760.7000      7.9120      2.6563     -0.0221     -0.3838    182.8523     26.7185
   760.8000      7.9187      2.6308     -0.0333      1.1637    182.1174     26.2866
   760.9000      7.9187      2.6055     -0.0407      2.6975    181.7995     25.9387
   761.0000      7.9513      2.5811     -0.0441      4.1785    181.9612     25.6760
   761.1000      7.9513      2.5580     -0.0436      5.5740    182.6169     25.4955
   761.2000      7.9513      2.5368     -0.0399      6.8600    183.7228     25.3896
   761.3000      7.9922      2.5177     -0.0338      8.0211    185.1828     25.3466
   761.4000      7.9922      2.5007     -0.0261      9.0507    186.8605     25.3521
