~Version Information
VERS.                      2.0: CWLS Log ASCII Standard - VERSION 2.0
WRAP.                       NO: One line per depth step
~Well Information Block
STRT.FT                 3.0000: 
STOP.FT              1884.7500: 
STEP.FT                 0.2500: 
NULL.                -999.2500: 
COMP.          Pioneer Natural Resources: COMPANY
WELL.          Blackjack 32-11 Tr: WELL
FLD.           Purgatoire River: FIELD
LOC.           2066' FNL & 1453' FEL: LOCATION
PROV.                 Colorado: PROVINCE
CNTY.               Las Animas: COUNTRY
SRVC.                Patterson: SERVICE COMPANY
DATE.          Fri Aug 19 11:07:11 2005: LOG DATE
UWI.           05 071 08310 00: UNIQUE WELL ID
~Curve Information Block
DEPT.FT            0 000 00 00: Depth
CCL.                          : Casing Collar Locator
TT3.usec                      : CBL 3' Travel Time
AMP3.mV                       : CBL 3' Amplitude
GR.GAPI                       : Gamma Ray
~Parameter Information Block
~A  Depth       CCL         TT3         AMP3         GR     
# ...
  1343.0000      0.0000    771.6537     22.9361    106.9977
  1343.2500      0.0000    785.2650     22.8204    107.1626
  1343.5000      0.0000    793.4095     22.8935    108.2241
  1343.7500      0.0000    796.8201     22.9753    108.4792
  1344.0000      0.0000    798.0402     22.8938    106.6884
  1344.2500      0.0000    799.0137     22.5833    103.5965
  1344.5000      0.0000    800.7929     22.1012    101.2497
  1344.7500      0.0000    803.9553     21.5787    101.0901
  1345.0000      0.0000    808.5287     21.1529    102.9845
  1345.2500      0.0000    813.5305     20.9112    105.7794
  1345.5000      0.0000    816.9988     20.8652    108.4892
  1345.7500      0.0000    817.2312     20.9477    110.9402
  1346.0000      0.0000    813.9326     21.0246    113.2940
  1346.2500      0.0000    807.5602     20.9088    115.0639
  1346.5000      0.0000    797.8077     20.4137    115.0613
  1346.7500      0.0000    784.2585     19.4600    112.5751
  1347.0000      0.0000    769.2720     18.1427    108.2991
  1347.2500      0.0000    758.8147     16.6438    103.7625
  1347.5000      0.0000    758.4822     15.0959    100.0481
  1347.7500      0.0000    768.5042     13.6150     97.4089
  1348.0000      0.0000    783.5848     12.4167     95.8095
  1348.2500      0.0000    797.5698     11.7427     95.0328
  1348.5000     -2.3108    807.6139     11.6445     94.1699
  1348.7500      3.0000    814.2593     11.9085     91.8911
  1349.0000      3.0000    818.5574     12.2008     87.8223
  1349.2500     -2.1375    819.5421     12.3072     83.2346
  1349.5000      0.0000    814.5524     12.3130     79.9520
  1349.7500      0.0000    801.8164     12.5672     78.8698
  1350.0000      0.0000    781.7986     13.3941     79.8185
  1350.2500      0.0000    756.6077     14.7899     82.2842
  1350.5000      0.0000    730.4067     16.4363     85.5787
  1350.7500      0.0000    710.5996     17.9835     88.5610
  1351.0000      0.0000    705.1023     19.2599     90.0500
  1351.2500      0.0000    715.9293     20.2561     89.8061
  1351.5000      0.0000    736.8610     21.0266     88.6795
  1351.7500      0.0000    758.7486     21.6309     87.5567
  1352.0000      0.0000    775.8304     22.1105     86.5087
  1352.2500      0.0000    786.9491     22.4914     85.2226
  1352.5000      0.0000    793.3407     22.8163     83.9004
  1352.7500      0.0000    796.7127     23.1703     83.2589
  1353.0000      0.0000    798.4631     23.6457     83.7303
  1353.2500      0.0000    799.4328     24.2516     84.9439
  1353.5000      0.0000    799.9194     24.8508     85.9189
  1353.7500      0.0000    799.8289     25.2089     85.7026
  1354.0000      0.0000    798.8152     25.1368     84.1112
  1354.2500      0.0000    796.5859     24.6210     82.0423
  1354.5000      0.0000    793.0937     23.8437     80.8749
  1354.7500      0.0000    787.9368     23.0689     81.2970
  1355.0000      0.0000    778.6345     22.4789     82.6647
  1355.2500      0.0000    759.4173     22.0975     83.5475
  1355.5000      0.0000    723.6708     21.8440     82.9343
  1355.7500      0.0000    670.3898     21.6366     80.9243
  1356.0000      0.0000    608.6340     21.4478     78.3404
  1356.2500      0.0000    553.2413     21.2932     75.9965
  1356.5000      0.0000    514.7611     21.1931     74.5726
  1356.7500      0.0000    493.9924     21.1458     74.8459
  1357.0000      0.0000    485.1755     21.1350     77.3171
  1357.2500      0.0000    482.0663     21.1591     81.2644
  1357.5000      0.0000    480.9837     21.2495     84.5815
  1357.7500      0.0000    480.5300     21.4552     85.2127
  1358.0000      0.0000    480.3562     21.8016     82.9797
  1358.2500      0.0000    480.3736     22.2461     79.7751
  1358.5000      0.0000    480.5046     22.6651     77.8103
  1358.7500      0.0000    480.6401     22.9142     77.7742
  1359.0000      0.0000    480.5298     22.9335     78.7600
  1359.2500      0.0000    479.6666     22.7949     79.7190
  1359.5000      0.0000    477.3655     22.6319     80.4967
  1359.7500      0.0000    473.2684     22.5307     81.3026
  1360.0000      0.0000    468.0915     22.4940     81.7265
  1360.2500      0.0000    463.6554     22.4843     80.9635
  1360.5000      0.0000    461.6219     22.4741     78.9076
  1360.7500      0.0000    462.2141     22.4536     76.4620
  1361.0000      0.0000    464.8025     22.4087     74.6285
  1361.2500      0.0000    469.9011     22.3148     73.6914
  1361.5000      0.0000    480.5781     22.1608     73.3917
  1361.7500      0.0000    502.3573     21.9724     73.3821
  1362.0000      0.0000    541.0461     21.8024     73.3019
  1362.2500      0.0000    598.0059     21.6953     72.8133
  1362.5000      0.0000    665.8877     21.6732     71.8294
  1362.7500      0.0000    730.7699     21.7566     70.4689
  1363.0000      0.0000    780.9967     21.9768     68.7318
  1363.2500      0.0000    814.5120     22.3404     66.5150
  1363.5000      0.0000    837.5197     22.7899     64.0686
  1363.7500      0.0000    856.7038     23.2374     62.2585
  1364.0000      0.0000    873.1216     23.6430     62.1683
  1364.2500      0.0000    882.3782     24.0263     64.2848
  1364.5000      0.0000    878.9461     24.3866     67.8918
  1364.7500      0.0000    858.7725     24.6597     71.2603
  1365.0000      0.0000    817.9131     24.7945     72.6605
  1365.2500      0.0000    752.1628     24.8496     71.6608
  1365.5000      0.0000    663.0599     24.9549     69.7815
  1365.7500      0.0000    564.5955     25.1779     69.6380
  1366.0000      0.0000    480.4240     25.4603     72.9026
  1366.2500      0.0000    432.5077     25.6725     78.8088
  1366.5000      0.0000    431.1057     25.6954     84.6186
  1366.7500      0.0000    471.3595     25.4880     87.5935
  1367.0000      0.0000    536.4855     25.1405     86.6840
  1367.2500      0.0000    605.9098     24.8589     82.7179
  1367.5000      0.0000    662.8275     24.8444     77.5259
  1367.7500      0.0000    696.3859     25.1464     72.9500
  1368.0000      0.0000    700.2949     25.6236     70.1782
  1368.2500      0.0000    672.1881     26.0656     69.6335
  1368.5000      0.0000    615.5929     26.3735     71.3591
  1368.7500      0.0000    542.0390     26.6268     75.2604
  1369.0000      0.0000    467.9477     26.9831     80.7017
  1369.2500      0.0000    406.2711     27.5239     86.1876
  1369.5000      0.0000    361.4677     28.1795     90.0036
  1369.7500      0.0000    332.0070     28.7731     91.3215
  1370.0000      0.0000    314.9546     29.1350     90.5291
  1370.2500      0.0000    307.8745     29.2016     88.5544
  1370.5000      0.0000    309.7404     29.0346     86.2547
  1370.7500      0.0000    322.0058     28.7586     84.6074
  1371.0000      0.0000    347.8212     28.4659     84.8426
  1371.2500      0.0000    387.8889     28.1590     87.6383
  1371.5000      0.0000    435.6103     27.7802     92.1903
  1371.7500      0.0000    476.9645     27.2925     96.3852
  1372.0000      0.0000    497.6799     26.7434     97.9357
  1372.2500      0.0000    492.4425     26.2688     95.5465
  1372.5000      0.0000    467.1855     26.0274     89.6095
  1372.7500      0.0000    433.1309     26.0849     82.2155
  1373.0000      0.0000    400.9960     26.3318     76.3022
  1373.2500      0.0000    380.7324     26.5221     74.3571
  1373.5000      0.0000    381.9494     26.4226     77.3617
  1373.7500      0.0000    409.7573     25.9667     84.3749
  1374.0000      0.0000    458.9642     25.2881     92.8869
  1374.2500      0.0000    513.1374     24.6092     99.9561
  1374.5000      0.0000    551.4366     24.0917    103.6162
  1374.7500      0.0000    560.2628     23.7798    103.7405
  1375.0000      0.0000    541.4942     23.6421    101.8876
  1375.2500      0.0000    509.6634     23.6263    100.2710
  1375.5000      0.0000    480.7111     23.6832    100.4721
  1375.7500      0.0000    463.0406     23.7673    102.7441
  1376.0000      0.0000    456.8215     23.8296    106.2177
  1376.2500      0.0000    458.4771     23.8145    109.4916
