~Version Information
VERS.                      2.0: CWLS Log ASCII Standard - VERSION 2.0
WRAP.                       NO: One line per depth step
~Well Information Block
STRT.FT                -4.0000: 
STOP.FT              2464.0000: 
STEP.FT                 0.2500: 
NULL.                -999.2500: 
COMP.          Pioneer Natural Resources: COMPANY
WELL.            Rancher 12-35: WELL
FLD.           Purgatorie River: FIELD
LOC.           2131' FNL & 297' FWL--: LOCATION
PROV.                       CO: PROVINCE
CNTY.               Las Animas: COUNTRY
SRVC.                         : SERVICE COMPANY
DATE.          Wed Oct 20 13:17:53 2004: LOG DATE
UWI.                          : UNIQUE WELL ID
~Curve Information Block
DEPT.FT            0 000 00 00: Depth
GR.GAPI                       : Gamma Ray
CCL.                          : Casing Collar Locator
TT3.usec                      : CBL 3' Travel Time
AMP3.mV                       : CBL 3' Amplitude
~Parameter Information Block
~A  Depth        GR         CCL         TT3         AMP3    
# ...
  2441.5000     82.7147      0.0000    557.4843      8.4276
  2441.7500     82.2287      0.0000    527.8307      8.4816
  2442.0000     81.0305      0.0000    516.7595      8.5828
  2442.2500     78.6019      0.0000    526.8566      8.7070
  2442.5000     75.5560      0.0000    555.9532      8.8050
  2442.7500     72.9209      0.0000    596.4682      8.8405
  2443.0000     71.1767      0.0000    638.0598      8.8155
  2443.2500     70.2394      0.0000    673.1777      8.7633
  2443.5000     70.2101      0.0000    700.8244      8.7190
  2443.7500     71.6325      0.0000    724.1878      8.6991
  2444.0000     74.8419      0.0000    744.8536      8.7007
  2444.2500     79.2930      0.0000    760.7594      8.7133
  2444.5000     83.7651      0.0000    769.4383      8.7290
  2444.7500     87.1276      0.0000    770.9574      8.7476
  2445.0000     88.6988      0.0000    767.0797      8.7758
  2445.2500     88.1745      0.0000    758.9424      8.8259
  2445.5000     85.8837      0.0000    746.7538      8.9063
  2445.7500     83.1323      0.0000    732.1911      9.0114
  2446.0000     81.5026      0.0000    720.3859      9.1224
  2446.2500     81.3839      0.0000    717.7019      9.2144
  2446.5000     81.7048      0.0000    726.5303      9.2609
  2446.7500     81.5606      0.0000    743.1283      9.2414
  2447.0000     81.4917      0.0000    761.1123      9.1547
  2447.2500     82.3347      0.0000    776.1326      9.0238
  2447.5000     83.2568      0.0000    786.9229      8.8841
  2447.7500     82.2655      0.0000    793.6205      8.7686
  2448.0000     78.9497      0.0000    796.9465      8.6973
  2448.2500     75.6290      0.0000    798.6562      8.6725
  2448.5000     75.1705      0.0000    800.9882      8.6751
  2448.7500     78.1155      0.0000    804.9106      8.6754
  2449.0000     82.1725      0.0000    809.4834      8.6545
  2449.2500     84.1171      0.0000    813.1687      8.6178
  2449.5000     82.1146      0.0000    815.2599      8.5837
  2449.7500     76.8288      0.0000    816.0189      8.5623
  2450.0000     70.9921      0.0000    815.9824      8.5509
  2450.2500     67.7499      0.0000    815.3724      8.5431
  2450.5000     68.4080      0.0000    813.2943      8.5262
  2450.7500     71.2217      0.0000    805.9431      8.4522
  2451.0000     72.8999      0.0000    783.7722      8.1875
  2451.2500     71.7580      0.0000    730.8242      7.4954
  2451.5000     69.0971      0.0000    632.0686      6.1412
  2451.7500     67.4605      0.0000    488.5219      4.1195
  2452.0000     68.1783      0.0000    325.9685      1.7943
  2452.2500     70.8226      0.0000    182.5771     -0.2758
  2452.5000     74.2379      0.0000     84.0528     -1.7059
  2452.7500     77.4435      0.0000     31.3256     -2.4738
  2453.0000     79.8873      0.0000      9.3481     -2.7945
  2453.2500     81.3807      0.0000      2.2135     -2.8987
  2453.5000     81.8870      0.0000      0.4096     -2.9250
  2453.7500     81.4712      0.0000   -999.2500   -999.2500
  2454.0000     80.6896      0.0000   -999.2500   -999.2500
  2454.2500     80.7448      0.0000   -999.2500   -999.2500
  2454.5000     82.6399      0.0000   -999.2500   -999.2500
  2454.7500     86.0715      0.0000   -999.2500   -999.2500
  2455.0000     89.5738      0.0000   -999.2500   -999.2500
  2455.2500     91.9305      0.0000   -999.2500   -999.2500
  2455.5000     93.1878      0.0000   -999.2500   -999.2500
  2455.7500     94.0662      0.0000   -999.2500   -999.2500
  2456.0000     94.6191      0.0000   -999.2500   -999.2500
  2456.2500     94.0068      0.0000   -999.2500   -999.2500
  2456.5000     91.7163      0.0000   -999.2500   -999.2500
  2456.7500     88.4898      0.0000   -999.2500   -999.2500
  2457.0000     85.7301      0.0000   -999.2500   -999.2500
  2457.2500     84.2012      0.0000   -999.2500   -999.2500
  2457.5000     83.4084      0.0000   -999.2500   -999.2500
  2457.7500     82.1951      0.0000   -999.2500   -999.2500
  2458.0000     79.9921      0.0000   -999.2500   -999.2500
  2458.2500     77.3896      0.0000   -999.2500   -999.2500
  2458.5000     75.4492      0.0000   -999.2500   -999.2500
  2458.7500     74.6560      0.0000   -999.2500   -999.2500
  2459.0000     74.5960      0.0000   -999.2500   -999.2500
  2459.2500     74.4129      0.0000   -999.2500   -999.2500
  2459.5000     73.3742   -999.2500   -999.2500   -999.2500
  2459.7500     71.1272   -999.2500   -999.2500   -999.2500
  2460.0000     67.8864   -999.2500   -999.2500   -999.2500
  2460.2500     64.6336   -999.2500   -999.2500   -999.2500
  2460.5000     62.7652   -999.2500   -999.2500   -999.2500
  2460.7500     63.0126   -999.2500   -999.2500   -999.2500
  2461.0000     64.5863   -999.2500   -999.2500   -999.2500
  2461.2500     65.3579   -999.2500   -999.2500   -999.2500
  2461.5000     62.8117   -999.2500   -999.2500   -999.2500
  2461.7500     55.2592   -999.2500   -999.2500   -999.2500
  2462.0000     43.0178   -999.2500   -999.2500   -999.2500
  2462.2500     28.7508   -999.2500   -999.2500   -999.2500
  2462.5000     16.0888   -999.2500   -999.2500   -999.2500
  2462.7500      7.3930   -999.2500   -999.2500   -999.2500
  2463.0000      2.7498   -999.2500   -999.2500   -999.2500
  2463.2500      0.8190   -999.2500   -999.2500   -999.2500
  2463.5000      0.1936   -999.2500   -999.2500   -999.2500
  2463.7500      0.0358   -999.2500   -999.2500   -999.2500
  2464.0000      0.0047   -999.2500   -999.2500   -999.2500
