~Version Information
VERS.                      2.0: CWLS Log ASCII Standard - VERSION 2.0
WRAP.                       NO: One line per depth step
~Well Information Block
STRT.FT                 0.0000: 
STOP.FT              2430.7500: 
STEP.FT                 0.2500: 
NULL.                -999.2500: 
COMP.          Petrogulf Corporation: COMPANY
WELL.             Leier 17-42V: WELL
FLD.           Purgatorie River: FIELD
LOC.           2309' FNL & 1062' FEL: LOCATION
PROV.                 Colorado: PROVINCE
CNTY.               Las Animas: COUNTRY
SRVC.                Patterson: SERVICE COMPANY
DATE.          Thu Oct 06 10:18:00 2005: LOG DATE
UWI.                          : UNIQUE WELL ID
~Curve Information Block
DEPT.FT            0 000 00 00: Depth
CCL.                          : Casing Collar Locator
TT3.usec                      : CBL 3' Travel Time
AMP3.mV                       : CBL 3' Amplitude
GR.GAPI                       : Gamma Ray
~Parameter Information Block
~A  Depth       CCL         TT3         AMP3         GR     
# ...
  1139.0000      0.0000    784.2073     17.9280    104.0114
  1139.2500      0.0000    797.8276     18.2786    111.0931
  1139.5000      0.0000    793.8015     18.7474    115.3187
  1139.7500      0.0000    767.6440     19.2136    116.0691
  1140.0000      0.0000    719.2730     19.6328    114.5521
  1140.2500      0.0000    650.2898     19.9971    113.3928
  1140.5000      0.0000    575.7007     20.3480    115.0223
  1140.7500      0.0000    522.4105     20.7658    119.5936
  1141.0000      0.0000    505.0629     21.3757    124.6563
  1141.2500      0.0000    516.8535     22.3608    127.4619
  1141.5000      0.0000    536.9460     23.8220    127.4973
  1141.7500      0.0000    535.9130     25.6069    126.5222
  1142.0000      0.0000    498.3841     27.3549    126.5206
  1142.2500      0.0000    444.5383     28.7217    128.0368
  1142.5000      0.0000    404.8215     29.5911    130.3185
  1142.7500      0.0000    387.0265     30.0827    132.4941
  1143.0000      0.0000    381.8874     30.3549    134.0703
  1143.2500      0.0000    380.8755     30.4580    134.2823
  1143.5000      0.0000    380.7526     30.3863    131.9021
  1143.7500      0.0000    381.2538     30.1659    126.6079
  1144.0000      0.0000    384.0833     29.8161    120.1504
  1144.2500      0.0000    393.4779     29.2545    115.3698
  1144.5000      0.0000    416.1115     28.3429    114.0962
  1144.7500      0.0000    460.8407     27.0749    116.1905
  1145.0000      0.0000    533.5794     25.6022    120.1257
  1145.2500      0.0000    621.8597     24.0563    124.1451
  1145.5000      0.0000    696.7590     22.4724    127.0920
  1145.7500      0.0000    742.5665     20.8512    128.3949
  1146.0000      0.0000    764.6107     19.2205    127.6853
  1146.2500      0.0000    769.8082     17.6600    125.1786
  1146.5000      0.0000    760.9337     16.2461    122.4766
  1146.7500      0.0000    744.3983     14.9840    121.9702
  1147.0000      0.0000    729.6245     13.8655    124.7717
  1147.2500      0.0000    720.9462     12.9421    129.4819
  1147.5000      0.0000    715.8022     12.2534    133.2205
  1147.7500      0.0000    709.4459     11.7537    133.6877
  1148.0000      0.0000    699.1553     11.3677    130.5081
  1148.2500      0.0000    686.6028     11.0522    125.3248
  1148.5000      0.0000    676.1758     10.7777    120.6500
  1148.7500      0.0000    670.1002     10.5050    118.0815
  1149.0000      0.0000    667.4896     10.2166    117.3778
  1149.2500      0.0000    668.6705      9.9643    117.0015
  1149.5000      0.0000    680.5242      9.8558    115.3439
  1149.7500      0.0000    718.4319      9.9780    111.8509
  1150.0000      0.0000    796.5313     10.3206    107.3953
  1150.2500      0.0000    903.9961     10.7651    103.3463
  1150.5000      0.0000    989.7043     11.1784     99.9327
  1150.7500      0.0000    993.1663     11.4973     95.6573
  1151.0000      0.0000    911.6849     11.6881     88.6285
  1151.2500      0.0000    808.1074     11.7226     78.3393
  1151.5000      0.0000    735.4489     11.6129     66.0045
  1151.7500      0.0000    697.8851     11.3693     53.5673
  1152.0000      0.0000    682.1830     10.9608     42.7207
  1152.2500      0.0000    682.3998     10.4038     34.5113
  1152.5000      0.0000    695.7460      9.8282     29.3040
  1152.7500      0.0000    718.4093      9.3840     26.9636
  1153.0000      0.0000    748.8923      9.1343     27.0915
  1153.2500      0.0000    785.9711      9.0845     28.9803
  1153.5000      0.0000    820.3459      9.2219     31.4372
  1153.7500      0.0000    835.8309      9.4853     33.0474
  1154.0000      0.0000    825.6061      9.8154     32.9554
  1154.2500      0.0000    805.2688     10.2309     31.5378
  1154.5000      0.0000    807.4572     10.7720     30.3255
  1154.7500      0.0000    862.9726     11.4397     31.2093
  1155.0000      0.0000    970.1119     12.2422     35.4327
  1155.2500      0.0000   1065.8615     13.2032     42.8939
  1155.5000      0.0000   1069.3889     14.2494     52.3185
  1155.7500      0.0000    981.1351     15.1877     62.4522
  1156.0000      0.0000    877.7565     15.8651     73.1510
  1156.2500      0.0000    809.8082     16.2742     84.8078
  1156.5000      0.0000    772.7631     16.5379     96.6305
  1156.7500      0.0000    752.1498     16.8488    106.1893
  1157.0000      0.0000    742.8373     17.2911    111.2212
  1157.2500      0.0000    742.1622     17.7090    111.8224
  1157.5000      0.0000    748.2700     17.8658    110.5867
  1157.7500      0.0000    759.9753     17.6665    110.4850
  1158.0000      0.0000    773.8838     17.1527    112.7643
  1158.2500      0.0000    785.7522     16.3764    116.8332
  1158.5000      0.0000    795.4177     15.3683    121.4788
  1158.7500      0.0000    805.7908     14.1962    125.6328
  1159.0000      0.0000    816.8723     12.9702    128.3568
  1159.2500      0.0000    825.4393     11.7399    128.7386
  1159.5000      0.0000    830.6711     10.4591    125.8795
  1159.7500      0.0000    835.7836      9.1216    118.9450
  1160.0000      0.0000    842.8558      7.8332    107.6642
  1160.2500      0.0000    848.2211      6.7398     93.1762
  1160.5000      0.0000    847.4759      6.0018     78.1795
  1160.7500      0.0000    846.4646      5.6998     65.6109
  1161.0000      0.0000    859.5515      5.6382     56.9168
  1161.2500      0.0000    892.2404      5.5284     51.8270
  1161.5000      0.0000    934.1216      5.3458     49.7253
  1161.7500      0.0000    978.3605      5.2042     50.5987
  1162.0000     -2.0000   1034.7719      5.1065     54.3821
  1162.2500      2.0000   1098.6123      4.9917     59.9391
  1162.5000      0.0000   1140.8512      4.8210     65.2369
  1162.7500      0.0000   1158.6886      4.5893     68.3604
  1163.0000      0.0000   1162.3483      4.3565     68.2097
  1163.2500      0.0000   1129.4589      4.2332     64.6859
  1163.5000      0.0000   1060.7323      4.2418     58.6819
  1163.7500      0.0000   1014.3014      4.1906     51.7840
  1164.0000      0.0000   1029.0057      3.8841     45.6305
  1164.2500      0.0000   1063.5776      3.4055     41.2263
  1164.5000      0.0000   1046.4277      2.9541     38.7134
  1164.7500      0.0000    983.1840      2.6188     37.7414
  1165.0000      0.0000    951.1104      2.4142     37.9530
  1165.2500      0.0000    987.6897      2.3214     39.1108
  1165.5000      0.0000   1071.6849      2.2980     41.0698
  1165.7500      0.0000   1162.3231      2.3178     43.8332
  1166.0000      0.0000   1195.6735      2.3761     47.4690
  1166.2500      0.0000   1128.3245      2.4780     51.9298
  1166.5000      0.0000    997.0078      2.6331     57.1908
  1166.7500      0.0000    874.8605      2.8626     63.5847
  1167.0000      0.0000    798.0870      3.2294     71.7046
  1167.2500      0.0000    766.4590      3.8341     81.7285
  1167.5000      0.0000    766.1371      4.7295     92.8323
  1167.7500      0.0000    776.7484      5.8832    103.3438
  1168.0000      0.0000    782.2473      7.3135    111.6564
  1168.2500      0.0000    773.3085      9.2025    117.2566
  1168.5000      0.0000    740.5814     11.7595    121.0608
  1168.7500      0.0000    682.7888     15.0409    124.6964
  1169.0000      0.0000    614.6323     18.9853    129.2072
  1169.2500      0.0000    545.1240     23.5120    134.0659
  1169.5000      0.0000    471.2170     28.3936    137.3124
  1169.7500      0.0000    403.1953     33.1245    137.1037
  1170.0000      0.0000    355.9529     37.1631    133.5107
  1170.2500      0.0000    328.3236     40.1183    128.5524
  1170.5000      0.0000    314.1314     41.7157    124.2945
  1170.7500      0.0000    312.3401     41.8272    121.2860
  1171.0000      0.0000    324.7530     40.4062    118.9281
  1171.2500      0.0000    356.8069     37.4212    116.8059
  1171.5000      0.0000    419.8812     33.0784    115.3113
  1171.7500      0.0000    519.9810     27.9681    115.0720
  1172.0000      0.0000    635.1216     22.8362    115.8160
  1172.2500      0.0000    724.4506     18.2620    115.8890
