~Version Information
VERS.                      2.0: CWLS Log ASCII Standard - VERSION 2.0
WRAP.                       NO: One line per depth step
~Well Information Block
STRT.FT               250.0000: 
STOP.FT              1573.7000: 
STEP.FT                 0.1000: 
NULL.                -999.2500: 
COMP.          Pioneer Natural Resources: COMPANY
WELL.          Big Cat Federal 44-1: WELL
FLD.           Purgatoire River: FIELD
LOC.           197' FSL & 973' FEL--: LOCATION
CNTY.               Las Animas: COUNTY
SRVC.                Patterson: SERVICE COMPANY
DATE.          Mon Apr 24 08:33:37 2006: LOG DATE
UWI.           05 071 08042 00: UNIQUE WELL ID
STAT.                 Colorado: STATE
~Curve Information Block
DEPT.FT            0 000 00 00: Depth
DCAL.in                       : CDL Caliper
RHOB.g/cc                     : CDL Bulk Density
RHOC.g/cc                     : CDL Density Correction
DPOR.pu                       : CDL Density Porosity
NPOR.pu                       : Neutron Porosity
GR.GAPI                       : Gamma Ray
~Parameter Information Block
~A  Depth       DCAL        RHOB        RHOC        DPOR        NPOR         GR     
# ...
  1459.6000      7.7586      2.7181      0.0919     -4.1268     40.0786    287.4004
  1459.7000      7.7586      2.7263      0.0470     -4.6252     41.7194    308.2128
  1459.8000      7.7499      2.7557      0.0148     -6.4090     42.9720    338.1151
  1459.9000      7.7499      2.8096      0.0884     -9.6755     43.7377    370.5445
  1460.0000      7.7497      2.8505      0.1462    -12.1535     44.3854    401.7491
  1460.1000      7.7497      2.8516      0.1097    -12.2174     45.1864    435.7461
  1460.2000      7.7497      2.8384      0.0515    -11.4176     45.9664    474.8016
  1460.3000      7.7552      2.8441      0.0271    -11.7653     46.5696    512.0197
  1460.4000      7.7552      2.8548      0.0612    -12.4110     47.1267    541.5017
  1460.5000      7.7640      2.8380      0.0108    -11.3911     47.5920    559.5618
  1460.6000      7.7640      2.8009     -0.0450     -9.1447     47.6692    560.0303
  1460.7000      7.7640      2.7691     -0.0704     -7.2169     47.1504    535.5370
  1460.8000      7.7749      2.7385     -0.0121     -5.3655     46.0671    488.5944
  1460.9000      7.7749      2.7065     -0.0892     -3.4248     44.6697    442.5873
  1461.0000      7.7785      2.6925     -0.0246     -2.5758     43.3430    409.3573
  1461.1000      7.7785      2.6932      0.0649     -2.6169     42.5030    380.5269
  1461.2000      7.7785      2.6876      0.0377     -2.2799     42.1093    357.6784
  1461.3000      7.7713      2.6768      0.0280     -1.6230     41.8314    347.7953
  1461.4000      7.7713      2.6725      0.0441     -1.3654     41.5513    346.1207
  1461.5000      7.7621      2.6834      0.0207     -2.0269     41.3527    343.2490
  1461.6000      7.7621      2.7122      0.0560     -3.7679     41.5220    335.9370
  1461.7000      7.7621      2.7407      0.1044     -5.4949     42.1785    329.9279
  1461.8000      7.7575      2.7575      0.0587     -6.5162     43.1454    333.6000
  1461.9000      7.7575      2.7786      0.0543     -7.7914     44.2181    352.2693
  1462.0000      7.7563      2.8084      0.1012     -9.6029     45.0773    385.7013
  1462.1000      7.7563      2.8245      0.1136    -10.5779     45.6329    425.4072
  1462.2000      7.7563      2.8097      0.1091     -9.6812     46.0435    460.8571
  1462.3000      7.7562      2.7801      0.0373     -7.8821     46.2926    486.2389
  1462.4000      7.7562      2.7733      0.0030     -7.4703     46.5195    498.0382
  1462.5000      7.7566      2.7942      0.0762     -8.7372     46.9655    499.1728
  1462.6000      7.7566      2.8083      0.0615     -9.5951     47.5041    499.6403
  1462.7000      7.7566      2.8040      0.0379     -9.3306     47.7913    508.8599
  1462.8000      7.7616      2.7986      0.0437     -9.0038     47.7037    520.9540
  1462.9000      7.7616      2.8049      0.0098     -9.3860     47.2822    521.5032
  1463.0000      7.7713      2.8226      0.0297    -10.4604     46.7762    504.8869
  1463.1000      7.7713      2.8464      0.0277    -11.9036     46.3855    478.1389
  1463.2000      7.7713      2.8628      0.1018    -12.8989     45.8415    449.8830
  1463.3000      7.7783      2.8543      0.1101    -12.3791     45.0365    417.5637
  1463.4000      7.7783      2.8252      0.0423    -10.6180     44.2531    374.5956
  1463.5000      7.7805      2.7952      0.0520     -8.7998     43.3780    324.7327
  1463.6000      7.7805      2.7769      0.0395     -7.6901     42.2816    280.9482
  1463.7000      7.7805      2.7826      0.0245     -8.0363     41.4976    250.6268
  1463.8000      7.7824      2.8141      0.0539     -9.9451     41.3051    238.6562
  1463.9000      7.7824      2.8471      0.0817    -11.9458     41.3010    245.3105
  1464.0000      7.7817      2.8574      0.0328    -12.5674     41.3024    255.9911
  1464.1000      7.7817      2.8448      0.0578    -11.8054     41.5046    259.9273
  1464.2000      7.7817      2.8238     -0.0395    -10.5331     41.9103    260.8705
  1464.3000      7.7745      2.8079     -0.0076     -9.5690     42.3842    262.8341
  1464.4000      7.7745      2.7949      0.0338     -8.7812     42.7678    262.7991
  1464.5000      7.7628      2.7778      0.0697     -7.7430     42.7975    260.1523
  1464.6000      7.7628      2.7576      0.0342     -6.5194     42.5479    261.6550
  1464.7000      7.7628      2.7422     -0.0021     -5.5850     42.0803    269.9766
  1464.8000      7.7536      2.7346      0.0580     -5.1281     41.4598    280.9900
  1464.9000      7.7536      2.7287      0.0354     -4.7682     41.0163    288.0335
  1465.0000      7.7497      2.7187      0.0174     -4.1652     40.5502    282.5285
  1465.1000      7.7497      2.7044      0.0361     -3.2963     39.6366    266.5506
  1465.2000      7.7497      2.6938      0.0399     -2.6518     38.5377    246.9922
  1465.3000      7.7544      2.6951      0.0260     -2.7357     37.5421    227.3884
  1465.4000      7.7544      2.7026      0.0177     -3.1883     36.5932    211.8577
  1465.5000      7.7639      2.6963      0.0664     -2.8052     35.8363    198.6343
  1465.6000      7.7639      2.6676      0.0382     -1.0640     35.2301    186.4148
  1465.7000      7.7639      2.6349      0.0022      0.9161     34.2440    180.6711
  1465.8000      7.7633      2.6121      0.0571      2.2994     33.2687    179.7744
  1465.9000      7.7633      2.5952     -0.0034      3.3193     33.0055    176.9836
  1466.0000      7.7498      2.5868     -0.0015      3.8310     32.9057    170.8397
  1466.1000      7.7498      2.5937     -0.0106      3.4095     32.5581    157.5248
  1466.2000      7.7498      2.6197      0.0149      1.8354     32.3630    138.3509
  1466.3000      7.7380      2.6531      0.0852     -0.1857     32.1808    123.7460
  1466.4000      7.7380      2.6735      0.0771     -1.4248     31.5439    114.1569
  1466.5000      7.7363      2.6784      0.0693     -1.7206     30.7320    103.1187
  1466.6000      7.7363      2.6768      0.0861     -1.6226     30.0009     92.4155
  1466.7000      7.7363      2.6787      0.0461     -1.7414     28.9372     87.2962
  1466.8000      7.7440      2.6929      0.1151     -2.5987     27.7409     88.2541
  1466.9000      7.7440      2.7095      0.1219     -3.6038     27.2047     89.4302
  1467.0000      7.7571      2.7077      0.0958     -3.4942     27.1947     85.6472
  1467.1000      7.7571      2.6795      0.0901     -1.7866     27.0970     78.3074
  1467.2000      7.7571      2.6429      0.0018      0.4316     26.9113     73.0877
  1467.3000      7.7676      2.6268      0.0094      1.4035     26.8152     73.0655
  1467.4000      7.7676      2.6373      0.0293      0.7708     26.6054     77.2390
  1467.5000      7.7710      2.6542      0.0743     -0.2566     26.2735     83.2722
  1467.6000      7.7710      2.6573      0.0669     -0.4395     26.0665     90.1893
  1467.7000      7.7710      2.6453      0.0305      0.2867     25.9274     99.6682
  1467.8000      7.7744      2.6295      0.0321      1.2411     26.0348    112.5821
  1467.9000      7.7744      2.6144      0.0224      2.1565     26.6505    125.2035
  1468.0000      7.7795      2.6005      0.0091      2.9974     27.4302    133.7142
  1468.1000      7.7795      2.5880      0.0465      3.7583     28.1010    137.3200
  1468.2000      7.7795      2.5728      0.0090      4.6815     28.4290    134.9084
  1468.3000      7.7823      2.5545      0.0308      5.7857     27.7879    126.5046
  1468.4000      7.7823      2.5373     -0.0160      6.8328     26.2828    116.6796
  1468.5000      7.7813      2.5278      0.0289      7.4050     24.8849    109.4735
  1468.6000      7.7813      2.5353     -0.0035      6.9541     23.8652    104.0280
  1468.7000      7.7813      2.5574      0.0232      5.6106     22.8344     96.8179
  1468.8000      7.7794      2.5696      0.0554      4.8756     21.7916     88.7135
  1468.9000      7.7794      2.5594      0.0264      5.4921     20.8839     84.4848
  1469.0000      7.7801      2.5470      0.0361      6.2447     20.1273     83.7441
  1469.1000      7.7801      2.5481      0.0469      6.1731     19.4535     79.3204
