~Version Information
VERS.                      2.0: CWLS Log ASCII Standard - VERSION 2.0
WRAP.                       NO: One line per depth step
~Well Information Block
STRT.FT               528.0000: 
STOP.FT              2251.5000: 
STEP.FT                 0.2500: 
NULL.                -999.2500: 
COMP.          Pioneer Natural Resources: COMPANY
WELL.           Parklane 43-34: WELL
FLD.           Purgatorie River: FIELD
LOC.           1704' FSL & 1119' FEL: LOCATION
PROV.                 Colorado: PROVINCE
CNTY.               Las Animas: COUNTRY
SRVC.                         : SERVICE COMPANY
DATE.          Thu Oct 07 01:37:17 2004: LOG DATE
UWI.           05 071 08162 00: UNIQUE WELL ID
~Curve Information Block
DEPT.FT            0 000 00 00: Depth
LTEN.lb                       : Surface Line Tension
SN.Ohm-m                      : IEL Short Normal
SP.mV                         : IEL Spontaneous Potential
DIR.Ohm-m                     : IEL Induction Resistivity
GR.GAPI                       : Gamma Ray
~Parameter Information Block
~A  Depth       LTEN         SN          SP         DIR          GR     
# ...
  1088.0000    811.8033   2000.0000   2000.0000      9.5303    128.3189
  1088.2500    810.5501   2000.0000   2000.0000      9.8849    127.0258
  1088.5000    810.5778   2000.0000   2000.0000     10.2525    125.4898
  1088.7500    812.8111   2000.0000   2000.0000     10.5931    124.5258
  1089.0000    817.0791   2000.0000   2000.0000     10.8752    123.1733
  1089.2500    821.9468   2000.0000   2000.0000     11.0982    122.4116
  1089.5000    825.2854   2000.0000   2000.0000     11.2920    121.3707
  1089.7500    825.2794   2000.0000   2000.0000     11.4926    120.4659
  1090.0000    821.7557   2000.0000   2000.0000     11.7159    118.3021
  1090.2500    816.7336   2000.0000   2000.0000     11.9483    116.2889
  1090.5000    812.9799   2000.0000   2000.0000     12.1597    112.8365
  1090.7500    811.6874   2000.0000   2000.0000     12.3265    110.5319
  1091.0000    811.8704   2000.0000   2000.0000     12.4452    107.3618
  1091.2500    812.0535   2000.0000   2000.0000     12.5283    105.5562
  1091.5000    812.1209   2000.0000   2000.0000     12.5869    103.5534
  1091.7500    813.2152   2000.0000   2000.0000     12.6163    102.7795
  1092.0000    815.9774   2000.0000   2000.0000     12.5945    102.2720
  1092.2500    819.3205   2000.0000   2000.0000     12.4985    102.1349
  1092.5000    821.1521   2000.0000   2000.0000     12.3249    102.1830
  1092.7500    820.1019   2000.0000   2000.0000     12.0936    102.6610
  1093.0000    816.5631   2000.0000   2000.0000     11.8294    104.3409
  1093.2500    812.4562   2000.0000   2000.0000     11.5423    105.7884
  1093.5000    809.9754   2000.0000   2000.0000     11.2262    107.4730
  1093.7500    810.1445   2000.0000   2000.0000     10.8750    108.0589
  1094.0000    812.3367   2000.0000   2000.0000     10.4980    108.9498
  1094.2500    815.0237   2000.0000   2000.0000     10.1234    110.4190
  1094.5000    816.9314   2000.0000   2000.0000      9.7917    115.0200
  1094.7500    817.8064   2000.0000   2000.0000      9.5444    119.7562
  1095.0000    818.3741   2000.0000   2000.0000      9.4124    128.5866
  1095.2500    819.4006   2000.0000   2000.0000      9.4046    134.8067
  1095.5000    820.7178   2000.0000   2000.0000      9.5020    142.9190
  1095.7500    821.3404   2000.0000   2000.0000      9.6598    146.6210
  1096.0000    820.4791   2000.0000   2000.0000      9.8208    148.8244
  1096.2500    818.2486   2000.0000   2000.0000      9.9378    148.0946
  1096.5000    815.5437   2000.0000   2000.0000      9.9914    144.4347
  1096.7500    813.3996   2000.0000   2000.0000      9.9908    141.0122
  1097.0000    812.2601   2000.0000   2000.0000      9.9595    135.9055
  1097.2500    811.6559   2000.0000   2000.0000      9.9168    133.2291
  1097.5000    810.7788   2000.0000   2000.0000      9.8675    130.6362
  1097.7500    809.6287   2000.0000   2000.0000      9.8020    129.4998
  1098.0000    809.3358   2000.0000   2000.0000      9.7046    127.8853
  1098.2500    810.9289   2000.0000   2000.0000      9.5652    126.8107
  1098.5000    814.0759   2000.0000   2000.0000      9.3862    125.9725
  1098.7500    817.4185   2000.0000   2000.0000      9.1801    126.5064
  1099.0000    819.6378   2000.0000   2000.0000      8.9548    129.4585
  1099.2500    819.9286   2000.0000   2000.0000      8.7015    132.7109
  1099.5000    818.3523   2000.0000   2000.0000      8.3971    138.3990
  1099.7500    816.1633   2000.0000   2000.0000      8.0254    141.7470
  1100.0000    815.0965   2000.0000   2000.0000      7.6000    144.6306
  1100.2500    816.0391   2000.0000   2000.0000      7.1666    144.7466
  1100.5000    818.5035   2000.0000   2000.0000      6.7827    142.4555
  1100.7500    820.9343   2000.0000   2000.0000      6.4956    139.8592
  1101.0000    821.5401   2000.0000   2000.0000      6.3322    135.8540
  1101.2500    819.7222   2000.0000   2000.0000      6.3031    133.9763
  1101.5000    816.9732   2000.0000   2000.0000      6.4167    133.2145
  1101.7500    815.7841   2000.0000   2000.0000      6.6993    134.1635
  1102.0000    817.3283   2000.0000   2000.0000      7.2187    137.4942
  1102.2500    820.2753   2000.0000   2000.0000      8.1144    140.5904
  1102.5000    821.9405   2000.0000   2000.0000      9.6526    145.2720
  1102.7500    820.6268   2000.0000   2000.0000     12.3672    147.4895
  1103.0000    816.9356   2000.0000   2000.0000     17.4984    148.4581
  1103.2500    813.0908   2000.0000   2000.0000     28.8109    147.6459
  1103.5000    811.2690   2000.0000   2000.0000     66.4256    145.3864
  1103.7500    812.3610   2000.0000   2000.0000 100000.0000    143.9061
  1104.0000    815.6483   2000.0000   2000.0000 100000.0000    142.1591
  1104.2500    819.3337   2000.0000   2000.0000 100000.0000    140.9400
  1104.5000    821.6420   2000.0000   2000.0000 100000.0000    137.9550
  1104.7500    821.8076   2000.0000   2000.0000 100000.0000    134.8554
  1105.0000    820.2769   2000.0000   2000.0000 100000.0000    128.9672
  1105.2500    818.0544   2000.0000   2000.0000 100000.0000    124.9725
  1105.5000    815.8229   2000.0000   2000.0000 100000.0000    120.6106
  1105.7500    813.7260   2000.0000   2000.0000 100000.0000    119.7457
  1106.0000    811.9683   2000.0000   2000.0000 100000.0000    122.2994
  1106.2500    811.1841   2000.0000   2000.0000 100000.0000    126.1762
  1106.5000    811.7669   2000.0000   2000.0000 100000.0000    133.0354
  1106.7500    813.1638   2000.0000   2000.0000 100000.0000    136.7065
  1107.0000    814.4146   2000.0000   2000.0000 100000.0000    139.5988
  1107.2500    815.2772   2000.0000   2000.0000 100000.0000    140.4767
  1107.5000    816.3774   2000.0000   2000.0000 100000.0000    142.5175
  1107.7500    818.3674   2000.0000   2000.0000 100000.0000    145.0466
  1108.0000    821.3175   2000.0000   2000.0000      8.8704    149.8539
  1108.2500    824.9618   2000.0000   2000.0000      2.8652    152.8905
  1108.5000    829.0392   2000.0000   2000.0000      1.4208    156.4586
  1108.7500    832.9316   2000.0000   2000.0000      0.8200    158.1419
  1109.0000    835.1163   2000.0000   2000.0000      0.5098    159.2772
  1109.2500    833.7184   2000.0000   2000.0000      0.3307    158.5725
  1109.5000    828.1570   2000.0000   2000.0000      0.2228    154.6114
  1109.7500    820.1697   2000.0000   2000.0000      0.1579    150.2071
  1110.0000    812.7620   2000.0000   2000.0000      0.1190    142.2168
  1110.2500    807.9180   2000.0000   2000.0000      0.0947    136.7694
  1110.5000    805.5032   2000.0000   2000.0000      0.0778    128.8515
  1110.7500    804.3542   2000.0000   2000.0000      0.0649    123.1917
  1111.0000    803.7618   2000.0000   2000.0000      0.0545    112.4076
  1111.2500    803.5900   2000.0000   2000.0000      0.0465    103.0588
  1111.5000    803.6820   2000.0000   2000.0000      0.0408     86.8192
  1111.7500    803.9414   2000.0000   2000.0000      0.0372     76.4138
  1112.0000    804.7328   2000.0000   2000.0000      0.0354     65.3900
  1112.2500    806.5024   2000.0000   2000.0000      0.0355     62.7146
  1112.5000    808.9022   2000.0000   2000.0000      0.0379     66.4040
  1112.7500    810.8173   2000.0000   2000.0000      0.0438     73.4388
  1113.0000    811.6710   2000.0000   2000.0000      0.0549     88.9532
  1113.2500    812.4673   2000.0000   2000.0000      0.0741    101.1141
  1113.5000    814.8762   2000.0000   2000.0000      0.1044    119.0540
  1113.7500    819.1273   2000.0000   2000.0000      0.1488    129.0244
  1114.0000    823.3248   2000.0000   2000.0000      0.2105    138.7219
  1114.2500    825.2432   2000.0000   2000.0000      0.2953    141.2949
  1114.5000    824.5737   2000.0000   2000.0000      0.4162    140.5858
  1114.7500    822.9904   2000.0000   2000.0000      0.5991    138.5765
  1115.0000    822.0129   2000.0000   2000.0000      0.8965    135.9107
  1115.2500    821.1046   2000.0000   2000.0000      1.4162    135.4421
  1115.5000    818.2855   2000.0000   2000.0000      2.3965    137.5900
  1115.7500    812.8206   2000.0000   2000.0000      4.4608    141.0429
