~Version Information
VERS.                      2.0: CWLS Log ASCII Standard - VERSION 2.0
WRAP.                       NO: One line per depth step
~Well Information Block
STRT.FT               890.0000: 
STOP.FT              1588.2000: 
STEP.FT                 0.1000: 
NULL.                -999.2500: 
COMP.          Evergreen Operating Corporation: COMPANY
WELL.            Tomahawk 44-9: WELL
FLD.           Purgatorie River: FIELD
LOC.           434' FSL & 491' FEL: LOCATION
PROV.                 Colorado: PROVINCE
CNTY.               Las Animas: COUNTRY
SRVC.                         : SERVICE COMPANY
DATE.          Mon Sep 13 10:07:57 2004: LOG DATE
UWI.           05 071 08133 00: UNIQUE WELL ID
~Curve Information Block
DEPT.FT            0 000 00 00: Depth
LTEN.lb                       : Surface Line Tension
DCAL.in                       : CDL Caliper
RHOB.g/cc                     : CDL Bulk Density
RHOC.g/cc                     : CDL Density Correction
DPOR.pu                       : CDL Density Porosity
GR.GAPI                       : Gamma Ray
NPOR.pu                       : Neutron Porosity
~Parameter Information Block
~A  Depth       LTEN        DCAL        RHOB        RHOC        DPOR         GR         NPOR    
# ...
  1209.2000   1038.0723      8.1455      2.5503      0.0516      6.0446     63.5412     12.2185
  1209.3000   1067.1344      8.1377      2.5485      0.0309      6.1507     65.3046     13.0111
  1209.4000   1067.1344      8.1377      2.5476      0.0584      6.2055     67.5888     14.2748
  1209.5000   1077.2756      8.1368      2.5445      0.0392      6.3954     65.7991     15.4350
  1209.6000   1077.2756      8.1368      2.5375      0.0292      6.8180     62.0995     15.7600
  1209.7000   1077.2756      8.1368      2.5256      0.0496      7.5417     62.8963     15.1599
  1209.8000   1048.3217      8.1367      2.5115     -0.0116      8.3948     70.8098     14.6265
  1209.9000   1048.3217      8.1367      2.5062      0.0084      8.7132     78.7874     14.6019
  1210.0000   1033.2245      8.1369      2.5123      0.0375      8.3450     78.2057     14.5484
  1210.1000   1033.2245      8.1369      2.5206      0.0146      7.8426     72.8175     14.5450
  1210.2000   1033.2245      8.1369      2.5248      0.0842      7.5868     70.1331     15.1107
  1210.3000   1065.0227      8.1247      2.5284      0.0291      7.3710     71.0371     15.9935
  1210.4000   1065.0227      8.1247      2.5395      0.0417      6.6982     73.6448     16.7577
  1210.5000   1058.5453      8.1191      2.5536      0.0670      5.8418     77.1509     17.1616
  1210.6000   1058.5453      8.1191      2.5613      0.0710      5.3785     82.9151     17.2497
  1210.7000   1058.5453      8.1191      2.5712      0.0309      4.7771     89.8563     17.4405
  1210.8000   1029.4502      8.1205      2.5929      0.1129      3.4598     93.6333     17.8047
  1210.9000   1029.4502      8.1205      2.6100      0.1341      2.4263     94.5070     18.0329
  1211.0000   1055.5016      8.1198      2.6091      0.0971      2.4801     95.0814     17.5919
  1211.1000   1055.5016      8.1198      2.6055      0.0695      2.6959     95.8853     16.4416
  1211.2000   1055.5016      8.1198      2.6095      0.0928      2.4575     97.2677     15.3314
  1211.3000   1068.3679      8.1176      2.6062      0.0764      2.6537     97.4584     14.7760
  1211.4000   1068.3679      8.1176      2.5822      0.0771      4.1104     93.9617     14.6128
  1211.5000   1047.9072      8.1178      2.5429      0.0312      6.4930     88.6960     14.7834
  1211.6000   1047.9072      8.1178      2.5090     -0.0002      8.5471     89.1243     15.3896
  1211.7000   1047.9072      8.1178      2.4945      0.0154      9.4248     95.0668     16.1271
  1211.8000   1100.4817      8.1188      2.4957      0.0015      9.3506     98.6720     16.5919
  1211.9000   1100.4817      8.1188      2.5053      0.0064      8.7668     98.5616     16.7033
  1212.0000   1055.8649      8.1213      2.5174      0.0041      8.0388     94.0619     16.2677
  1212.1000   1055.8649      8.1213      2.5253     -0.0075      7.5563     86.7841     15.6182
  1212.2000   1055.8649      8.1213      2.5271      0.0058      7.4489     84.2122     15.7668
  1212.3000   1061.2490      8.1227      2.5250      0.0210      7.5741     86.7122     16.6332
  1212.4000   1061.2490      8.1227      2.5229      0.0246      7.7051     89.2834     16.8342
  1212.5000   1090.2629      8.1188      2.5202      0.0354      7.8678     91.2940     16.1797
  1212.6000   1090.2629      8.1188      2.5106      0.0468      8.4476     92.5347     15.8708
  1212.7000   1090.2629      8.1188      2.4928      0.0234      9.5295     91.4495     16.2770
  1212.8000   1044.5718      8.1037      2.4759      0.0021     10.5535     87.4436     16.9526
  1212.9000   1044.5718      8.1037      2.4665      0.0143     11.1241     78.6056     17.3167
  1213.0000   1050.8838      8.1017      2.4574      0.0268     11.6723     67.7767     16.8800
  1213.1000   1050.8838      8.1017      2.4403     -0.0024     12.7116     64.0743     15.6275
  1213.2000   1050.8838      8.1017      2.4163      0.0122     14.1657     67.6307     14.5164
  1213.3000   1087.1655      8.1011      2.3973     -0.0114     15.3156     68.6590     14.2615
  1213.4000   1087.1655      8.1011      2.4006      0.0042     15.1135     62.9584     14.6049
  1213.5000   1068.5890      8.1021      2.4222      0.0305     13.8031     57.2744     15.0720
  1213.6000   1068.5890      8.1021      2.4442      0.0493     12.4733     56.8995     15.4745
  1213.7000   1068.5890      8.1021      2.4643      0.0676     11.2560     57.6735     15.7303
  1213.8000   1086.8359      8.1027      2.4811      0.0897     10.2350     55.1888     15.4303
  1213.9000   1086.8359      8.1027      2.4819      0.0538     10.1890     51.6661     14.5360
  1214.0000   1056.6212      8.1033      2.4660      0.0640     11.1502     50.0321     13.9378
  1214.1000   1056.6212      8.1033      2.4523      0.0026     11.9811     50.6247     14.1885
  1214.2000   1056.6212      8.1033      2.4516      0.0500     12.0234     51.7860     14.5407
  1214.3000   1071.8866      8.1046      2.4554      0.0426     11.7917     50.7731     14.2335
  1214.4000   1071.8866      8.1046      2.4572      0.0734     11.6870     49.1760     13.6445
  1214.5000   1069.7125      8.1033      2.4586      0.0515     11.5986     49.7896     13.4991
  1214.6000   1069.7125      8.1033      2.4642      0.0630     11.2585     51.8997     14.0914
  1214.7000   1069.7125      8.1033      2.4738      0.0528     10.6764     52.9576     14.5816
  1214.8000   1055.1184      8.1028      2.4779      0.0927     10.4325     51.9754     14.2158
  1214.9000   1055.1184      8.1028      2.4703      0.0589     10.8888     51.5261     13.4767
  1215.0000   1062.9567      8.1034      2.4625      0.0518     11.3620     53.3993     13.0240
  1215.1000   1062.9567      8.1034      2.4661      0.0472     11.1448     55.8580     12.7904
  1215.2000   1062.9567      8.1034      2.4750      0.0535     10.6040     55.0885     12.2203
  1215.3000   1068.9103      8.1029      2.4774      0.0790     10.4612     49.4450     11.4965
  1215.4000   1068.9103      8.1029      2.4763      0.0730     10.5248     42.9976     11.1573
  1215.5000   1063.1750      8.1035      2.4824      0.0833     10.1588     41.5986     10.8311
  1215.6000   1063.1750      8.1035      2.4926      0.1065      9.5397     44.2402     10.2303
  1215.7000   1063.1750      8.1035      2.4995      0.0847      9.1227     44.8467      9.9785
  1215.8000   1068.5781      8.1040      2.5030      0.1023      8.9113     43.3067     10.3084
  1215.9000   1068.5781      8.1040      2.4997      0.0862      9.1093     44.0878     10.8379
  1216.0000   1067.6868      8.1040      2.4905      0.0747      9.6648     46.2972     11.4383
  1216.1000   1067.6868      8.1040      2.4854      0.0800      9.9733     44.7320     12.0343
  1216.2000   1067.6868      8.1040      2.4851      0.0785      9.9946     40.8092     12.3087
  1216.3000   1074.9155      8.1038      2.4832      0.0705     10.1074     40.0050     12.3910
  1216.4000   1074.9155      8.1038      2.4768      0.0979     10.4976     41.8243     12.4903
  1216.5000   1048.0461      8.1052      2.4637      0.0541     11.2920     45.0689     12.4763
  1216.6000   1048.0461      8.1052      2.4495      0.0416     12.1507     49.9808     12.8874
  1216.7000   1048.0461      8.1052      2.4441      0.0463     12.4781     53.1653     13.9633
  1216.8000   1068.5696      8.1050      2.4519      0.0171     12.0063     52.7236     14.4529
  1216.9000   1068.5696      8.1050      2.4770      0.0547     10.4862     51.5811     13.8493
  1217.0000   1060.7101      8.1052      2.5109      0.1299      8.4330     50.8990     13.3154
  1217.1000   1060.7101      8.1052      2.5251      0.1418      7.5671     53.0876     13.6463
  1217.2000   1060.7101      8.1052      2.5103      0.0987      8.4643     60.1225     14.4058
  1217.3000   1057.5599      8.1039      2.4897      0.0811      9.7148     64.0250     14.8693
  1217.4000   1057.5599      8.1039      2.4819      0.0437     10.1900     60.4236     14.8449
  1217.5000   1072.4838      8.1049      2.4837      0.0285     10.0780     55.5041     14.5437
