~Version Information
VERS.                      2.0: CWLS Log ASCII Standard - VERSION 2.0
WRAP.                       NO: One line per depth step
~Well Information Block
STRT.FT                -7.0000: 
STOP.FT               867.2500: 
STEP.FT                 0.2500: 
NULL.                -999.2500: 
COMP.          Pioneer Natural Resources: COMPANY
WELL.          Claim Jumper 41-22: WELL
FLD.           Purgatorie River: FIELD
LOC.           1120' FNL & 977' FEL--: LOCATION
PROV.                       CO: PROVINCE
CNTY.               Las Animas: COUNTRY
SRVC.          Patterson Wireline: SERVICE COMPANY
DATE.          Mon Jun 27 12:47:30 2005: LOG DATE
UWI.           05 071 08405 00: UNIQUE WELL ID
~Curve Information Block
DEPT.FT            0 000 00 00: Depth
CCL.                          : Casing Collar Locator
TT3.usec                      : CBL 3' Travel Time
AMP3.mV                       : CBL 3' Amplitude
GR.GAPI                       : Gamma Ray
~Parameter Information Block
~A  Depth       CCL         TT3         AMP3         GR     
# ...
   562.5000      0.0000    847.4286      6.1716     39.7060
   562.7500      0.0000    863.6066      6.2136     41.0864
   563.0000      0.0000    872.3526      6.3127     43.4993
   563.2500      0.0000    874.4622      6.4681     46.8741
   563.5000      0.0000    872.3962      6.6716     50.9646
   563.7500      0.0000    869.2370      6.8936     55.1914
   564.0000      0.0000    867.4108      7.0848     58.7402
   564.2500      0.0000    867.9837      7.2013     60.9946
   564.5000      0.0000    870.8715      7.2332     61.8617
   564.7500      0.0000    875.3224      7.2067     61.6471
   565.0000      0.0000    880.2993      7.1620     60.7552
   565.2500      0.0000    884.8192      7.1319     59.5602
   565.5000      0.0000    888.1485      7.1433     58.4305
   565.7500      0.0000    889.8671      7.2273     57.8773
   566.0000      0.0000    889.9477      7.4061     58.5998
   566.2500      0.0000    888.5895      7.6549     60.9005
   566.5000      0.0000    885.7641      7.8867     63.8839
   566.7500      0.0000    881.2735      7.9949     65.8127
   567.0000      0.0000    875.5051      7.9274     65.6054
   567.2500      0.0000    869.6863      7.7227     63.6235
   567.5000      0.0000    865.0087      7.4789     60.8392
   567.7500      0.0000    861.5798      7.2881     57.7775
   568.0000      0.0000    858.2040      7.1890     54.6418
   568.2500      0.0000    852.6078      7.1674     52.0296
   568.5000      0.0000    841.8726      7.1961     50.9527
   568.7500      0.0000    823.1293      7.2716     52.0325
   569.0000      0.0000    795.0193      7.4047     54.7650
   569.2500      0.0000    760.4719      7.5744     57.5932
   569.5000      0.0000    729.3632      7.7180     58.8992
   569.7500      0.0000    715.8633      7.7920     58.2154
   570.0000      0.0000    728.5371      7.8181     56.5260
   570.2500      0.0000    762.4234      7.8335     55.3131
   570.5000      0.0000    803.0469      7.8223     55.3137
   570.7500      0.0000    837.7897      7.7369     56.1312
   571.0000      0.0000    862.3625      7.5607     56.8448
   571.2500      0.0000    879.3286      7.3254     56.9146
   571.5000      0.0000    893.7426      7.0919     56.5221
   571.7500      2.0000    908.7877      6.9236     56.1614
   572.0000      2.0000    921.9711      6.8457     56.0601
   572.2500      0.0000    925.4804      6.8256     55.9098
   572.5000      0.0000    912.8758      6.8247     54.9717
   572.7500      0.0000    885.6031      6.8614     52.5449
   573.0000      0.0000    852.2776      6.9790     48.5650
   573.2500      0.0000    822.8693      7.1580     43.8141
   573.5000      0.0000    804.0320      7.3154     39.5466
   573.7500      0.0000    797.3771      7.3940     36.8550
   574.0000      0.0000    799.7570      7.4064     36.2292
   574.2500      0.0000    805.3788      7.3985     37.5390
   574.5000      0.0000    809.0624      7.4031     40.2569
   574.7500      0.0000    808.4273      7.4211     43.5714
   575.0000      0.0000    803.6291      7.4225     46.4085
   575.2500      0.0000    796.0608      7.3651     47.7615
   575.5000      0.0000    787.5842      7.2247     47.2667
   575.7500      0.0000    780.1315      7.0143     45.4961
   576.0000      0.0000    775.0627      6.7782     43.6658
   576.2500      0.0000    772.7768      6.5673     42.8947
   576.5000      0.0000    772.9340      6.4148     43.4573
   576.7500      0.0000    774.7160      6.3266     44.6780
   577.0000      0.0000    776.8214      6.2884     45.6068
   577.2500      0.0000    777.8248      6.2776     45.6926
   577.5000      0.0000    777.1629      6.2688     44.9199
   577.7500      0.0000    775.8488      6.2356     43.7717
   578.0000      0.0000    776.1253      6.1574     43.0918
   578.2500      0.0000    780.4211      6.0331     43.4278
   578.5000      0.0000    790.0881      5.8897     44.3469
   578.7500      0.0000    804.2047      5.7704     44.8075
   579.0000      0.0000    819.5560      5.7064     44.2618
   579.2500      0.0000    832.6602      5.6973     43.0799
   579.5000      0.0000    842.0963      5.7160     41.9522
   579.7500      0.0000    848.5396      5.7318     41.2169
   580.0000      0.0000    853.0278      5.7284     40.7690
   580.2500      0.0000    856.0223      5.7004     40.3875
   580.5000      0.0000    857.7779      5.6425     39.9684
   580.7500      0.0000    858.7075      5.5488     39.4468
   581.0000      0.0000    859.2396      5.4259     38.6856
   581.2500      0.0000    859.6429      5.2997     37.5289
   581.5000      0.0000    860.0016      5.2040     35.8915
   581.7500      0.0000    860.1611      5.1584     33.8530
   582.0000      0.0000    859.6322      5.1615     31.7706
   582.2500      0.0000    857.6417      5.2000     30.1372
   582.5000      0.0000    853.5464      5.2595     29.1350
   582.7500      0.0000    847.6058      5.3276     28.4574
   583.0000      0.0000    841.4708      5.3939     27.7471
   583.2500      0.0000    837.6334      5.4517     27.1642
   583.5000      0.0000    837.7659      5.4982     27.4025
   583.7500      0.0000    841.1293      5.5311     29.1609
   584.0000      0.0000    844.6592      5.5416     32.6295
   584.2500      0.0000    845.1603      5.5056     37.4363
   584.5000      0.0000    842.1100      5.3913     42.9002
   584.7500      0.0000    839.1533      5.1944     48.1483
   585.0000      0.0000    843.5991      4.9631     52.0998
   585.2500      0.0000    863.1437      4.7627     53.7731
   585.5000      0.0000    899.4706      4.6161     52.9295
   585.7500      0.0000    943.1157      4.5033     50.3866
   586.0000      0.0000    977.5487      4.4129     47.5474
   586.2500      0.0000    992.5100      4.3590     45.5597
   586.5000      0.0000    993.0333      4.3508     44.8503
   586.7500      0.0000    991.8260      4.3772     45.3406
   587.0000      0.0000    993.1752      4.4292     47.0348
   587.2500      0.0000    988.5490      4.5256     50.2571
   587.5000      0.0000    968.9661      4.7111     55.0653
   587.7500      0.0000    938.1467      5.0185     60.5409
   588.0000      0.0000    910.8085      5.4142     65.1380
   588.2500      0.0000    899.1708      5.7880     67.8709
   588.5000      0.0000    902.8466      6.0251     68.9037
   588.7500      0.0000    910.3127      6.0941     69.0252
   589.0000      0.0000    907.7534      6.0481     68.8780
   589.2500      0.0000    888.4587      5.9588     68.6636
   589.5000      0.0000    857.7157      5.8706     68.2066
   589.7500      0.0000    828.7328      5.8002     67.1528
   590.0000      0.0000    812.2253      5.7518     65.3269
   590.2500      0.0000    809.9517      5.7251     63.0739
   590.5000      0.0000    816.9484      5.7171     61.1430
   590.7500      0.0000    826.8098      5.7218     60.1432
   591.0000      0.0000    834.7860      5.7343     60.1603
   591.2500      0.0000    838.9331      5.7590     60.8513
   591.5000      0.0000    840.0959      5.8094     61.8390
   591.7500      0.0000    840.0958      5.8974     63.0951
   592.0000      0.0000    839.4401      6.0230     64.8860
   592.2500      0.0000    837.2507      6.1742     67.1327
   592.5000      0.0000    833.2219      6.3337     68.9761
   592.7500      0.0000    828.7165      6.4825     69.3551
   593.0000      0.0000    825.8065      6.6020     68.0691
   593.2500      0.0000    825.8375      6.6817     66.1518
   593.5000      0.0000    829.0615      6.7275     65.2740
   593.7500      0.0000    835.1680      6.7619     66.7291
   594.0000      0.0000    843.9808      6.8097     70.6075
   594.2500      0.0000    855.4136      6.8807     75.6521
   594.5000      0.0000    868.0402      6.9609     79.9279
   594.7500      0.0000    877.6765      7.0228     81.7788
   595.0000      0.0000    878.9791      7.0492     80.5174
   595.2500      0.0000    869.9826      7.0482     76.6901
   595.5000      0.0000    854.6125      7.0435     71.8178
   595.7500      0.0000    839.7885      7.0522     67.5082
