~Version Information
 VERS.                                  2.0 : CWLS LAS VERSION
 WRAP.                                   NO : WRAPING MODE
 SWARE .                 MController 2.5.0I : SOFTWARE VERSION
~Well Information
 WELL.                       Montoya 12-41v : WELL
 COMP.                       Petrogulf Corp : COMPANY
 FLD.                      Purgatoire River : FIELD
 LOC.                NE/NE Sec 12 T33S R68W : LOCATION
 DATE.                              8/10/04 : DATE(S) LOGGED
 SRVC.       Blanco Geological Services LLc : SERVICE COMPANY
 STAT.                                   CO : STATE
 CNTY.                           Las Animas : COUNTY
 CTRY.                                  USA : COUNTRY
 API.                       05-071-08139-00 : API NUMBER
 STRT.FT                            698.00 : START DEPTH
 STOP.FT                            2660.00 : STOP DEPTH
 STEP.FT                               1.00 : DEPTH INCREMENT
 NULL.                                 9999 : NULL VALUE
~Curve information
 DEPTH.FT                                   :
 ROP.MIN/FT                                 :
 GAS.UNITS                                  :
~ASCII Log data
# ...
      1290.0          0.6          1.9 
      1291.0          0.8          2.0 
      1292.0          0.6          2.0 
      1293.0          0.4          1.5 
      1294.0          0.3          1.4 
      1295.0          0.2          1.5 
      1296.0          0.3          1.5 
      1297.0          0.3          1.7 
      1298.0          0.2          1.6 
      1299.0          0.2          1.5 
      1300.0          0.2          1.5 
      1301.0          0.2          1.6 
      1302.0          0.3          1.5 
      1303.0          0.3          1.5 
      1304.0          0.3          1.5 
      1305.0          0.3          1.4 
      1306.0          0.4          1.5 
      1307.0          0.5          1.8 
      1308.0          0.3          1.3 
      1309.0          0.3          1.6 
      1310.0          0.2          1.7 
      1312.0          0.3          1.7 
      1312.0          0.3          1.8 
      1313.0          0.3          1.9 
      1314.0          0.4          1.9 
      1315.0          0.5          2.0 
      1316.0          3.5          3.3 
      1317.0          0.2          2.2 
      1318.0          0.6          2.6 
      1319.0          0.4          2.8 
      1320.0          0.4          3.5 
      1321.0          0.3          3.5 
      1322.0          0.4          2.7 
      1323.0          0.4          1.9 
      1324.0          0.3          1.3 
      1325.0          0.4          1.4 
      1326.0          0.3          1.3 
      1327.0          0.3          1.2 
      1328.0          0.4          1.2 
      1329.0          0.6          1.1 
      1330.0          0.6          1.1 
      1331.0          0.4          1.2 
      1332.0          0.4          1.1 
      1333.0          0.4          1.2 
      1334.0          0.3          1.3 
      1335.0          0.1          1.0 
      1336.0          0.1          1.3 
      1337.0          0.1          1.3 
      1338.0          0.1          1.7 
      1339.0          0.1          2.2 
      1340.0          0.1          1.5 
      1341.0          0.1          1.3 
      1342.0          0.1          1.3 
      1343.0          0.1          1.4 
      1344.0          0.1          1.4 
      1345.0          0.1          1.2 
      1346.0          5.9          7.9 
      1347.0          0.6          4.9 
      1348.0          0.4          4.2 
      1349.0          0.4          2.6 
      1350.0          0.2          1.5 
      1351.0          0.3          1.4 
      1352.0          0.5          1.4 
      1353.0          0.4          1.4 
      1354.0          0.6          1.3 
      1355.0          0.4          1.3 
      1356.0          0.4          1.2 
      1357.0          0.6          1.2 
      1358.0          0.4          1.2 
      1359.0          0.4          1.2 
      1360.0          0.2          1.2 
      1361.0          0.2          1.0 
      1362.0          0.2          1.2 
      1363.0          0.3          1.4 
      1364.0          0.4          1.2 
      1365.0          0.4          1.5 
      1366.0          0.3          1.5 
      1367.0          0.4          1.6 
      1368.0          0.4          1.6 
      1369.0          0.3          1.7 
      1370.0          0.3          1.6 
      1371.0          0.3          1.5 
      1372.0          0.3          1.6 
      1373.0          0.3          1.5 
      1374.0          0.4          1.7 
      1375.0          0.4          1.7 
      1376.0          4.9          5.8 
      1377.0          0.6          4.1 
      1378.0          0.6          3.5 
      1379.0          0.6          2.0 
      1380.0          0.5          1.6 
      1381.0          0.6          1.3 
      1382.0          0.7          1.4 
      1383.0          0.4          1.4 
      1384.0          0.3          1.4 
      1385.0          0.3          1.6 
      1386.0          0.3          1.4 
      1387.0          0.1          1.4 
      1388.0          0.1          1.3 
      1389.0          0.1          1.2 
      1390.0          0.2          1.3 
      1391.0          0.2          1.4 
      1392.0          0.3          1.5 
      1393.0          0.3          1.5 
      1394.0          0.3          1.2 
      1395.0          0.2          1.3 
      1396.0          0.2          1.4 
      1397.0          0.2          1.6 
      1398.0          0.2          1.6 
      1399.0          0.2          1.7 
      1400.0          0.2          1.8 
      1401.0          0.3          1.6 
      1402.0          0.4          1.3 
      1403.0          0.4          1.3 
      1404.0          0.4          1.1 
      1405.0          0.1          1.2 
      1406.0          4.1          5.5 
      1407.0          0.6          5.2 
      1408.0          0.6          3.9 
      1409.0          0.4          2.6 
      1410.0          0.4          2.0 
      1412.0          0.4          2.3 
      1412.0          0.4          2.6 
      1413.0          0.3          1.9 
      1414.0          0.3          1.3 
      1415.0          0.3          1.4 
      1416.0          0.3          0.9 
      1417.0          0.3          1.0 
      1418.0          0.3          1.1 
      1419.0          0.3          1.2 
      1420.0          0.3          1.3 
      1421.0          0.4          1.4 
      1422.0          0.4          1.2 
      1423.0          0.4          0.9 
      1424.0          0.3          1.1 
      1425.0          0.3          1.0 
      1426.0          0.3          1.3 
      1427.0          0.3          1.2 
      1428.0          0.2          0.8 
      1429.0          0.3          0.8 
      1430.0          0.2          0.6 
      1431.0          0.2          0.4 
      1432.0          0.2          0.2 
      1433.0          0.2          0.3 
      1434.0          0.2          0.2 
      1435.0          0.3          0.3 
      1436.0          4.5          5.7 
      1437.0          0.6          3.8 
      1438.0          0.5          3.1 
      1439.0          0.5          2.5 
      1440.0          0.4          1.4 
      1441.0          0.4          1.4 
      1442.0          0.4          1.2 
      1443.0          0.3          1.2 
      1444.0          0.3          1.1 
      1445.0          0.2          0.9 
      1446.0          0.2          0.8 
      1447.0          0.2          0.8 
      1448.0          0.2          0.7 
      1449.0          0.2          0.6 
      1450.0          0.2          0.6 
      1451.0          0.2          0.6 
      1452.0          0.3          0.8 
      1453.0          0.4          0.8 
      1454.0          0.4          0.9 
      1455.0          0.3          1.1 
      1456.0          0.3          1.4 
      1457.0          0.3          1.7 
      1458.0          0.3          2.1 
      1459.0          0.4          1.8 
      1460.0          0.3          0.8 
      1461.0          0.2          0.3 
      1462.0          0.3          0.2 
      1463.0          0.6          0.3 
      1464.0          0.4          0.3 
      1465.0          0.4          0.5 
      1466.0          5.0          5.7 
      1467.0          0.9          3.2 
      1468.0          0.7          2.5 
      1469.0          0.6          1.4 
      1470.0          0.4          1.3 
      1471.0          0.4          1.2 
      1472.0          0.4          1.2 
      1473.0          0.6          1.4 
      1474.0          0.5          1.2 
      1475.0          0.4          1.3 
      1476.0          0.3          1.3 
      1477.0          0.4          1.2 
      1478.0          0.4          1.5 
      1479.0          0.4          1.7 
      1480.0          0.4          1.8 
      1481.0          0.4          1.8 
      1482.0          0.5          1.5 
      1483.0          0.4          1.7 
      1484.0          0.3          1.8 
      1485.0          0.6          1.9 
      1486.0          0.3          1.7 
      1487.0          0.4          1.6 
      1488.0          0.4          1.3 
      1489.0          0.3          1.1 
