~Version Information
 VERS.                                  2.0 : CWLS LAS VERSION
 WRAP.                                   NO : WRAPING MODE
 SWARE .                 MController 2.5.0J : SOFTWARE VERSION
~Well Information
 WELL.                   Flying Horse 12-11 : WELL
 COMP.    Pioneer Natural Resources USA Inc : COMPANY
 FLD.                      Purgatoire River : FIELD
 LOC.                SW/NW Sec 11 T32S R66W : LOCATION
 DATE.                           5/28-29/05 : DATE(S) LOGGED
 SRVC.       Blanco Geological Services LLC : SERVICE COMPANY
 STAT.                                   CO : STATE
 CNTY.                           Las Animas : COUNTY
 CTRY.                                  USA : COUNTRY
 API.                       05-071-08378-00 : API NUMBER
 STRT.FT                            1495.00 : START DEPTH
 STOP.FT                            2425.00 : STOP DEPTH
 STEP.FT                               1.00 : DEPTH INCREMENT
 NULL.                                -9999 : NULL VALUE
~Curve information
 DEPTH.FT                                   :
 ROP.MIN/FT                                 :
 GAS.UNITS                                  :
~ASCII Log data
# ...
      1695.0         0.23        695.2 
      1696.0         0.20        680.7 
      1697.0         0.20        673.0 
      1698.0         0.25        662.5 
      1699.0         0.20        652.8 
      1700.0         0.20        644.3 
      1701.0         0.20        636.9 
      1702.0         0.20        632.9 
      1703.0         0.23        624.1 
      1704.0         0.17        620.4 
      1705.0         0.20        617.7 
      1706.0         3.12       2209.3 
      1707.0         0.37       2157.4 
      1708.0         0.30       1813.8 
      1709.0         0.17       1503.1 
      1710.0         0.17       1360.3 
      1711.0         0.23       1221.1 
      1712.0         0.20       1060.1 
      1713.0         0.23        965.1 
      1714.0         0.20        894.7 
      1715.0         0.20        844.5 
      1716.0         0.22        799.7 
      1717.0         0.17        767.7 
      1718.0         0.20        744.4 
      1719.0         0.17        722.2 
      1720.0         0.13        710.0 
      1721.0         0.17        694.2 
      1722.0         0.23        666.6 
      1723.0         0.23        696.2 
      1724.0         0.20        720.1 
      1725.0         0.23        727.6 
      1726.0         0.23        726.2 
      1727.0         0.23        712.4 
      1728.0         0.20        697.2 
      1729.0         0.23        685.8 
      1730.0         0.23        675.7 
      1731.0         0.23        662.5 
      1732.0         0.28        645.4 
      1733.0         0.20        630.2 
      1734.0         0.20        625.8 
      1735.0         0.20        623.1 
      1736.0         2.65       1766.3 
      1737.0         0.40       1726.8 
      1738.0         0.37       1695.5 
      1739.0         0.33       1481.9 
      1740.0         0.30       1250.1 
      1741.0         0.27       1087.4 
      1742.0         0.27        978.2 
      1743.0         0.27        893.3 
      1744.0         0.23        824.9 
      1745.0         0.27        787.9 
      1746.0         0.27        766.6 
      1747.0         0.25        747.8 
      1748.0         0.30        729.6 
      1749.0         0.23        709.4 
      1750.0         0.27        695.6 
      1751.0         0.20        679.0 
      1752.0         0.23        669.9 
      1753.0         0.20        659.8 
      1754.0         0.20        648.7 
      1755.0         0.20        633.9 
      1756.0         0.17        608.3 
      1757.0         0.13        577.3 
      1758.0         0.17        534.8 
      1759.0         0.13        484.3 
      1760.0         0.20        476.2 
      1761.0         0.30        567.5 
      1762.0         0.23        641.0 
      1763.0         0.22        673.0 
      1764.0         0.17        676.3 
      1765.0         0.23        672.3 
      1766.0         2.47       1870.4 
      1767.0         0.37       1868.0 
      1768.0         0.32       1777.7 
      1769.0         0.43       1727.2 
      1770.0         0.27       1478.5 
      1771.0         0.27       1294.9 
      1772.0         0.23       1143.6 
      1773.0         0.27       1035.8 
      1774.0         0.20        936.8 
      1775.0         0.20        870.4 
      1776.0         0.23        818.9 
      1777.0         0.17        782.1 
      1778.0         0.13        771.0 
      1779.0         0.13        753.8 
      1780.0         0.20        725.5 
      1781.0         0.20        665.6 
      1782.0         0.22        657.8 
      1783.0         0.23        674.3 
      1784.0         0.20        676.0 
      1785.0         0.20        674.3 
      1786.0         0.17        668.9 
      1787.0         0.20        665.2 
      1788.0         0.17        658.5 
      1789.0         0.17        652.1 
      1790.0         0.30        642.0 
      1791.0         0.37        627.2 
      1792.0         0.17        616.0 
      1793.0         0.17        600.9 
      1794.0         0.17        601.2 
      1795.0         0.23        603.2 
      1796.0         2.05       1448.6 
      1797.0         0.33       1840.4 
      1798.0         0.40       2065.1 
      1799.0         0.17       2072.5 
      1800.0         0.20       2044.9 
      1801.0         0.27       1901.0 
      1802.0         0.17       1651.7 
      1803.0         0.27       1511.9 
      1804.0         0.25       1311.1 
      1805.0         0.20       1163.5 
      1806.0         0.30       1061.1 
      1807.0         0.27        939.5 
      1808.0         0.37        860.6 
      1809.0         0.37        787.5 
      1810.0         0.27        765.3 
      1811.0         0.20        763.9 
      1812.0         0.13        755.9 
      1813.0         0.20        735.0 
      1814.0         0.17        701.6 
      1815.0         0.20        692.2 
      1816.0         0.17        689.2 
      1817.0         0.17        677.4 
      1818.0         0.13        646.0 
      1819.0         0.18        614.7 
      1820.0         0.13        590.1 
      1821.0         0.27        582.0 
      1822.0         0.33        665.6 
      1823.0         0.23        706.0 
      1824.0         0.20        719.8 
      1825.0         0.30        721.2 
      1826.0         2.85       1896.3 
      1827.0         0.33       1816.8 
      1828.0         0.23       1665.9 
      1829.0         0.17       1654.1 
      1830.0         0.17       1614.7 
      1831.0         0.17       1488.6 
      1832.0         0.30       1306.4 
      1833.0         0.33       1111.0 
      1834.0         0.30       1040.6 
      1835.0         0.28        981.9 
      1836.0         0.23        915.2 
      1837.0         0.37        852.9 
      1838.0         0.23        789.2 
      1839.0         0.20        777.8 
      1840.0         0.23        774.1 
      1841.0         0.20        757.2 
      1842.0         0.20        734.6 
      1843.0         0.20        705.7 
      1844.0         0.17        673.0 
      1845.0         0.23        646.4 
      1846.0         0.30        683.1 
      1847.0         0.23        693.5 
      1848.0         0.23        692.2 
      1849.0         0.28        682.7 
      1850.0         0.27        668.9 
      1851.0         0.20        659.8 
      1852.0         0.17        634.2 
      1853.0         0.13        587.1 
      1854.0         0.23        545.3 
      1855.0         0.33        619.4 
      1856.0         3.55       1915.2 
      1857.0         0.50       1851.5 
      1858.0         0.50       1476.5 
      1859.0         0.43       1152.1 
      1860.0         0.33        970.1 
      1861.0         0.25        867.4 
      1862.0         0.20        804.4 
      1863.0         0.23        761.6 
      1864.0         0.23        732.9 
      1865.0         0.20        724.5 
      1866.0         0.20        723.5 
      1867.0         0.20        708.7 
      1868.0         0.20        683.4 
      1869.0         0.20        662.9 
      1870.0         0.20        638.6 
      1871.0         0.23        618.1 
      1872.0         0.23        628.8 
      1873.0         0.20        632.9 
      1874.0         0.20        631.9 
      1875.0         0.33        619.7 
      1876.0         0.22        617.7 
      1877.0         0.20        617.7 
      1878.0         0.27        605.3 
      1879.0         0.33        613.7 
      1880.0         0.23        621.4 
      1881.0         0.30        618.7 
      1882.0         0.27        607.6 
      1883.0         0.20        606.6 
      1884.0         0.13        594.1 
      1885.0         0.20        594.8 
      1886.0         1.85        606.9 
      1887.0         0.17        385.0 
      1888.0         0.23        454.8 
      1889.0         0.23       1091.8 
      1890.0         0.27       1189.1 
      1891.0         0.27       1198.9 
      1892.0         0.23       1180.7 
      1893.0         0.23       1117.0 
      1894.0         0.20       1032.5 
