~Version Information
VERS.                      2.0: CWLS Log ASCII Standard - VERSION 2.0
WRAP.                       NO: One line per depth step
~Well Information Block
STRT.FT                -7.0500: 
STOP.FT              3072.6000: 
STEP.FT                 0.0500: 
NULL.                -999.2500: 
COMP.          Pioneer Natural Resources: COMPANY
WELL.              Stones 24-8: WELL
FLD.           Purgatoire River: FIELD
LOC.           648' FSL & 2264' FWL--: LOCATION
PROV.                 Colorado: PROVINCE
CNTY.               Las Animas: COUNTRY
SRVC.                Patterson: SERVICE COMPANY
DATE.          Fri Feb 04 12:43:19 2005: LOG DATE
UWI.           05 071 07945 00: UNIQUE WELL ID
~Curve Information Block
DEPT.FT            0 000 00 00: Depth
CCL.                          : Casing Collar Locator
TT3.usec                      : CBL 3' Travel Time
AMP3.mV                       : CBL 3' Amplitude
GR.GAPI                       : Gamma Ray
~Parameter Information Block
~A  Depth       CCL         TT3         AMP3         GR     
# ...
  2646.1500      0.0000    606.3071      1.8798     61.4906
  2646.2000      0.0000    606.3071      1.8798     61.4906
  2646.2500      0.0000    604.9788      1.8776     63.8608
  2646.3000      0.0000    604.9788      1.8776     63.8608
  2646.3500      0.0000    604.9788      1.8776     63.8608
  2646.4000      0.0000    604.9788      1.8776     63.8608
  2646.4500      0.0000    604.9788      1.8776     63.8608
  2646.5000      0.0000    609.3877      1.8718     64.8139
  2646.5500      0.0000    609.3877      1.8718     64.8139
  2646.6000      0.0000    609.3877      1.8718     64.8139
  2646.6500      0.0000    609.3877      1.8718     64.8139
  2646.7000      0.0000    609.3877      1.8718     64.8139
  2646.7500      0.0000    617.6362      1.8690     64.8568
  2646.8000      0.0000    617.6362      1.8690     64.8568
  2646.8500      0.0000    617.6362      1.8690     64.8568
  2646.9000      0.0000    617.6362      1.8690     64.8568
  2646.9500      0.0000    617.6362      1.8690     64.8568
  2647.0000      0.0000    627.3875      1.8715     65.0129
  2647.0500      0.0000    627.3875      1.8715     65.0129
  2647.1000      0.0000    627.3875      1.8715     65.0129
  2647.1500      0.0000    627.3875      1.8715     65.0129
  2647.2000      0.0000    627.3875      1.8715     65.0129
  2647.2500      0.0000    637.0948      1.8789     66.9219
  2647.3000      0.0000    637.0948      1.8789     66.9219
  2647.3500      0.0000    637.0948      1.8789     66.9219
  2647.4000      0.0000    637.0948      1.8789     66.9219
  2647.4500      0.0000    637.0948      1.8789     66.9219
  2647.5000      0.0000    646.4540      1.8915     72.4098
  2647.5500      0.0000    646.4540      1.8915     72.4098
  2647.6000      0.0000    646.4540      1.8915     72.4098
  2647.6500      0.0000    646.4540      1.8915     72.4098
  2647.7000      0.0000    646.4540      1.8915     72.4098
  2647.7500      0.0000    655.3565      1.9123     82.6536
  2647.8000      0.0000    655.3565      1.9123     82.6536
  2647.8500      0.0000    655.3565      1.9123     82.6536
  2647.9000      0.0000    655.3565      1.9123     82.6536
  2647.9500      0.0000    655.3565      1.9123     82.6536
  2648.0000      0.0000    662.9003      1.9428     97.1875
  2648.0500      0.0000    662.9003      1.9428     97.1875
  2648.1000      0.0000    662.9003      1.9428     97.1875
  2648.1500      0.0000    662.9003      1.9428     97.1875
  2648.2000      0.0000    662.9003      1.9428     97.1875
  2648.2500      0.0000    667.8375      1.9789    113.2444
  2648.3000      0.0000    667.8375      1.9789    113.2444
  2648.3500      0.0000    667.8375      1.9789    113.2444
  2648.4000      0.0000    667.8375      1.9789    113.2444
  2648.4500      0.0000    667.8375      1.9789    113.2444
  2648.5000      0.0000    669.3882      2.0120    126.6363
  2648.5500      0.0000    669.3882      2.0120    126.6363
  2648.6000      0.0000    669.3882      2.0120    126.6363
  2648.6500      0.0000    669.3882      2.0120    126.6363
  2648.7000      0.0000    669.3882      2.0120    126.6363
  2648.7500      0.0000    667.3000      2.0358    134.3559
  2648.8000      0.0000    667.3000      2.0358    134.3559
  2648.8500      0.0000    667.3000      2.0358    134.3559
  2648.9000      0.0000    667.3000      2.0358    134.3559
  2648.9500      0.0000    667.3000      2.0358    134.3559
  2649.0000      0.0000    661.7124      2.0488    136.4929
  2649.0500      0.0000    661.7124      2.0488    136.4929
  2649.1000      0.0000    661.7124      2.0488    136.4929
  2649.1500      0.0000    661.7124      2.0488    136.4929
  2649.2000      0.0000    661.7124      2.0488    136.4929
  2649.2500      0.0000    653.4501      2.0490    135.2718
  2649.3000      0.0000    653.4501      2.0490    135.2718
  2649.3500      0.0000    653.4501      2.0490    135.2718
  2649.4000      0.0000    653.4501      2.0490    135.2718
  2649.4500      0.0000    653.4501      2.0490    135.2718
  2649.5000      0.0000    644.0878      2.0255    132.5565
  2649.5500      0.0000    644.0878      2.0255    132.5565
  2649.6000      0.0000    644.0878      2.0255    132.5565
  2649.6500      0.0000    644.0878      2.0255    132.5565
  2649.7000      0.0000    644.0878      2.0255    132.5565
  2649.7500      0.0000    635.2390      1.9601    128.7202
  2649.8000      0.0000    635.2390      1.9601    128.7202
  2649.8500      0.0000    635.2390      1.9601    128.7202
  2649.9000      0.0000    635.2390      1.9601    128.7202
  2649.9500      0.0000    635.2390      1.9601    128.7202
  2650.0000      0.0000    627.8956      1.8393    123.4274
  2650.0500      0.0000    627.8956      1.8393    123.4274
  2650.1000      0.0000    627.8956      1.8393    123.4274
  2650.1500      0.0000    627.8956      1.8393    123.4274
  2650.2000      0.0000    627.8956      1.8393    123.4274
  2650.2500      0.0000    622.7911      1.6715    116.6562
  2650.3000      0.0000    622.7911      1.6715    116.6562
  2650.3500      0.0000    622.7911      1.6715    116.6562
  2650.4000      0.0000    622.7911      1.6715    116.6562
  2650.4500      0.0000    622.7911      1.6715    116.6562
  2650.5000      0.0000    621.4562      1.4939    108.7697
  2650.5500      0.0000    621.4562      1.4939    108.7697
  2650.6000      0.0000    621.4562      1.4939    108.7697
  2650.6500      0.0000    621.4562      1.4939    108.7697
  2650.7000      0.0000    621.4562      1.4939    108.7697
  2650.7500      0.0000    626.4920      1.3577    100.2355
  2650.8000      0.0000    626.4920      1.3577    100.2355
  2650.8500      0.0000    626.4920      1.3577    100.2355
  2650.9000      0.0000    626.4920      1.3577    100.2355
  2650.9500      0.0000    626.4920      1.3577    100.2355
  2651.0000      0.0000    639.7390      1.2996     91.7669
  2651.0500      0.0000    639.7390      1.2996     91.7669
  2651.1000      0.0000    639.7390      1.2996     91.7669
  2651.1500      0.0000    639.7390      1.2996     91.7669
  2651.2000      0.0000    639.7390      1.2996     91.7669
  2651.2500      0.0000    659.3826      1.3199     84.3119
  2651.3000      0.0000    659.3826      1.3199     84.3119
  2651.3500      0.0000    659.3826      1.3199     84.3119
  2651.4000      0.0000    659.3826      1.3199     84.3119
  2651.4500      0.0000    659.3826      1.3199     84.3119
  2651.5000      0.0000    679.4628      1.3878     78.4183
  2651.5500      0.0000    679.4628      1.3878     78.4183
  2651.6000      0.0000    679.4628      1.3878     78.4183
  2651.6500      0.0000    679.4628      1.3878     78.4183
  2651.7000      0.0000    679.4628      1.3878     78.4183
  2651.7500      0.0000    693.6158      1.4640     74.0157
  2651.8000      0.0000    693.6158      1.4640     74.0157
  2651.8500      0.0000    693.6158      1.4640     74.0157
  2651.9000      0.0000    693.6158      1.4640     74.0157
  2651.9500      0.0000    693.6158      1.4640     74.0157
  2652.0000      0.0000    699.9001      1.5225     71.1498
  2652.0500      0.0000    699.9001      1.5225     71.1498
  2652.1000      2.0000    699.9001      1.5225     71.1498
  2652.1500      2.0000    699.9001      1.5225     71.1498
  2652.2000      0.0000    699.9001      1.5225     71.1498
  2652.2500      0.0000    701.3815      1.5588     70.0624
  2652.3000     -2.0000    701.3815      1.5588     70.0624
  2652.3500      0.0000    701.3815      1.5588     70.0624
  2652.4000      0.0000    701.3815      1.5588     70.0624
  2652.4500      0.0000    701.3815      1.5588     70.0624
  2652.5000      2.0000    701.5068      1.5840     69.9005
  2652.5500      2.0000    701.5068      1.5840     69.9005
  2652.6000      0.0000    701.5068      1.5840     69.9005
  2652.6500      0.0000    701.5068      1.5840     69.9005
  2652.7000      0.0000    701.5068      1.5840     69.9005
  2652.7500      0.0000    699.6975      1.6118     68.3984
  2652.8000      0.0000    699.6975      1.6118     68.3984
