~Version Information
VERS.                      2.0: CWLS Log ASCII Standard - VERSION 2.0
WRAP.                       NO: One line per depth step
~Well Information Block
STRT.FT                -9.7500: 
STOP.FT              2374.2500: 
STEP.FT                 0.2500: 
NULL.                -999.2500: 
COMP.          Pioneer Natural Resources: COMPANY
WELL.            Chevron 13-13: WELL
FLD.           Purgatorie River: FIELD
LOC.           1560' FSL & 711' FWL--: LOCATION
CNTY.               Las Animas: COUNTY
SRVC.          Superior Well Services: SERVICE COMPANY
DATE.          Wed Apr 11 08:47:55 2007: LOG DATE
UWI.           05 071 08319 00: UNIQUE WELL ID
STAT.                       CO: STATE
~Curve Information Block
DEPT.FT            0 000 00 00: Depth
CCL.                          : Casing Collar Locator
TT3.usec                      : CBL 3' Travel Time
AMP3.mV                       : CBL 3' Amplitude
GR.GAPI                       : Gamma Ray
~Parameter Information Block
~A  Depth       CCL         TT3         AMP3         GR     
# ...
   291.7500      0.0000    260.6161     85.2708     87.3748
   292.0000      0.0000    260.6088     85.3177     85.6611
   292.2500      0.0000    260.5963     85.3281     87.0963
   292.5000      0.0000    260.5835     85.3085     90.5094
   292.7500      0.0000    260.5777     85.2679     94.0710
   293.0000      0.0000    260.5838     85.2303     96.3485
   293.2500      0.0000    260.5999     85.2169     97.4569
   293.5000      0.0000    260.6183     85.2160     98.5465
   293.7500      0.0000    260.6318     85.1898     99.8092
   294.0000      0.0000    260.6382     85.1140     99.8279
   294.2500      0.0000    260.6393     85.0001     97.2679
   294.5000      0.0000    260.6364     84.8795     92.5676
   294.7500      0.0000    260.6294     84.7716     87.6451
   295.0000      0.0000    260.6189     84.6750     84.2267
   295.2500      0.0000    260.6086     84.5832     82.6764
   295.5000      0.0000    260.6029     84.5046     82.2848
   295.7500      0.0000    260.6001     84.4589     82.3788
   296.0000      0.0000    260.5926     84.4558     82.8085
   296.2500      0.0000    260.5743     84.4839     83.3318
   296.5000      0.0000    260.5488     84.5189     83.1076
   296.7500      0.0000    260.5274     84.5368     81.4788
   297.0000      0.0000    260.5187     84.5197     79.0362
   297.2500      0.0000    260.5222     84.4634     77.2135
   297.5000      0.0000    260.5328     84.3877     76.7447
   297.7500      0.0000    260.5453     84.3265     76.9564
   298.0000      0.0000    260.5558     84.2930     76.6406
   298.2500      0.0000    260.5602     84.2646     75.1302
   298.5000      0.0000    260.5562     84.2144     72.2212
   298.7500      0.0000    260.5459     84.1486     67.7065
   299.0000      0.0000    260.5340     84.1019     61.8625
   299.2500      0.0000    260.5235     84.1059     56.2149
   299.5000      0.0000    260.5137     84.1699     52.9950
   299.7500      0.0000    260.5028     84.2873     53.5236
   300.0000      0.0000    260.4926     84.4499     57.1314
   300.2500      0.0000    260.4883     84.6363     61.5426
   300.5000      0.0000    260.4978     84.7316     64.2501
   300.7500      0.0000    260.5386     84.4069     63.8375
   301.0000      0.0000    260.6585     83.0733     60.4147
   301.2500      0.0000    260.9508     80.1415     55.1268
   301.5000      0.0000    261.5269     75.5977     49.5547
   301.7500      0.0000    262.4315     70.3525     45.4760
   302.0000      0.0000    263.5616     65.7228     44.3538
   302.2500      0.0000    264.6876     62.4501     46.3475
   302.5000      0.0000    265.5836     60.4131     49.9138
   302.7500      0.0000    266.1553     59.1851     52.7041
   303.0000      0.0000    266.4520     58.4944     53.1523
   303.2500      2.0000    266.5839     58.1857     51.6121
   303.5000      0.0000    266.6384     58.1253     50.0272
   303.7500      0.0000    266.6494     58.2533     50.1645
   304.0000      0.0000    266.5961     58.6597     52.1678
   304.2500      0.0000    266.3957     59.5942     55.0503
   304.5000      0.0000    265.9137     61.3521     58.1406
   304.7500      0.0000    265.0469     64.0340     61.3665
   305.0000      0.0000    263.8607     67.4221     64.5082
   305.2500      0.0000    262.6285     71.1731     67.0931
   305.5000      0.0000    261.6687     74.9794     69.1644
   305.7500      0.0000    261.1261     78.4715     71.5423
   306.0000      0.0000    260.9276     81.2279     74.9459
   306.2500      0.0000    260.9128     83.0529     78.9772
   306.5000      0.0000    260.9632     84.1107     82.3165
   306.7500      0.0000    261.0290     84.7234     84.2078
   307.0000      0.0000    261.0983     85.1268     85.5993
   307.2500      0.0000    261.1677     85.4164     88.2922
   307.5000      0.0000    261.2316     85.6229     92.8370
   307.7500      0.0000    261.2842     85.7675     97.6888
   308.0000      0.0000    261.3236     85.8732    100.5962
   308.2500      0.0000    261.3532     85.9567    100.6401
   308.5000      0.0000    261.3781     86.0336     99.0051
   308.7500      0.0000    261.4008     86.1191     97.9145
   309.0000      0.0000    261.4202     86.2159     98.5012
   309.2500      0.0000    261.4357     86.3046     99.4286
   309.5000      0.0000    261.4497     86.3569     97.9407
   309.7500      0.0000    261.4651     86.3610     92.6124
   310.0000      0.0000    261.4818     86.3326     84.9324
   310.2500      0.0000    261.4966     86.2970     78.0472
   310.5000      0.0000    261.5082     86.2624     74.2949
   310.7500      0.0000    261.5182     86.2207     74.1925
   311.0000      0.0000    261.5294     86.1751     77.1514
   311.2500      0.0000    261.5427     86.1517     82.0889
   311.5000      0.0000    261.5573     86.1719     87.3312
   311.7500      0.0000    261.5712     86.2224     91.0864
   312.0000      0.0000    261.5820     86.2628     92.6876
   312.2500      0.0000    261.5887     86.2581     92.8319
   312.5000      0.0000    261.5927     86.2008     92.2699
   312.7500      0.0000    261.5966     86.1069     90.9246
   313.0000      0.0000    261.6017     85.9968     88.6338
   313.2500      0.0000    261.6068     85.8852     86.0563
   313.5000      0.0000    261.6112     85.7852     84.2622
   313.7500      0.0000    261.6149     85.7114     83.7558
   314.0000      0.0000    261.6183     85.6671     84.3556
   314.2500      0.0000    261.6209     85.6333     85.6116
   314.5000      0.0000    261.6222     85.5845     86.6738
   314.7500      0.0000    261.6232     85.5174     86.1118
   315.0000      0.0000    261.6258     85.4569     82.8147
   315.2500      0.0000    261.6308     85.4290     77.2155
   315.5000      0.0000    261.6369     85.4353     71.1209
   315.7500      0.0000    261.6434     85.4551     66.3251
   316.0000      0.0000    261.6519     85.4649     63.6550
   316.2500      0.0000    261.6645     85.4519     62.9487
   316.5000      0.0000    261.6801     85.4197     63.3255
   316.7500      0.0000    261.6935     85.3860     63.7369
   317.0000      0.0000    261.6985     85.3694     63.8439
   317.2500      0.0000    261.6935     85.3716     64.2385
   317.5000      0.0000    261.6823     85.3781     65.5534
   317.7500      0.0000    261.6714     85.3831     67.7065
   318.0000      0.0000    261.6668     85.4028     70.1982
   318.2500      0.0000    261.6711     85.4542     72.5777
   318.5000      0.0000    261.6830     85.5236     74.3158
   318.7500      0.0000    261.6977     85.5733     74.7802
   319.0000      0.0000    261.7090     85.5818     73.7618
   319.2500      0.0000    261.7121     85.5714     71.7006
   319.5000      0.0000    261.7052     85.5890     69.1323
   319.7500      0.0000    261.6912     85.6602     66.1785
   320.0000      0.0000    261.6758     85.7670     62.7509
   320.2500      0.0000    261.6653     85.8674     59.0732
   320.5000      0.0000    261.6636     85.9303     55.8044
   320.7500      0.0000    261.6709     85.9507     53.6585
   321.0000      0.0000    261.6829     85.9446     52.8819
   321.2500      0.0000    261.6939     85.9353     53.1050
   321.5000      0.0000    261.6998     85.9322     53.8816
   321.7500      0.0000    261.7005     85.9178     55.3827
   322.0000      0.0000    261.6977     85.8638     58.2970
   322.2500      0.0000    261.6941     85.7654     62.8788
   322.5000      0.0000    261.6925     85.6542     68.2064
   322.7500      0.0000    261.6966     85.5713     72.6563
   323.0000      0.0000    261.7083     85.5308     75.4381
   323.2500      0.0000    261.7245     85.5168     77.7464
   323.5000      0.0000    261.7378     85.5078     82.0201
   323.7500      0.0000    261.7420     85.4935     89.5296
   324.0000      0.0000    261.7373     85.4708     98.6151
   324.2500      0.0000    261.7282     85.4401    105.6297
   324.5000      0.0000    261.7183     85.4176    107.8518
   324.7500      0.0000    261.7079     85.4324    105.5411
   325.0000      0.0000    261.6988     85.4981    101.3105
