~Version Information
 VERS.                      2.0: CWLS Log ASCII Standard - VERSION 2.0
 WRAP.                       NO: One line per depth step
 ~Well Information Block
 STRT.FT               465.6000: 
 STOP.FT              1777.2000: 
 STEP.FT                 0.1000: 
 NULL.                -999.2500: 
 COMP.          Petrogulf Corporation: COMPANY
 WELL.          Alexander 9-43R: WELL
 FLD.           Purgatorie River: FIELD
 LOC.           1652' FSL & 1049' FEL: LOCATION
 CNTY.               Las Animas: COUNTY
 SRVC.                         : SERVICE COMPANY
 DATE.          Fri Sep 03 15:08:45 2004: LOG DATE
 UWI.           05 071 08036 00: UNIQUE WELL ID
 STAT.                 Colorado: STATE
 PROV.                         :Province
 ~Curve Information Block
 DEPT.FT            0 000 00 00: Depth
 DCAL.in                       : CDL Caliper
 RHOB.g/cc                     : CDL Bulk Density
 RHOC.g/cc                     : CDL Density Correction
 DPOR.pu                       : CDL Density Porosity
 GR.GAPI                       : Gamma Ray
 NPOR.pu                       : Neutron Porosity
 ~Parameter Information Block
 ~A  Depth       DCAL        RHOB        RHOC        DPOR         GR         NPOR    
# ...
  1588.8000      7.9718      2.7096     -0.0247     -3.6121     41.0555     26.0737
  1588.9000      7.9718      2.6663      0.0234     -0.9854     46.0676     25.5778
  1589.0000      8.0064      2.6097      0.0057      2.4422     52.1589     25.0346
  1589.1000      8.0064      2.5425     -0.0672      6.5142     56.2500     24.4356
  1589.2000      8.0064      2.4832     -0.0231     10.1084     57.3977     23.9101
  1589.3000      8.0035      2.4373     -0.0563     12.8916     57.7165     23.3254
  1589.4000      8.0035      2.4142     -0.0765     14.2894     59.6182     22.8314
  1589.5000      8.0316      2.4241     -0.0101     13.6925     62.6294     22.6814
  1589.6000      8.0316      2.4532      0.0333     11.9252     66.0018     22.5487
  1589.7000      8.0316      2.4869      0.0260      9.8876     73.2782     22.2639
  1589.8000      7.9939      2.5266      0.0908      7.4817     84.3517     22.0365
  1589.9000      7.9939      2.5700      0.1752      4.8491     92.3136     21.9759
  1590.0000      7.9583      2.6052      0.3018      2.7136     95.2729     22.1741
  1590.1000      7.9583      2.6218      0.2810      1.7119     98.3920     22.3992
  1590.2000      7.9583      2.6191      0.2724      1.8755    105.0840     22.3217
  1590.3000      7.8167      2.6017      0.2086      2.9266    114.9981     22.4175
  1590.4000      7.8167      2.5772      0.1470      4.4107    125.2408     23.0138
  1590.5000      7.7669      2.5624      0.1179      5.3114    134.7399     23.6493
  1590.6000      7.7669      2.5712      0.1451      4.7781    143.1284     24.2184
  1590.7000      7.7669      2.5983      0.1374      3.1313    145.7762     24.9752
  1590.8000      7.8783      2.6224      0.2473      1.6756    142.2281     25.8281
  1590.9000      7.8783      2.6281      0.1929      1.3286    138.7945     26.6039
  1591.0000      7.9869      2.6239      0.1662      1.5793    138.0902     27.1719
  1591.1000      7.9869      2.6203      0.1707      1.7990    137.4057     27.4690
  1591.2000      7.9869      2.6105      0.1453      2.3952    134.8322     27.4810
  1591.3000      8.0052      2.5833      0.1152      4.0441    132.6046     27.3460
  1591.4000      8.0052      2.5493      0.0359      6.1057    133.6149     27.4688
  1591.5000      8.0219      2.5315      0.0233      7.1817    136.4229     27.9992
  1591.6000      8.0219      2.5314      0.0421      7.1859    138.5037     28.3660
  1591.7000      8.0219      2.5403      0.0323      6.6501    141.8661     28.2659
  1591.8000      8.0511      2.5563      0.0818      5.6813    145.7560     28.0455
  1591.9000      8.0511      2.5706      0.1011      4.8107    144.2006     27.8504
  1592.0000      8.0564      2.5728      0.0795      4.6803    138.8041     27.6066
  1592.1000      8.0564      2.5596      0.1346      5.4799    136.1524     27.4594
  1592.2000      8.0564      2.5343      0.0401      7.0115    135.5097     27.5597
  1592.3000      8.0564      2.5060      0.0412      8.7264    133.4762     27.5024
  1592.4000      8.0564      2.4777      0.0251     10.4443    135.3996     26.8625
  1592.5000      8.0524      2.4494      0.0625     12.1557    145.9108     26.1043
  1592.6000      8.0524      2.4286      0.0115     13.4164    155.3822     25.7603
  1592.7000      8.0524      2.4279      0.0481     13.4636    155.3212     25.6316
  1592.8000      8.0482      2.4512      0.0872     12.0510    151.0050     25.7487
  1592.9000      8.0482      2.4964      0.1304      9.3109    146.6636     26.3290
  1593.0000      8.0099      2.5546      0.1901      5.7841    140.9708     26.9363
  1593.1000      8.0099      2.6013      0.2022      2.9490    135.7026     27.1980
  1593.2000      8.0099      2.6150      0.2056      2.1234    135.2612     27.3144
  1593.3000      7.9982      2.5989      0.1654      3.0954    139.4680     27.4093
  1593.4000      7.9982      2.5757      0.1529      4.5029    142.8822     27.4563
  1593.5000      8.0075      2.5582      0.1922      5.5618    143.7532     27.6491
  1593.6000      8.0075      2.5402      0.1265      6.6561    145.8850     28.0197
  1593.7000      8.0075      2.5133      0.1300      8.2863    148.1370     28.2807
  1593.8000      8.0329      2.4875      0.0309      9.8492    146.0383     28.4841
  1593.9000      8.0329      2.4845      0.0253     10.0316    140.8950     28.9277
  1594.0000      8.0483      2.5060      0.0228      8.7293    135.0621     29.3887
  1594.1000      8.0483      2.5293      0.0774      7.3156    128.2992     29.4010
  1594.2000      8.0483      2.5352      0.1109      6.9600    122.5214     29.0890
  1594.3000      8.0647      2.5245      0.0766      7.6040    121.8585     28.9837
  1594.4000      8.0647      2.5132      0.0660      8.2904    128.0317     29.2778
  1594.5000      8.0750      2.5153      0.0531      8.1656    138.7953     29.8405
  1594.6000      8.0750      2.5273      0.0580      7.4368    149.2668     30.2092
  1594.7000      8.0750      2.5408      0.0495      6.6161    154.2712     29.9266
  1594.8000      8.0577      2.5587      0.0519      5.5354    151.0095     29.4450
  1594.9000      8.0577      2.5774      0.1135      4.3989    141.1777     29.3475
  1595.0000      8.0544      2.5889      0.0891      3.7034    130.0116     29.4389
  1595.1000      8.0544      2.5937      0.1386      3.4138    119.0295     29.4140
  1595.2000      8.0544      2.5905      0.1373      3.6082    110.2949     29.1324
  1595.3000      8.0522      2.5809      0.0883      4.1871    108.6086     28.5959
  1595.4000      8.0522      2.5715      0.1309      4.7562    111.5284     28.0802
  1595.5000      8.0545      2.5624      0.0879      5.3117    114.5839     27.8455
  1595.6000      8.0545      2.5571      0.0852      5.6280    119.5955     27.8929
  1595.7000      8.0545      2.5654      0.0741      5.1265    125.5004     28.1264
  1595.8000      8.0618      2.5824      0.1016      4.0975    128.0252     28.4241
  1595.9000      8.0618      2.5921      0.0769      3.5106    129.0522     28.4568
  1596.0000      8.0803      2.5916      0.0827      3.5377    131.5525     27.9824
  1596.1000      8.0803      2.5804      0.1052      4.2184    133.2498     27.1313
  1596.2000      8.0803      2.5546      0.0581      5.7802    133.3244     26.3952
  1596.3000      8.0866      2.5290      0.0150      7.3325    134.2278     26.1399
  1596.4000      8.0866      2.5074      0.0878      8.6398    137.3557     26.1360
  1596.5000      8.0846      2.4776     -0.0249     10.4477    140.0105     26.0991
  1596.6000      8.0846      2.4552     -0.0062     11.8066    137.2424     26.0733
  1596.7000      8.0846      2.4558      0.0450     11.7721    131.9739     26.0971
  1596.8000      8.0865      2.4637      0.0333     11.2928    131.6174     26.1523
  1596.9000      8.0865      2.4624      0.0551     11.3675    134.1936     26.1677
  1597.0000      8.0899      2.4576      0.0001     11.6602    133.1213     26.0312
  1597.1000      8.0899      2.4658      0.0290     11.1662    130.4058     25.9945
  1597.2000      8.0899      2.4817      0.0653     10.2022    131.1566     26.3264
  1597.3000      8.0891      2.4878      0.0724      9.8331    134.6429     26.7573
  1597.4000      8.0891      2.4894      0.0686      9.7342    136.9077     26.9685
  1597.5000      8.0935      2.4988      0.1165      9.1644    134.8629     27.0906
  1597.6000      8.0935      2.5133      0.1260      8.2845    131.6958     27.2895
  1597.7000      8.0935      2.5295      0.0837      7.3057    131.5553     27.4113
  1597.8000      8.0940      2.5462      0.0841      6.2938    130.6945     27.2199
  1597.9000      8.0940      2.5558      0.1147      5.7067    127.9224     26.8313
  1598.0000      8.1000      2.5587      0.0918      5.5318    129.2894     26.5496
  1598.1000      8.1000      2.5628      0.0930      5.2838    133.4729     26.1035
  1598.2000      8.1000      2.5640      0.0877      5.2139    134.8226     25.2848
  1598.3000      8.1054      2.5513      0.0923      5.9821    133.9310     24.5668
