~Version Information
VERS.                      2.0: CWLS Log ASCII Standard - VERSION 2.0
WRAP.                       NO: One line per depth step
~Well Information Block
STRT.FT               899.1000: 
STOP.FT              2501.5000: 
STEP.FT                 0.1000: 
NULL.                -999.2500: 
COMP.          Petrogulf Corporation: COMPANY
WELL.           Deremer 17-21V: WELL
FLD.           Purgatorie River: FIELD
LOC.           851' FNL & 963' FWL: LOCATION
CNTY.               Las Animas: COUNTY
SRVC.                         : SERVICE COMPANY
DATE.          Tue Nov 18 09:12:06 2003: LOG DATE
UWI.                          : UNIQUE WELL ID
STAT.                 Colorado: STATE
~Curve Information Block
DEPT.FT            0 000 00 00: Depth
DPOR.pu                       : CDL Density Porosity
NEU.NAPI                      : Neutron
NPOR.pu                       : Neutron Porosity
RHOB.g/cc                     : CDL Bulk Density
RHOC.g/cc                     : CDL Density Correction
GR.GAPI                       : Gamma Ray
DCAL.in                       : CDL Caliper
~Parameter Information Block
~A  Depth       DPOR        NEU         NPOR        RHOB        RHOC         GR         DCAL    
# ...
  2495.1000      9.9030   -999.2500   -999.2500      2.4866      0.0498   -999.2500      7.7234
  2495.2000     10.6356   -999.2500   -999.2500      2.4745      0.0196   -999.2500      7.7234
  2495.3000     10.7562   -999.2500   -999.2500      2.4725      0.0728   -999.2500      7.7316
  2495.4000     10.1681   -999.2500   -999.2500      2.4822      0.0511   -999.2500      7.7316
  2495.5000      9.2707   -999.2500   -999.2500      2.4970      0.0390   -999.2500      7.7380
  2495.6000      8.4881   -999.2500   -999.2500      2.5099      0.0955   -999.2500      7.7380
  2495.7000      8.7312   -999.2500   -999.2500      2.5059      0.0731   -999.2500      7.7380
  2495.8000     10.1521   -999.2500   -999.2500      2.4825      0.0448   -999.2500      7.7375
  2495.9000     11.4462   -999.2500   -999.2500      2.4611     -0.0516   -999.2500      7.7375
  2496.0000     11.5191   -999.2500   -999.2500      2.4599      0.0339   -999.2500      7.7317
  2496.1000     11.2862   -999.2500   -999.2500      2.4638      0.0694   -999.2500      7.7317
  2496.2000     11.8293   -999.2500   -999.2500      2.4548      0.0367   -999.2500      7.7317
  2496.3000     12.3657   -999.2500   -999.2500      2.4460      0.0109   -999.2500      7.7284
  2496.4000     11.5301   -999.2500   -999.2500      2.4598      0.0293   -999.2500      7.7284
  2496.5000      9.6315   -999.2500   -999.2500      2.4911      0.1021   -999.2500      7.7293
  2496.6000      8.5123   -999.2500   -999.2500      2.5095      0.1333   -999.2500      7.7293
  2496.7000      8.6382   -999.2500   -999.2500      2.5075      0.0465   -999.2500      7.7293
  2496.8000      8.9675   -999.2500   -999.2500      2.5020      0.1120   -999.2500      7.7345
  2496.9000      9.7648   -999.2500   -999.2500      2.4889      0.1421   -999.2500      7.7345
  2497.0000     11.5959   -999.2500   -999.2500      2.4587      0.0716   -999.2500      7.7416
  2497.1000     13.3116   -999.2500   -999.2500      2.4304     -0.0016   -999.2500      7.7416
  2497.2000     13.7362   -999.2500   -999.2500      2.4234      0.0100   -999.2500      7.7416
  2497.3000     13.5629   -999.2500   -999.2500      2.4262      0.0482   -999.2500      7.7479
  2497.4000     13.4951   -999.2500   -999.2500      2.4273      0.0056   -999.2500      7.7479
  2497.5000     13.0141   -999.2500   -999.2500      2.4353      0.0363   -999.2500      7.7547
  2497.6000     12.2015   -999.2500   -999.2500      2.4487      0.0286   -999.2500      7.7547
  2497.7000     11.3943   -999.2500   -999.2500      2.4620      0.0103   -999.2500      7.7547
  2497.8000     10.3789   -999.2500   -999.2500      2.4787      0.0317   -999.2500      7.7644
  2497.9000      9.7694   -999.2500   -999.2500      2.4888      0.0985   -999.2500      7.7644
  2498.0000     10.1447   -999.2500   -999.2500      2.4826      0.0716   -999.2500      7.7703
  2498.1000     10.3661   -999.2500   -999.2500      2.4790      0.0415   -999.2500      7.7703
  2498.2000      9.4702   -999.2500   -999.2500      2.4937      0.0429   -999.2500      7.7703
  2498.3000      8.4392   -999.2500   -999.2500      2.5108      0.1012   -999.2500      7.7638
  2498.4000      8.5130   -999.2500   -999.2500      2.5095      0.0925   -999.2500      7.7638
  2498.5000      9.4955   -999.2500   -999.2500      2.4933      0.0985   -999.2500      7.7541
  2498.6000     10.1486   -999.2500   -999.2500      2.4825     -0.0030   -999.2500      7.7541
  2498.7000     10.3492   -999.2500   -999.2500      2.4792      0.0817   -999.2500      7.7541
  2498.8000     11.5296   -999.2500   -999.2500      2.4598      0.0897   -999.2500      7.7493
  2498.9000     13.2404   -999.2500   -999.2500      2.4315      0.0057   -999.2500      7.7493
  2499.0000     14.0636   -999.2500   -999.2500      2.4180      0.0332   -999.2500      7.7485
  2499.1000     14.4245   -999.2500   -999.2500      2.4120     -0.0433   -999.2500      7.7485
  2499.2000     14.4471   -999.2500   -999.2500      2.4116     -0.0346   -999.2500      7.7485
  2499.3000     13.7058   -999.2500   -999.2500      2.4239      0.0328   -999.2500      7.7477
  2499.4000     12.7433   -999.2500   -999.2500      2.4397      0.0474   -999.2500      7.7477
  2499.5000     12.2904   -999.2500   -999.2500      2.4472      0.0568   -999.2500      7.7464
  2499.6000     12.3164   -999.2500   -999.2500      2.4468      0.0229   -999.2500      7.7464
  2499.7000     12.4860   -999.2500   -999.2500      2.4440      0.0386   -999.2500      7.7464
  2499.8000     12.4934   -999.2500   -999.2500      2.4439      0.0447   -999.2500      7.7326
  2499.9000     10.7715   -999.2500   -999.2500      2.4723      0.0183   -999.2500      7.7326
  2500.0000     11.9132   -999.2500   -999.2500      2.4534     -0.0190   -999.2500      7.6344
  2500.1000     37.1234   -999.2500   -999.2500      2.0375      0.4248   -999.2500      7.6344
  2500.2000     90.5139   -999.2500   -999.2500      1.1565     -0.0300   -999.2500      7.6344
  2500.3000    136.8067   -999.2500   -999.2500      0.3927     -0.0300   -999.2500      7.1176
  2500.4000    156.0815   -999.2500   -999.2500      0.0747   -999.2500   -999.2500      7.1176
  2500.5000    160.1393   -999.2500   -999.2500      0.0077   -999.2500   -999.2500      5.6708
  2500.6000    160.5807   -999.2500   -999.2500      0.0004   -999.2500   -999.2500      5.6708
  2500.7000    160.6061   -999.2500   -999.2500      0.0000   -999.2500   -999.2500      5.6708
  2500.8000    160.6061   -999.2500   -999.2500      0.0000   -999.2500   -999.2500      3.7803
  2500.9000   -999.2500   -999.2500   -999.2500   -999.2500   -999.2500   -999.2500      3.7803
  2501.0000   -999.2500   -999.2500   -999.2500   -999.2500   -999.2500   -999.2500      2.7419
  2501.1000   -999.2500   -999.2500   -999.2500   -999.2500   -999.2500   -999.2500      2.7419
  2501.2000   -999.2500   -999.2500   -999.2500   -999.2500   -999.2500   -999.2500      2.7419
  2501.3000   -999.2500   -999.2500   -999.2500   -999.2500   -999.2500   -999.2500      2.5191
  2501.4000   -999.2500   -999.2500   -999.2500   -999.2500   -999.2500   -999.2500      2.5191
  2501.5000   -999.2500   -999.2500   -999.2500   -999.2500   -999.2500   -999.2500      2.5010
