~Version Information
VERS.                      2.0: CWLS Log ASCII Standard - VERSION 2.0
WRAP.                       NO: One line per depth step
~Well Information Block
STRT.FT               702.7000: 
STOP.FT              2529.2000: 
STEP.FT                 0.1000: 
NULL.                -999.2500: 
COMP.          Pioneer Natural Resources: COMPANY
WELL.          Aztec Federal 41-15: WELL
FLD.           Purgatorie River: FIELD
LOC.           706' FNL & 1253' FEL: LOCATION
CNTY.               Las Animas: COUNTY
SRVC.          Superior Well Services: SERVICE COMPANY
DATE.          Tue Mar 18 09-36-47 2008: LOG DATE
UWI.           05-071-08342-00: UNIQUE WELL ID
STAT.                       CO: STATE
~Curve Information Block
DEPT.FT            0 000 00 00: Depth
DCAL.in                       : CDL Caliper
DPOR.pu                       : CDL Density Porosity
GR.GAPI                       : Gamma Ray
RHOB.g/cc                     : CDL Bulk Density
RHOC.g/cc                     : CDL Density Correction
~Parameter Information Block
~A  Depth       DCAL        DPOR         GR         RHOB        RHOC    
# ...
  1912.3000      7.6753      4.6677     74.9919      2.5730      0.1277
  1912.4000      7.6711      3.7284     75.2739      2.5885      0.1482
  1912.5000      7.6689      4.5084     73.6203      2.5756      0.1405
  1912.6000      7.6684      5.0019     72.4415      2.5675      0.1284
  1912.7000      7.6682      4.5503     73.4868      2.5749      0.1266
  1912.8000      7.6663      4.3891     76.9187      2.5776      0.1264
  1912.9000      7.6620      4.7705     80.5058      2.5713      0.1256
  1913.0000      7.6555      5.1114     82.6234      2.5657      0.1254
  1913.1000      7.6485      4.8549     85.3598      2.5699      0.1201
  1913.2000      7.6431      3.8908     89.3787      2.5858      0.0992
  1913.3000      7.6407      3.0008     92.6660      2.6005      0.0567
  1913.4000      7.6416      3.0908     92.5432      2.5990      0.0031
  1913.5000      7.6453      4.0100     88.1588      2.5838     -0.0406
  1913.6000      7.6504      4.3018     82.7159      2.5790     -0.0566
  1913.7000      7.6565      1.5321     79.5419      2.6247     -0.0299
  1913.8000      7.6640     -4.8756     79.0926      2.7304      0.0372
  1913.9000      7.6745    -11.5857     80.8810      2.8412      0.1119
  1914.0000      7.6896    -15.8072     82.9984      2.9108      0.1649
  1914.1000      7.7098    -18.2657     83.6465      2.9514      0.1921
  1914.2000      7.7337    -18.2668     83.5815      2.9514      0.1872
  1914.3000      7.7583    -13.8781     84.0731      2.8790      0.1509
  1914.4000      7.7803     -7.7351     85.8773      2.7776      0.1136
  1914.5000      7.7978     -3.3548     88.8491      2.7054      0.0948
  1914.6000      7.8103     -0.3190     90.1912      2.6553      0.0796
  1914.7000      7.8184      2.3778     88.6525      2.6108      0.0603
  1914.8000      7.8226      3.8967     86.0953      2.5857      0.0471
  1914.9000      7.8230      3.0917     83.7485      2.5990      0.0489
  1915.0000      7.8192      0.5596     82.8719      2.6408      0.0641
  1915.1000      7.8112     -1.6077     82.9345      2.6765      0.0801
  1915.2000      7.7999     -1.7236     81.2710      2.6784      0.0844
  1915.3000      7.7869     -0.0928     78.3828      2.6515      0.0808
  1915.4000      7.7740      1.2419     76.2404      2.6295      0.0821
  1915.5000      7.7625      0.9258     75.0036      2.6347      0.0912
  1915.6000      7.7529     -0.1810     74.0101      2.6530      0.0996
  1915.7000      7.7453     -0.2405     71.5274      2.6540      0.0957
  1915.8000      7.7397      0.6595     67.4693      2.6391      0.0819
  1915.9000      7.7362      1.1566     64.2608      2.6309      0.0698
  1916.0000      7.7347      1.3325     61.8363      2.6280      0.0628
  1916.1000      7.7352      1.9634     59.3665      2.6176      0.0604
  1916.2000      7.7374      2.5896     59.4205      2.6073      0.0668
  1916.3000      7.7411      2.4954     62.1235      2.6088      0.0840
  1916.4000      7.7458      1.6705     65.3459      2.6224      0.1123
  1916.5000      7.7512      0.5557     68.0527      2.6408      0.1435
  1916.6000      7.7565     -0.1339     70.3092      2.6522      0.1631
  1916.7000      7.7608     -0.3850     73.4566      2.6564      0.1688
  1916.8000      7.7625     -0.7692     77.5585      2.6627      0.1700
  1916.9000      7.7608     -0.5412     81.5363      2.6589      0.1596
  1917.0000      7.7554      1.4100     84.7266      2.6267      0.1225
  1917.1000      7.7471      4.9367     87.8415      2.5685      0.0684
  1917.2000      7.7380      7.7481     90.4251      2.5222      0.0333
  1917.3000      7.7302      8.0743     92.5366      2.5168      0.0344
  1917.4000      7.7260      7.3036     96.4337      2.5295      0.0515
  1917.5000      7.7260      6.6574    101.6290      2.5402      0.0643
  1917.6000      7.7298      5.3920    106.5728      2.5610      0.0760
  1917.7000      7.7360      3.7457    110.7411      2.5882      0.0888
  1917.8000      7.7426      3.2402    114.2267      2.5965      0.0899
  1917.9000      7.7475      3.6464    117.1671      2.5898      0.0841
  1918.0000      7.7499      3.3219    121.2254      2.5952      0.0930
  1918.1000      7.7497      2.1881    128.6513      2.6139      0.1117
  1918.2000      7.7480      1.9195    134.1133      2.6183      0.1149
  1918.3000      7.7462      3.2781    131.7464      2.5959      0.1047
  1918.4000      7.7454      4.6477    125.3769      2.5733      0.1017
  1918.5000      7.7462      4.6695    121.0030      2.5730      0.1009
  1918.6000      7.7482      4.0707    120.6062      2.5828      0.0862
  1918.7000      7.7505      3.9177    123.7053      2.5854      0.0615
  1918.8000      7.7517      4.7217    127.7234      2.5721      0.0408
  1918.9000      7.7513      5.9849    128.1260      2.5512      0.0334
  1919.0000      7.7491      6.0039    123.5146      2.5509      0.0445
  1919.1000      7.7459      4.2286    117.5157      2.5802      0.0659
  1919.2000      7.7431      1.9795    112.1748      2.6173      0.0797
  1919.3000      7.7418      0.8218    107.5449      2.6364      0.0808
  1919.4000      7.7423      0.6461    105.0200      2.6393      0.0836
  1919.5000      7.7439     -0.3229    106.7836      2.6553      0.0984
  1919.6000      7.7455     -1.9316    111.1327      2.6819      0.1131
  1919.7000      7.7460     -2.4887    111.9988      2.6911      0.1150
  1919.8000      7.7452     -1.5337    107.8446      2.6753      0.1077
  1919.9000      7.7443      0.3120    103.8922      2.6449      0.0989
  1920.0000      7.7451      2.6316    102.8752      2.6066      0.0875
  1920.1000      7.7493      4.7643    101.6298      2.5714      0.0752
  1920.2000      7.7575      5.5473    101.1948      2.5585      0.0704
  1920.3000      7.7689      4.9805    105.6936      2.5678      0.0712
  1920.4000      7.7818      3.9782    111.5250      2.5844      0.0736
  1920.5000      7.7943      3.4843    113.0784      2.5925      0.0733
  1920.6000      7.8053      4.2411    112.2456      2.5800      0.0633
  1920.7000      7.8144      5.6393    113.7121      2.5570      0.0541
  1920.8000      7.8219      6.4554    118.2415      2.5435      0.0600
  1920.9000      7.8281      6.5680    122.3112      2.5416      0.0725
  1921.0000      7.8334      6.7390    123.3380      2.5388      0.0769
  1921.1000      7.8381      7.1688    121.4797      2.5317      0.0747
  1921.2000      7.8424      6.9862    118.3805      2.5347      0.0794
  1921.3000      7.8466      6.2451    118.0855      2.5470      0.0919
  1921.4000      7.8511      6.0255    122.8374      2.5506      0.0980
  1921.5000      7.8559      6.2567    128.0760      2.5468      0.0906
  1921.6000      7.8611      6.3447    128.5948      2.5453      0.0772
  1921.7000      7.8662      6.5243    127.4989      2.5423      0.0685
  1921.8000      7.8708      6.7798    130.2158      2.5381      0.0716
  1921.9000      7.8742      6.6323    137.0920      2.5406      0.0848
  1922.0000      7.8761      6.5824    144.2459      2.5414      0.0974
  1922.1000      7.8765      6.7302    147.4338      2.5390      0.1066
  1922.2000      7.8759      5.9983    147.1644      2.5510      0.1212
  1922.3000      7.8747      4.6316    145.7101      2.5736      0.1360
  1922.4000      7.8735      3.9861    144.4832      2.5842      0.1352
  1922.5000      7.8720      4.6358    143.6000      2.5735      0.1125
  1922.6000      7.8700      6.3586    142.6727      2.5451      0.0741
  1922.7000      7.8671      8.7309    140.8048      2.5059      0.0317
  1922.8000      7.8629     10.5896    135.7479      2.4753      0.0033
  1922.9000      7.8578     10.7795    129.5455      2.4721     -0.0003
  1923.0000      7.8523      9.4777    127.0453      2.4936      0.0100
  1923.1000      7.8473      7.1405    128.0150      2.5322      0.0246
  1923.2000      7.8438      4.2170    129.1941      2.5804      0.0467
  1923.3000      7.8427      2.1309    129.3772      2.6148      0.0678
  1923.4000      7.8446      1.5724    130.5819      2.6241      0.0812
