~Version Information
VERS.                      2.0: CWLS Log ASCII Standard - VERSION 2.0
WRAP.                       NO: One line per depth step
~Well Information Block
STRT.FT                -7.5000: 
STOP.FT              1702.2500: 
STEP.FT                 0.2500: 
NULL.                -999.2500: 
COMP.          Pioneer Natural Resources: COMPANY
WELL.          Warrior 33-1 Tr: WELL
FLD.           Purgatoire River: FIELD
LOC.           2648' FSL & 2341' FEL--: LOCATION
PROV.                 Colorado: PROVINCE
CNTY.               Las Animas: COUNTRY
SRVC.                Patterson: SERVICE COMPANY
DATE.          Wed Jun 22 12:18:08 2005: LOG DATE
UWI.           05 071 08412 00: UNIQUE WELL ID
~Curve Information Block
DEPT.FT            0 000 00 00: Depth
CCL.                          : Casing Collar Locator
TT3.usec                      : CBL 3' Travel Time
AMP3.mV                       : CBL 3' Amplitude
GR.GAPI                       : Gamma Ray
~Parameter Information Block
~A  Depth       CCL         TT3         AMP3         GR     
# ...
  1567.0000      0.0000    657.8289      8.0506    120.1552
  1567.2500      0.0000    655.8919      7.8895    119.1700
  1567.5000      0.0000    652.7634      7.6545    114.9299
  1567.7500      0.0000    648.9283      7.3535    107.8365
  1568.0000      0.0000    645.5244      7.0017     98.8341
  1568.2500      0.0000    643.7467      6.6246     89.4387
  1568.5000      0.0000    644.3069      6.2572     81.6182
  1568.7500      0.0000    647.3336      5.9352     77.3424
  1569.0000      0.0000    652.3629      5.6815     77.9301
  1569.2500      0.0000    658.2399      5.4985     83.5031
  1569.5000      0.0000    663.3168      5.3763     92.8125
  1569.7500      0.0000    666.2667      5.3093    103.5623
  1570.0000      0.0000    667.1543      5.2958    113.2266
  1570.2500      0.0000    667.6714      5.3220    119.9403
  1570.5000      0.0000    669.8350      5.3548    122.8347
  1570.7500      0.0000    674.2197      5.3614    121.9643
  1571.0000      0.0000    679.6414      5.3337    118.4219
  1571.2500      0.0000    684.6083      5.2869    114.2673
  1571.5000      0.0000    688.5903      5.2387    111.5616
  1571.7500      0.0000    691.5113      5.1917    111.3326
  1572.0000      0.0000    692.6090      5.1365    113.5869
  1572.2500      0.0000    690.7552      5.0667    117.7570
  1572.5000      0.0000    686.0840      4.9920    122.6525
  1572.7500      0.0000    680.8763      4.9343    126.4725
  1573.0000      0.0000    678.4274      4.9067    127.5945
  1573.2500      0.0000    680.8232      4.8979    125.5227
  1573.5000      0.0000    687.6538      4.8840    121.0520
  1573.7500      0.0000    696.5370      4.8554    115.7389
  1574.0000      0.0000    704.4321      4.8210    111.3204
  1574.2500      0.0000    708.5797      4.7884    109.1758
  1574.5000      0.0000    707.1923      4.7533    109.6195
  1574.7500      0.0000    700.2299      4.7127    111.5178
  1575.0000      0.0000    689.6407      4.6754    113.0031
  1575.2500      0.0000    678.4860      4.6515    112.9650
  1575.5000      0.0000    669.4716      4.6401    111.9311
  1575.7500      0.0000    663.9894      4.6337    111.4972
  1576.0000      0.0000    662.3033      4.6311    112.8083
  1576.2500      0.0000    664.3937      4.6416    115.5000
  1576.5000      0.0000    670.3574      4.6808    118.1299
  1576.7500      0.0000    679.8861      4.7646    119.6176
  1577.0000      0.0000    691.4380      4.9036    120.1607
  1577.2500      0.0000    702.1825      5.0938    120.7741
  1577.5000      0.0000    708.9727      5.3088    122.1499
  1577.7500      0.0000    709.8949      5.4958    124.0606
  1578.0000      0.0000    705.6968      5.5836    125.6043
  1578.2500      0.0000    700.1121      5.5177    125.7916
  1578.5000      0.0000    697.9611      5.3134    124.1576
  1578.7500      0.0000    701.8384      5.0694    121.2773
  1579.0000      0.0000    710.4791      4.9085    118.6511
  1579.2500      0.0000    720.4363      4.8896    117.6833
  1579.5000      2.0000    728.7343      4.9725    118.6587
  1579.7500      0.0000    733.8655      5.0610    120.7556
  1580.0000     -2.0000    735.5636      5.0752    122.7717
  1580.2500      2.0000    734.7969      4.9950    123.7136
  1580.5000      0.0000    733.6933      4.8622    123.2180
  1580.7500      0.0000    734.0853      4.7544    121.8015
  1581.0000      0.0000    735.2515      4.7397    120.4200
  1581.2500      0.0000    733.7607      4.8312    119.7028
  1581.5000      0.0000    726.4070      4.9799    119.9510
  1581.7500      0.0000    713.1571      5.1163    121.5357
  1582.0000      0.0000    697.0442      5.1983    124.4109
  1582.2500      0.0000    681.8419      5.2264    127.3414
  1582.5000      0.0000    669.9818      5.2272    128.5618
  1582.7500      0.0000    661.8447      5.2275    127.4415
  1583.0000      0.0000    656.3494      5.2372    125.1459
  1583.2500      0.0000    652.4474      5.2497    123.6650
  1583.5000      0.0000    650.4951      5.2543    124.3714
  1583.7500      0.0000    652.1255      5.2448    127.3586
  1584.0000      0.0000    658.3837      5.2243    131.8958
  1584.2500      0.0000    667.8711      5.2042    137.0926
  1584.5000      0.0000    677.0447      5.1985    141.6494
  1584.7500      0.0000    682.7056      5.2145    143.5467
  1585.0000      0.0000    684.2834      5.2507    141.3653
  1585.2500      0.0000    683.5458      5.3017    136.0969
  1585.5000      0.0000    682.3669      5.3619    130.6586
  1585.7500      0.0000    681.5737      5.4241    127.5626
  1586.0000      0.0000    681.8153      5.4790    127.4685
  1586.2500      0.0000    684.0122      5.5179    129.3880
  1586.5000      0.0000    688.1919      5.5379    131.5776
  1586.7500      0.0000    692.6816      5.5421    132.6585
  1587.0000      0.0000    694.8574      5.5386    132.5972
  1587.2500      0.0000    691.8154      5.5367    132.6097
  1587.5000      0.0000    680.1818      5.5453    133.8167
  1587.7500      0.0000    656.9851      5.5731    135.8591
  1588.0000      0.0000    623.0165      5.6283    137.0023
  1588.2500      0.0000    585.7446      5.7133    135.8176
  1588.5000      0.0000    557.3521      5.8176    132.6753
  1588.7500      0.0000    548.2880      5.9188    129.3980
  1589.0000      0.0000    561.6400      5.9935    127.4461
  1589.2500      0.0000    591.9563      6.0287    126.7817
  1589.5000      0.0000    627.9205      6.0241    126.5639
  1589.7500      0.0000    656.9248      5.9847    126.4481
  1590.0000      0.0000    669.4042      5.9135    126.8552
  1590.2500      0.0000    661.1152      5.8133    128.3600
  1590.5000      0.0000    634.0279      5.6979    131.0980
  1590.7500      0.0000    597.0182      5.5942    134.5326
  1591.0000      0.0000    564.3761      5.5269    137.5021
  1591.2500      0.0000    549.6001      5.5006    138.5158
  1591.5000      0.0000    557.6634      5.4997    136.4596
  1591.7500      0.0000    582.2023      5.5033    131.6145
  1592.0000      0.0000    609.9563      5.4992    125.8971
  1592.2500      0.0000    628.0981      5.4887    121.3008
  1592.5000      0.0000    629.6400      5.4810    117.9707
  1592.7500      0.0000    616.1518      5.4813    114.5517
  1593.0000      0.0000    597.9408      5.4845    110.3407
  1593.2500      0.0000    589.2285      5.4856    106.1772
  1593.5000      0.0000    599.0952      5.4916    103.1919
  1593.7500      0.0000    625.6633      5.5163    101.5548
  1594.0000      0.0000    658.6656      5.5665    100.5242
  1594.2500      0.0000    686.6350      5.6348     98.9670
  1594.5000      0.0000    702.4956      5.7036     95.6903
  1594.7500      0.0000    705.1114      5.7511     90.1056
  1595.0000      0.0000    697.8030      5.7628     83.1692
  1595.2500      0.0000    685.8566      5.7413     77.4076
  1595.5000      0.0000    674.7515      5.7036     75.5212
  1595.7500      0.0000    668.9297      5.6698     78.6843
  1596.0000      0.0000    670.2846      5.6550     86.0302
  1596.2500      0.0000    677.0824      5.6666     95.5826
  1596.5000      0.0000    684.8914      5.7044    105.5466
  1596.7500      0.0000    688.6617      5.7620    114.8746
  1597.0000      0.0000    684.4053      5.8323    123.0432
  1597.2500      0.0000    670.7638      5.9114    129.6723
  1597.5000      0.0000    650.7833      5.9979    134.3607
  1597.7500      0.0000    631.6770      6.0880    136.6487
  1598.0000      0.0000    620.9137      6.1729    136.2044
  1598.2500      0.0000    621.6707      6.2427    133.3645
  1598.5000      0.0000    632.0359      6.2911    129.4459
  1598.7500      0.0000    647.4821      6.3167    126.0722
  1599.0000      0.0000    663.3593      6.3195    123.9983
  1599.2500      0.0000    676.2596      6.3019    122.8290
  1599.5000      0.0000    684.9133      6.2692    121.8252
  1599.7500      0.0000    690.1014      6.2273    120.5161
  1600.0000      0.0000    692.8822      6.1796    118.4858
  1600.2500      0.0000    692.3994      6.1272    115.1365
