~Version Information
VERS.                      2.0: CWLS Log ASCII Standard - VERSION 2.0
WRAP.                       NO: One line per depth step
~Well Information Block
STRT.FT               375.0000: 
STOP.FT              2637.0000: 
STEP.FT                 0.1000: 
NULL.                -999.2500: 
COMP.          Pioneer Natural Resources: COMPANY
WELL.            Cortina 23-25: WELL
FLD.           Purgatoire River: FIELD
LOC.           2344' FWL & 2526' FSL----: LOCATION
PROV.                 Colorado: PROVINCE
CNTY.               Las Animas: COUNTRY
SRVC.                Patterson: SERVICE COMPANY
DATE.          Thu Mar 24 07:44:45 2005: LOG DATE
UWI.           05 071 08340 00: UNIQUE WELL ID
~Curve Information Block
DEPT.FT            0 000 00 00: Depth
DCAL.in                       : CDL Caliper
DPOR.pu                       : CDL Density Porosity
NPOR.pu                       : Neutron Porosity
RHOB.g/cc                     : CDL Bulk Density
RHOC.g/cc                     : CDL Density Correction
GR.GAPI                       : Gamma Ray
~Parameter Information Block
~A  Depth       DCAL        DPOR        NPOR        RHOB        RHOC         GR     
# ...
   970.2000      8.1554      4.2362     18.0312      2.5801      0.1307    102.4635
   970.3000      8.1563      5.6759     18.9571      2.5563      0.0775    100.7272
   970.4000      8.1563      7.6979     19.8808      2.5230      0.0459    101.8989
   970.5000      8.1568      9.2309     20.5802      2.4977      0.0033    104.4086
   970.6000      8.1568      9.5973     21.1630      2.4916      0.0166    105.4234
   970.7000      8.1568      8.9528     21.7976      2.5023     -0.0002    105.4814
   970.8000      8.1585      7.7949     22.4243      2.5214      0.0499    104.9884
   970.9000      8.1585      6.4701     22.7489      2.5432      0.0204    102.4798
   971.0000      8.1593      5.5530     22.7621      2.5584      0.0450     97.4241
   971.1000      8.1593      5.8593     22.8669      2.5533      0.0397     91.2804
   971.2000      8.1593      7.2010     23.2836      2.5312      0.0057     87.6247
   971.3000      8.1589      8.1791     23.8429      2.5150     -0.0087     88.9950
   971.4000      8.1589      7.8600     24.3487      2.5203      0.0038     92.7815
   971.5000      8.1585      6.9718     24.9413      2.5350      0.0252     93.0234
   971.6000      8.1585      6.2229     25.6108      2.5473     -0.0103     89.7947
   971.7000      8.1585      5.4033     25.9277      2.5608      0.0169     88.9096
   971.8000      8.1576      4.8617     25.9143      2.5698      0.0330     91.2149
   971.9000      8.1576      5.2605     26.0792      2.5632      0.0153     92.7645
   972.0000      8.1568      6.3201     26.4357      2.5457      0.0259     93.5074
   972.1000      8.1568      6.8225     26.7304      2.5374     -0.0096     97.3995
   972.2000      8.1568      5.7138     26.9838      2.5557      0.0224    104.4110
   972.3000      8.1576      3.4667     27.0249      2.5928      0.0589    109.2071
   972.4000      8.1576      1.3905     26.7315      2.6271      0.0550    110.6706
   972.5000      8.1594      0.6664     26.4812      2.6390      0.1203    113.2550
   972.6000      8.1594      1.9208     26.3995      2.6183      0.0961    118.1728
   972.7000      8.1594      3.8857     26.2467      2.5859      0.0546    120.6402
   972.8000      8.1605      4.7698     26.0231      2.5713      0.0815    117.1153
   972.9000      8.1605      5.0994     25.9557      2.5659      0.0847    112.1111
   973.0000      8.1593      6.1989     26.0619      2.5477     -0.0159    111.3948
   973.1000      8.1593      7.8970     26.1052      2.5197     -0.0036    115.3382
   973.2000      8.1593      9.3755     25.7550      2.4953     -0.0204    120.3030
   973.3000      8.1577      9.7971     25.0042      2.4883     -0.0348    121.0664
   973.4000      8.1577      9.0549     24.4176      2.5006      0.0278    116.7325
   973.5000      8.1556      8.3690     24.5949      2.5119      0.0345    114.2413
   973.6000      8.1556      8.5097     25.3943      2.5096     -0.0093    117.6686
   973.7000      8.1556      8.7109     25.9200      2.5063      0.0177    120.6668
   973.8000      8.1545      8.5801     25.7917      2.5084      0.0498    117.0118
   973.9000      8.1545      8.5482     25.4853      2.5090      0.0264    111.2795
   974.0000      8.1552      8.5333     25.2769      2.5092      0.0145    110.5645
   974.1000      8.1552      8.2118     25.0108      2.5145      0.0255    112.7591
   974.2000      8.1552      7.9202     24.8343      2.5193      0.0273    112.6108
   974.3000      8.1557      8.1672     25.1121      2.5152      0.0193    112.3244
   974.4000      8.1557      8.7453     25.6743      2.5057      0.0077    115.4559
   974.5000      8.1562      8.8281     25.9786      2.5043     -0.0178    118.8305
   974.6000      8.1562      8.2194     25.7035      2.5144      0.0146    119.7247
   974.7000      8.1562      7.7971     25.0553      2.5213      0.0471    118.7145
   974.8000      8.1572      7.9245     24.5232      2.5192      0.0227    118.3475
   974.9000      8.1572      7.8748     24.3162      2.5201      0.0010    120.7866
   975.0000      8.1581      7.2856     24.3356      2.5298      0.0471    123.4225
   975.1000      8.1581      6.4778     24.6933      2.5431      0.0077    122.5870
   975.2000      8.1581      5.7811     25.5940      2.5546      0.0519    120.2541
   975.3000      8.1578      5.4010     26.5977      2.5609      0.0254    121.4846
   975.4000      8.1578      5.2069     27.1075      2.5641      0.0459    126.2750
   975.5000      8.1572      5.2298     27.3748      2.5637      0.0341    130.4019
   975.6000      8.1572      5.4708     27.8276      2.5597      0.0616    130.3981
   975.7000      8.1572      5.7635     28.2994      2.5549      0.0486    127.2216
   975.8000      8.1576      6.1246     28.4898      2.5489      0.0652    124.7849
   975.9000      8.1576      6.8445     28.4669      2.5371      0.0633    124.0383
   976.0000      8.1588      8.8289     28.3492      2.5043      0.0567    125.2646
   976.1000      8.1588     12.6813     27.8146      2.4408      0.0062    128.7901
   976.2000      8.1588     17.0767     26.4718      2.3682     -0.0773    133.4429
   976.3000      8.1633     21.1933     24.7831      2.3003     -0.0364    136.4104
   976.4000      8.1633     26.7760     23.5299      2.2082     -0.0537    134.2685
   976.5000      8.1716     34.1047     22.6143      2.0873     -0.1376    129.7856
   976.6000      8.1716     40.4758     21.6938      1.9821     -0.1233    128.8164
   976.7000      8.1716     44.0677     20.8991      1.9229     -0.0999    133.1068
   976.8000      8.1829     44.9983     20.4761      1.9075     -0.0720    138.3887
   976.9000      8.1829     42.7398     20.6729      1.9448     -0.0695    140.8632
   977.0000      8.2212     35.9821     21.6207      2.0563      0.0081    142.4042
   977.1000      8.2212     26.4087     22.9761      2.2143      0.2894    142.9077
   977.2000      8.2212     18.4156     24.1274      2.3461      0.4254    142.0292
   977.3000      8.3246     13.1273     25.0880      2.4334      0.3964    140.6789
   977.4000      8.3246      8.2062     26.2670      2.5146      0.4806    136.1221
   977.5000      8.3868      3.5697     27.5403      2.5911      0.5477    128.9070
   977.6000      8.3868      1.2665     28.6913      2.6291      0.4393    125.8675
   977.7000      8.3868      1.7621     29.6634      2.6209      0.2380    128.6585
   977.8000      8.2862      4.8215     30.1052      2.5704      0.1589    131.9186
   977.9000      8.2862     10.8749     29.7579      2.4706      0.0752    134.2538
   978.0000      8.1825     19.1380     28.7593      2.3342     -0.0315    139.3834
   978.1000      8.1825     27.8213     27.0950      2.1909     -0.0789    148.4213
   978.2000      8.1825     36.6497     24.8081      2.0453     -0.0893    153.6687
   978.3000      8.1554     46.4635     22.1993      1.8834     -0.1731    148.7243
   978.4000      8.1554     57.4818     19.5081      1.7016     -0.2385    137.3306
   978.5000      8.1531     69.2072     17.1935      1.5081     -0.2822    128.0020
   978.6000      8.1531     80.0748     15.8771      1.3288     -0.2641    124.9070
   978.7000      8.1531     87.7377     15.5652      1.2023     -0.2208    124.7852
   978.8000      8.1624     90.0807     15.7640      1.1637     -0.2410    123.3575
   978.9000      8.1624     85.0929     16.2836      1.2460     -0.0797    118.8192
   979.0000      8.2097     72.8638     17.2873      1.4477      0.1990    113.1404
   979.1000      8.2097     57.0542     18.8092      1.7086      0.4208    111.4864
   979.2000      8.2097     41.4680     20.3762      1.9658      0.5002    116.5472
   979.3000      8.2745     27.8112     21.3269      2.1911      0.5746    122.2645
   979.4000      8.2745     17.4570     21.4875      2.3620      0.6202    119.1286
   979.5000      8.2410     11.4016     21.1823      2.4619      0.4788    109.5188
   979.6000      8.2410      8.6529     20.5918      2.5072      0.3696    104.6793
   979.7000      8.2410      6.8963     19.5444      2.5362      0.2850    107.4235
