~Version Information
VERS.                      2.0: CWLS Log ASCII Standard - VERSION 2.0
WRAP.                       NO: One line per depth step
~Well Information Block
STRT.FT               -12.3000: 
STOP.FT              1768.7000: 
STEP.FT                 0.1000: 
NULL.                -999.2500: 
COMP.          Petrogulf Corporation: COMPANY
WELL.          Alexander 9-43R: WELL
FLD.           Purgatorie River: FIELD
LOC.           1652' FSL & 1049' FEL--: LOCATION
CNTY.               Las Animas: COUNTY
SRVC.                         : SERVICE COMPANY
DATE.          Tue Sep 28 14:27:54 2004: LOG DATE
UWI.                          : UNIQUE WELL ID
STAT.                       CO: STATE
~Curve Information Block
DEPT.FT            0 000 00 00: Depth
GR.GAPI                       : Gamma Ray
CCL.                          : Casing Collar Locator
TT3.usec                      : CBL 3' Travel Time
AMP3.mV                       : CBL 3' Amplitude
~Parameter Information Block
~A  Depth        GR         CCL         TT3         AMP3    
# ...
  1274.1000    117.1540      0.0000    282.6139     38.9897
  1274.2000    117.1540      0.0000    282.6139     38.9897
  1274.3000    121.9562      0.0000    277.4851     39.3670
  1274.4000    121.9562      0.0000    277.4851     39.3670
  1274.5000    128.1621      0.0000    275.3266     39.4257
  1274.6000    128.1621      0.0000    275.3266     39.4257
  1274.7000    128.1621      0.0000    275.3266     39.4257
  1274.8000    134.8049      0.0000    277.3323     39.0470
  1274.9000    134.8049      0.0000    277.3323     39.0470
  1275.0000    140.9590      0.0000    282.3792     38.2527
  1275.1000    140.9590      0.0000    282.3792     38.2527
  1275.2000    140.9590      0.0000    282.3792     38.2527
  1275.3000    146.6237      0.0000    288.0040     37.1920
  1275.4000    146.6237      0.0000    288.0040     37.1920
  1275.5000    151.8263      0.0000    292.2723     36.0735
  1275.6000    151.8263      0.0000    292.2723     36.0735
  1275.7000    151.8263      0.0000    292.2723     36.0735
  1275.8000    155.3565      0.0000    294.6994     35.0856
  1275.9000    155.3565      0.0000    294.6994     35.0856
  1276.0000    155.6959      0.0000    295.8078     34.3421
  1276.1000    155.6959      0.0000    295.8078     34.3421
  1276.2000    155.6959      0.0000    295.8078     34.3421
  1276.3000    153.3456      0.0000    296.2987     33.8635
  1276.4000    153.3456      0.0000    296.2987     33.8635
  1276.5000    151.0492      0.0000    296.6526     33.5683
  1276.6000    151.0492      0.0000    296.6526     33.5683
  1276.7000    151.0492      0.0000    296.6526     33.5683
  1276.8000    151.1666      0.0000    297.2479     33.2590
  1276.9000    151.1666      0.0000    297.2479     33.2590
  1277.0000    153.3716      0.0000    298.6969     32.6520
  1277.1000    153.3716      0.0000    298.6969     32.6520
  1277.2000    153.3716      0.0000    298.6969     32.6520
  1277.3000    155.2016      0.0000    302.1353     31.5026
  1277.4000    155.2016      0.0000    302.1353     31.5026
  1277.5000    154.4268      0.0000    308.9022     29.7577
  1277.6000    154.4268      0.0000    308.9022     29.7577
  1277.7000    154.4268      0.0000    308.9022     29.7577
  1277.8000    150.6182      0.0000    319.4396     27.5977
  1277.9000    150.6182      0.0000    319.4396     27.5977
  1278.0000    144.8549      0.0000    332.8031     25.3448
  1278.1000    144.8549      0.0000    332.8031     25.3448
  1278.2000    144.8549      0.0000    332.8031     25.3448
  1278.3000    138.4231      0.0000    349.2328     23.3210
  1278.4000    138.4231      0.0000    349.2328     23.3210
  1278.5000    131.7709      0.0000    374.1468     21.7149
  1278.6000    131.7709      0.0000    374.1468     21.7149
  1278.7000    131.7709      0.0000    374.1468     21.7149
  1278.8000    124.6225      0.0000    416.4453     20.4941
  1278.9000    124.6225      0.0000    416.4453     20.4941
  1279.0000    117.0985      0.0000    478.8941     19.4512
  1279.1000    117.0985      0.0000    478.8941     19.4512
  1279.2000    117.0985     -2.0000    478.8941     19.4512
  1279.3000    110.4177      2.0000    551.1016     18.3712
  1279.4000    110.4177      0.0000    551.1016     18.3712
  1279.5000    106.1605      0.0000    615.7245     17.1537
  1279.6000    106.1605      0.0000    615.7245     17.1537
  1279.7000    106.1605      0.0000    615.7245     17.1537
  1279.8000    105.2291      0.0000    661.6981     15.8048
  1279.9000    105.2291      0.0000    661.6981     15.8048
  1280.0000    107.8690      0.0000    688.8297     14.4059
  1280.1000    107.8690      0.0000    688.8297     14.4059
  1280.2000    107.8690      0.0000    688.8297     14.4059
  1280.3000    114.0114      0.0000    700.6101     13.1242
  1280.4000    114.0114      0.0000    700.6101     13.1242
  1280.5000    122.6497      0.0000    696.5561     12.1829
  1280.6000    122.6497      0.0000    696.5561     12.1829
  1280.7000    122.6497      0.0000    696.5561     12.1829
  1280.8000    131.0724      0.0000    673.1389     11.7460
  1280.9000    131.0724      0.0000    673.1389     11.7460
  1281.0000    135.8236      0.0000    630.1946     11.8182
  1281.1000    135.8236      0.0000    630.1946     11.8182
  1281.2000    135.8236      0.0000    630.1946     11.8182
  1281.3000    135.1157      0.0000    575.2572     12.2363
  1281.4000    135.1157      0.0000    575.2572     12.2363
  1281.5000    130.1887      0.0000    523.3105     12.7320
  1281.6000    130.1887      0.0000    523.3105     12.7320
  1281.7000    130.1887      0.0000    523.3105     12.7320
  1281.8000    124.2189      0.0000    492.5355     13.0343
  1281.9000    124.2189      0.0000    492.5355     13.0343
  1282.0000    120.1115      0.0000    495.8288     12.9855
  1282.1000    120.1115      0.0000    495.8288     12.9855
  1282.2000    120.1115      0.0000    495.8288     12.9855
  1282.3000    119.2466      0.0000    531.4816     12.6086
  1282.4000    119.2466      0.0000    531.4816     12.6086
  1282.5000    121.6693      0.0000    581.6205     12.0712
  1282.6000    121.6693      0.0000    581.6205     12.0712
  1282.7000    121.6693      0.0000    581.6205     12.0712
  1282.8000    126.8268      0.0000    623.2217     11.5681
  1282.9000    126.8268      0.0000    623.2217     11.5681
  1283.0000    134.0171      0.0000    642.8953     11.2129
  1283.1000    134.0171      0.0000    642.8953     11.2129
  1283.2000    134.0171      0.0000    642.8953     11.2129
  1283.3000    142.3487      0.0000    640.7621     11.0053
  1283.4000    142.3487      0.0000    640.7621     11.0053
  1283.5000    150.3428      0.0000    622.1238     10.8782
  1283.6000    150.3428      0.0000    622.1238     10.8782
  1283.7000    150.3428      0.0000    622.1238     10.8782
  1283.8000    155.8152      0.0000    589.8300     10.7708
  1283.9000    155.8152      0.0000    589.8300     10.7708
  1284.0000    156.9181      0.0000    545.7480     10.6672
  1284.1000    156.9181      0.0000    545.7480     10.6672
  1284.2000    156.9181      0.0000    545.7480     10.6672
  1284.3000    153.9772      0.0000    495.9507     10.5778
  1284.4000    153.9772      0.0000    495.9507     10.5778
  1284.5000    150.0896      0.0000    450.5660     10.5005
  1284.6000    150.0896      0.0000    450.5660     10.5005
  1284.7000    150.0896      0.0000    450.5660     10.5005
  1284.8000    149.2104      0.0000    418.1926     10.4111
  1284.9000    149.2104      0.0000    418.1926     10.4111
  1285.0000    153.0854      0.0000    401.4290     10.2847
  1285.1000    153.0854      0.0000    401.4290     10.2847
  1285.2000    153.0854      0.0000    401.4290     10.2847
  1285.3000    159.8531      0.0000    397.1540     10.1143
  1285.4000    159.8531      0.0000    397.1540     10.1143
  1285.5000    165.7168      0.0000    399.8340      9.9130
  1285.6000    165.7168      0.0000    399.8340      9.9130
  1285.7000    165.7168      0.0000    399.8340      9.9130
  1285.8000    167.9163      0.0000    405.2838      9.7125
  1285.9000    167.9163      0.0000    405.2838      9.7125
  1286.0000    166.1295      0.0000    413.3574      9.5523
  1286.1000    166.1295      0.0000    413.3574      9.5523
  1286.2000    166.1295      0.0000    413.3574      9.5523
  1286.3000    161.8289      0.0000    428.1117      9.4580
  1286.4000    161.8289      0.0000    428.1117      9.4580
  1286.5000    157.2448      0.0000    454.7897      9.4241
  1286.6000    157.2448      0.0000    454.7897      9.4241
  1286.7000    157.2448      0.0000    454.7897      9.4241
  1286.8000    154.6356      0.0000    494.8662      9.4179
  1286.9000    154.6356      0.0000    494.8662      9.4179
  1287.0000    155.3817      0.0000    542.6940      9.3920
  1287.1000    155.3817      0.0000    542.6940      9.3920
  1287.2000    155.3817      0.0000    542.6940      9.3920
  1287.3000    159.4202      0.0000    587.9075      9.2988
  1287.4000    159.4202      0.0000    587.9075      9.2988
