~Version Information
VERS.                      2.0: CWLS Log ASCII Standard - VERSION 2.0
WRAP.                       NO: One line per depth step
~Well Information Block
STRT.FT                -6.5000: 
STOP.FT              1719.0000: 
STEP.FT                 0.5000: 
NULL.                -999.2500: 
COMP.          Pioneer Natural Resources: COMPANY
WELL.             Tami J 23-18: WELL
FLD.           Purgatorie River: FIELD
LOC.           2250' FSL & 2400' FWL: LOCATION
PROV.                 Colorado: PROVINCE
CNTY.               Las Animas: COUNTRY
SRVC.          Patterson Wireline: SERVICE COMPANY
DATE.          Fri Dec 17 13:50:12 2004: LOG DATE
UWI.           05-071-08073-00: UNIQUE WELL ID
~Curve Information Block
DEPT.FT            0 000 00 00: Depth
CCL.                          : Casing Collar Locator
TT3.usec                      : CBL 3' Travel Time
AMP3.mV                       : CBL 3' Amplitude
GR.GAPI                       : Gamma Ray
~Parameter Information Block
~A  Depth       CCL         TT3         AMP3         GR     
# ...
   998.5000      0.0000    744.5237      4.9380     98.2950
   999.0000      0.0000    741.6353      5.1323     86.3826
   999.5000      0.0000    744.2921      5.3549     91.8511
  1000.0000      0.0000    753.0680      5.3820    114.2944
  1000.5000      0.0000    763.8013      5.2834    136.6415
  1001.0000      0.0000    767.6041      5.1135    144.5226
  1001.5000      0.0000    761.8127      4.9623    138.4527
  1002.0000      0.0000    755.3037      4.9358    128.8284
  1002.5000      0.0000    749.0402      4.9940    114.1386
  1003.0000      0.0000    746.4783      5.1111     97.5123
  1003.5000      0.0000    753.1311      5.2467     87.0233
  1004.0000      0.0000    759.0671      5.3400     84.0788
  1004.5000      0.0000    750.5245      5.3292     90.4853
  1005.0000      0.0000    739.1065      5.1739    109.3974
  1005.5000      0.0000    734.9254      5.0037    131.0885
  1006.0000      0.0000    730.2012      4.9873    141.8364
  1006.5000      0.0000    722.7219      5.1050    138.3755
  1007.0000      0.0000    728.0905      5.2727    128.8940
  1007.5000      0.0000    745.8206      5.2907    119.4323
  1008.0000      0.0000    751.9314      5.1299    107.0976
  1008.5000      0.0000    744.8885      5.0365     97.0282
  1009.0000      0.0000    739.9391      5.1591     97.0789
  1009.5000      0.0000    749.5963      5.2712     99.1410
  1010.0000      0.0000    768.3688      5.1765     94.2003
  1010.5000      0.0000    770.1889      5.0711     93.8275
  1011.0000      0.0000    749.6549      5.2746    103.3509
  1011.5000      0.0000    740.9299      5.5176    120.2601
  1012.0000      0.0000    754.5059      5.4913    137.9012
  1012.5000      0.0000    775.5242      5.3822    150.2760
  1013.0000      0.0000    795.4444      5.2365    159.3168
  1013.5000      0.0000    799.5225      5.2385    159.3189
  1014.0000      0.0000    791.6055      5.4422    147.8996
  1014.5000      0.0000    784.0657      5.4414    135.2734
  1015.0000      0.0000    776.8727      5.4991    133.4059
  1015.5000      0.0000    769.6613      5.4647    142.2506
  1016.0000      0.0000    759.3099      5.2242    146.8693
  1016.5000      0.0000    755.7786      4.9251    135.5996
  1017.0000      0.0000    771.3580      4.6414    107.1204
  1017.5000      0.0000    769.2676      4.6491     80.3256
  1018.0000      0.0000    761.1399      4.5781     84.8284
  1018.5000      0.0000    754.9222      4.4832    115.5784
  1019.0000      0.0000    736.6037      4.6186    141.4183
  1019.5000      0.0000    729.8014      4.9917    154.6623
  1020.0000      0.0000    740.3958      5.3895    159.4397
  1020.5000      0.0000    752.5945      5.5372    158.9028
  1021.0000      0.0000    770.7068      5.5136    161.0357
  1021.5000      0.0000    791.2440      5.3158    167.2760
  1022.0000      0.0000    794.9982      5.2135    168.0004
  1022.5000      0.0000    790.3015      5.4846    158.7605
  1023.0000      0.0000    787.5723      5.5498    157.6257
  1023.5000      0.0000    784.9979      5.3652    167.6071
  1024.0000      0.0000    777.9150      5.3217    169.2149
  1024.5000      0.0000    769.8649      5.3240    160.2735
  1025.0000      0.0000    775.5088      5.4663    152.2783
  1025.5000      0.0000    789.2239      5.5627    144.3632
  1026.0000      0.0000    791.6092      5.4703    139.6433
  1026.5000      0.0000    784.3191      5.5453    145.8697
  1027.0000      0.0000    783.6591      5.5248    152.9652
  1027.5000      0.0000    786.9929      5.4572    157.2365
  1028.0000      0.0000    787.1107      5.5033    162.7388
  1028.5000      0.0000    778.2502      5.5114    169.0022
  1029.0000      0.0000    752.1812      5.3841    168.8082
  1029.5000      0.0000    729.2220      5.2378    161.6470
  1030.0000      0.0000    734.4003      5.3547    157.9115
  1030.5000      0.0000    754.8928      5.2602    147.3801
  1031.0000      0.0000    779.1910      5.1149    139.6872
  1031.5000      0.0000    786.7749      5.2396    151.7238
  1032.0000      0.0000    784.8375      5.3072    167.0158
  1032.5000      0.0000    789.5370      5.4956    165.1598
  1033.0000      0.0000    789.3992      5.5540    155.6889
  1033.5000      0.0000    783.8440      5.4563    149.8791
  1034.0000      0.0000    773.3459      5.4956    141.9267
  1034.5000      0.0000    757.3005      5.5192    130.1125
  1035.0000      0.0000    743.4797      5.6643    121.1979
  1035.5000      0.0000    732.8192      5.5519    122.7966
  1036.0000      0.0000    727.1777      5.3909    133.4666
  1036.5000      0.0000    731.0094      5.7462    140.7368
  1037.0000      0.0000    732.7752      5.8036    138.8318
  1037.5000      0.0000    724.9006      5.2161    126.7831
  1038.0000      0.0000    720.6906      5.0269    106.5555
  1038.5000      0.0000    733.6571      5.6070     91.3070
  1039.0000      0.0000    752.5463      5.8112     94.4001
  1039.5000      0.0000    752.5642      5.4242    115.7320
  1040.0000      0.0000    743.8720      5.3076    130.0123
  1040.5000      0.0000    748.2560      5.3256    126.3465
  1041.0000      0.0000    754.3509      5.1204    119.7733
  1041.5000      0.0000    752.2531      5.3037    114.6390
  1042.0000      0.0000    744.8167      5.6764    109.8100
  1042.5000      0.0000    744.4536      5.3575    108.4827
  1043.0000      0.0000    760.3217      5.0754    110.0300
  1043.5000      0.0000    775.1111      5.5494    114.6378
  1044.0000      0.0000    771.8665      6.0288    112.7498
  1044.5000      0.0000    765.5854      5.8843    103.2085
  1045.0000      0.0000    777.1470      5.2985    104.4678
  1045.5000      0.0000    795.3535      4.6962    119.9035
  1046.0000      0.0000    802.4696      4.5295    133.8114
  1046.5000      0.0000    796.9234      5.0082    139.0126
  1047.0000      0.0000    781.9121      5.7464    142.7483
  1047.5000      0.0000    754.9795      6.2312    146.3075
  1048.0000      0.0000    722.6301      6.5239    153.1721
  1048.5000      0.0000    699.2704      6.5890    161.8882
  1049.0000      0.0000    680.6024      6.3214    165.9187
  1049.5000      0.0000    661.9084      5.8254    171.1564
  1050.0000      0.0000    679.7202      5.3142    181.9675
  1050.5000      0.0000    749.5363      5.0429    191.9104
  1051.0000      0.0000    805.8042      5.1579    189.5321
  1051.5000      0.0000    821.2421      5.7326    177.8744
  1052.0000      0.0000    818.8863      6.0407    173.0735
  1052.5000      0.0000    809.6005      5.6223    173.2869
  1053.0000      0.0000    803.6307      5.2990    163.7842
  1053.5000      0.0000    808.7468      5.5305    150.1176
  1054.0000      0.0000    813.2223      5.7828    144.4460
  1054.5000      0.0000    801.3035      5.8511    143.3179
  1055.0000      0.0000    789.2087      5.9472    138.2178
  1055.5000      0.0000    803.9578      6.1009    123.6382
  1056.0000      0.0000    824.3926      6.1169    108.3288
  1056.5000      0.0000    832.3766      5.8750    103.4176
  1057.0000      0.0000    832.0768      5.6736    105.6777
  1057.5000      0.0000    835.8755      5.8334    109.3224
  1058.0000      0.0000    841.1373      6.2804    115.0101
  1058.5000      0.0000    844.0860      6.4906    127.7575
  1059.0000      0.0000    833.0456      6.0859    144.8727
  1059.5000      0.0000    797.1798      5.4636    163.3838
  1060.0000      0.0000    746.5635      5.2584    175.4357
  1060.5000      0.0000    708.5048      5.3800    163.5061
  1061.0000     -5.0000    728.1017      5.4745    142.3214
  1061.5000      0.0000    789.1681      5.4053    128.2325
  1062.0000      0.0000    822.3947      5.4583    120.8661
  1062.5000      0.0000    813.8209      5.5206    123.6195
  1063.0000      0.0000    796.2529      5.2917    132.3167
  1063.5000      0.0000    767.4100      5.1313    141.8066
  1064.0000      0.0000    709.4456      4.9524    151.6954
  1064.5000      0.0000    641.5834      4.7259    160.2437
  1065.0000      0.0000    626.1544      4.7501    161.9902
