~Version Information
VERS.                      2.0: CWLS Log ASCII Standard - VERSION 2.0
WRAP.                       NO: One line per depth step
~Well Information Block
STRT.FT                -8.7500: 
STOP.FT              1126.7500: 
STEP.FT                 0.2500: 
NULL.                -999.2500: 
COMP.          Evergreen Operating Corp.: COMPANY
WELL.             Bernice 21-3: WELL
FLD.           Purgatorie River: FIELD
LOC.           201' FNL & 2575' FWL--: LOCATION
PROV.                       CO: PROVINCE
CNTY.               Las Animas: COUNTRY
SRVC.          Patterson Wireline: SERVICE COMPANY
DATE.          Mon Feb 02 12:04:59 2004: LOG DATE
UWI.              05 071 07912: UNIQUE WELL ID
~Curve Information Block
DEPT.FT            0 000 00 00: Depth
CCL.                          : Casing Collar Locator
TT3.usec                      : CBL 3' Travel Time
AMP3.mV                       : CBL 3' Amplitude
GR.GAPI                       : Gamma Ray
~Parameter Information Block
~A  Depth       CCL         TT3         AMP3         GR     
# ...
   292.7500      0.0000    976.3848      8.2469     62.5266
   293.0000      0.0000    959.3116      8.1489     62.0921
   293.2500      0.0000    947.5309      8.0338     61.7989
   293.5000      0.0000    946.0107      7.9276     61.6165
   293.7500      0.0000    951.1570      7.8575     61.4212
   294.0000      0.0000    955.7646      7.8289     61.4445
   294.2500      0.0000    955.9001      7.8274     62.3445
   294.5000      0.0000    953.7485      7.8442     64.8327
   294.7500      0.0000    954.3471      7.8825     69.1957
   295.0000      0.0000    960.0182      7.9406     75.0746
   295.2500      0.0000    967.4567      8.0090     81.6713
   295.5000      0.0000    969.4446      8.0807     88.1461
   295.7500      0.0000    959.7504      8.1423     93.7469
   296.0000      0.0000    936.5265      8.1572     97.8418
   296.2500      0.0000    901.7664      8.0855    100.3126
   296.5000      0.0000    860.6442      7.9265    101.8936
   296.7500      0.0000    822.7785      7.7314    103.6542
   297.0000      0.0000    800.6365      7.5669    105.9509
   297.2500      0.0000    802.6389      7.4645    108.0720
   297.5000      0.0000    827.7117      7.4070    108.8491
   297.7500      0.0000    868.0719      7.3573    107.4593
   298.0000      0.0000    915.6211      7.2848    103.7825
   298.2500      0.0000    962.9491      7.1683     98.3572
   298.5000     -4.0000   1000.8718      7.0000     92.1270
   298.7500     -4.0000   1021.2578      6.8024     86.1225
   299.0000      0.0000   1023.7748      6.6467     81.1886
   299.2500      0.0000   1017.0060      6.6426     77.9269
   299.5000      0.0000   1012.8063      6.8701     76.8550
   299.7500      0.0000   1019.4166      7.2974     78.2733
   300.0000      0.0000   1036.1298      7.7764     81.4690
   300.2500      0.0000   1052.6108      8.1508     84.1520
   300.5000      0.0000   1056.3770      8.3584     83.4893
   300.7500      0.0000   1043.1982      8.4245     78.2963
   301.0000      0.0000   1019.2482      8.3978     70.0853
   301.2500      0.0000    993.3514      8.3215     61.9505
   301.5000      0.0000    969.7488      8.2337     56.6912
   301.7500      0.0000    948.7693      8.1638     55.7302
   302.0000      0.0000    930.9923      8.1318     58.8790
   302.2500      0.0000    918.0952      8.1479     64.6598
   302.5000      0.0000    910.5987      8.1999     71.1732
   302.7500      0.0000    906.8571      8.2492     77.1182
   303.0000      0.0000    904.3911      8.2578     82.2295
   303.2500      0.0000    901.3483      8.2172     86.9854
   303.5000      0.0000    897.0809      8.1495     92.0434
   303.7500      0.0000    892.2956      8.0869     97.7636
   304.0000      0.0000    888.7352      8.0500    103.8161
   304.2500      0.0000    887.6775      8.0340    109.0852
   304.5000      0.0000    887.9549      8.0156    112.2372
   304.7500      0.0000    885.3738      7.9829    112.6629
   305.0000      0.0000    874.5778      7.9536    110.9014
   305.2500      0.0000    852.7665      7.9549    108.2448
   305.5000      0.0000    823.2690      7.9918    106.0885
   305.7500      0.0000    795.4339      8.0380    105.3819
   306.0000      0.0000    779.0283      8.0479    106.1422
   306.2500      0.0000    777.3527      7.9836    107.3011
   306.5000      0.0000    785.5850      7.8470    107.2723
   306.7500      0.0000    794.9053      7.6915    105.0047
   307.0000      0.0000    797.5688      7.5879    100.6694
   307.2500      0.0000    790.2832      7.5700     95.3354
   307.5000      0.0000    775.7629      7.6187     89.9765
   307.7500      0.0000    761.1585      7.6943     84.9078
   308.0000      0.0000    753.2770      7.7742     80.2092
   308.2500      0.0000    754.2228      7.8550     76.3996
   308.5000      0.0000    761.0557      7.9322     74.3618
   308.7500      0.0000    769.3091      7.9909     74.7117
   309.0000      0.0000    777.1813      8.0160     77.4690
   309.2500      0.0000    786.4052      8.0027     82.1372
   309.5000      0.0000    799.2123      7.9624     87.7652
   309.7500      0.0000    814.6255      7.9223     93.0257
   310.0000      0.0000    827.3087      7.9133     96.6409
   310.2500      0.0000    830.4312      7.9493     97.9682
   310.5000      0.0000    821.9584      8.0164     97.2961
   310.7500      0.0000    809.0208      8.0837     95.6664
   311.0000      0.0000    803.8828      8.1224     94.3607
   311.2500      0.0000    813.8218      8.1218     94.3706
   311.5000      0.0000    835.4299      8.0922     96.1371
   311.7500      0.0000    859.0684      8.0498     99.5059
   312.0000      0.0000    877.3580      7.9939    103.6452
   312.2500      0.0000    888.7164      7.9076    107.1480
   312.5000      0.0000    894.9724      7.7871    108.8290
   312.7500      0.0000    898.1532      7.6624    108.7341
   313.0000      0.0000    899.5032      7.5777    108.0421
   313.2500      0.0000    899.7844      7.5588    107.7998
   313.5000      0.0000    899.5325      7.6065    108.0239
   313.7500      0.0000    899.0959      7.7073    108.0882
   314.0000      0.0000    898.6855      7.8383    107.5443
   314.2500      0.0000    898.4242      7.9662    106.3561
   314.5000      0.0000    898.3856      8.0571    104.6512
   314.7500      0.0000    898.6158      8.0896    102.4194
   315.0000      0.0000    899.1317      8.0638     99.3732
   315.2500      0.0000    899.9036      8.0034     95.3602
   315.5000      0.0000    900.8403      7.9479     91.0406
   315.7500      0.0000    901.8010      7.9303     87.5650
   316.0000      0.0000    902.6234      7.9528     85.2816
   316.2500      0.0000    903.1359      7.9844     83.4949
   316.5000      0.0000    903.1775      7.9880     81.8888
   316.7500      0.0000    902.6796      7.9525     81.3909
   317.0000      0.0000    901.7653      7.8981     83.0535
   317.2500      0.0000    900.7269      7.8559     86.5414
   317.5000      0.0000    899.8422      7.8481     90.0914
   317.7500      0.0000    899.2084      7.8788     91.8257
   318.0000      0.0000    898.7749      7.9341     91.1623
   318.2500      0.0000    898.5034      7.9888     89.1501
   318.5000      0.0000    898.4376      8.0213     87.3905
   318.7500      0.0000    898.6162      8.0229     86.7331
   319.0000      0.0000    898.9904      7.9973     87.1744
   319.2500      0.0000    899.4539      7.9621     88.6064
   319.5000      0.0000    899.8846      7.9533     91.1097
   319.7500      0.0000    900.0654      8.0169     94.6753
   320.0000      0.0000    899.5128      8.1818     98.9714
   320.2500      0.0000    897.4689      8.4373    103.3075
   320.5000      0.0000    893.3692      8.7352    106.6854
   320.7500      0.0000    887.7155      9.0162    108.0743
   321.0000      0.0000    882.4884      9.2430    106.9278
   321.2500      0.0000    880.1766      9.4182    103.6400
   321.5000      0.0000    881.9113      9.5722     99.4821
   321.7500      0.0000    886.5212      9.7323     95.8702
   322.0000      0.0000    891.5186      9.9070     93.6564
   322.2500      0.0000    894.7910     10.0977     93.0935
   322.5000      0.0000    895.2198     10.3119     94.0001
   322.7500      0.0000    892.0175     10.5484     95.8244
   323.0000      0.0000    884.5153     10.7615     97.9757
   323.2500      0.0000    873.8127     10.8511    100.2064
   323.5000      0.0000    864.6223     10.7156    102.3682
   323.7500      0.0000    863.2491     10.3420    103.8152
   324.0000      0.0000    871.7147      9.8457    103.3320
   324.2500      0.0000    884.6678      9.3982     99.8493
   324.5000      0.0000    893.6005      9.1056     93.3851
   324.7500      0.0000    894.0826      8.9581     85.4775
   325.0000      0.0000    889.6732      8.8858     78.5807
   325.2500      0.0000    889.6769      8.8374     74.6673
   325.5000      4.0000    900.4457      8.8078     74.0822
   325.7500      0.0000    916.4398      8.8171     75.6277
   326.0000      0.0000    923.1841      8.8763     77.8165
