~Version Information
VERS.                      2.0: CWLS Log ASCII Standard - VERSION 2.0
WRAP.                       NO: One line per depth step
~Well Information Block
STRT.FT                 0.5000: 
STOP.FT              1575.0000: 
STEP.FT                 0.2500: 
NULL.                -999.2500: 
COMP.          Evergreen Operating Corporation: COMPANY
WELL.                Eric 42-9: WELL
FLD.           Purgatorie River: FIELD
LOC.           2050' FNL & 850' FEL: LOCATION
PROV.                 Colorado: PROVINCE
CNTY.               Las Animas: COUNTRY
SRVC.                         : SERVICE COMPANY
DATE.          Tue Nov 09 16:28:59 2004: LOG DATE
UWI.           05 071 07999 00: UNIQUE WELL ID
~Curve Information Block
DEPT.FT            0 000 00 00: Depth
LTEN.lb                       : Surface Line Tension
TT3.usec                      : CBL 3' Travel Time
AMP3.mV                       : CBL 3' Amplitude
ATT3.db/ft                    : CBL 3' Attenuation
GR.GAPI                       : Gamma Ray
CCL.                          : Casing Collar Locator
~Parameter Information Block
~A  Depth       LTEN        TT3         AMP3        ATT3         GR         CCL     
# ...
   912.5000    614.1070    781.5664      5.0395     -8.4964    141.0845      0.0000
   912.7500    615.4854    781.3213      5.1335     -8.4430    139.6480      0.0000
   913.0000    613.5960    780.5828      5.1356     -8.4418    141.2664      0.0000
   913.2500    609.2084    778.6431      5.0656     -8.4815    144.6154      0.0000
   913.5000    603.8262    775.0015      4.9674     -8.5382    148.5910      0.0000
   913.7500    598.8193    769.8691      4.8735     -8.5934    152.9977      0.0000
   914.0000    595.1957    764.3183      4.8049     -8.6345    158.1743      0.0000
   914.2500    593.5589    759.8936      4.7830     -8.6477    164.0273      0.0000
   914.5000    594.0081    757.7980      4.8205     -8.6251    169.4736      0.0000
   914.7500    596.2987    757.8916      4.8984     -8.5787    173.0302      0.0000
   915.0000    600.0678    758.3051      4.9685     -8.5375    174.0062      0.0000
   915.2500    604.6392    756.7289      4.9934     -8.5231    172.8250      0.0000
   915.5000    608.7607    752.6241      4.9813     -8.5301    170.3327      0.0000
   915.7500    610.9998    748.0062      4.9724     -8.5352    167.3007      0.0000
   916.0000    610.6078    746.0537      4.9964     -8.5213    164.4142      0.0000
   916.2500    608.0552    749.2176      5.0552     -8.4874    161.8753      0.0000
   916.5000    604.7996    758.1173      5.1410     -8.4387    158.8448      0.0000
   916.7500    602.4999    771.0601      5.2522     -8.3768    153.8504      0.0000
   917.0000    602.2342    784.3014      5.3843     -8.3048    146.1056      0.0000
   917.2500    604.0988    793.6091      5.5140     -8.2359    136.5885      0.0000
   917.5000    607.2437    796.2866      5.6084     -8.1868    127.9131      0.0000
   917.7500    610.3361    791.8404      5.6538     -8.1634    122.6333      0.0000
   918.0000    612.2809    781.4330      5.6591     -8.1607    121.1214      0.0000
   918.2500    612.7244    767.6987      5.6269     -8.1772    121.4138      0.0000
   918.5000    612.1453    754.4288      5.5428     -8.2209    121.5160      0.0000
   918.7500    611.6389    744.8665      5.4061     -8.2931    121.4551      0.0000
   919.0000    612.1889    740.0181      5.2518     -8.3770    123.0035      0.0000
   919.2500    613.4855    739.0269      5.1220     -8.4495    127.8953      0.0000
   919.5000    613.6187    740.6934      5.0283     -8.5029    136.2245      0.0000
   919.7500    610.6015    743.9673      4.9557     -8.5450    145.7561      0.0000
   920.0000    604.3848    747.3154      4.8868     -8.5855    152.5095      0.0000
   920.2500    597.2343    748.8359      4.8153     -8.6282    152.6563      0.0000
   920.5000    592.1152    747.7712      4.7538     -8.6654    144.7766      0.0000
   920.7500    590.6072    745.3835      4.7365     -8.6760    130.9121      0.0000
   921.0000    592.0695    743.3909      4.7904     -8.6432    115.5459      0.0000
   921.2500    594.5746    741.4317      4.8969     -8.5796    103.2149      0.0000
   921.5000    596.5685    736.3589      4.9984     -8.5202     96.4560      0.0000
   921.7500    597.7596    724.1212      5.0481     -8.4915     95.2692      0.0000
   922.0000    598.6914    703.0248      5.0418     -8.4952     97.8713      0.0000
   922.2500    599.8383    676.8888      5.0029     -8.5176    101.7930      0.0000
   922.5000    601.3391    655.8505      4.9515     -8.5475    104.7086      0.0000
   922.7500    603.3358    652.0997      4.8943     -8.5811    104.8729      0.0000
   923.0000    605.9362    672.0271      4.8363     -8.6156    101.4900      0.0000
   923.2500    608.5148    711.3563      4.7933     -8.6415     95.3799      0.0000
   923.5000    609.4863    757.3983      4.7859     -8.6459     89.1895      0.0000
   923.7500    607.4601    795.5152      4.8184     -8.6264     85.8363      0.0000
   924.0000    602.8467    815.4699      4.8645     -8.5988     86.0321      0.0000
   924.2500    597.9847    815.9008      4.8863     -8.5858     87.6959      0.0000
   924.5000    595.4188    804.3470      4.8736     -8.5933     88.1008      0.0000
   924.7500    596.2661    791.3994      4.8544     -8.6048     86.2786      0.0000
   925.0000    600.1570    783.6237      4.8558     -8.6040     83.2684      0.0000
   925.2500    605.8138    781.0926      4.8660     -8.5979     80.6878      0.0000
   925.5000    611.2120    779.6052      4.8520     -8.6063     79.5902      0.0000
   925.7500    614.2026    774.6666      4.8052     -8.6343     80.5273      0.0000
   926.0000    614.0303    764.6631      4.7508     -8.6673     84.0657      0.0000
   926.2500    612.0286    751.3461      4.7163     -8.6884     90.7571      0.0000
   926.5000    610.3146    738.0874      4.7102     -8.6921    100.5439      0.0000
   926.7500    610.1461    728.4891      4.7290     -8.6806    112.2889      0.0000
   927.0000    611.6266    725.5514      4.7714     -8.6547    123.9674      0.0000
   927.2500    614.0894    729.3612      4.8418     -8.6124    133.3466      0.0000
   927.5000    616.1405    735.5854      4.9403     -8.5540    138.5913      0.0000
   927.7500    616.0571    738.8863      5.0558     -8.4871    138.6868      0.0000
   928.0000    613.1579    738.4569      5.1678     -8.4237    133.9033      0.0000
   928.2500    608.8168    738.0763      5.2612     -8.3718    126.0552      0.0000
   928.5000    605.6132    739.8021      5.3370     -8.3304    117.9708      0.0000
   928.7500    605.2759    739.6713      5.4035     -8.2946    112.3338      0.0000
   929.0000    607.3597    731.7493      5.4546     -8.2673    110.7641      0.0000
   929.2500    609.8145    716.0521      5.4676     -8.2604    113.6188      0.0000
   929.5000    611.0031    700.3703      5.4293     -8.2807    120.1916      0.0000
   929.7500    611.3121    692.6420      5.3560     -8.3201    128.9719      0.0000
   930.0000    612.7196    691.9205      5.2762     -8.3636    137.9198      0.0000
   930.2500    616.6921    688.9794      5.2072     -8.4017    145.0234      0.0000
   930.5000    622.4988    676.5361      5.1571     -8.4297    149.2870      0.0000
   930.7500    627.5087    657.4823      5.1342     -8.4426    151.4336      0.0000
   931.0000    629.1332    642.5915      5.1428     -8.4377    153.2266      0.0000
   931.2500    626.6509    641.2316      5.1786     -8.4176    155.6640      0.0000
   931.5000    621.3791    654.2133      5.2336     -8.3870    157.8623      0.0000
   931.7500    615.3563    673.4068      5.2939     -8.3538    157.8206      0.0000
   932.0000    610.0673    687.3297      5.3329     -8.3326    154.0700      0.0000
   932.2500    606.2479    688.5740      5.3205     -8.3394    146.6798      0.0000
   932.5000    604.3327    677.9774      5.2515     -8.3771    137.3311      0.0000
   932.7500    604.7297    662.6854      5.1558     -8.4304    128.5819      0.0000
   933.0000    607.6119    650.5399      5.0743     -8.4765    122.3132      0.0000
   933.2500    612.4318    646.2076      5.0311     -8.5013    118.3721      0.0000
   933.5000    617.6667    651.2285      5.0283     -8.5029    114.9046      0.0000
   933.7500    621.4063    665.0587      5.0601     -8.4847    110.1793      0.0000
   934.0000    622.6650    684.7512      5.1234     -8.4487    103.9388      0.0000
   934.2500    622.0811    705.2266      5.2172     -8.3961     97.2239      0.0000
   934.5000    620.9980    722.0405      5.3326     -8.3328     91.5888      0.0000
   934.7500    620.0637    734.1992      5.4459     -8.2719     88.7867      0.0000
   935.0000    619.1780    743.7217      5.5259     -8.2297     90.5494      0.0000
   935.2500    618.4028    752.7426      5.5520     -8.2160     97.6418      0.0000
   935.5000    618.0539    761.4821      5.5257     -8.2298    108.8428      0.0000
   935.7500    617.9156    768.5489      5.4691     -8.2596    121.3674      0.0000
   936.0000    617.2319    772.4353      5.4159     -8.2879    132.6745      0.0000
   936.2500    615.7166    772.3506      5.3949     -8.2991    141.8386      0.0000
