~Version Information
 VERS.                                  2.0 : CWLS LAS VERSION
 WRAP.                                   NO : WRAPING MODE
 SWARE .                 MController 2.5.0N : SOFTWARE VERSION
~Well Information
 WELL.                         Vector 33-23 : WELL
 COMP.    Pioneer Natural Resources USA Inc : COMPANY
 FLD.                      Purgatoire River : FIELD
 LOC.                NW/SE Sec 23 T32S R66W : LOCATION
 DATE.                              3/25/05 : DATE(S) LOGGED
 SRVC.       Blanco Geological Services LLC : SERVICE COMPANY
 STAT.                                   CO : STATE
 CNTY.                           Las Animas : COUNTY
 CTRY.                                  USA : COUNTRY
 API.                       05-071-08336-00 : API NUMBER
 STRT.FT                             770.00 : START DEPTH
 STOP.FT                            2300.00 : STOP DEPTH
 STEP.FT                               1.00 : DEPTH INCREMENT
 NULL.                                -9999 : NULL VALUE
~Curve information
 DEPTH.FT                                   :
 ROP.MIN/FT                                 :
 GAS.UNITS                                  :
~ASCII Log data
# ...
      1970.0         0.27         79.1 
      1971.0         0.27         78.6 
      1972.0         0.23         74.5 
      1973.0         0.27         63.0 
      1974.0         0.27         50.2 
      1975.0         0.70         56.1 
      1976.0         3.73        300.2 
      1977.0         0.57        173.9 
      1978.0         0.43        130.5 
      1979.0         0.37        110.2 
      1980.0         0.43         96.5 
      1981.0         0.37         85.7 
      1982.0         0.37         86.0 
      1983.0         0.33         88.3 
      1984.0         0.27         88.6 
      1985.0         0.28         87.9 
      1986.0         0.27         86.3 
      1987.0         0.27         85.0 
      1988.0         0.23         83.5 
      1989.0         0.23         82.2 
      1990.0         0.23         81.0 
      1991.0         0.23         79.5 
      1992.0         0.23         77.8 
      1993.0         0.23         76.0 
      1994.0         0.20         73.5 
      1995.0         0.23         72.3 
      1996.0         0.20         71.3 
      1997.0         0.20         71.7 
      1998.0         0.17         72.0 
      1999.0         0.20         72.3 
      2000.0         0.18         72.4 
      2001.0         0.23         72.4 
      2002.0         0.23         69.7 
      2003.0         0.23         59.7 
      2004.0         0.30         48.3 
      2005.0         0.53         46.1 
      2006.0         3.75        253.9 
      2007.0         0.47        126.6 
      2008.0         0.37        101.7 
      2009.0         0.37         87.6 
      2010.0         0.32         79.1 
      2011.0         0.37         76.0 
      2012.0         0.37         76.6 
      2013.0         0.27         76.6 
      2014.0         0.27         76.5 
      2015.0         0.30         75.9 
      2016.0         0.27         75.2 
      2017.0         0.27         74.3 
      2018.0         0.27         74.5 
      2019.0         0.30         74.3 
      2020.0         0.23         73.6 
      2021.0         0.25         72.9 
      2022.0         0.33         71.0 
      2023.0         0.27         72.3 
      2024.0         0.33         74.9 
      2025.0         0.23         75.9 
      2026.0         0.27         75.4 
      2027.0         0.27         73.3 
      2028.0         0.33         69.5 
      2029.0         0.37         66.5 
      2030.0         0.23         66.8 
      2031.0         0.23         64.0 
      2032.0         0.27         55.4 
      2033.0         0.25         51.2 
      2034.0         0.27         70.8 
      2035.0         2.53        472.3 
      2036.0         0.13        471.7 
      2037.0         0.13        462.1 
      2038.0         0.13        443.2 
      2039.0         0.22        416.9 
      2040.0         0.27        366.9 
      2041.0         0.33        318.3 
      2042.0         0.33        270.1 
      2043.0         0.33        233.1 
      2044.0         0.33        200.8 
      2045.0         0.30        182.0 
      2046.0         0.17        174.8 
      2047.0         0.20        172.2 
      2048.0         0.33        168.2 
      2049.0         0.33        158.4 
      2050.0         0.38        150.7 
      2051.0         0.33        140.1 
      2052.0         0.33        129.1 
      2053.0         0.27        117.3 
      2054.0         0.17        111.3 
      2055.0         0.20        110.4 
      2056.0         0.20        113.4 
      2057.0         0.17        114.8 
      2058.0         0.17        115.6 
      2059.0         0.23        115.4 
      2060.0         0.33        114.2 
      2061.0         0.33        110.7 
      2062.0         0.23        101.4 
      2063.0         0.35         84.5 
      2064.0         0.23         59.6 
      2065.0         0.20         53.3 
      2066.0         2.53        321.7 
      2067.0         0.55        308.9 
      2068.0         0.43        227.3 
      2069.0         0.40        179.2 
      2070.0         0.33        152.3 
      2071.0         0.30        134.4 
      2072.0         0.30        121.3 
      2073.0         0.27        110.2 
      2074.0         0.27        103.5 
      2075.0         0.37        101.0 
      2076.0         0.35        106.9 
      2077.0         0.20        109.5 
      2078.0         0.23        109.9 
      2079.0         0.23        109.9 
      2080.0         0.27        108.2 
      2081.0         0.27        106.6 
      2082.0         0.27        107.1 
      2083.0         0.20        107.1 
      2084.0         0.13        105.7 
      2085.0         0.13        104.8 
      2086.0         0.20        103.6 
      2087.0         0.27        101.3 
      2088.0         0.23        101.3 
      2089.0         0.23        103.0 
      2090.0         0.20        103.2 
      2091.0         0.13         99.6 
      2092.0         0.15         92.8 
      2093.0         0.20         80.4 
      2094.0         0.27         68.1 
      2095.0         0.20         62.5 
      2096.0         3.42        367.4 
      2097.0         0.27        225.6 
      2098.0         0.23        197.1 
      2099.0         0.23        172.3 
      2100.0         0.27        153.2 
      2101.0         0.30        137.0 
      2102.0         0.23        123.0 
      2103.0         0.23        113.3 
      2104.0         0.27        105.3 
      2105.0         0.27         98.9 
      2106.0         0.27         97.4 
      2107.0         0.28        101.0 
      2108.0         0.27        103.7 
      2109.0         0.27        104.4 
      2110.0         0.27        107.1 
      2111.0         0.27        116.3 
      2112.0         0.30        127.4 
      2113.0         0.20        130.5 
      2114.0         0.10        130.5 
      2115.0         0.17        130.0 
      2116.0         0.27        126.9 
      2117.0         0.13        120.3 
      2118.0         0.23        117.0 
      2119.0         0.30        110.7 
      2120.0         0.32        106.1 
      2121.0         0.27        103.1 
      2122.0         0.27        100.2 
      2123.0         0.23         95.1 
      2124.0         0.30         82.9 
      2125.0         0.27         64.8 
      2126.0         4.08        404.0 
      2127.0         0.57        269.1 
      2128.0         0.47        181.7 
      2129.0         0.52        142.0 
      2130.0         0.33        115.0 
      2131.0         0.30        103.5 
      2132.0         0.30         96.6 
      2133.0         0.27        112.9 
      2134.0         0.23        137.5 
      2135.0         0.17        152.4 
      2136.0         0.13        159.5 
      2137.0         0.13        162.3 
      2138.0         0.13        162.6 
      2139.0         0.27        160.9 
      2140.0         0.30        155.5 
      2141.0         0.23        149.8 
      2142.0         0.18        145.4 
      2143.0         0.13        141.8 
      2144.0         0.17        137.9 
      2145.0         0.23        133.8 
      2146.0         0.30        127.5 
      2147.0         0.23        120.3 
      2148.0         0.23        116.0 
      2149.0         0.20        112.7 
      2150.0         0.20        109.0 
      2151.0         0.20        103.3 
      2152.0         0.30         96.7 
      2153.0         0.37         80.1 
      2154.0         0.40         59.3 
      2155.0         0.35         74.7 
      2156.0         1.80        296.8 
      2157.0         0.40        296.0 
      2158.0         0.50        257.2 
      2159.0         0.30        185.8 
      2160.0         0.30        157.0 
      2161.0         0.42        136.5 
      2162.0         0.43        115.7 
      2163.0         0.27        106.0 
      2164.0         0.13        102.4 
      2165.0         0.10        100.0 
      2166.0         0.20         99.1 
      2167.0         0.23         99.3 
      2168.0         0.27        102.9 
      2169.0         0.27        105.8 
