~Version Information
VERS.                      2.0: CWLS Log ASCII Standard - VERSION 2.0
WRAP.                       NO: One line per depth step
~Well Information Block
STRT.FT               -12.5000: 
STOP.FT              2200.2500: 
STEP.FT                 0.2500: 
NULL.                -999.2500: 
COMP.          Pioneer Natural Resources: COMPANY
WELL.           Ogallela 44-12: WELL
FLD.           Purgatorie River: FIELD
LOC.           610' FSL & 671' FEL------: LOCATION
PROV.                       CO: PROVINCE
CNTY.               Las Animas: COUNTRY
SRVC.          Patterson Wireline: SERVICE COMPANY
DATE.          Tue Mar 22 17:18:22 2005: LOG DATE
UWI.           05 071 08283 00: UNIQUE WELL ID
~Curve Information Block
DEPT.FT            0 000 00 00: Depth
CCL.                          : Casing Collar Locator
TT3.usec                      : CBL 3' Travel Time
AMP3.mV                       : CBL 3' Amplitude
GR.GAPI                       : Gamma Ray
~Parameter Information Block
~A  Depth       CCL         TT3         AMP3         GR     
# ...
   992.5000      0.0000    281.2833     42.5460    103.7373
   992.7500     -2.0000    279.6392     42.3545    103.0480
   993.0000     -2.0000    279.5753     42.1730    104.7048
   993.2500      0.0000    280.9408     41.9994    109.0384
   993.5000      0.0000    283.4682     42.1075    114.5145
   993.7500      0.0000    286.3260     42.9199    119.0914
   994.0000      0.0000    288.0963     44.6697    121.4902
   994.2500      0.0000    287.5445     47.2564    121.4430
   994.5000      0.0000    284.4686     50.5475    119.4999
   994.7500      0.0000    279.8380     54.5272    116.8013
   995.0000      0.0000    275.1584     58.8977    114.6982
   995.2500      0.0000    271.6013     62.8720    114.2893
   995.5000      0.0000    269.5112     65.6989    115.9419
   995.7500      0.0000    268.5604     67.2283    118.7726
   996.0000      0.0000    268.2324     67.8336    120.8337
   996.2500      0.0000    268.1554     67.9813    120.5817
   996.5000      0.0000    268.1541     67.9733    118.4026
   996.7500      0.0000    268.1663     67.9422    116.3868
   997.0000      0.0000    268.1774     67.9204    116.6228
   997.2500      0.0000    268.1839     67.9041    119.8468
   997.5000      0.0000    268.1863     67.8888    125.2881
   997.7500      0.0000    268.1866     67.8773    131.2069
   998.0000      0.0000    268.1884     67.8733    135.6450
   998.2500      0.0000    268.1946     67.8784    137.2696
   998.5000      0.0000    268.2057     67.8993    136.0780
   998.7500      0.0000    268.2201     67.9497    133.3163
   999.0000      0.0000    268.2360     68.0402    130.3845
   999.2500      0.0000    268.2501     68.1677    127.8075
   999.5000      0.0000    268.2581     68.3120    125.4839
   999.7500      0.0000    268.2569     68.4407    123.5960
  1000.0000      0.0000    268.2484     68.5251    122.7352
  1000.2500      0.0000    268.2380     68.5629    123.2520
  1000.5000      0.0000    268.2319     68.5868    124.9189
  1000.7500      0.0000    268.2335     68.6434    127.1788
  1001.0000      0.0000    268.2416     68.7573    129.4191
  1001.2500      0.0000    268.2518     68.9115    131.0037
  1001.5000      0.0000    268.2596     69.0658    131.3793
  1001.7500      0.0000    268.2649     69.1941    130.5662
  1002.0000      0.0000    268.2728     69.3034    129.4122
  1002.2500      0.0000    268.2878     69.4175    128.8643
  1002.5000      0.0000    268.3092     69.5420    128.9595
  1002.7500      0.0000    268.3318     69.6466    128.8716
  1003.0000      0.0000    268.3519     69.6887    127.9631
  1003.2500      0.0000    268.3692     69.6595    126.7017
  1003.5000      0.0000    268.3844     69.6042    126.5519
  1003.7500      0.0000    268.3946     69.5946    128.7431
  1004.0000      0.0000    268.3938     69.6793    132.7726
  1004.2500      0.0000    268.3766     69.8543    135.9898
  1004.5000      0.0000    268.3453     70.0698    135.0040
  1004.7500      0.0000    268.3111     70.2634    128.1401
  1005.0000      0.0000    268.2879     70.3924    117.0346
  1005.2500      0.0000    268.2832     70.4420    105.9259
  1005.5000      0.0000    268.2946     70.4093     99.1582
  1005.7500      0.0000    268.3141     70.2886     98.8122
  1006.0000      0.0000    268.3324     70.0803    103.8588
  1006.2500      0.0000    268.3419     69.8101    110.9991
  1006.5000      0.0000    268.3388     69.5299    116.7378
  1006.7500      0.0000    268.3242     69.2910    119.7089
  1007.0000      0.0000    268.3019     69.1149    121.4198
  1007.2500      0.0000    268.2762     68.9938    124.3405
  1007.5000      0.0000    268.2511     68.9165    128.9420
  1007.7500      0.0000    268.2309     68.8824    132.7994
  1008.0000      0.0000    268.2180     68.8877    132.7532
  1008.2500      0.0000    268.2117     68.9101    127.7770
  1008.5000      0.0000    268.2095     68.9195    119.8748
  1008.7500      0.0000    268.2104     68.9031    112.6997
  1009.0000      0.0000    268.2148     68.8728    109.2266
  1009.2500      0.0000    268.2232     68.8537    109.8741
  1009.5000      0.0000    268.2352     68.8715    112.4056
  1009.7500      0.0000    268.2470     68.9371    114.0200
  1010.0000      0.0000    268.2527     69.0295    113.7521
  1010.2500      0.0000    268.2499     69.1029    112.5971
  1010.5000      0.0000    268.2439     69.1289    111.5053
  1010.7500      0.0000    268.2401     69.1250    110.0051
  1011.0000      0.0000    268.2374     69.1271    107.0923
  1011.2500      0.0000    268.2318     69.1446    102.9742
  1011.5000      0.0000    268.2254     69.1600     99.3897
  1011.7500      0.0000    268.2248     69.1641     98.1709
  1012.0000      0.0000    268.2327     69.1676     99.7933
  1012.2500      0.0000    268.2457     69.1854    103.3090
  1012.5000      0.0000    268.2604     69.2307    107.2427
  1012.7500      0.0000    268.2771     69.3208    110.2274
  1013.0000      0.0000    268.2947     69.4647    111.0609
  1013.2500      0.0000    268.3079     69.6401    108.8402
  1013.5000      0.0000    268.3125     69.8040    103.5805
  1013.7500      0.0000    268.3120     69.9340     96.7296
  1014.0000      0.0000    268.3139     70.0469     90.8046
  1014.2500      0.0000    268.3214     70.1657     88.2034
  1014.5000      0.0000    268.3296     70.2793     89.8903
  1014.7500      0.0000    268.3332     70.3546     94.7239
  1015.0000      0.0000    268.3345     70.3862    100.0345
  1015.2500      0.0000    268.3398     70.4118    103.3191
  1015.5000      0.0000    268.3503     70.4700    103.8331
  1015.7500      0.0000    268.3613     70.5596    102.9532
  1016.0000      0.0000    268.3707     70.6523    103.2442
  1016.2500      0.0000    268.3825     70.7329    106.6366
  1016.5000      0.0000    268.4004     70.8066    112.6675
  1016.7500      0.0000    268.4190     70.8666    118.5129
  1017.0000      0.0000    268.4295     70.8761    121.3357
  1017.2500      0.0000    268.4296     70.7995    120.7219
  1017.5000      0.0000    268.4278     70.6469    118.6550
  1017.7500      0.0000    268.4356     70.4761    117.4716
  1018.0000      0.0000    268.4582     70.3480    118.2246
  1018.2500      0.0000    268.4911     70.2861    120.5448
  1018.5000      0.0000    268.5248     70.2760    123.1752
  1018.7500      0.0000    268.5518     70.2912    124.4926
  1019.0000      0.0000    268.5723     70.3133    123.3178
  1019.2500      0.0000    268.5927     70.3337    119.8471
  1019.5000      0.0000    268.6168     70.3459    115.6123
  1019.7500      0.0000    268.6423     70.3459    112.1609
  1020.0000      0.0000    268.6628     70.3342    109.7940
  1020.2500      0.0000    268.6728     70.3120    107.6743
  1020.5000      0.0000    268.6720     70.2796    104.9770
  1020.7500      0.0000    268.6659     70.2456    101.6994
  1021.0000      0.0000    268.6616     70.2266     98.4221
  1021.2500      0.0000    268.6631     70.2338     95.6226
  1021.5000      0.0000    268.6708     70.2662     93.2993
  1021.7500      0.0000    268.6833     70.3197     90.9935
  1022.0000      0.0000    268.6992     70.3885     88.0913
  1022.2500      0.0000    268.7181     70.4572     84.3962
  1022.5000      0.0000    268.7399     70.4987     80.4432
  1022.7500      0.0000    268.7631     70.4860     77.0642
  1023.0000      0.0000    268.7858     70.4149     74.6677
  1023.2500      0.0000    268.8057     70.3166     73.0026
  1023.5000      0.0000    268.8201     70.2402     71.3640
  1023.7500      0.0000    268.8270     70.2217     68.9307
  1024.0000      0.0000    268.8275     70.2718     65.3543
  1024.2500      0.0000    268.8254     70.3829     61.2546
  1024.5000      0.0000    268.8240     70.5367     57.8933
  1024.7500      0.0000    268.8247     70.7020     56.4414
  1025.0000      0.0000    268.8275     70.8243     57.7533
  1025.2500      0.0000    268.8309     70.8313     62.2980
  1025.5000      0.0000    268.8334     70.6753     69.6361
  1025.7500      0.0000    268.8335     70.3892     78.2169
