~Version Information
VERS.                      2.0: CWLS Log ASCII Standard - VERSION 2.0
WRAP.                       NO: One line per depth step
~Well Information Block
STRT.FT               362.0000: 
STOP.FT               983.0000: 
STEP.FT                 0.1000: 
NULL.                -999.2500: 
COMP.          Pioneer Natural Resources: COMPANY
WELL.             Tomcat 32-10: WELL
FLD.           Purgatoire River: FIELD
LOC.           2286' FNL & 2463' FEL: LOCATION
PROV.                 Colorado: PROVINCE
CNTY.               Las Animas: COUNTRY
SRVC.                Patterson: SERVICE COMPANY
DATE.          Tue Mar 22 11:24:45 2005: LOG DATE
UWI.           05 071 08301 00: UNIQUE WELL ID
~Curve Information Block
DEPT.FT            0 000 00 00: Depth
DCAL.in                       : CDL Caliper
RHOB.g/cc                     : CDL Bulk Density
RHOC.g/cc                     : CDL Density Correction
DPOR.pu                       : CDL Density Porosity
GR.GAPI                       : Gamma Ray
NPOR.pu                       : Neutron Porosity
~Parameter Information Block
~A  Depth       DCAL        RHOB        RHOC        DPOR         GR         NPOR    
# ...
   602.0000      8.2510      2.4324      0.1013     13.1887    111.2420     24.0672
   602.1000      8.2510      2.4480      0.1223     12.2432    115.5483     24.4135
   602.2000      8.2510      2.4700      0.0997     10.9113    114.3880     24.5645
   602.3000      8.2996      2.4829      0.1318     10.1301    112.8960     24.5768
   602.4000      8.2996      2.4837      0.0810     10.0807    112.9377     24.8880
   602.5000      8.2084      2.4850      0.0799     10.0012    115.6376     25.4756
   602.6000      8.2084      2.4841      0.1632     10.0544    119.9634     25.8491
   602.7000      8.2084      2.4662      0.0934     11.1403    120.3648     25.8819
   602.8000      8.2206      2.4376      0.1282     12.8722    116.0201     25.9543
   602.9000      8.2206      2.4188      0.0834     14.0103    116.0131     26.0555
   603.0000      8.2073      2.4239      0.0782     13.7053    123.2004     25.8575
   603.1000      8.2073      2.4440      0.1336     12.4848    126.8349     25.5689
   603.2000      8.2073      2.4594      0.1179     11.5487    121.5514     25.6119
   603.3000      8.1620      2.4667      0.1271     11.1100    115.0242     25.7957
   603.4000      8.1620      2.4652      0.1775     11.2005    113.3130     25.6480
   603.5000      8.1442      2.4537      0.1230     11.8978    112.8036     25.2380
   603.6000      8.1442      2.4500      0.0992     12.1220    110.1531     24.9697
   603.7000      8.1442      2.4680      0.1225     11.0303    107.6617     24.8000
   603.8000      8.1417      2.4923      0.1156      9.5587    105.3860     24.6698
   603.9000      8.1417      2.5031      0.1260      8.9023    102.3951     24.8185
   604.0000      8.1875      2.5047      0.1193      8.8072    102.5014     25.2624
   604.1000      8.1875      2.5150      0.1199      8.1819    109.7434     25.8578
   604.2000      8.1875      2.5396      0.1178      6.6926    119.9005     26.4352
   604.3000      8.2287      2.5567      0.1935      5.6535    126.1751     26.9229
   604.4000      8.2287      2.5474      0.0999      6.2180    127.6969     27.4437
   604.5000      8.2238      2.5338      0.0707      7.0420    125.5284     27.9680
   604.6000      8.2238      2.5405      0.1138      6.6386    119.3079     28.2278
   604.7000      8.2238      2.5505      0.1127      6.0273    110.7388     28.2201
   604.8000      8.1782      2.5448      0.0716      6.3729    104.6865     28.1872
   604.9000      8.1782      2.5320      0.0861      7.1499    103.1239     28.2658
   605.0000      8.1660      2.5215      0.0800      7.7909    105.8199     28.3413
   605.1000      8.1660      2.5104      0.0736      8.4597    111.9625     28.1967
   605.2000      8.1660      2.4977      0.0124      9.2327    116.4294     27.9403
   605.3000      8.1159      2.4906      0.0333      9.6635    117.3154     27.8342
   605.4000      8.1159      2.4919      0.0310      9.5847    118.8569     27.8943
   605.5000      8.0741      2.4957      0.0494      9.3534    122.1148     27.9122
   605.6000      8.0741      2.4998      0.0241      9.1051    125.6761     27.8318
   605.7000      8.0741      2.5102      0.0515      8.4727    127.4019     27.8264
   605.8000      8.0555      2.5268      0.0594      7.4693    125.8580     27.9208
   605.9000      8.0555      2.5442      0.0521      6.4141    123.1554     27.9565
   606.0000      8.0480      2.5544      0.1001      5.7911    119.5930     27.9270
   606.1000      8.0480      2.5466      0.0366      6.2657    113.1895     27.8347
   606.2000      8.0480      2.5313     -0.0132      7.1969    106.5046     27.7320
   606.3000      8.0332      2.5271      0.0231      7.4492    106.7965     27.6018
   606.4000      8.0332      2.5298      0.0315      7.2850    115.7680     27.2868
   606.5000      8.0796      2.5280      0.0070      7.3915    126.2945     26.9560
   606.6000      8.0796      2.5192      0.0121      7.9250    129.8892     26.8233
   606.7000      8.0796      2.5068      0.0086      8.6797    126.7200     26.7682
   606.8000      8.1085      2.5013      0.0021      9.0107    123.5056     26.6838
   606.9000      8.1085      2.5097     -0.0192      8.5013    121.4881     26.6085
   607.0000      8.1030      2.5212     -0.0102      7.8039    118.2114     26.6147
   607.1000      8.1030      2.5178      0.0122      8.0103    112.6024     26.6564
   607.2000      8.1030      2.4871      0.0096      9.8706    107.9682     26.5166
   607.3000      8.0875      2.4399     -0.0672     12.7350    110.4521     26.0936
   607.4000      8.0875      2.4116     -0.0003     14.4502    118.1870     25.7222
   607.5000      8.1254      2.4170      0.0233     14.1194    124.5051     25.7286
   607.6000      8.1254      2.4352      0.0684     13.0205    123.8903     26.0904
   607.7000      8.1254      2.4368      0.0920     12.9190    115.4087     26.5548
   607.8000      8.1774      2.4168      0.0237     14.1314    107.0060     26.5691
   607.9000      8.1774      2.3933      0.1082     15.5599    106.2470     25.8195
   608.0000      8.1938      2.3750      0.0983     16.6696    112.4655     24.7158
   608.1000      8.1938      2.3592      0.1283     17.6235    120.8162     23.7670
   608.2000      8.1938      2.3459      0.1062     18.4305    128.0677     22.9261
   608.3000      8.1671      2.3370      0.1376     18.9689    131.6470     21.9738
   608.4000      8.1671      2.3275      0.1304     19.5471    128.0662     21.0306
   608.5000      8.1664      2.3009      0.1718     21.1581    122.8227     20.4061
   608.6000      8.1664      2.2377      0.1326     24.9867    123.6386     20.0407
   608.7000      8.1664      2.1324      0.1241     31.3683    125.1967     19.3882
   608.8000      8.2267      1.9997      0.0888     39.4107    121.9964     18.1814
   608.9000      8.2267      1.8650      0.0333     47.5769    118.6711     16.9439
   609.0000      8.3165      1.7390      0.0631     55.2098    116.6521     16.1446
   609.1000      8.3165      1.6102      0.0208     63.0200    108.7988     15.6691
   609.2000      8.3165      1.4790     -0.0528     70.9727     95.8721     15.3284
   609.3000      8.3600      1.3680     -0.0684     77.6968     88.1933     15.1016
   609.4000      8.3600      1.2986     -0.0759     81.9029     87.4456     14.9903
   609.5000      8.3833      1.2846     -0.0004     82.7522     86.4444     14.9216
   609.6000      8.3833      1.3215      0.1008     80.5124     80.8457     14.8850
   609.7000      8.3833      1.3863      0.1811     76.5890     71.9633     14.9189
   609.8000      8.4114      1.4573      0.2569     72.2873     64.4441     15.1101
   609.9000      8.4114      1.5198      0.3121     68.4997     62.2496     15.6745
   610.0000      8.2613      1.5692      0.2577     65.5011     63.2940     16.7446
   610.1000      8.2613      1.6183      0.1788     62.5254     62.8823     18.1060
   610.2000      8.2613      1.6776      0.1946     58.9309     60.5209     19.3992
   610.3000      8.1017      1.7436      0.1625     54.9331     59.6198     20.4217
   610.4000      8.1017      1.8162      0.1758     50.5358     64.2111     21.1715
   610.5000      8.1761      1.8949      0.2180     45.7623     72.3191     21.9520
   610.6000      8.1761      1.9698      0.1956     41.2264     77.0608     22.9970
   610.7000      8.1761      2.0367      0.1803     37.1688     77.9498     24.0881
   610.8000      8.1264      2.1037      0.1483     33.1121     79.0341     25.0185
   610.9000      8.1264      2.1775      0.1447     28.6375     80.3788     25.6947
   611.0000      8.0946      2.2504      0.1796     24.2192     81.1398     26.1381
   611.1000      8.0946      2.3075      0.1373     20.7548     84.0817     26.4768
   611.2000      8.0946      2.3506      0.1320     18.1436     90.3147     26.6118
   611.3000      8.0890      2.3938      0.1731     15.5268     97.3219     26.4150
   611.4000      8.0890      2.4451      0.1108     12.4168    104.0547     26.0931
   611.5000      8.0459      2.4981      0.1392      9.2049    112.0490     25.8913
