~Version Information
VERS.                      2.0: CWLS Log ASCII Standard - VERSION 2.0
WRAP.                       NO: One line per depth step
~Well Information Block
STRT.FT               260.0000: 
STOP.FT              2610.0000: 
STEP.FT                 0.1000: 
NULL.                -999.2500: 
COMP.          Pioneer Natural Resources: COMPANY
WELL.           Costello 44-24: WELL
FLD.           Purgatoire River: FIELD
LOC.           327' FSL & 378' FEL: LOCATION
PROV.                 Colorado: PROVINCE
CNTY.               Las Animas: COUNTRY
SRVC.                Patterson: SERVICE COMPANY
DATE.          Mon Jul 11 10:42:19 2005: LOG DATE
UWI.           05 071 08413 00: UNIQUE WELL ID
~Curve Information Block
DEPT.FT            0 000 00 00: Depth
DCAL.in                       : CDL Caliper
RHOB.g/cc                     : CDL Bulk Density
RHOC.g/cc                     : CDL Density Correction
DPOR.pu                       : CDL Density Porosity
GR.GAPI                       : Gamma Ray
NPOR.pu                       : Neutron Porosity
~Parameter Information Block
~A  Depth       DCAL        RHOB        RHOC        DPOR         GR         NPOR    
# ...
   567.2000      8.2254      2.5860      0.0523      3.8803     66.2624     23.1631
   567.3000      8.2319      2.5881      0.0632      3.7493     67.1409     22.5447
   567.4000      8.2319      2.5899      0.0566      3.6401     64.3993     22.1875
   567.5000      8.2477      2.5868      0.0275      3.8281     62.4542     22.0480
   567.6000      8.2477      2.5856      0.0195      3.9028     61.8132     21.7375
   567.7000      8.2477      2.5848      0.0421      3.9515     60.3643     21.3622
   567.8000      8.2572      2.5663      0.0349      5.0734     58.9934     21.0651
   567.9000      8.2572      2.5325     -0.0294      7.1194     59.1527     20.6677
   568.0000      8.2552      2.5158      0.0084      8.1333     60.0673     20.3800
   568.1000      8.2552      2.5297      0.0259      7.2899     62.4180     20.4546
   568.2000      8.2552      2.5556      0.0507      5.7242     67.4084     20.3704
   568.3000      8.2510      2.5630      0.0776      5.2754     70.6823     19.6068
   568.4000      8.2510      2.5413      0.0243      6.5893     67.6123     18.7106
   568.5000      8.2356      2.5231      0.0034      7.6916     60.9935     18.5788
   568.6000      8.2356      2.5439     -0.0035      6.4300     56.5239     19.1977
   568.7000      8.2356      2.5825      0.1086      4.0881     55.9160     19.7278
   568.8000      8.2287      2.5859      0.0936      3.8849     57.5736     19.8154
   568.9000      8.2287      2.5528      0.0397      5.8939     58.8972     19.8764
   569.0000      8.2524      2.5223      0.0212      7.7417     58.6994     20.1584
   569.1000      8.2524      2.5099      0.0033      8.4931     57.8921     20.5824
   569.2000      8.2524      2.5043      0.0508      8.8277     56.7488     20.8768
   569.3000      8.2782      2.4963     -0.0106      9.3137     55.6362     20.7426
   569.4000      8.2782      2.4933     -0.0365      9.4975     56.1245     20.3180
   569.5000      8.3027      2.5010      0.0023      9.0279     57.6587     19.9191
   569.6000      8.3027      2.5127      0.0092      8.3207     57.8663     19.7675
   569.7000      8.3027      2.5260      0.0039      7.5138     56.6852     19.9477
   569.8000      8.3241      2.5414      0.0439      6.5797     56.5861     20.2141
   569.9000      8.3241      2.5527      0.0463      5.8948     57.9393     20.2659
   570.0000      8.3583      2.5529      0.0304      5.8821     58.0274     20.1344
   570.1000      8.3583      2.5351      0.0660      6.9636     57.5214     20.0244
   570.2000      8.3583      2.5049      0.0122      8.7921     58.5291     20.0899
   570.3000      8.3682      2.4901     -0.0181      9.6902     59.6939     20.2507
   570.4000      8.3682      2.5078      0.0254      8.6164     60.3755     20.3144
   570.5000      8.3676      2.5410      0.0918      6.6089     62.4354     20.2855
   570.6000      8.3676      2.5609      0.0733      5.3980     65.6188     20.3325
   570.7000      8.3676      2.5553      0.0408      5.7388     68.6953     20.4406
   570.8000      8.3579      2.5271      0.0447      7.4508     69.7664     20.3700
   570.9000      8.3579      2.4957     -0.0088      9.3513     67.9421     20.2314
   571.0000      8.3599      2.4883      0.0016      9.8014     65.7438     20.1490
   571.1000      8.3599      2.5022      0.0396      8.9574     63.2999     19.8658
   571.2000      8.3599      2.5175      0.0410      8.0324     58.5349     19.3891
   571.3000      8.3528      2.5351      0.0141      6.9620     52.5867     19.0768
   571.4000      8.3528      2.5503      0.0975      6.0439     47.8511     19.0482
   571.5000      8.3658      2.5497      0.0394      6.0759     46.9482     19.2040
   571.6000      8.3658      2.5428      0.0699      6.4966     50.3349     19.5411
   571.7000      8.3658      2.5364      0.0874      6.8879     52.2275     19.7912
   571.8000      8.3524      2.5411     -0.0054      6.6010     48.3035     19.5565
   571.9000      8.3524      2.5690      0.0863      4.9090     45.0219     18.9852
   572.0000      8.3209      2.5951      0.0768      3.3282     48.7936     18.8202
   572.1000      8.3209      2.5938      0.0508      3.4042     54.8198     19.3463
   572.2000      8.3209      2.5733      0.0613      4.6471     56.0571     20.0808
   572.3000      8.3023      2.5478      0.0736      6.1926     53.0066     20.6311
   572.4000      8.3023      2.5258     -0.0072      7.5247     50.9516     20.9729
   572.5000      8.2912      2.5151      0.0379      8.1731     51.5549     21.1381
   572.6000      8.2912      2.5255      0.0007      7.5434     51.9329     21.0417
   572.7000      8.2912      2.5533      0.0828      5.8629     54.1730     20.7415
   572.8000      8.2789      2.5644      0.0925      5.1893     60.6899     20.5859
   572.9000      8.2789      2.5459      0.0601      6.3092     65.6219     20.7890
   573.0000      8.2674      2.5317      0.0117      7.1682     65.0138     21.2588
   573.1000      8.2674      2.5440      0.0810      6.4238     62.3886     21.8695
   573.2000      8.2674      2.5657      0.0721      5.1092     61.4932     22.4100
   573.3000      8.2641      2.5817      0.0405      4.1409     62.3361     22.4518
   573.4000      8.2641      2.5941      0.0562      3.3876     63.3049     21.9901
   573.5000      8.2664      2.6068      0.0517      2.6172     62.7430     21.6764
   573.6000      8.2664      2.6181      0.0716      1.9348     60.9872     21.9388
   573.7000      8.2664      2.6202      0.0642      1.8048     58.5774     22.4682
   573.8000      8.2661      2.6174      0.0674      1.9740     56.8528     22.5351
   573.9000      8.2661      2.6202      0.1233      1.8060     57.3695     22.2066
   574.0000      8.2704      2.6231      0.0866      1.6285     58.1620     22.1851
   574.1000      8.2704      2.6246      0.0064      1.5371     61.2716     22.4989
   574.2000      8.2704      2.6289      0.0310      1.2815     69.9475     22.8858
   574.3000      8.2666      2.6311      0.0101      1.1468     79.3968     23.3261
   574.4000      8.2666      2.6261      0.0264      1.4460     84.7212     23.9099
   574.5000      8.2723      2.6151      0.0340      2.1126     87.9612     24.6465
   574.6000      8.2723      2.5990      0.0942      3.0917     94.6062     25.4143
   574.7000      8.2723      2.5759      0.0314      4.4887    106.0818     25.9671
   574.8000      8.2834      2.5562      0.0237      5.6828    116.4151     26.1569
   574.9000      8.2834      2.5526      0.0295      5.9048    122.2539     26.2001
   575.0000      8.2970      2.5680      0.0390      4.9715    128.6380     26.4723
   575.1000      8.2970      2.6069      0.0353      2.6106    139.7840     26.8563
   575.2000      8.2970      2.6616      0.0816     -0.7007    151.3695     27.1931
   575.3000      8.3083      2.6929      0.1444     -2.6015    154.6693     27.6097
   575.4000      8.3083      2.6813      0.0696     -1.8986    149.9183     27.8588
   575.5000      8.3229      2.6529      0.0857     -0.1742    147.1416     27.6736
   575.6000      8.3229      2.6225      0.0812      1.6638    149.3400     27.4139
   575.7000      8.3229      2.5948      0.0473      3.3432    151.9394     27.3406
   575.8000      8.3275      2.5850      0.0411      3.9387    154.9189     27.2339
   575.9000      8.3275      2.5913      0.0824      3.5560    156.8728     27.2471
   576.0000      8.3509      2.5961      0.0860      3.2638    151.8795     27.7668
   576.1000      8.3509      2.5956      0.0592      3.2983    140.3221     28.4871
   576.2000      8.3509      2.5921      0.0814      3.5079    132.7402     28.7634
   576.3000      8.3542      2.5770      0.0724      4.4226    133.5415     28.6178
   576.4000      8.3542      2.5533      0.0436      5.8615    133.8837     28.4634
   576.5000      8.3554      2.5421      0.0567      6.5367    130.7750     28.2746
   576.6000      8.3554      2.5565      0.0273      5.6664    129.6846     28.1930
   576.7000      8.3554      2.5832      0.0440      4.0473    133.0188     28.6030
