~Version Information
VERS.                      2.0: CWLS Log ASCII Standard - VERSION 2.0
WRAP.                       NO: One line per depth step
~Well Information Block
STRT.FT               510.0000: 
STOP.FT              1845.5000: 
STEP.FT                 0.1000: 
NULL.                -999.2500: 
COMP.          Pioneer Natural Resources: COMPANY
WELL.           Stampede 42-18: WELL
FLD.           Purgatoire River: FIELD
LOC.           2479' FNL & 160' FEL--: LOCATION
CNTY.               Las Animas: COUNTY
SRVC.          Superior Well Services: SERVICE COMPANY
DATE.          Sat Jun 09 02:39:23 2007: LOG DATE
UWI.           05 071 08237 00: UNIQUE WELL ID
STAT.                 Colorado: STATE
~Curve Information Block
DEPT.FT            0 000 00 00: Depth
DCAL.in                       : CDL Caliper
RHOB.g/cc                     : CDL Bulk Density
RHOC.g/cc                     : CDL Density Correction
DPOR.pu                       : CDL Density Porosity
GR.GAPI                       : Gamma Ray
~Parameter Information Block
~A  Depth       DCAL        RHOB        RHOC        DPOR         GR     
# ...
  1126.0000      7.8532      2.6019      0.0809      2.9134     84.2871
  1126.1000      7.8532      2.5958      0.0777      3.2877     79.0916
  1126.2000      7.8532      2.5877      0.0489      3.7740     75.6975
  1126.3000      7.8529      2.5792      0.0584      4.2885     69.1790
  1126.4000      7.8529      2.5724      0.0347      4.7015     64.9342
  1126.5000      7.8528      2.5671      0.0594      5.0231     68.9633
  1126.6000      7.8528      2.5634      0.0552      5.2472     77.8835
  1126.7000      7.8528      2.5670      0.0614      5.0294     83.7681
  1126.8000      7.8531      2.5832      0.0672      4.0479     83.6398
  1126.9000      7.8531      2.6081      0.0749      2.5372     83.4684
  1127.0000      7.8529      2.6261      0.0933      1.4466     87.4204
  1127.1000      7.8529      2.6217      0.0969      1.7139     89.3039
  1127.2000      7.8529      2.5971      0.0699      3.2044     86.9008
  1127.3000      7.8514      2.5713      0.0266      4.7668     86.0686
  1127.4000      7.8514      2.5607      0.0774      5.4108     88.6440
  1127.5000      7.8504      2.5641      0.0951      5.2062     91.9920
  1127.6000      7.8504      2.5723      0.0845      4.7115     95.8372
  1127.7000      7.8504      2.5798      0.1041      4.2520     99.9017
  1127.8000      7.8507      2.5872      0.0666      3.8071    102.8867
  1127.9000      7.8507      2.5936      0.1324      3.4181    105.3765
  1128.0000      7.8516      2.5917      0.1151      3.5328    105.6512
  1128.1000      7.8516      2.5807      0.1082      4.2026    103.3725
  1128.2000      7.8516      2.5707      0.0566      4.8057    103.8818
  1128.3000      7.8526      2.5720      0.0313      4.7246    110.1995
  1128.4000      7.8526      2.5815      0.0867      4.1495    116.2452
  1128.5000      7.8533      2.5894      0.0883      3.6746    114.4862
  1128.6000      7.8533      2.6009      0.0525      2.9750    106.6308
  1128.7000      7.8533      2.6214      0.1219      1.7343     99.0307
  1128.8000      7.8542      2.6364      0.1200      0.8255     94.4707
  1128.9000      7.8542      2.6373      0.1370      0.7720     93.5818
  1129.0000      7.8549      2.6339      0.0982      0.9759     96.9954
  1129.1000      7.8549      2.6338      0.1023      0.9847    103.2711
  1129.2000      7.8549      2.6368      0.0779      0.7999    107.7137
  1129.3000      7.8549      2.6433      0.0603      0.4053    107.0982
  1129.4000      7.8549      2.6476      0.1045      0.1438    104.3875
  1129.5000      7.8547      2.6454      0.0757      0.2769    105.9320
  1129.6000      7.8547      2.6425      0.0579      0.4531    110.7059
  1129.7000      7.8547      2.6412      0.0881      0.5325    112.3097
  1129.8000      7.8544      2.6392      0.0794      0.6526    110.0698
  1129.9000      7.8544      2.6345      0.0779      0.9404    106.7594
  1130.0000      7.8538      2.6177      0.0665      1.9588    105.7728
  1130.1000      7.8538      2.5910     -0.0216      3.5756    108.2278
  1130.2000      7.8538      2.5759      0.0083      4.4926    110.5805
  1130.3000      7.8528      2.5799      0.0408      4.2491    111.7886
  1130.4000      7.8528      2.5953      0.0123      3.3125    111.8266
  1130.5000      7.8520      2.6157      0.0991      2.0807    107.3023
  1130.6000      7.8520      2.6298      0.1009      1.2260     99.8104
  1130.7000      7.8520      2.6292      0.0802      1.2628     95.6334
  1130.8000      7.8520      2.6147      0.0810      2.1399     94.8631
  1130.9000      7.8520      2.5971      0.0523      3.2051     94.1470
  1131.0000      7.8524      2.5895      0.0534      3.6648     94.6740
  1131.1000      7.8524      2.5903      0.0666      3.6199     98.7345
  1131.2000      7.8524      2.5867      0.0618      3.8355    103.3716
  1131.3000      7.8528      2.5711      0.0866      4.7828    106.0163
  1131.4000      7.8528      2.5457      0.0605      6.3235    109.3875
  1131.5000      7.8530      2.5209      0.0442      7.8220    109.8420
  1131.6000      7.8530      2.5106      0.0240      8.4504    104.4360
  1131.7000      7.8530      2.5184      0.0687      7.9737    102.6456
  1131.8000      7.8537      2.5365      0.0554      6.8806    107.4779
  1131.9000      7.8537      2.5651      0.0685      5.1468    112.4972
  1132.0000      7.8548      2.6025      0.1612      2.8778    113.6751
  1132.1000      7.8548      2.6346      0.1428      0.9333    112.8218
  1132.2000      7.8548      2.6541      0.1688     -0.2477    111.1424
  1132.3000      7.8592      2.6582      0.1897     -0.4985    103.8749
  1132.4000      7.8592      2.6415      0.1649      0.5129     93.2932
  1132.5000      7.8690      2.6026      0.1218      2.8746     88.7755
  1132.6000      7.8690      2.5572      0.0922      5.6231     93.2722
  1132.7000      7.8690      2.5337      0.0199      7.0502    100.5486
  1132.8000      7.8801      2.5436      0.0359      6.4504    103.6641
  1132.9000      7.8801      2.5647      0.0820      5.1667    102.2886
  1133.0000      7.8876      2.5733      0.0703      4.6513    103.2244
  1133.1000      7.8876      2.5778      0.0584      4.3747    108.7223
  1133.2000      7.8876      2.5956      0.0703      3.2967    115.6143
  1133.3000      7.8930      2.6134      0.1584      2.2183    125.1803
  1133.4000      7.8930      2.6057      0.1279      2.6853    136.7180
  1133.5000      7.9005      2.5780      0.0968      4.3609    146.6894
  1133.6000      7.9005      2.5539      0.0768      5.8228    152.2262
  1133.7000      7.9005      2.5410      0.0471      6.6055    153.6869
  1133.8000      7.9096      2.5330      0.0555      7.0902    155.6298
  1133.9000      7.9096      2.5286      0.0585      7.3600    158.6116
  1134.0000      7.9131      2.5351      0.0603      6.9666    159.6541
  1134.1000      7.9131      2.5533      0.0733      5.8636    158.3662
  1134.2000      7.9131      2.5739      0.0836      4.6110    152.7041
  1134.3000      7.9138      2.5937      0.0890      3.4146    145.9987
  1134.4000      7.9138      2.6177      0.0842      1.9559    149.2669
  1134.5000      7.9257      2.6403      0.1197      0.5901    161.8684
  1134.6000      7.9257      2.6395      0.1254      0.6368    169.8244
  1134.7000      7.9257      2.6120      0.0806      2.3034    166.0346
  1134.8000      7.9444      2.5875      0.0627      3.7853    157.9659
  1134.9000      7.9444      2.5813      0.1383      4.1659    156.7292
  1135.0000      7.9487      2.5728      0.0851      4.6778    162.4417
  1135.1000      7.9487      2.5599      0.0391      5.4579    161.4338
  1135.2000      7.9487      2.5630      0.0489      5.2717    149.7463
  1135.3000      7.9303      2.5777      0.0652      4.3819    139.6868
  1135.4000      7.9303      2.5791      0.0501      4.2961    137.2574
  1135.5000      7.9099      2.5621      0.0508      5.3257    138.7204
  1135.6000      7.9099      2.5454      0.0410      6.3384    140.1147
  1135.7000      7.9099      2.5411      0.0368      6.5972    141.1329
  1135.8000      7.9010      2.5462      0.0198      6.2936    144.8654
  1135.9000      7.9010      2.5577     -0.0185      5.5943    150.3767
  1136.0000      7.8973      2.5750      0.0484      4.5462    151.7652
  1136.1000      7.8973      2.5937      0.0151      3.4142    149.0796
  1136.2000      7.8973      2.6117      0.0268      2.3228    146.3372
  1136.3000      7.8947      2.6269      0.0578      1.3981    142.3650
  1136.4000      7.8947      2.6422      0.0531      0.4710    137.9101
  1136.5000      7.8929      2.6576      0.1065     -0.4612    140.9223
  1136.6000      7.8929      2.6594      0.0894     -0.5695    152.4436
  1136.7000      7.8929      2.6443      0.0608      0.3469    157.9360
  1136.8000      7.8907      2.6206      0.0244      1.7825    149.2440
  1136.9000      7.8907      2.5913      0.0201      3.5604    137.4609
  1137.0000      7.8894      2.5629      0.0189      5.2770    130.8431
  1137.1000      7.8894      2.5489     -0.0138      6.1287    130.3239
