~Version Information
 VERS.                                  2.0 : CWLS LAS VERSION
 WRAP.                                   NO : WRAPING MODE
 SWARE .                 MController 2.5.0J : SOFTWARE VERSION
~Well Information
 WELL.                      McDaniel 09-34V : WELL
 COMP.                Petrogulf Corporation : COMPANY
 FLD.                      Purgatoire River : FIELD
 LOC.                SW/SE Sec 09 T33S R67W : LOCATION
 DATE.                             09/27/05 : DATE(S) LOGGED
 SRVC.       BLANCO Geological Services LLC : SERVICE COMPANY
 STAT.                                   CO : STATE
 CNTY.                           Las Animas : COUNTY
 CTRY.                                  USA : COUNTRY
 API.                       05-071-08333-00 : API NUMBER
 STRT.FT                               0.00 : START DEPTH
 STOP.FT                             2433.0 : STOP DEPTH 775.00
 STEP.FT                               1.00 : DEPTH INCREMENT
 NULL.                                -9999 : NULL VALUE
~Curve information
 DEPTH.FT                                   :
 ROP.MIN/FT                                 :
 GAS.UNITS                                  :
~ASCII Log data
# ...
       800.0         0.17          4.1 
       801.0         0.13          4.4 
       802.0         0.15          3.8 
       803.0         0.07          3.9 
       804.0         0.20          4.2 
       805.0         0.10          4.0 
       806.0         0.17          4.2 
       807.0         0.13          4.5 
       808.0         0.13          4.3 
       809.0         0.17          4.0 
       810.0         0.13          4.2 
       811.0         0.17          4.2 
       812.0         0.10          3.7 
       813.0         0.17          3.8 
       814.0         0.10          4.4 
       815.0         0.13          4.0 
       816.0         0.17          4.2 
       817.0         0.13          7.3 
       818.0         0.20         65.0 
       819.0         0.23        117.1 
       820.0         0.23        130.2 
       821.0         0.17        131.0 
       822.0         0.52        130.7 
       823.0         0.50        124.9 
       824.0         0.27        142.7 
       825.0         0.13        144.8 
       826.0         0.13        144.8 
       827.0         0.10        143.8 
       828.0         0.10        143.4 
       829.0         0.10        142.9 
       830.0         0.17        142.5 
       831.0         0.23        141.4 
       832.0         0.17        138.9 
       833.0         0.23        122.7 
       834.0         0.30         93.3 
       835.0         0.17        115.9 
       836.0         0.17        169.1 
       837.0         0.18        251.8 
       838.0         1.97       1234.5 
       839.0         0.20        440.0 
       840.0         0.23        440.0 
       841.0         0.40        148.9 
       842.0         0.52        101.8 
       843.0         0.47         74.8 
       844.0         0.23         92.5 
       845.0         0.23        101.1 
       846.0         0.20        105.0 
       847.0         0.20        107.8 
       848.0         0.33        106.3 
       849.0         0.33         97.3 
       850.0         0.33         88.2 
       851.0         0.30         91.3 
       852.0         0.23         98.2 
       853.0         0.25        105.8 
       854.0         0.20        109.3 
       855.0         0.17        109.0 
       856.0         0.23        106.4 
       857.0         0.23        101.2 
       858.0         0.20         99.0 
       859.0         0.20         93.7 
       860.0         0.20         95.1 
       861.0         0.23         96.8 
       862.0         0.20         98.9 
       863.0         0.23        110.4 
       864.0         0.20        110.8 
       865.0         0.20        103.7 
       866.0         0.20         79.9 
       867.0         0.27         94.2 
       868.0         2.52       1329.4 
       869.0         0.40        509.6 
       870.0         0.28        440.0 
       871.0         0.27        150.9 
       872.0         0.23        131.6 
       873.0         0.27        116.2 
       874.0         0.30        112.2 
       875.0         0.30        107.6 
       876.0         0.20        104.7 
       877.0         0.27        114.3 
       878.0         0.17        114.5 
       879.0         0.17        112.1 
       880.0         0.13        108.7 
       881.0         0.20        106.5 
       882.0         0.22        104.2 
       883.0         0.20        107.1 
       884.0         0.30        110.2 
       885.0         0.23        110.7 
       886.0         0.30        109.7 
       887.0         0.27        112.4 
       888.0         0.23        114.9 
       889.0         0.20        115.8 
       890.0         0.20        114.5 
       891.0         0.23        109.9 
       892.0         0.20        110.2 
       893.0         0.23         96.9 
       894.0         0.17         85.7 
       895.0         0.18        129.3 
       896.0         0.17        188.6 
       897.0         0.13        251.9 
       898.0         2.00       1455.0 
       899.0         0.27        608.3 
       900.0         0.32        568.3 
       901.0         0.40        446.7 
       902.0         0.43         79.7 
       903.0         0.27        102.9 
       904.0         0.27        102.3 
       905.0         0.23        116.3 
       906.0         0.27        153.2 
       907.0         0.17        156.3 
       908.0         0.20        155.9 
       909.0         0.23        153.9 
       910.0         0.23        153.0 
       911.0         0.25        144.2 
       912.0         0.33        125.7 
       913.0         0.23        107.5 
       914.0         0.20         90.8 
       915.0         0.23         81.5 
       916.0         0.27        114.5 
       917.0         0.20        132.8 
       918.0         0.20        134.5 
       919.0         0.27        122.6 
       920.0         0.27        131.8 
       921.0         0.23        150.1 
       922.0         0.17        156.1 
       923.0         0.17        159.3 
       924.0         0.30        160.6 
       925.0         0.25        134.4 
       926.0         0.30        128.0 
       927.0         0.33        281.4 
       928.0         2.45       2108.2 
       929.0         0.43        695.2 
       930.0         0.33        526.4 
       931.0         0.30        481.3 
       932.0         0.37        488.3 
       933.0         0.37        478.4 
       934.0         0.30        440.0 
       935.0         0.27        108.1 
       936.0         0.23         85.2 
       937.0         0.20         78.3 
       938.0         0.23         85.5 
       939.0         0.22         83.0 
       940.0         0.20        103.7 
       941.0         0.27        123.0 
       942.0         0.20        131.9 
       943.0         0.20        133.7 
       944.0         0.23        132.7 
       945.0         0.20        121.8 
       946.0         0.20        118.8 
       947.0         0.20        126.2 
       948.0         0.30        130.9 
       949.0         0.23        129.6 
       950.0         0.23        118.4 
       951.0         0.23        107.6 
       952.0         0.23         96.4 
       953.0         0.25         83.2 
       954.0         0.30         66.9 
       955.0         0.27         37.5 
       956.0         0.23        149.8 
       957.0         0.27        355.8 
       958.0         2.45       2033.3 
       959.0         0.43        715.5 
       960.0         0.27        535.6 
       961.0         0.27        440.0 
       962.0         0.33         81.4 
       963.0         0.30        121.3 
       964.0         0.33        151.4 
       965.0         0.37        158.9 
       966.0         0.23        153.8 
       967.0         0.23        137.4 
       968.0         0.22        142.6 
       969.0         0.20        154.5 
       970.0         0.20        161.4 
       971.0         0.23        163.1 
       972.0         0.20        162.2 
       973.0         0.23        155.8 
       974.0         0.23        168.0 
       975.0         0.20        167.4 
       976.0         0.20        169.1 
       977.0         0.17        171.7 
       978.0         0.23        179.2 
       979.0         0.20        182.0 
       980.0         0.20        181.6 
       981.0         0.23        182.7 
       982.0         0.23        184.0 
       983.0         0.25        182.5 
       984.0         0.23        169.6 
       985.0         0.27        120.5 
       986.0         0.23        119.1 
       987.0         0.30        208.4 
       988.0         2.92       2043.8 
       989.0         0.43        576.2 
       990.0         0.43        478.8 
       991.0         0.43        440.0 
       992.0         0.33        145.8 
       993.0         0.28        183.2 
       994.0         0.27        184.6 
       995.0         0.27        185.5 
       996.0         0.30        185.4 
       997.0         0.27        182.7 
       998.0         0.30        186.2 
       999.0         0.30        183.5 
