~Version Information
VERS.                      2.0: CWLS Log ASCII Standard - VERSION 2.0
WRAP.                       NO: One line per depth step
~Well Information Block
STRT.FT               350.0000: 
STOP.FT              1391.5000: 
STEP.FT                 0.2500: 
NULL.                -999.2500: 
COMP.          Petrogulf Corporation: COMPANY
WELL.             Leier 17-42R: WELL
FLD.           Purgatorie River: FIELD
LOC.           2398' FNL & 1109' FEL: LOCATION
PROV.                 Colorado: PROVINCE
CNTY.               Las Animas: COUNTRY
SRVC.                Patterson: SERVICE COMPANY
DATE.          Mon Oct 17 09:42:26 2005: LOG DATE
UWI.                          : UNIQUE WELL ID
~Curve Information Block
DEPT.FT            0 000 00 00: Depth
SP.mV                         : DIL Spontaneous Potential
RILD.Ohm-m                    : DIL Deep Resistivity
RILM.Ohm-m                    : DIL Medium Resistivity
RLL3.Ohm-m                    : DIL Shallow Resistivity
GR.GAPI                       : Gamma Ray
~Parameter Information Block
~A  Depth        SP         RILD        RILM        RLL3         GR     
# ...
  1302.0000    262.1761      6.3156      6.4417      8.6182    113.9083
  1302.2500    260.7716      6.4169      6.5124      8.6093    116.4265
  1302.5000    259.3543      6.5390      6.5939      8.4754    119.9994
  1302.7500    257.9840      6.6843      6.6936      8.2991    122.1862
  1303.0000    256.7003      6.8532      6.8197      8.1800    126.0453
  1303.2500    255.5228      7.0425      6.9803      8.1876    129.5085
  1303.5000    254.4599      7.2470      7.1823      8.3775    135.5472
  1303.7500    253.5179      7.4604      7.4304      8.8546    138.9485
  1304.0000    252.7047      7.6790      7.7267      9.7926    140.4525
  1304.2500    252.0354      7.9029      8.0696     11.3157    137.9875
  1304.5000    251.5359      8.1363      8.4549     13.2824    129.6616
  1304.7500    251.2270      8.3863      8.8758     15.2054    122.7738
  1305.0000    251.0937      8.6610      9.3249     16.5057    113.8066
  1305.2500    251.0656      8.9688      9.7966     16.9412    109.7077
  1305.5000    251.0356      9.3180     10.2886     16.7748    105.9972
  1305.7500    250.9003      9.7163     10.8028     16.5014    104.4590
  1306.0000    250.5934     10.1679     11.3451     16.4399    103.0069
  1306.2500    250.0955     10.6710     11.9238     16.5910    102.8937
  1306.5000    249.4335     11.2149     12.5474     16.8040    104.7265
  1306.7500    248.6758     11.7806     13.2228     17.0069    107.1670
  1307.0000    247.9172     12.3461     13.9537     17.2959    111.1504
  1307.2500    247.2454     12.8923     14.7391     17.8944    112.9208
  1307.5000    246.7108     13.4069     15.5710     19.1139    113.2080
  1307.7500    246.3197     13.8836     16.4334     21.3686    111.7608
  1308.0000    246.0485     14.3215     17.3001     25.0862    107.5056
  1308.2500    245.8658     14.7270     18.1368     30.3267    103.8625
  1308.5000    245.7579     15.1185     18.9062     36.2872     99.0111
  1308.7500    245.7439     15.5269     19.5777     41.2762     97.2128
  1309.0000    245.8632     15.9904     20.1389     43.4858     97.1918
  1309.2500    246.1346     16.5410     20.6028     42.0658     98.7077
  1309.5000    246.5227     17.1898     21.0076     37.6208    103.1064
  1309.7500    246.9495     17.9171     21.4070     31.8144    107.5698
  1310.0000    247.3433     18.6748     21.8588     26.5385    115.8608
  1310.2500    247.6759     19.4023     22.4127     23.2887    121.0732
  1310.5000    247.9588     20.0471     23.1016     22.9898    125.2758
  1310.7500    248.2191     20.5812     23.9363     26.0485    124.3451
  1311.0000    248.4918     21.0035     24.9018     32.2924    117.0763
  1311.2500    248.8241     21.3331     25.9563     40.7174    109.3120
  1311.5000    249.2671     21.5984     27.0360     49.3506     96.3003
  1311.7500    249.8497     21.8279     28.0643     55.6797     88.6504
  1312.0000    250.5617     22.0417     28.9669     57.7082     81.0705
  1312.2500    251.3642     22.2470     29.6841     55.0070     79.0329
  1312.5000    252.2142     22.4336     30.1750     48.9004     79.7666
  1312.7500    253.0798     22.5691     30.4107     41.6182     81.8465
  1313.0000    253.9430     22.5969     30.3604     35.1559     85.5974
  1313.2500    254.8017     22.4417     29.9842     30.6644     87.9096
  1313.5000    255.6739     22.0320     29.2376     28.4764     91.2516
  1313.7500    256.5915     21.3341     28.0930     28.3427     93.8240
  1314.0000    257.5809     20.3772     26.5664     29.5671     98.3770
  1314.2500    258.6446     19.2467     24.7328     31.1046    101.4554
  1314.5000    259.7552     18.0495     22.7177     31.8202    105.1105
  1314.7500    260.8588     16.8772     20.6664     30.9089    106.7414
  1315.0000    261.8781     15.7902     18.7080     28.2280    109.2874
  1315.2500    262.7249     14.8187     16.9332     24.3002    112.4800
  1315.5000    263.3304     13.9712     15.3889     20.0063    121.0814
  1315.7500    263.6822     13.2420     14.0862     16.1896    128.7933
  1316.0000    263.8347     12.6168     13.0126     13.3667    140.2389
  1316.2500    263.8792     12.0768     12.1434     11.6288    145.9814
  1316.5000    263.8950     11.6034     11.4489     10.7415    150.7256
  1316.7500    263.9227     11.1806     10.8999     10.3603    151.9998
  1317.0000    263.9687     10.7963     10.4696     10.2187    152.7838
  1317.2500    264.0236     10.4438     10.1342     10.2023    152.8378
  1317.5000    264.0753     10.1211      9.8730     10.3252    151.4001
  1317.7500    264.1182      9.8301      9.6682     10.6507    149.0631
  1318.0000    264.1588      9.5741      9.5044     11.1773    144.4053
  1318.2500    264.2127      9.3547      9.3684     11.7608    141.7909
  1318.5000    264.2910      9.1712      9.2497     12.1649    140.4341
  1318.7500    264.3871      9.0216      9.1407     12.2274    141.3669
  1319.0000    264.4775      8.9036      9.0364     11.9854    144.2675
  1319.2500    264.5308      8.8159      8.9349     11.6243    146.3075
  1319.5000    264.5126      8.7576      8.8362     11.3131    148.7026
  1319.7500    264.3864      8.7266      8.7422     11.1017    149.7885
  1320.0000    264.1178      8.7190      8.6563     10.9522    150.7938
  1320.2500    263.6850      8.7300      8.5833     10.8209    151.1553
  1320.5000    263.0847      8.7555      8.5292     10.6926    151.4397
  1320.7500    262.3317      8.7937      8.5011     10.5583    151.5236
  1321.0000    261.4562      8.8445      8.5066     10.3940    151.1724
  1321.2500    260.5023      8.9075      8.5528     10.1875    150.2223
  1321.5000    259.5251      8.9793      8.6453     10.0109    147.4232
  1321.7500    258.5914      9.0530      8.7864     10.0715    144.8413
  1322.0000    257.7879      9.1198      8.9735     10.6578    140.0592
  1322.2500    257.2331      9.1720      9.1980     11.9902    135.9317
  1322.5000    257.0781      9.2069      9.4439     14.0937    127.6981
  1322.7500    257.4873      9.2282      9.6893     16.7825    121.0725
  1323.0000    258.5972      9.2462      9.9098     19.6744    111.0126
  1323.2500    260.4560      9.2743     10.0834     22.1365    105.2137
  1323.5000    262.9628      9.3249     10.1973     23.3375     98.2859
  1323.7500    265.8487      9.4056     10.2506     22.6692     94.4411
  1324.0000    268.7344      9.5163     10.2548     20.3009     89.8329
  1324.2500    271.2497      9.6488     10.2288     17.2025     88.4211
  1324.5000    273.1530      9.7888     10.1935     14.4800     90.3452
  1324.7500    274.3851      9.9194     10.1663     12.7015     94.1616
  1325.0000    275.0375     10.0246     10.1593     11.8138    101.5018
  1325.2500    275.2728     10.0939     10.1781     11.5020    106.0559
  1325.5000    275.2495     10.1238     10.2232     11.5127    111.2602
  1325.7500    275.0843     10.1192     10.2917     11.7365    113.7473
  1326.0000    274.8495     10.0921     10.3787     12.1424    116.3557
  1326.2500    274.5840     10.0593     10.4789     12.6926    117.2925
  1326.5000    274.3013     10.0392     10.5881     13.2995    117.3120
  1326.7500    273.9926     10.0480     10.7035     13.8390    116.5331
  1327.0000    273.6368     10.0987     10.8243     14.2026    114.8344
  1327.2500    273.2220     10.1994     10.9523     14.3484    113.7822
  1327.5000    272.7595     10.3532     11.0914     14.3118    112.7445
  1327.7500    272.2727     10.5578     11.2475     14.1728    112.3307
  1328.0000    271.7692     10.8064     11.4275     14.0104    111.5922
  1328.2500    271.2195     11.0891     11.6390     13.8751    110.7970
  1328.5000    270.5573     11.3957     11.8891     13.7968    109.4044
  1328.7500    269.7020     11.7170     12.1839     13.8161    108.8072
  1329.0000    268.5923     12.0450     12.5275     14.0034    108.9999
  1329.2500    267.2138     12.3724     12.9211     14.4347    109.6395
  1329.5000    265.6042     12.6922     13.3626     15.1361    110.1357
  1329.7500    263.8378     12.9982     13.8460     16.0459    109.5498
