~Version Information
VERS.                      2.0: CWLS Log ASCII Standard - VERSION 2.0
WRAP.                       NO: One line per depth step
~Well Information Block
STRT.FT                -3.5000: 
STOP.FT              1841.0000: 
STEP.FT                 0.2500: 
NULL.                -999.2500: 
COMP.          Pioneer Natural Resources: COMPANY
WELL.          Corkscrew 33-12 Tr: WELL
FLD.           Purgatorie River: FIELD
LOC.           1870' FSL  & 1706' FEL--------: LOCATION
PROV.                       CO: PROVINCE
CNTY.               Las Animas: COUNTRY
SRVC.          Patterson Wireline: SERVICE COMPANY
DATE.          Mon Apr 04 10:07:45 2005: LOG DATE
UWI.           05 071 08295 00: UNIQUE WELL ID
~Curve Information Block
DEPT.FT            0 000 00 00: Depth
CCL.                          : Casing Collar Locator
TT3.usec                      : CBL 3' Travel Time
AMP3.mV                       : CBL 3' Amplitude
GR.GAPI                       : Gamma Ray
~Parameter Information Block
~A  Depth       CCL         TT3         AMP3         GR     
# ...
   599.5000      0.0000    792.2386      7.3620     88.0804
   599.7500      0.0000    799.4903      7.2865     86.7408
   600.0000      0.0000    809.3418      7.3691     85.8874
   600.2500      0.0000    818.5044      7.5639     86.8453
   600.5000      0.0000    824.8113      7.7665     89.6476
   600.7500      0.0000    828.1077      7.8824     92.7918
   601.0000      0.0000    829.4249      7.8784     94.7314
   601.2500      0.0000    829.8262      7.7901     95.3496
   601.5000      0.0000    829.9213      7.6894     95.6213
   601.7500      0.0000    829.9446      7.6388     96.1594
   602.0000      0.0000    829.9520      7.6592     96.7184
   602.2500      0.0000    829.9410      7.7256     97.0335
   602.5000      0.0000    829.9018      7.7853     97.4103
   602.7500      0.0000    829.8442      7.7848     98.2000
   603.0000      0.0000    829.8068      7.6897     99.1004
   603.2500      0.0000    829.8377      7.4971     99.3464
   603.5000      0.0000    829.9545      7.2449     98.6328
   603.7500      0.0000    830.1165      7.0160     97.6725
   604.0000      0.0000    830.2791      6.9111     97.4915
   604.2500      0.0000    830.5255      6.9835     98.1492
   604.5000      0.0000    831.1146      7.1870     98.6537
   604.7500      0.0000    832.2095      7.4009     98.2933
   605.0000      0.0000    833.2261      7.5123     97.4877
   605.2500      0.0000    832.5407      7.4767     97.0389
   605.5000      0.0000    828.7259      7.3134     97.1404
   605.7500      0.0000    822.7095      7.0691     97.4402
   606.0000      0.0000    817.8926      6.7997     97.4939
   606.2500      0.0000    817.0201      6.5754     96.7003
   606.5000      0.0000    819.2461      6.4723     94.3650
   606.7500      0.0000    820.7755      6.5268     90.6950
   607.0000      0.0000    817.8774      6.6953     87.7754
   607.2500      0.0000    809.5178      6.8730     88.6401
   607.5000      0.0000    798.5907      6.9575     94.5035
   607.7500      0.0000    790.8217      6.8890    102.9729
   608.0000      0.0000    790.9204      6.6542    109.6215
   608.2500      0.0000    799.0089      6.2938    111.5595
   608.5000      0.0000    811.5206      5.9134    109.3032
   608.7500      0.0000    825.2971      5.6519    105.4864
   609.0000      2.0000    839.3205      5.6102    102.4557
   609.2500      0.0000    852.5533      5.7956    100.9712
   609.5000      0.0000    862.4965      6.1284    100.2680
   609.7500      0.0000    867.2634      6.5105     98.9390
   610.0000      0.0000    867.3162      6.8985     96.1542
   610.2500      0.0000    863.6719      7.3015     92.4186
   610.5000      0.0000    856.2443      7.7019     89.2866
   610.7500      0.0000    845.5632      8.0013     88.1276
   611.0000      0.0000    834.5630      8.0796     88.7831
   611.2500      0.0000    826.9426      7.9033     89.5499
   611.5000      0.0000    824.2003      7.5569     88.8454
   611.7500      0.0000    825.0050      7.1855     86.6821
   612.0000      0.0000    827.0100      6.9259     84.1912
   612.2500      0.0000    828.6376      6.8603     82.1034
   612.5000      0.0000    829.4739      6.9929     80.1638
   612.7500      0.0000    829.7292      7.2563     77.8321
   613.0000      0.0000    829.6978      7.5505     75.1115
   613.2500      0.0000    829.5413      7.7860     72.5749
   613.5000      0.0000    829.3213      7.9047     70.6867
   613.7500      0.0000    829.0988      7.8812     69.3222
   614.0000      0.0000    828.9593      7.7174     68.0908
   614.2500      0.0000    828.9368      7.4381     66.9700
   614.5000      0.0000    828.9656      7.0864     66.3624
   614.7500      0.0000    828.9335      6.7249     66.5354
   615.0000      0.0000    828.7834      6.4331     67.2342
   615.2500      0.0000    828.5511      6.2915     67.9309
   615.5000      0.0000    828.3086      6.3460     68.1791
   615.7500      0.0000    828.0858      6.5816     67.6265
   616.0000      0.0000    827.8611      6.9320     66.1767
   616.2500      0.0000    827.6163      7.3155     64.4723
   616.5000      0.0000    827.3757      7.6640     63.7416
   616.7500      0.0000    827.1870      7.9333     64.8333
   617.0000      0.0000    827.0746      8.0995     67.6870
   617.2500      0.0000    827.0197      8.1550     71.6669
   617.5000      0.0000    826.9770      8.1058     75.8461
   617.7500      0.0000    826.9092      7.9669     79.0300
   618.0000      0.0000    826.8135      7.7571     80.2292
   618.2500      0.0000    826.7169      7.4943     79.4571
   618.5000      0.0000    826.6423      7.1962     77.7409
   618.7500      0.0000    826.5886      6.8885     75.9414
   619.0000      0.0000    826.5435      6.6127     73.6363
   619.2500      0.0000    826.5008      6.4225     69.7456
   619.5000      0.0000    826.4561      6.3657     64.4134
   619.7500      0.0000    826.3987      6.4604     59.5830
   620.0000      0.0000    826.3154      6.6814     57.3497
   620.2500      0.0000    826.2043      6.9726     58.1662
   620.5000      0.0000    826.0925      7.2767     60.6998
   620.7500      0.0000    826.0408      7.5562     62.9044
   621.0000      0.0000    826.1123      7.7913     63.2334
   621.2500      0.0000    826.3199      7.9686     61.3777
   621.5000      0.0000    826.6142      8.0799     58.1285
   621.7500      0.0000    826.9216      8.1276     54.6184
   622.0000      0.0000    827.1857      8.1234     51.8073
   622.2500      0.0000    827.3748      8.0777     50.4705
   622.5000      0.0000    827.4778      7.9891     51.0428
   622.7500      0.0000    827.5164      7.8453     53.2521
   623.0000      0.0000    827.5521      7.6345     56.2669
   623.2500      0.0000    827.6529      7.3580     59.2928
   623.5000      0.0000    827.8386      7.0377     61.7778
   623.7500      0.0000    828.0660      6.7146     63.3201
   624.0000      0.0000    828.2721      6.4416     63.9061
   624.2500      0.0000    828.4151      6.2724     64.0793
   624.5000      0.0000    828.4755      6.2463     64.3977
   624.7500      0.0000    828.4466      6.3731     64.7386
   625.0000      0.0000    828.3515      6.6271     64.2626
   625.2500      0.0000    828.2555      6.9585     62.0999
   625.5000      0.0000    828.2369      7.3132     58.3164
   625.7500      0.0000    828.3429      7.6470     54.1789
   626.0000      0.0000    828.5746      7.9347     51.1398
   626.2500      0.0000    828.8973      8.1725     49.6966
   626.5000      0.0000    829.2538      8.3705     49.4837
   626.7500      0.0000    829.5822      8.5376     50.0279
   627.0000      0.0000    829.8424      8.6722     51.0638
   627.2500      0.0000    830.0380      8.7703     52.5592
   627.5000      0.0000    830.2063      8.8359     54.7038
   627.7500      0.0000    830.3668      8.8817     57.6705
   628.0000      0.0000    830.4645      8.9184     61.4959
   628.2500      0.0000    830.3724      8.9439     66.3232
   628.5000      0.0000    829.9881      8.9446     72.2971
   628.7500      0.0000    829.3593      8.9072     78.8425
   629.0000      0.0000    828.7163      8.8326     84.3606
   629.2500      0.0000    828.3426      8.7372     87.0965
   629.5000      0.0000    828.3715      8.6406     86.4000
   629.7500      0.0000    828.6853      8.5509     83.0425
   630.0000      0.0000    829.0172      8.4615     78.3427
   630.2500      0.0000    829.1680      8.3623     73.2043
   630.5000      0.0000    829.1260      8.2517     68.1836
   630.7500      0.0000    828.9868      8.1356     64.1338
   631.0000      0.0000    828.7313      8.0186     62.2375
   631.2500      0.0000    827.9740      7.8970     63.2715
   631.5000      0.0000    825.6912      7.7614     66.9020
   631.7500      0.0000    820.1696      7.6086     71.5676
   632.0000      0.0000    809.7668      7.4484     75.1232
   632.2500      0.0000    794.5143      7.2994     76.0864
   632.5000      0.0000    777.0960      7.1742     74.5556
   632.7500      0.0000    761.6547      7.0704     71.8562
