~Version Information
VERS.                      2.0: CWLS Log ASCII Standard - VERSION 2.0
WRAP.                       NO: One line per depth step
~Well Information Block
STRT.FT               440.0000: 
STOP.FT              1001.5000: 
STEP.FT                 0.1000: 
NULL.                -999.2500: 
COMP.          Pioneer Natural Resources: COMPANY
WELL.              Dylan 42-25: WELL
FLD.           Purgatoire River: FIELD
LOC.           2160' FNL & 855' FEL: LOCATION
PROV.                 Colorado: PROVINCE
CNTY.               Las Animas: COUNTRY
SRVC.                Patterson: SERVICE COMPANY
DATE.          Mon Apr 25 09:31:16 2005: LOG DATE
UWI.           05 071 08229 00: UNIQUE WELL ID
~Curve Information Block
DEPT.FT            0 000 00 00: Depth
DCAL.in                       : CDL Caliper
RHOB.g/cc                     : CDL Bulk Density
RHOC.g/cc                     : CDL Density Correction
DPOR.pu                       : CDL Density Porosity
GR.GAPI                       : Gamma Ray
NPOR.pu                       : Neutron Porosity
~Parameter Information Block
~A  Depth       DCAL        RHOB        RHOC        DPOR         GR         NPOR    
# ...
   910.4000      7.9825      2.5997      0.0890      3.0486     69.3750     18.5077
   910.5000      7.9590      2.5952      0.0915      3.3190     65.0119     18.1493
   910.6000      7.9590      2.5716      0.0976      4.7498     59.6574     17.9038
   910.7000      7.9590      2.5480      0.0428      6.1833     57.4589     17.6874
   910.8000      7.9181      2.5313      0.1050      7.1956     60.2375     18.0243
   910.9000      7.9181      2.5200      0.0984      7.8812     68.1699     19.4314
   911.0000      7.8783      2.5167      0.0316      8.0796     77.5636     21.0712
   911.1000      7.8783      2.5178      0.0324      8.0137     80.8801     22.0207
   911.2000      7.8783      2.5100      0.0040      8.4841     77.1632     22.7000
   911.3000      7.8873      2.4934      0.0032      9.4912     75.4349     23.4406
   911.4000      7.8873      2.4870      0.0070      9.8769     82.7009     23.9123
   911.5000      7.8972      2.5012      0.0370      9.0170     94.7287     23.9209
   911.6000      7.8972      2.5238      0.0944      7.6483    103.6114     23.7341
   911.7000      7.8972      2.5354      0.1299      6.9456    107.7657     23.6992
   911.8000      7.9140      2.5236      0.1631      7.6597    110.8083     23.6167
   911.9000      7.9140      2.4991      0.0851      9.1455    116.1332     23.6500
   912.0000      7.9286      2.4986      0.0509      9.1729    121.5986     24.5462
   912.1000      7.9286      2.5299      0.1131      7.2762    124.9860     25.8873
   912.2000      7.9286      2.5495      0.1384      6.0929    127.3874     26.5475
   912.3000      7.9646      2.5370      0.0658      6.8470    126.8813     26.5331
   912.4000      7.9646      2.5248      0.0813      7.5902    121.4359     26.5451
   912.5000      7.9525      2.5380      0.0886      6.7882    114.5804     26.6828
   912.6000      7.9525      2.5564      0.1659      5.6742    110.0346     26.5498
   912.7000      7.9525      2.5522      0.0975      5.9288    110.1093     26.3143
   912.8000      7.9257      2.5349      0.0668      6.9776    113.1915     26.3895
   912.9000      7.9257      2.5178      0.1042      8.0134    112.8239     26.7117
   913.0000      7.8565      2.4934      0.0684      9.4910    106.0377     27.1366
   913.1000      7.8565      2.4710      0.0361     10.8506     97.8727     27.5078
   913.2000      7.8565      2.4744      0.0379     10.6407     94.8245     27.5053
   913.3000      7.8623      2.5020      0.0895      8.9712     96.1879     27.1121
   913.4000      7.8623      2.5280      0.0968      7.3934     97.5279     26.5985
   913.5000      7.8762      2.5417      0.0627      6.5636     98.9980     26.1097
   913.6000      7.8762      2.5593      0.1075      5.4969    102.9826     25.8623
   913.7000      7.8762      2.5904      0.1541      3.6125    108.1098     25.8528
   913.8000      7.8819      2.6209      0.1650      1.7634    111.7278     25.6476
   913.9000      7.8819      2.6364      0.1427      0.8238    114.3965     25.0086
   914.0000      7.8738      2.6351      0.1391      0.9009    113.8360     23.8500
   914.1000      7.8738      2.6238      0.0974      1.5907    105.7079     22.3304
   914.2000      7.8738      2.6178      0.0451      1.9488     95.2369     20.7598
   914.3000      7.9088      2.6235      0.0879      1.6059     90.7502     19.5027
   914.4000      7.9088      2.6197      0.1251      1.8382     88.5917     19.0225
   914.5000      7.9074      2.5968      0.0906      3.2267     80.8371     19.2610
   914.6000      7.9074      2.5752      0.1206      4.5355     69.1748     19.7491
   914.7000      7.9074      2.5564      0.0991      5.6703     60.5155     20.3336
   914.8000      7.9111      2.5248      0.0222      7.5851     58.8304     20.7088
   914.9000      7.9111      2.4892      0.0082      9.7466     64.6848     20.3533
   915.0000      7.8775      2.4785     -0.0208     10.3944     73.5114     19.7187
   915.1000      7.8775      2.5051      0.0691      8.7811     81.4505     20.2853
   915.2000      7.8775      2.5443      0.0945      6.4031     90.2698     22.1084
   915.3000      7.9137      2.5668      0.1183      5.0407    100.5951     23.2802
   915.4000      7.9137      2.5710      0.1230      4.7856    110.1890     23.0468
   915.5000      7.9093      2.5664      0.1154      5.0679    116.7060     22.2052
   915.6000      7.9093      2.5454      0.1314      6.3421    118.3566     21.2210
   915.7000      7.9093      2.5077      0.0560      8.6235    114.7734     20.5511
   915.8000      7.8844      2.4909     -0.0791      9.6422    108.6940     20.9567
   915.9000      7.8844      2.5160      0.0294      8.1193    104.2977     22.1344
   916.0000      7.9094      2.5454      0.0786      6.3378    100.9773     23.0021
   916.1000      7.9094      2.5505      0.0292      6.0277     95.4321     23.2415
   916.2000      7.9094      2.5476      0.0489      6.2042     88.0990     23.2039
   916.3000      7.9420      2.5424      0.0662      6.5201     83.3526     23.4020
   916.4000      7.9420      2.5234      0.0634      7.6738     83.6248     24.0575
   916.5000      7.9014      2.5068      0.0036      8.6779     87.6964     24.1271
   916.6000      7.9014      2.5111      0.0997      8.4198     93.4745     23.3916
   916.7000      7.9014      2.5215      0.0665      7.7879     97.2834     23.1174
   916.8000      7.8777      2.5293      0.0566      7.3151     96.8924     23.3455
   916.9000      7.8777      2.5355      0.0920      6.9382     95.3501     23.1419
   917.0000      7.8673      2.5383      0.0119      6.7725     95.6500     22.6232
   917.1000      7.8673      2.5368      0.0889      6.8609     95.4518     22.3060
   917.2000      7.8673      2.5219      0.0551      7.7646     91.1058     21.9853
   917.3000      7.8816      2.4957      0.1093      9.3518     84.1411     21.5484
   917.4000      7.8816      2.4735      0.0453     10.6982     77.2943     21.1586
   917.5000      7.8785      2.4620      0.1090     11.3954     71.2246     20.5828
   917.6000      7.8785      2.4561      0.0977     11.7515     66.4454     19.7720
   917.7000      7.8785      2.4483      0.0765     12.2219     62.4883     19.2385
   917.8000      7.8544      2.4412      0.0751     12.6522     60.5867     19.1012
   917.9000      7.8544      2.4399      0.1087     12.7309     63.1456     19.1409
   918.0000      7.8654      2.4349      0.0772     13.0381     67.0145     19.2546
   918.1000      7.8654      2.4208      0.0619     13.8920     68.1797     19.0848
   918.2000      7.8654      2.4092      0.0507     14.5965     68.1477     18.2943
   918.3000      7.9163      2.4066      0.0125     14.7508     67.5594     17.4747
   918.4000      7.9163      2.4035      0.0554     14.9390     65.4997     17.4641
   918.5000      7.9156      2.3935      0.0159     15.5458     64.6156     17.8916
   918.6000      7.9156      2.3874     -0.0010     15.9155     66.7454     17.9640
   918.7000      7.9156      2.3923      0.0481     15.6165     70.7596     17.6455
   918.8000      7.9041      2.4007      0.0499     15.1080     74.4478     17.3257
   918.9000      7.9041      2.4060      0.0319     14.7893     75.1471     17.3610
   919.0000      7.9015      2.4105      0.0229     14.5137     73.1279     17.4864
   919.1000      7.9015      2.4224      0.0026     13.7965     69.8900     17.2052
   919.2000      7.9015      2.4440      0.0402     12.4877     67.1422     16.9520
   919.3000      7.9169      2.4661      0.0530     11.1449     65.9226     17.3319
   919.4000      7.9169      2.4895      0.0314      9.7264     66.1190     17.8949
   919.5000      7.9182      2.5242      0.0814      7.6249     65.9505     18.1417
   919.6000      7.9182      2.5586      0.1127      5.5402     63.1143     18.3618
   919.7000      7.9182      2.5700      0.1117      4.8486     59.6517     18.8318
   919.8000      7.9178      2.5582      0.0589      5.5622     59.5728     19.4530
   919.9000      7.9178      2.5431      0.0519      6.4761     61.0651     20.0610
