~Version Information
VERS.                      2.0: CWLS Log ASCII Standard - VERSION 2.0
WRAP.                       NO: One line per depth step
~Well Information Block
STRT.FT                12.0000: 
STOP.FT              1671.7500: 
STEP.FT                 0.2500: 
NULL.                -999.2500: 
COMP.          Pioneer Natural Resources: COMPANY
WELL.          Scott Canyon 11-18 Tr: WELL
FLD.           Purgatoire River: FIELD
LOC.           411' FNL & 580' FWL: LOCATION
PROV.                 Colorado: PROVINCE
CNTY.               Las Animas: COUNTRY
SRVC.                Patterson: SERVICE COMPANY
DATE.          Tue Feb 22 09:52:18 2005: LOG DATE
UWI.           05 071 08286 00: UNIQUE WELL ID
~Curve Information Block
DEPT.FT            0 000 00 00: Depth
GR.GAPI                       : Gamma Ray
CCL.                          : Casing Collar Locator
TT3.usec                      : CBL 3' Travel Time
AMP3.mV                       : CBL 3' Amplitude
~Parameter Information Block
~A  Depth        GR         CCL         TT3         AMP3    
# ...
   548.0000     69.5721      0.0000   1458.0000     13.2340
   548.2500     70.4552      0.0000   1458.0000     12.9945
   548.5000     69.1926      0.0000   1458.0000     12.8501
   548.7500     66.1619      0.0000   1457.9442     12.8307
   549.0000     63.1491      0.0000   1457.6362     12.9247
   549.2500     61.7532     -2.3230   1456.1523     13.1598
   549.5000     62.1138      0.0000   1450.6925     13.6798
   549.7500     63.0714      0.0000   1435.4912     14.6994
   550.0000     63.2105      0.0000   1404.0043     16.3161
   550.2500     61.7619      0.0000   1357.1227     18.3051
   550.5000     59.0223      0.0000   1311.2245     20.1874
   550.7500     56.2669      0.0000   1291.6815     21.6279
   551.0000     55.0588      0.0000   1311.2245     22.6873
   551.2500     56.2760      0.0000   1357.1227     23.5895
   551.5000     59.6376      0.0000   1404.0043     24.3802
   551.7500     64.0676      0.0000   1435.4912     24.9392
   552.0000     68.3517      0.0000   1450.6925     25.1958
   552.2500     71.4183      0.0000   1456.1523     25.2031
   552.5000     72.4003      0.0000   1457.6362     25.0572
   552.7500     70.9855      0.0000   1457.9442     24.8273
   553.0000     67.8651      0.0000   1457.9657     24.5578
   553.2500     64.5968      0.0000   1457.7761     24.2897
   553.5000     62.7502      0.0000   1456.8630     24.0635
   553.7500     62.9338      0.0000   1453.5034     23.9036
   554.0000     64.4191      0.0000   1444.1494     23.8125
   554.2500     65.7205      0.0000   1424.7742     23.7809
   554.5000     65.7225      0.0000   1395.9260     23.7932
   554.7500     64.4369      0.0000   1367.6830     23.8281
   555.0000     62.8506      0.0000   1355.6573     23.8639
   555.2500     62.1630      0.0000   1367.6830     23.8891
   555.5000     62.9802      0.0000   1395.9260     23.9037
   555.7500     65.0535      0.0000   1424.7742     23.9022
   556.0000     67.8036      0.0000   1444.1494     23.8571
   556.2500     70.8740      0.0000   1453.5034     23.7236
   556.5000     74.0162      0.0000   1456.8630     23.4636
   556.7500     76.9681      0.0000   1457.7761     23.0660
   557.0000     79.9516      0.0000   1457.9657     22.5562
   557.2500     83.9336      0.0000   1458.0000     21.9933
   557.5000     89.7444      0.0000   1458.0000     21.4510
   557.7500     96.8182      0.0000   1458.0000     20.9887
   558.0000    103.0338      0.0000   1458.0000     20.6312
   558.2500    106.0139      0.0000   1458.0000     20.3688
   558.5000    104.7649      0.0000   1458.0000     20.1762
   558.7500    100.3684      0.0000   1458.0000     20.0325
   559.0000     95.1354      0.0000   1458.0000     19.9259
   559.2500     90.8523      0.0000   1458.0000     19.8492
   559.5000     87.5854      0.0000   1458.0000     19.8014
   559.7500     84.2649      0.0000   1458.0000     19.7968
   560.0000     80.5316      0.0000   1458.0000     19.8594
   560.2500     77.6851      0.0000   1458.0000     19.9968
   560.5000     77.4278      0.0000   1458.0000     20.1790
   560.7500     80.0863      0.0000   1458.0000     20.3545
   561.0000     84.5170      0.0000   1458.0000     20.4929
   561.2500     89.3051      0.0000   1458.0000     20.6106
   561.5000     93.5417      0.0000   1458.0000     20.7507
   561.7500     96.8171      0.0000   1458.0000     20.9389
   562.0000     99.0115      0.0000   1458.0000     21.1625
   562.2500    100.2379      0.0000   1458.0000     21.3894
   562.5000    100.8624      0.0000   1458.0000     21.6014
   562.7500    101.3895      0.0000   1458.0000     21.8009
   563.0000    102.2811      0.0000   1458.0000     21.9886
   563.2500    104.1403      0.0000   1458.0000     22.1402
   563.5000    107.8452      0.0000   1458.0000     22.2133
   563.7500    113.7116      0.0000   1458.0000     22.1747
   564.0000    120.3526      0.0000   1458.0000     22.0174
   564.2500    125.2086      0.0000   1458.0000     21.7542
   564.5000    126.6247      0.0000   1458.0000     21.4040
   564.7500    125.0767      0.0000   1458.0000     20.9854
   565.0000    122.2201      0.0000   1458.0000     20.5167
   565.2500    119.1376      0.0000   1458.0000     20.0231
   565.5000    115.8246      0.0000   1458.0000     19.5413
   565.7500    112.1141      0.0000   1458.0000     19.1108
   566.0000    108.4556      0.0000   1458.0000     18.7517
   566.2500    105.5885      0.0000   1458.0000     18.4553
   566.5000    103.7119      0.0000   1458.0000     18.1976
   566.7500    102.2122      0.0000   1458.0000     17.9578
   567.0000    100.4313      0.0000   1458.0000     17.7287
   567.2500     98.6799      0.0000   1458.0000     17.5229
   567.5000     98.0624      0.0000   1458.0000     17.3731
   567.7500     99.1372      0.0000   1458.0000     17.3160
   568.0000    101.2076      0.0000   1458.0000     17.3635
   568.2500    103.0405      0.0000   1458.0000     17.4918
   568.5000    103.7425      0.0000   1458.0000     17.6582
   568.7500    102.8488      0.0000   1458.0000     17.8274
   569.0000    100.2317      0.0000   1458.0000     17.9838
   569.2500     96.4832      0.0000   1458.0000     18.1305
   569.5000     93.1775      0.0000   1458.0000     18.2844
   569.7500     92.0996      0.0000   1458.0000     18.4661
   570.0000     93.8866      0.0000   1458.0000     18.6822
   570.2500     97.6103      0.0000   1458.0000     18.9111
   570.5000    101.7236      0.0000   1458.0000     19.1089
   570.7500    105.0644      0.0000   1458.0000     19.2324
   571.0000    107.0557      0.0000   1458.0000     19.2637
   571.2500    107.6113      0.0000   1458.0000     19.2202
   571.5000    107.1178      0.0000   1458.0000     19.1469
   571.7500    106.1993      0.0000   1458.0000     19.0929
   572.0000    105.3959      0.0000   1458.0000     19.0869
   572.2500    105.2622      0.0000   1458.0000     19.1312
   572.5000    106.7511      0.0000   1458.0000     19.2139
   572.7500    110.9880      0.0000   1458.0000     19.3280
   573.0000    118.1450      0.0000   1458.0000     19.4756
   573.2500    126.4480      0.0000   1458.0000     19.6494
   573.5000    132.7030      0.0000   1458.0000     19.8077
   573.7500    134.4293      0.0000   1458.0000     19.8856
   574.0000    131.6816      0.0000   1458.0000     19.8476
   574.2500    126.6928      0.0000   1458.0000     19.7215
   574.5000    122.0569      0.0000   1458.0000     19.5676
   574.7500    119.4886      0.0000   1458.0000     19.4203
   575.0000    119.5072      0.0000   1458.0000     19.2679
   575.2500    121.2150      0.0000   1458.0000     19.0810
   575.5000    122.3865      0.0000   1458.0000     18.8482
   575.7500    120.6153      0.0000   1458.0000     18.5892
   576.0000    114.9936      0.0000   1458.0000     18.3440
   576.2500    106.8309      0.0000   1458.0000     18.1451
   576.5000     98.7127      0.0000   1458.0000     17.9939
   576.7500     92.8590      0.0000   1458.0000     17.8660
   577.0000     90.2636      0.0000   1458.0000     17.7404
   577.2500     90.9051      0.0000   1458.0000     17.6160
   577.5000     94.1246      0.0000   1458.0000     17.5027
   577.7500     98.6582      0.0000   1458.0000     17.4125
   578.0000    102.9201      0.0000   1458.0000     17.3669
   578.2500    105.8671      0.0000   1458.0000     17.3962
   578.5000    107.3857      0.0000   1458.0000     17.5172
   578.7500    107.5341      0.0000   1458.0000     17.7119
   579.0000    105.8725      0.0000   1458.0000     17.9332
   579.2500    102.2420      0.0000   1458.0000     18.1345
   579.5000     97.9251      0.0000   1458.0000     18.2956
   579.7500     95.1625      0.0000   1458.0000     18.4291
   580.0000     95.2602      0.0000   1458.0000     18.5634
   580.2500     97.6000      0.0000   1458.0000     18.7123
   580.5000    100.5167      0.0000   1458.0000     18.8603
   580.7500    102.7526      0.0000   1458.0000     18.9792
   581.0000    104.2428      0.0000   1458.0000     19.0519
   581.2500    105.9916      0.0000   1458.0000     19.0763
