~Version Information
VERS.                      2.0: CWLS Log ASCII Standard - VERSION 2.0
WRAP.                       NO: One line per depth step
~Well Information Block
STRT.FT               700.0000: 
STOP.FT              1869.5000: 
STEP.FT                 0.2500: 
NULL.                -999.2500: 
COMP.          Petrogulf Corporation: COMPANY
WELL.             State 16-24R: WELL
FLD.           Purgatorie River: FIELD
LOC.           541' FSL & 2371' FWL: LOCATION
PROV.                 Colorado: PROVINCE
CNTY.               Las Animas: COUNTRY
SRVC.                Patterson: SERVICE COMPANY
DATE.          Fri Aug 12 09:07:22 2005: LOG DATE
UWI.                071-08312 : UNIQUE WELL ID
~Curve Information Block
DEPT.FT            0 000 00 00: Depth
SP.mV                         : DIL Spontaneous Potential
RILD.Ohm-m                    : DIL Deep Resistivity
RILM.Ohm-m                    : DIL Medium Resistivity
RLL3.Ohm-m                    : DIL Shallow Resistivity
GR.GAPI                       : Gamma Ray
~Parameter Information Block
~A  Depth        SP         RILD        RILM        RLL3         GR     
# ...
  1232.0000    189.5548      5.5475      7.3375      9.7974    100.8326
  1232.2500    192.3649      5.5957      7.3381      9.7887    104.3651
  1232.5000    188.2552      5.5822      7.2151      9.5705    100.3406
  1232.7500    191.8961      5.6138      7.1234      9.0713     99.7411
  1233.0000    190.0179      5.6939      7.1281      8.7560     98.3755
  1233.2500    191.5529      5.7049      7.1855      8.5693     96.5431
  1233.5000    189.1680      5.7423      7.2450      8.6743    101.2249
  1233.7500    187.1805      5.8804      7.3146      9.0444     98.0080
  1234.0000    184.0867      6.0139      7.4232      9.2417    101.4067
  1234.2500    182.2168      5.9263      7.5328      9.2316    101.5503
  1234.5000    180.5194      6.0672      7.7214      9.2429     96.7834
  1234.7500    177.4253      6.2277      7.8566      9.3537     89.5418
  1235.0000    179.3827      6.3195      8.0355      9.5120     88.5052
  1235.2500    177.4947      6.3733      8.4650      9.8057     88.1708
  1235.5000    175.6393      6.3635      8.5239     10.1810     91.6452
  1235.7500    172.5419      6.6100      8.8102     10.3836     93.7057
  1236.0000    169.3414      6.7396      8.8669     10.2590     92.4368
  1236.2500    168.8760      6.7061      9.1546     10.0962     90.2419
  1236.5000    168.8502      6.7411      9.3312     10.0920     92.8308
  1236.7500    170.4424      6.7054      9.4484     10.4382     95.2670
  1237.0000    163.3091      6.8113      9.5633     11.1697     92.6626
  1237.2500    160.0278      6.7977      9.5467     11.8370    100.5053
  1237.5000    153.7752      6.9822      9.3854     11.2704    105.7632
  1237.7500    156.2879      7.0317      9.2475      9.9589    107.2340
  1238.0000    152.2406      7.0293      9.3992      9.3764    110.6786
  1238.2500    152.0460      7.0167      9.1362      9.1669    113.3113
  1238.5000    149.7514      7.0245      9.1482      9.2957    115.2579
  1238.7500    149.5879      6.9986      9.1685      9.9080    116.7514
  1239.0000    148.6606      6.9960      9.2643     10.6665    108.8210
  1239.2500    145.6297      6.8830      9.2952     10.9380    106.8559
  1239.5000    145.2457      6.7868      9.1355     10.5302    107.4172
  1239.7500    140.8066      6.6465      9.0742     10.1454     99.1368
  1240.0000    140.2551      6.7295      8.9542     10.5167    101.5838
  1240.2500    135.9725      6.8021      8.8557     10.9020    116.0116
  1240.5000    136.6266      6.9694      8.8497     10.6102    125.7733
  1240.7500    134.7195      7.1618      8.7043     10.2768    142.1539
  1241.0000    128.6549      7.3222      8.6881      9.6375    143.1548
  1241.2500    128.1833      7.5319      8.7843      9.4010    138.6070
  1241.5000    127.4073      7.8417      8.9421      9.4337    131.2435
  1241.7500    127.6373      8.0716      9.3665      9.6470    121.4612
  1242.0000    121.6641      8.6468      9.9464     10.0045    116.5161
  1242.2500    124.4353      8.9016     10.6338     10.4271    111.0557
  1242.5000    120.0426      9.2703     11.8471     11.5187    108.2368
  1242.7500    121.7437      9.6060     12.8585     14.6441     98.2740
  1243.0000    120.0863     10.1294     14.4241     20.1424     76.8005
  1243.2500    122.1099     10.7169     15.5251     30.6746     77.9968
  1243.5000    120.5745     11.1716     17.3272     35.0132     76.5437
  1243.7500    121.4030     11.5200     18.0289     34.4035     78.4284
  1244.0000    120.7924     12.4265     19.3353     29.2266     83.7702
  1244.2500    118.0086     13.5132     19.3513     25.2656     84.9947
  1244.5000    120.0321     14.1834     20.6619     23.5393     94.6167
  1244.7500    118.1907     15.1903     21.9644     20.0165     96.2037
  1245.0000    118.9155     15.9234     23.0932     18.8512     92.5159
  1245.2500    118.2247     16.5463     25.1824     20.8222     87.9755
  1245.5000    118.7541     17.0277     26.1983     27.4729     84.5540
  1245.7500    122.9092     16.9442     26.6166     28.7199     87.5722
  1246.0000    125.6285     17.0252     26.8332     21.9906     92.5765
  1246.2500    129.7147     17.2825     26.5501     20.7129     86.7068
  1246.5000    128.7196     16.4563     25.7735     24.2401     84.5816
  1246.7500    130.6594     16.3669     26.0322     23.0348     80.1429
  1247.0000    129.3357     15.4425     26.2249     21.5294     80.5963
  1247.2500    133.6155     15.4437     26.6117     26.8040     78.0674
  1247.5000    132.8799     15.1093     25.7381     33.1851     87.5581
  1247.7500    134.8737     15.2326     23.8889     32.9808     90.2015
  1248.0000    135.3227     15.0308     22.4531     28.4054     89.6659
  1248.2500    137.2943     14.7577     21.3892     18.3491     97.6041
  1248.5000    138.1247     14.1833     20.0247     15.2402    103.7187
  1248.7500    143.5429     13.1576     19.1289     15.2182    102.9790
  1249.0000    145.4869     13.2253     18.4214     15.4385    103.3581
  1249.2500    145.7210     12.8029     17.8062     14.8171    106.0215
  1249.5000    149.8388     12.4659     17.3139     14.7666    111.1392
  1249.7500    148.4213     11.7428     16.3795     14.4711    120.9448
  1250.0000    151.2836     12.0267     15.7934     14.2916    122.5799
  1250.2500    149.9078     11.5906     15.1605     14.0444    126.2566
  1250.5000    156.8851     10.8078     14.4738     12.5281    121.3608
  1250.7500    156.2640     10.7529     14.3059     11.4611    123.4641
  1251.0000    160.8128     10.6358     13.8974     11.1394    127.6365
  1251.2500    161.0104     10.4902     13.8553     11.6582    127.5154
  1251.5000    160.1875     10.4072     13.5209     12.7232    134.2978
  1251.7500    161.0727     10.0090     13.1047     12.7782    128.2448
  1252.0000    159.2476      9.6141     12.9598     12.6074    112.4059
  1252.2500    161.3452      9.5732     12.9712     12.6992    112.7277
  1252.5000    157.0287      9.3744     12.8786     12.4598    116.6174
  1252.7500    163.3472      9.3377     12.3731     11.7412    115.3959
  1253.0000    160.8870      9.0603     12.0626     11.2497    116.1541
  1253.2500    162.9204      9.0416     11.8677     11.2765    112.0340
  1253.5000    161.5119      8.8527     11.7211     11.1847    116.7089
  1253.7500    165.5868      8.6779     11.3155     10.7376    117.9659
  1254.0000    164.9607      8.4159     11.1996     10.6617    131.5480
  1254.2500    163.3760      8.1242     11.2821     10.8651    123.3132
  1254.5000    166.7421      8.0258     10.9721     11.2119    119.1321
  1254.7500    165.0025      7.8002     10.5729     11.2435    124.1042
  1255.0000    167.9389      7.6576     10.0803     10.5715    124.1328
  1255.2500    165.4273      7.4605      9.6958     10.1750    123.9613
  1255.5000    168.2351      7.3533      9.5824      9.7729    121.7529
  1255.7500    164.6533      7.1930      9.3862      9.6046    128.3777
  1256.0000    167.9402      7.1076      9.1438      9.5384    132.7262
  1256.2500    167.0304      6.9622      8.9522      9.5353    128.3483
  1256.5000    166.3356      6.8997      8.8088      9.4732    123.1431
  1256.7500    164.9698      6.7986      8.8480      9.6597    128.9687
  1257.0000    165.4002      6.5853      8.6959      9.8694    128.7603
  1257.2500    166.4373      6.5169      8.5908      9.6775    133.4641
  1257.5000    164.4636      6.2637      8.4398      9.6650    131.6812
  1257.7500    165.9207      6.1167      8.3285      9.9073    126.8699
  1258.0000    164.2890      5.9796      8.1142      9.9001    131.3063
  1258.2500    164.9419      5.8941      7.9481      9.4881    141.2752
  1258.5000    163.8776      5.8534      7.6797      9.2461    135.6335
  1258.7500    166.1527      5.8169      7.5531      8.9377    132.4277
  1259.0000    165.7561      5.7944      7.3725      8.8755    124.5114
  1259.2500    164.4526      5.7808      7.2786      8.9794    121.7535
  1259.5000    164.4160      5.7840      7.2573      8.9343    128.8003
  1259.7500    161.3324      5.7651      7.2958      8.8573    126.2874
