~Version Information
VERS.                      2.0: CWLS Log ASCII Standard - VERSION 2.0
WRAP.                       NO: One line per depth step
~Well Information Block
STRT.FT               236.5000: 
STOP.FT              2818.2500: 
STEP.FT                 0.2500: 
NULL.                -999.2500: 
COMP.          Pioneer Natural Resources: COMPANY
WELL.            Sebring 42-29: WELL
FLD.           Purgatorie River: FIELD
LOC.           1751' FNL & 584' FEL--: LOCATION
PROV.                       CO: PROVINCE
CNTY.               Las Animas: COUNTRY
SRVC.          Patterson Wireline: SERVICE COMPANY
DATE.          Fri Aug 26 09:14:13 2005: LOG DATE
UWI.           05 071 08293 00: UNIQUE WELL ID
~Curve Information Block
DEPT.FT            0 000 00 00: Depth
CCL.                          : Casing Collar Locator
TT3.usec                      : CBL 3' Travel Time
AMP3.mV                       : CBL 3' Amplitude
GR.GAPI                       : Gamma Ray
~Parameter Information Block
~A  Depth       CCL         TT3         AMP3         GR     
# ...
  2447.5000      0.0000    453.7587      5.6273     97.3164
  2447.7500      0.0000    477.4297      5.4286     95.5283
  2448.0000      0.0000    508.2781      5.2882     95.9626
  2448.2500      0.0000    542.8153      5.2752     98.0596
  2448.5000      0.0000    576.5687      5.3959    100.9091
  2448.7500      0.0000    605.3475      5.5656    103.6985
  2449.0000      0.0000    626.5761      5.6823    105.8231
  2449.2500      0.0000    639.7946      5.7321    106.8000
  2449.5000      0.0000    646.2107      5.7934    106.1333
  2449.7500      0.0000    648.1301      5.9370    103.5512
  2450.0000      0.0000    648.3134      6.1544     99.6273
  2450.2500      0.0000    648.3517      6.3844     95.8701
  2450.5000      0.0000    646.7764      6.5898     93.7231
  2450.7500      0.0000    639.9537      6.8082     93.5543
  2451.0000      0.0000    626.4410      7.1172     94.8067
  2451.2500      0.0000    610.0127      7.5208     96.7485
  2451.5000      0.0000    597.6373      7.8732     98.6543
  2451.7500      0.0000    595.2155      7.9816     99.7308
  2452.0000      0.0000    604.7725      7.8080     99.6234
  2452.2500      0.0000    623.0447      7.5158     98.9768
  2452.5000      0.0000    642.5598      7.2982     99.0680
  2452.7500      0.0000    656.4630      7.2089    100.8101
  2453.0000      0.0000    662.8502      7.1708    104.2847
  2453.2500      0.0000    664.0345      7.0972    109.0321
  2453.5000      0.0000    662.8664      6.9724    114.2051
  2453.7500      0.0000    660.6022      6.8390    118.4075
  2454.0000      0.0000    657.1218      6.7414    120.2711
  2454.2500      0.0000    651.5515      6.6895    119.7521
  2454.5000      0.0000    641.7789      6.6647    118.4712
  2454.7500      0.0000    623.4810      6.6457    118.2115
  2455.0000      0.0000    591.5030      6.6214    119.1538
  2455.2500      0.0000    544.9803      6.5888    119.8332
  2455.5000      0.0000    491.4521      6.5444    118.6206
  2455.7500      0.0000    443.6724      6.4823    115.0397
  2456.0000      0.0000    411.1782      6.3979    109.9735
  2456.2500      0.0000    395.3956      6.2943    105.2071
  2456.5000      0.0000    391.7432      6.1883    102.6589
  2456.7500      0.0000    394.0998      6.1045    103.1423
  2457.0000      0.0000    397.5161      6.0607    105.4445
  2457.2500      0.0000    399.3728      6.0560    107.1855
  2457.5000      0.0000    399.6324      6.0724    106.9743
  2457.7500      0.0000    399.6018      6.0880    105.3815
  2458.0000      0.0000    399.9413      6.0915    103.8023
  2458.2500      0.0000    400.0670      6.0872    102.9665
  2458.5000      0.0000    399.5540      6.0865    102.7619
  2458.7500      0.0000    400.0391      6.0965    102.9424
  2459.0000      0.0000    405.7697      6.1169    103.5983
  2459.2500      0.0000    421.5257      6.1430    104.9827
  2459.5000      0.0000    448.2827      6.1711    106.9502
  2459.7500      0.0000    480.2448      6.1989    108.6270
  2460.0000      0.0000    508.1741      6.2269    108.8916
  2460.2500      0.0000    527.6705      6.2582    107.4691
  2460.5000      0.0000    542.8146      6.2959    105.5781
  2460.7500      0.0000    559.6330      6.3388    105.2279
  2461.0000      0.0000    577.6887      6.3821    107.2956
  2461.2500      0.0000    590.7998      6.4219    110.0944
  2461.5000      0.0000    594.6844      6.4588    110.5678
  2461.7500      0.0000    590.7468      6.4964    107.5153
  2462.0000      0.0000    582.8024      6.5381    103.1809
  2462.2500      0.0000    573.2741      6.5853    101.0846
  2462.5000      0.0000    563.6448      6.6368    102.5764
  2462.7500      0.0000    556.5256      6.6870    105.8320
  2463.0000      0.0000    554.9918      6.7269    107.8162
  2463.2500      0.0000    559.6705      6.7468    106.8084
  2463.5000      0.0000    567.9010      6.7417    103.3476
  2463.7500      0.0000    576.4288      6.7160     99.5191
  2464.0000      0.0000    584.4496      6.6821     97.6564
  2464.2500      0.0000    593.8341      6.6506     98.9962
  2464.5000      0.0000    606.7437      6.6222    102.7530
  2464.7500      0.0000    622.9236      6.5908    106.7392
  2465.0000      0.0000    639.1082      6.5530    109.2760
  2465.2500      0.0000    651.3571      6.5097    110.0432
  2465.5000      0.0000    658.0424      6.4628    109.1203
  2465.7500      0.0000    660.3972      6.4135    106.3552
  2466.0000      0.0000    660.6840      6.3644    102.1344
  2466.2500      0.0000    660.5269      6.3180     97.9935
  2466.5000      0.0000    660.6646      6.2728     95.8987
  2466.7500      0.0000    661.4481      6.2213     97.0537
  2467.0000      0.0000    663.1144      6.1476    101.2863
  2467.2500      0.0000    665.5547      6.0260    107.1510
  2467.5000      0.0000    668.0101      5.8294    112.3955
  2467.7500      0.0000    669.4652      5.5474    114.6708
  2468.0000      0.0000    669.7174      5.1969    112.6699
  2468.2500      0.0000    669.7088      4.8166    107.3249
  2468.5000      0.0000    670.3719      4.4522    101.7037
  2468.7500      0.0000    671.4395      4.1419     98.8361
  2469.0000      0.0000    672.0521      3.9071     98.9733
  2469.2500      0.0000    672.5779      3.7529     99.1657
  2469.5000      0.0000    675.1891      3.6724     96.0896
  2469.7500      0.0000    681.9360      3.6491     89.2371
  2470.0000      0.0000    692.1699      3.6609     81.0792
  2470.2500      0.0000    702.3531      3.6915     74.6920
  2470.5000      0.0000    708.5584      3.7430     71.8741
  2470.7500      0.0000    708.8568      3.8371     73.0404
  2471.0000      0.0000    703.6549      4.0035     77.8969
  2471.2500      0.0000    694.8044      4.2657     85.7875
  2471.5000      0.0000    684.7354      4.6274     95.3505
  2471.7500      0.0000    675.7427      5.0600    104.1963
  2472.0000      0.0000    669.2707      5.5039    109.9022
  2472.2500      0.0000    665.5195      5.8975    111.9775
  2472.5000      0.0000    663.7561      6.2094    112.4260
  2472.7500      0.0000    663.0613      6.4412    113.7504
  2473.0000      0.0000    662.8552      6.6038    116.3665
  2473.2500      0.0000    662.8841      6.7020    118.2714
  2473.5000      0.0000    662.9871      6.7389    117.2898
  2473.7500      0.0000    663.0273      6.7259    113.3663
  2474.0000      0.0000    662.9731      6.6815    108.5450
  2474.2500      0.0000    662.8873      6.6226    105.0456
  2474.5000      0.0000    662.8138      6.5570    103.6732
  2474.7500      0.0000    662.7296      6.4833    103.8585
  2475.0000      0.0000    662.6035      6.3972    104.6571
  2475.2500      0.0000    662.4357      6.3028    105.4307
  2475.5000      0.0000    662.2291      6.2211    105.9204
  2475.7500      0.0000    661.9733      6.1874    106.1553
  2476.0000      0.0000    661.6772      6.2301    106.3059
  2476.2500      0.0000    661.3911      6.3484    106.1961
  2476.5000      0.0000    661.1713      6.5078    104.8652
  2476.7500      0.0000    661.0430      6.6624    101.1278
  2477.0000      0.0000    661.0076      6.7814     94.9583
  2477.2500      0.0000    661.0491      6.8564     88.2219
  2477.5000      0.0000    661.0473      6.8883     83.8090
  2477.7500      0.0000    660.4712      6.8738     83.6957
  2478.0000      0.0000    657.7891      6.8073     87.4514
  2478.2500      0.0000    649.8120      6.6941     92.5931
  2478.5000      0.0000    632.1699      6.5607     96.5228
  2478.7500      0.0000    602.3768      6.4488     98.1697
  2479.0000      0.0000    564.5585      6.3930     98.1020
  2479.2500      0.0000    530.7687      6.4021     97.5818
  2479.5000      0.0000    514.6683      6.4614     97.6419
  2479.7500      0.0000    521.2377      6.5495     98.6586
  2480.0000      0.0000    542.6998      6.6496    100.3743
  2480.2500      0.0000    565.8293      6.7477    102.1630
  2480.5000      0.0000    583.4033      6.8314    103.3620
  2480.7500      0.0000    597.6162      6.8929    103.6243
