~Version Information
VERS.                      2.0: CWLS Log ASCII Standard - VERSION 2.0
WRAP.                       NO: One line per depth step
~Well Information Block
STRT.FT               260.0000: 
STOP.FT              2272.0000: 
STEP.FT                 0.2500: 
NULL.                -999.2500: 
COMP.          Pioneer Natural Resources: COMPANY
WELL.            Moo Moo 31-36: WELL
FLD.           Purgatoire River: FIELD
LOC.           612' FNL & 2326' FEL: LOCATION
PROV.                 Colorado: PROVINCE
CNTY.               Las Animas: COUNTRY
SRVC.                Patterson: SERVICE COMPANY
DATE.          Fri Jun 17 07:45:39 2005: LOG DATE
UWI.           05 071 08395 00: UNIQUE WELL ID
~Curve Information Block
DEPT.FT            0 000 00 00: Depth
DIR.Ohm-m                     : IEL Induction Resistivity
SN.Ohm-m                      : IEL Short Normal
SP.mV                         : IEL Spontaneous Potential
GR.GAPI                       : Gamma Ray
~Parameter Information Block
~A  Depth       DIR          SN          SP          GR     
# ...
   528.0000     10.2340   2000.0000   2000.0000    134.7189
   528.2500      9.9759   2000.0000   2000.0000    134.9935
   528.5000      9.7317   2000.0000   2000.0000    136.1553
   528.7500      9.5194   2000.0000   2000.0000    137.4772
   529.0000      9.3511   2000.0000   2000.0000    139.8511
   529.2500      9.2299   2000.0000   2000.0000    141.1723
   529.5000      9.1492   2000.0000   2000.0000    141.9693
   529.7500      9.0946   2000.0000   2000.0000    141.5617
   530.0000      9.0480   2000.0000   2000.0000    139.9590
   530.2500      8.9940   2000.0000   2000.0000    138.8011
   530.5000      8.9261   2000.0000   2000.0000    138.1092
   530.7500      8.8489   2000.0000   2000.0000    138.8173
   531.0000      8.7737   2000.0000   2000.0000    141.4684
   531.2500      8.7114   2000.0000   2000.0000    143.6399
   531.5000      8.6673   2000.0000   2000.0000    146.3047
   531.7500      8.6420   2000.0000   2000.0000    147.4274
   532.0000      8.6353   2000.0000   2000.0000    148.3794
   532.2500      8.6505   2000.0000   2000.0000    148.7014
   532.5000      8.6949   2000.0000   2000.0000    148.6636
   532.7500      8.7746   2000.0000   2000.0000    148.0569
   533.0000      8.8901   2000.0000   2000.0000    145.7451
   533.2500      9.0357   2000.0000   2000.0000    143.2003
   533.5000      9.2038   2000.0000   2000.0000    138.8220
   533.7500      9.3914   2000.0000   2000.0000    136.5859
   534.0000      9.6024   2000.0000   2000.0000    135.6766
   534.2500      9.8455   2000.0000   2000.0000    136.6684
   534.5000     10.1284   2000.0000   2000.0000    139.0925
   534.7500     10.4553   2000.0000   2000.0000    140.3159
   535.0000     10.8290   2000.0000   2000.0000    140.8359
   535.2500     11.2547   2000.0000   2000.0000    140.5432
   535.5000     11.7388   2000.0000   2000.0000    139.4401
   535.7500     12.2837   2000.0000   2000.0000    137.8405
   536.0000     12.8805   2000.0000   2000.0000    133.2252
   536.2500     13.5109   2000.0000   2000.0000    128.8719
   536.5000     14.1558   2000.0000   2000.0000    122.1649
   536.7500     14.8060   2000.0000   2000.0000    118.6144
   537.0000     15.4649   2000.0000   2000.0000    115.4094
   537.2500     16.1430   2000.0000   2000.0000    114.6784
   537.5000     16.8525   2000.0000   2000.0000    115.6375
   537.7500     17.6068   2000.0000   2000.0000    117.5395
   538.0000     18.4221   2000.0000   2000.0000    121.2730
   538.2500     19.3104   2000.0000   2000.0000    123.2720
   538.5000     20.2623   2000.0000   2000.0000    124.1247
   538.7500     21.2264   2000.0000   2000.0000    123.4219
   539.0000     22.1077   2000.0000   2000.0000    122.1088
   539.2500     22.7974   2000.0000   2000.0000    121.9365
   539.5000     23.2225   2000.0000   2000.0000    123.1118
   539.7500     23.3784   2000.0000   2000.0000    124.6437
   540.0000     23.3202   2000.0000   2000.0000    127.6183
   540.2500     23.1284   2000.0000   2000.0000    129.7691
   540.5000     22.8781   2000.0000   2000.0000    132.7143
   540.7500     22.6281   2000.0000   2000.0000    134.3373
   541.0000     22.4224   2000.0000   2000.0000    136.4363
   541.2500     22.2927   2000.0000   2000.0000    137.7872
   541.5000     22.2555   2000.0000   2000.0000    139.6826
   541.7500     22.3097   2000.0000   2000.0000    140.5204
   542.0000     22.4394   2000.0000   2000.0000    140.2691
   542.2500     22.6241   2000.0000   2000.0000    138.7441
   542.5000     22.8442   2000.0000   2000.0000    134.7089
   542.7500     23.0782   2000.0000   2000.0000    131.5443
   543.0000     23.3022   2000.0000   2000.0000    127.4055
   543.2500     23.5048   2000.0000   2000.0000    125.4065
   543.5000     23.7043   2000.0000   2000.0000    123.2086
   543.7500     23.9428   2000.0000   2000.0000    121.8556
   544.0000     24.2531   2000.0000   2000.0000    119.6674
   544.2500     24.6285   2000.0000   2000.0000    118.2365
   544.5000     25.0256   2000.0000   2000.0000    116.4740
   544.7500     25.3964   2000.0000   2000.0000    115.6457
   545.0000     25.7209   2000.0000   2000.0000    114.9871
   545.2500     26.0140   2000.0000   2000.0000    115.0416
   545.5000     26.3133   2000.0000   2000.0000    116.1651
   545.7500     26.6610   2000.0000   2000.0000    117.7109
   546.0000     27.0802   2000.0000   2000.0000    120.8774
   546.2500     27.5514   2000.0000   2000.0000    122.9215
   546.5000     28.0035   2000.0000   2000.0000    124.3951
   546.7500     28.3403   2000.0000   2000.0000    123.7544
   547.0000     28.4981   2000.0000   2000.0000    120.8304
   547.2500     28.4886   2000.0000   2000.0000    118.4521
   547.5000     28.3803   2000.0000   2000.0000    115.2450
   547.7500     28.2360   2000.0000   2000.0000    113.1823
   548.0000     28.0644   2000.0000   2000.0000    109.2638
   548.2500     27.8257   2000.0000   2000.0000    105.7023
   548.5000     27.4784   2000.0000   2000.0000     98.9402
   548.7500     27.0238   2000.0000   2000.0000     93.9550
   549.0000     26.5139   2000.0000   2000.0000     87.2809
   549.2500     26.0278   2000.0000   2000.0000     84.4104
   549.5000     25.6412   2000.0000   2000.0000     83.9869
   549.7500     25.4014   2000.0000   2000.0000     86.7788
   550.0000     25.3108   2000.0000   2000.0000     95.2018
   550.2500     25.3290   2000.0000   2000.0000    102.5003
   550.5000     25.3962   2000.0000   2000.0000    113.0105
   550.7500     25.4685   2000.0000   2000.0000    118.2208
   551.0000     25.5372   2000.0000   2000.0000    122.1835
   551.2500     25.6185   2000.0000   2000.0000    122.2363
   551.5000     25.7310   2000.0000   2000.0000    118.7196
   551.7500     25.8873   2000.0000   2000.0000    114.2589
   552.0000     26.1076   2000.0000   2000.0000    105.3244
   552.2500     26.4329   2000.0000   2000.0000     98.6059
   552.5000     26.9249   2000.0000   2000.0000     88.5565
   552.7500     27.6547   2000.0000   2000.0000     82.3512
   553.0000     28.6960   2000.0000   2000.0000     74.1280
   553.2500     30.1281   2000.0000   2000.0000     69.3409
   553.5000     32.0336   2000.0000   2000.0000     63.0383
   553.7500     34.4738   2000.0000   2000.0000     59.3470
   554.0000     37.4329   2000.0000   2000.0000     54.4361
   554.2500     40.7491   2000.0000   2000.0000     51.5242
   554.5000     44.0899   2000.0000   2000.0000     47.9062
   554.7500     47.0337   2000.0000   2000.0000     46.2916
   555.0000     49.2439   2000.0000   2000.0000     45.4829
   555.2500     50.6038   2000.0000   2000.0000     46.0451
   555.5000     51.2125   2000.0000   2000.0000     48.3392
   555.7500     51.2755   2000.0000   2000.0000     50.7450
   556.0000     50.9919   2000.0000   2000.0000     55.7444
   556.2500     50.5043   2000.0000   2000.0000     60.1327
   556.5000     49.9050   2000.0000   2000.0000     68.1944
   556.7500     49.2466   2000.0000   2000.0000     73.9897
   557.0000     48.5227   2000.0000   2000.0000     81.5201
   557.2500     47.6451   2000.0000   2000.0000     84.7593
   557.5000     46.4674   2000.0000   2000.0000     86.2926
   557.7500     44.8684   2000.0000   2000.0000     85.3967
   558.0000     42.8431   2000.0000   2000.0000     82.3325
   558.2500     40.5260   2000.0000   2000.0000     80.0181
   558.5000     38.1203   2000.0000   2000.0000     77.9027
   558.7500     35.7987   2000.0000   2000.0000     78.3681
   559.0000     33.6449   2000.0000   2000.0000     82.7879
   559.2500     31.6601   2000.0000   2000.0000     88.0896
   559.5000     29.8026   2000.0000   2000.0000     98.3559
   559.7500     28.0281   2000.0000   2000.0000    105.6641
   560.0000     26.3144   2000.0000   2000.0000    115.3130
   560.2500     24.6684   2000.0000   2000.0000    119.9241
   560.5000     23.1171   2000.0000   2000.0000    123.6381
   560.7500     21.6922   2000.0000   2000.0000    124.5708
   561.0000     20.4166   2000.0000   2000.0000    125.4370
   561.2500     19.3002   2000.0000   2000.0000    126.4022
