~Version Information
VERS.                      2.0: CWLS Log ASCII Standard - VERSION 2.0
WRAP.                       NO: One line per depth step
~Well Information Block
STRT.FT                 6.5000: 
STOP.FT              1054.0000: 
STEP.FT                 0.2500: 
NULL.                -999.2500: 
COMP.          Pioneer Natural Resources: COMPANY
WELL.            Galileo 21-11: WELL
FLD.           Purgatoire River: FIELD
LOC.           407' FNL & 2394' FWL: LOCATION
PROV.                 Colorado: PROVINCE
CNTY.               Las Animas: COUNTRY
SRVC.                Patterson: SERVICE COMPANY
DATE.          Sat Apr 16 10:31:00 2005: LOG DATE
UWI.           05 071 08353 00: UNIQUE WELL ID
~Curve Information Block
DEPT.FT            0 000 00 00: Depth
GR.GAPI                       : Gamma Ray
CCL.                          : Casing Collar Locator
TT3.usec                      : CBL 3' Travel Time
AMP3.mV                       : CBL 3' Amplitude
~Parameter Information Block
~A  Depth        GR         CCL         TT3         AMP3    
# ...
    73.5000     98.5159      0.0000   1345.6332      7.6630
    73.7500    100.7946      0.0000   1348.8959      7.7542
    74.0000    101.3846      0.0000   1349.7826      7.9031
    74.2500     99.8631      0.0000   1349.9667      8.0777
    74.5000     97.4815      0.0000   1350.0000      8.2590
    74.7500     95.7870      0.0000   1350.0000      8.4430
    75.0000     95.0243      0.0000   1350.0000      8.6256
    75.2500     94.0795      0.0000   1350.0000      8.7886
    75.5000     91.7544      0.0000   1349.9583      8.8970
    75.7500     88.2139      0.0000   1349.6859      8.9144
    76.0000     85.3626      0.0000   1348.3027      8.8218
    76.2500     85.4271      0.0000   1342.8320      8.6277
    76.5000     88.6472      0.0000   1326.0221      8.3628
    76.7500     92.5767      0.0000   1285.8668      8.0659
    77.0000     94.0316      0.0000   1211.6823      7.7720
    77.2500     91.6820      0.0000   1107.0573      7.5103
    77.5000     86.7420      0.0000    998.4299      7.3076
    77.7500     81.5842      0.0000    925.4334      7.1874
    78.0000     78.0668      0.0000    915.2015      7.1554
    78.2500     76.8738      0.0000    961.4743      7.1868
    78.5000     77.6491      0.0000   1027.9803      7.2279
    78.7500     79.3966      0.0000   1074.7970      7.2164
    79.0000     81.1990      0.0000   1085.6675      7.1069
    79.2500     82.9277      0.0000   1074.9424      6.9031
    79.5000     85.0616      0.0000   1073.1138      6.6858
    79.7500     87.8084      0.0000   1103.6548      6.5832
    80.0000     90.7294      0.0000   1165.9525      6.6530
    80.2500     93.1390      0.0000   1237.7349      6.8014
    80.5000     94.4927      0.0000   1294.9902      6.8832
    80.7500     94.5591      0.0000   1328.5367      6.8709
    81.0000     93.4881      0.0000   1343.2797      6.8619
    81.2500     91.4784     -2.3096   1347.8450      6.9419
    81.5000     88.3383      0.0000   1347.5044      7.1131
    81.7500     83.8277      0.0000   1343.2134      7.3513
    82.0000     78.5333      0.0000   1333.8199      7.6940
    82.2500     73.8586      0.0000   1319.7716      8.2552
    82.5000     70.8057      0.0000   1306.0179      9.1237
    82.7500     68.9710      0.0000   1300.1617     10.2118
    83.0000     66.8617      0.0000   1306.0179     11.2412
    83.2500     63.1271      0.0000   1319.7716     11.9528
    83.5000     57.7384      0.0000   1333.8199     12.3159
    83.7500     52.2995      0.0000   1343.2551     12.4814
    84.0000     49.0975      0.0000   1347.8103     12.5780
    84.2500     49.6155      0.0000   1349.4463     12.6198
    84.5000     53.8122      0.0000   1349.8910     12.5701
    84.7500     60.5380      0.0000   1349.9833     12.4257
    85.0000     68.3618      0.0000   1350.0000     12.2307
    85.2500     76.1609      0.0000   1350.0000     12.0357
    85.5000     83.3651      0.0000   1350.0000     11.8563
    85.7500     89.7135      0.0000   1350.0000     11.6693
    86.0000     94.6265      0.0000   1350.0000     11.4430
    86.2500     97.0473      0.0000   1350.0000     11.1657
    86.5000     96.3187      0.0000   1350.0000     10.8492
    86.7500     93.1965      0.0000   1350.0000     10.5184
    87.0000     89.6254      0.0000   1350.0000     10.2000
    87.2500     87.4709      0.0000   1350.0000      9.9159
    87.5000     87.6580      0.0000   1350.0000      9.6878
    87.7500     90.1715      0.0000   1350.0000      9.5466
    88.0000     94.0530      0.0000   1350.0000      9.5307
    88.2500     97.4154      0.0000   1350.0000      9.6629
    88.5000     98.4186      0.0000   1350.0000      9.9233
    88.7500     96.6542      0.0000   1350.0000     10.2460
    89.0000     93.1544      0.0000   1350.0000     10.5484
    89.2500     89.1158      0.0000   1350.0000     10.7759
    89.5000     85.2028      0.0000   1350.0000     10.9293
    89.7500     81.8249      0.0000   1350.0000     11.0509
    90.0000     79.1405      0.0000   1350.0000     11.1782
    90.2500     76.8002      0.0000   1349.9739     11.3146
    90.5000     74.4495      0.0000   1349.8296     11.4402
    90.7500     72.3420      0.0000   1349.1084     11.5330
    91.0000     70.8467      0.0000   1346.4065     11.5720
    91.2500     69.7210      0.0000   1338.5911     11.5335
    91.5000     68.5021      0.0000   1321.2567     11.3977
    91.7500     67.2788      0.0000   1292.0128     11.1656
    92.0000     66.4307      0.0000   1254.9430     10.8659
    92.2500     65.7141      0.0000   1220.7001     10.5425
    92.5000     64.1588      0.0000   1199.1742     10.2316
    92.7500     61.1422      0.0000   1190.9448      9.9477
    93.0000     57.4058      0.0000   1186.9960      9.6898
    93.2500     54.7587      0.0000   1178.1652      9.4555
    93.5000     54.7220      0.0000   1163.6555      9.2481
    93.7500     57.4447      0.0000   1148.0315      9.0700
    94.0000     61.6276      0.0000   1132.0978      8.9192
    94.2500     65.2245      0.0000   1112.4773      8.7961
    94.5000     66.5870      0.0000   1090.1604      8.7139
    94.7500     65.5552      0.0000   1073.0217      8.6964
    95.0000     63.5192      0.0000   1066.9899      8.7584
    95.2500     62.1003      0.0000   1068.6731      8.8885
    95.5000     61.6943      0.0000   1069.9061      9.0566
    95.7500     61.4454      0.0000   1066.7074      9.2367
    96.0000     60.5597      0.0000   1061.1510      9.4187
    96.2500     59.2477      0.0000   1056.9617      9.5995
    96.5000     58.1633      0.0000   1056.4429      9.7733
    96.7500     57.2961      0.0000   1061.4783      9.9362
    97.0000     55.9415      0.0000   1074.9391     10.0893
    97.2500     53.7954      0.0000   1099.5447     10.2349
    97.5000     51.6419      0.0000   1135.1572     10.3771
    97.7500     50.8372      0.0000   1178.1826     10.5312
    98.0000     52.4821      0.0000   1223.6000     10.7333
    98.2500     57.1100      0.0000   1266.1533     11.0386
    98.5000     64.4824      0.0000   1299.9210     11.4954
    98.7500     73.2938      0.0000   1319.2979     12.1063
    99.0000     81.4817      0.0000   1321.9417     12.8123
    99.2500     87.1970      0.0000   1311.3408     13.5197
    99.5000     89.6130      0.0000   1297.0834     14.1419
    99.7500     89.1207      0.0000   1290.6774     14.6225
   100.0000     86.8961      0.0000   1297.7426     14.9504
   100.2500     84.1024      0.0000   1314.0977     15.1742
   100.5000     81.3139      0.0000   1330.7828     15.3938
   100.7500     78.6391      0.0000   1341.9891     15.7121
   101.0000     76.2395      0.0000   1347.3795     16.1752
   101.2500     74.5349      0.0000   1349.1941     16.7365
   101.5000     73.9339      0.0000   1349.0555     17.2651
   101.7500     74.6358      0.0000   1346.5063     17.6008
   102.0000     76.6811      0.0000   1338.2035     17.6290
   102.2500     79.8818      0.0000   1317.7676     17.3209
   102.5000     83.5648      0.0000   1278.3372     16.7146
   102.7500     86.4620      0.0000   1218.5748     15.8756
   103.0000     87.0845      0.0000   1147.7172     14.8862
   103.2500     84.5979      0.0000   1082.6610     13.8534
   103.5000     79.5214      0.0000   1036.8451     12.8964
   103.7500     73.3477      0.0000   1010.7957     12.1114
   104.0000     67.3842      0.0000    994.7340     11.5431
   104.2500     62.2424      0.0000    981.3392     11.1853
   104.5000     58.4855      0.0000    974.6926     11.0037
   104.7500     57.3452      0.0000    985.8689     10.9591
   105.0000     60.3292      0.0000   1021.8572     11.0119
   105.2500     68.0182      0.0000   1079.9280     11.1100
   105.5000     79.2596      0.0000   1148.9083     11.1861
   105.7500     91.3514      0.0000   1211.9423     11.1853
   106.0000    101.0681      0.0000   1250.8929     11.0999
   106.2500    106.2145      0.0000   1254.6354     10.9713
   106.5000    106.8269      0.0000   1226.8754     10.8600
   106.7500    104.7558      0.0000   1185.2271     10.8149
