~Version Information
VERS.                      2.0: CWLS Log ASCII Standard - VERSION 2.0
WRAP.                       NO: One line per depth step
~Well Information Block
STRT.FT               250.0000: 
STOP.FT              2600.7500: 
STEP.FT                 0.2500: 
NULL.                -999.2500: 
COMP.          Pioneer Natural Resources: COMPANY
WELL.              Quack 22-24: WELL
FLD.           Purgatoire River: FIELD
LOC.           2492' FNL & 2459' FWL--: LOCATION
PROV.                 Colorado: PROVINCE
CNTY.               Las Animas: COUNTRY
SRVC.                Patterson: SERVICE COMPANY
DATE.          Sun Jun 12 09:02:01 2005: LOG DATE
UWI.            05 071 0840200: UNIQUE WELL ID
~Curve Information Block
DEPT.FT            0 000 00 00: Depth
SN.Ohm-m                      : IEL Short Normal
SP.mV                         : IEL Spontaneous Potential
DIR.Ohm-m                     : IEL Induction Resistivity
GR.GAPI                       : Gamma Ray
~Parameter Information Block
~A  Depth        SN          SP         DIR          GR     
# ...
   417.5000   2000.0000   1983.0000     34.1734     71.7943
   417.7500   2000.0000   1983.0000     34.0492     71.2926
   418.0000   2000.0000   1983.0000     33.8967     70.5586
   418.2500   2000.0000   1983.0000     33.7410     70.0655
   418.5000   2000.0000   1983.0000     33.6170     69.4149
   418.7500   2000.0000   1983.0000     33.5327     69.3809
   419.0000   2000.0000   1983.0000     33.4486     70.6790
   419.2500   2000.0000   1983.0000     33.2852     72.5591
   419.5000   2000.0000   1983.0000     32.9475     76.1070
   419.7500   2000.0000   1983.0000     32.3508     78.1510
   420.0000   2000.0000   1983.0000     31.4413     79.8677
   420.2500   2000.0000   1983.0000     30.2204     80.3142
   420.5000   2000.0000   1983.0000     28.7599     81.1889
   420.7500   2000.0000   1983.0000     27.1849     82.7625
   421.0000   2000.0000   1983.0000     25.6247     87.8326
   421.2500   2000.0000   1983.0000     24.1667     93.3033
   421.5000   2000.0000   1983.0000     22.8458    103.6009
   421.7500   2000.0000   1983.0000     21.6641    110.3909
   422.0000   2000.0000   1983.0000     20.6176    117.9018
   422.2500   2000.0000   1983.0000     19.7099    120.3837
   422.5000   2000.0000   1983.0000     18.9511    120.6294
   422.7500   2000.0000   1983.0000     18.3487    119.3323
   423.0000   2000.0000   1983.0000     17.9013    117.1027
   423.2500   2000.0000   1983.0000     17.5973    116.2722
   423.5000   2000.0000   1983.0000     17.4167    116.3604
   423.7500   2000.0000   1983.0000     17.3343    117.0465
   424.0000   2000.0000   1983.0000     17.3209    118.5046
   424.2500   2000.0000   1983.0000     17.3454    119.5411
   424.5000   2000.0000   1983.0000     17.3780    120.7901
   424.7500   2000.0000   1983.0000     17.3968    121.2876
   425.0000   2000.0000   1983.0000     17.3924    122.0112
   425.2500   2000.0000   1983.0000     17.3666    123.0837
   425.5000   2000.0000   1983.0000     17.3255    126.1555
   425.7500   2000.0000   1983.0000     17.2729    128.8967
   426.0000   2000.0000   1983.0000     17.2095    132.9779
   426.2500   2000.0000   1983.0000     17.1374    135.1500
   426.5000   2000.0000   1983.0000     17.0648    137.0940
   426.7500   2000.0000   1983.0000     17.0062    137.5009
   427.0000   2000.0000   1983.0000     16.9776    137.2750
   427.2500   2000.0000   1983.0000     16.9908    136.8492
   427.5000   2000.0000   1983.0000     17.0503    135.3770
   427.7500   2000.0000   1983.0000     17.1537    133.2239
   428.0000   2000.0000   1983.0000     17.2946    128.1192
   428.2500   2000.0000   1983.0000     17.4633    124.4520
   428.5000   2000.0000   1983.0000     17.6458    121.0423
   428.7500   2000.0000   1983.0000     17.8213    121.0641
   429.0000   2000.0000   1983.0000     17.9626    124.1254
   429.2500   2000.0000   1983.0000     18.0402    127.0546
   429.5000   2000.0000   1983.0000     18.0314    130.6249
   429.7500   2000.0000   1983.0000     17.9303    131.6378
   430.0000   2000.0000   1983.0000     17.7538    130.8243
   430.2500   2000.0000   1983.0000     17.5417    129.2110
   430.5000   2000.0000   1983.0000     17.3498    126.6987
   430.7500   2000.0000   1983.0000     17.2389    125.6816
   431.0000   2000.0000   1983.0000     17.2621    125.1730
   431.2500   2000.0000   1983.0000     17.4512    124.8596
   431.5000   2000.0000   1983.0000     17.8069    122.9790
   431.7500   2000.0000   1983.0000     18.2965    120.1822
   432.0000   2000.0000   1983.0000     18.8631    113.5156
   432.2500   2000.0000   1983.0000     19.4457    107.9436
   432.5000   2000.0000   1983.0000     20.0000     99.7276
   432.7500   2000.0000   1983.0000     20.5063     95.6550
   433.0000   2000.0000   1983.0000     20.9613     93.3571
   433.2500   2000.0000   1983.0000     21.3648     94.6537
   433.5000   2000.0000   1983.0000     21.7088    100.1857
   433.7500   2000.0000   1983.0000     21.9729    105.5862
   434.0000   2000.0000   1983.0000     22.1257    115.0745
   434.2500   2000.0000   1983.0000     22.1322    121.5768
   434.5000   2000.0000   1983.0000     21.9689    129.9982
   434.7500   2000.0000   1983.0000     21.6391    133.7731
   435.0000   2000.0000   1983.0000     21.1806    135.8156
   435.2500   2000.0000   1983.0000     20.6571    135.0629
   435.5000   2000.0000   1983.0000     20.1385    132.3273
   435.7500   2000.0000   1983.0000     19.6824    130.2741
   436.0000   2000.0000   1983.0000     19.3252    127.1324
   436.2500   2000.0000   1983.0000     19.0828    124.6182
   436.5000   2000.0000   1983.0000     18.9544    119.8207
   436.7500   2000.0000   1983.0000     18.9221    116.2828
   437.0000   2000.0000   1983.0000     18.9508    111.6520
   437.2500   2000.0000   1983.0000     18.9922    109.5366
   437.5000   2000.0000   1983.0000     18.9996    107.9739
   437.7500   2000.0000   1983.0000     18.9440    107.7397
   438.0000   2000.0000   1983.0000     18.8211    107.9212
   438.2500   2000.0000   1983.0000     18.6431    108.2346
   438.5000   2000.0000   1983.0000     18.4234    109.6433
   438.7500   2000.0000   1983.0000     18.1684    111.8128
   439.0000   2000.0000   1983.0000     17.8803    117.0244
   439.2500   2000.0000   1983.0000     17.5648    121.0613
   439.5000   2000.0000   1983.0000     17.2341    126.0135
   439.7500   2000.0000   1983.0000     16.9007    127.7098
   440.0000   2000.0000   1983.0000     16.5704    127.6923
   440.2500   2000.0000   1983.0000     16.2405    126.6147
   440.5000   2000.0000   1983.0000     15.9067    124.8576
   440.7500   2000.0000   1983.0000     15.5717    124.3198
   441.0000   2000.0000   1983.0000     15.2476    125.4428
   441.2500   2000.0000   1983.0000     14.9513    127.6313
   441.5000   2000.0000   1983.0000     14.6979    132.0396
   441.7500   2000.0000   1983.0000     14.4961    134.7251
   442.0000   2000.0000   1983.0000     14.3475    137.4117
   442.2500   2000.0000   1983.0000     14.2468    138.3913
   442.5000   2000.0000   1983.0000     14.1841    138.9203
   442.7500   2000.0000   1983.0000     14.1464    138.5551
   443.0000   2000.0000   1983.0000     14.1229    136.9106
   443.2500   2000.0000   1983.0000     14.1088    135.4813
   443.5000   2000.0000   1983.0000     14.1065    133.7846
   443.7500   2000.0000   1983.0000     14.1231    133.1835
   444.0000   2000.0000   1983.0000     14.1652    132.7225
   444.2500   2000.0000   1983.0000     14.2351    132.3407
   444.5000   2000.0000   1983.0000     14.3291    131.3313
   444.7500   2000.0000   1983.0000     14.4379    130.4719
   445.0000   2000.0000   1983.0000     14.5477    129.3164
   445.2500   2000.0000   1983.0000     14.6426    128.7739
   445.5000   2000.0000   1983.0000     14.7089    128.2764
   445.7500   2000.0000   1983.0000     14.7393    128.1327
   446.0000   2000.0000   1983.0000     14.7357    128.2035
   446.2500   2000.0000   1983.0000     14.7079    128.3953
   446.5000   2000.0000   1983.0000     14.6696    128.8612
   446.7500   2000.0000   1983.0000     14.6345    129.4241
   447.0000   2000.0000   1983.0000     14.6133    130.8711
   447.2500   2000.0000   1983.0000     14.6135    131.9886
   447.5000   2000.0000   1983.0000     14.6399    132.7711
   447.7500   2000.0000   1983.0000     14.6936    132.1714
   448.0000   2000.0000   1983.0000     14.7713    129.7760
   448.2500   2000.0000   1983.0000     14.8642    127.6980
   448.5000   2000.0000   1983.0000     14.9610    124.4862
   448.7500   2000.0000   1983.0000     15.0527    122.4612
   449.0000   2000.0000   1983.0000     15.1359    120.0845
   449.2500   2000.0000   1983.0000     15.2153    119.2522
   449.5000   2000.0000   1983.0000     15.3031    119.1351
   449.7500   2000.0000   1983.0000     15.4170    119.5245
   450.0000   2000.0000   1983.0000     15.5774    120.3587
   450.2500   2000.0000   1983.0000     15.8030    120.8979
   450.5000   2000.0000   1983.0000     16.1089    121.2819
   450.7500   2000.0000   1983.0000     16.5046    121.0064
