~Version Information
VERS.                      2.0: CWLS Log ASCII Standard - VERSION 2.0
WRAP.                       NO: One line per depth step
~Well Information Block
STRT.FT               -12.5000: 
STOP.FT              2200.2500: 
STEP.FT                 0.2500: 
NULL.                -999.2500: 
COMP.          Pioneer Natural Resources: COMPANY
WELL.           Ogallela 44-12: WELL
FLD.           Purgatorie River: FIELD
LOC.           610' FSL & 671' FEL------: LOCATION
PROV.                       CO: PROVINCE
CNTY.               Las Animas: COUNTRY
SRVC.          Patterson Wireline: SERVICE COMPANY
DATE.          Tue Mar 22 17:18:22 2005: LOG DATE
UWI.           05 071 08283 00: UNIQUE WELL ID
~Curve Information Block
DEPT.FT            0 000 00 00: Depth
CCL.                          : Casing Collar Locator
TT3.usec                      : CBL 3' Travel Time
AMP3.mV                       : CBL 3' Amplitude
GR.GAPI                       : Gamma Ray
~Parameter Information Block
~A  Depth       CCL         TT3         AMP3         GR     
# ...
  1729.5000      0.0000    807.8481      3.7538    132.1967
  1729.7500      0.0000    810.7020      3.7224    132.4693
  1730.0000      0.0000    809.2573      3.6857    131.6275
  1730.2500      0.0000    804.1097      3.6581    129.2333
  1730.5000      0.0000    795.6070      3.6455    125.7571
  1730.7500      0.0000    784.8023      3.6453    122.4133
  1731.0000      0.0000    774.7662      3.6492    119.9614
  1731.2500      0.0000    769.8539      3.6486    117.7078
  1731.5000      0.0000    772.5035      3.6402    114.4614
  1731.7500      0.0000    780.5310      3.6304    110.3910
  1732.0000      0.0000    788.6722      3.6292    107.2152
  1732.2500      0.0000    793.1816      3.6406    106.6104
  1732.5000      0.0000    794.2238      3.6571    108.7906
  1732.7500      0.0000    794.1150      3.6614    112.3862
  1733.0000      0.0000    794.6354      3.6371    115.5967
  1733.2500      0.0000    796.2217      3.5849    117.7377
  1733.5000      0.0000    798.3956      3.5218    119.5861
  1733.7500      0.0000    799.8912      3.4628    122.1274
  1734.0000      0.0000    798.6888      3.4104    125.3823
  1734.2500      0.0000    793.1709      3.3615    128.5587
  1734.5000      0.0000    784.0121      3.3141    130.7307
  1734.7500      0.0000    774.5773      3.2657    131.2033
  1735.0000      0.0000    768.8924      3.2154    129.8933
  1735.2500      0.0000    769.0154      3.1637    127.8666
  1735.5000      0.0000    773.8071      3.1083    127.0847
  1735.7500      0.0000    779.6760      3.0467    128.8932
  1736.0000      0.0000    783.1118      2.9811    132.7216
  1736.2500      0.0000    783.3877      2.9184    136.5556
  1736.5000      0.0000    782.3012      2.8619    138.4654
  1736.7500      0.0000    780.6885      2.8100    137.4093
  1737.0000      0.0000    776.4194      2.7623    133.1638
  1737.2500      0.0000    767.3704      2.7228    126.3436
  1737.5000      0.0000    755.5401      2.6931    118.5918
  1737.7500      0.0000    746.1465      2.6679    112.1518
  1738.0000      0.0000    742.1227      2.6406    108.7358
  1738.2500      0.0000    740.5885      2.6123    108.6375
  1738.5000      0.0000    735.4898      2.5872    110.7613
  1738.7500      0.0000    723.5479      2.5654    113.4915
  1739.0000      0.0000    707.4707      2.5451    115.8910
  1739.2500      0.0000    693.6846      2.5277    118.4642
  1739.5000      0.0000    687.3223      2.5193    122.6577
  1739.7500      0.0000    689.0746      2.5262    129.2000
  1740.0000      0.0000    695.7729      2.5499    136.8807
  1740.2500      0.0000    703.2178      2.5822    143.1903
  1740.5000      0.0000    708.6333      2.6092    146.2471
  1740.7500      0.0000    711.3300      2.6244    146.1940
  1741.0000      0.0000    712.1060      2.6381    145.0352
  1741.2500      0.0000    712.7113      2.6679    145.1153
  1741.5000      0.0000    715.5216      2.7234    147.3275
  1741.7500      0.0000    722.7690      2.7991    150.5374
  1742.0000      0.0000    735.4897      2.8787    152.8664
  1742.2500      0.0000    752.9635      2.9447    153.6267
  1742.5000      0.0000    772.7610      2.9862    153.7697
  1742.7500      0.0000    791.1741      3.0045    154.4155
  1743.0000      0.0000    804.3475      3.0137    155.2708
  1743.2500      0.0000    810.0573      3.0322    154.8269
  1743.5000      0.0000    809.2197      3.0687    152.1165
  1743.7500      0.0000    805.8679      3.1163    147.9839
  1744.0000      0.0000    804.7858      3.1644    144.3414
  1744.2500      0.0000    807.6960      3.2108    142.2677
  1744.5000      0.0000    811.3129      3.2591    141.2885
  1744.7500      0.0000    809.9477      3.3110    140.5584
  1745.0000      0.0000    800.4377      3.3640    140.0841
  1745.2500      0.0000    784.7490      3.4139    140.4720
  1745.5000      0.0000    768.4752      3.4575    141.9108
  1745.7500      0.0000    756.8685      3.4965    143.7439
  1746.0000      0.0000    751.3242      3.5404    144.8241
  1746.2500      0.0000    749.5797      3.6037    144.1067
  1746.5000      0.0000    749.6727      3.6945    141.1391
  1746.7500      0.0000    752.2444      3.8077    136.5252
  1747.0000      0.0000    757.6334      3.9289    132.0897
  1747.2500      0.0000    762.5401      4.0428    130.1273
  1747.5000      0.0000    762.5427      4.1328    131.9612
  1747.7500      0.0000    757.7064      4.1797    137.0747
  1748.0000      0.0000    753.5171      4.1683    143.4895
  1748.2500      0.0000    755.9738      4.1038    148.8835
  1748.5000      0.0000    766.8657      4.0184    151.8770
  1748.7500      0.0000    783.2111      3.9525    152.9414
  1749.0000      0.0000    799.5521      3.9276    153.9908
  1749.2500      0.0000    811.0496      3.9420    156.3919
  1749.5000      0.0000    815.9337      3.9902    159.1589
  1749.7500      0.0000    815.5034      4.0702    159.5311
  1750.0000      0.0000    811.5072      4.1660    155.3842
  1750.2500      0.0000    803.3350      4.2457    146.8949
  1750.5000      0.0000    786.8301      4.2895    136.1489
  1750.7500      0.0000    755.2426      4.3066    125.5026
  1751.0000      0.0000    703.4730      4.3164    116.1669
  1751.2500      0.0000    635.1897      4.3277    107.9859
  1751.5000      0.0000    567.2625      4.3353    100.2492
  1751.7500      0.0000    524.0044      4.3189     92.5119
  1752.0000      0.0000    522.3467      4.2425     84.8031
  1752.2500      0.0000    559.6697      4.0788     77.4845
  1752.5000      0.0000    615.5153      3.8465     71.1481
  1752.7500      0.0000    666.5215      3.6197     66.4753
  1753.0000      0.0000    701.4500      3.4814     64.0202
  1753.2500      0.0000    723.5425      3.4667     64.1632
  1753.5000      0.0000    741.2777      3.5505     67.1554
  1753.7500      0.0000    758.7529      3.6759     72.7883
  1754.0000      0.0000    773.5179      3.7881     79.9899
  1754.2500      0.0000    780.9340      3.8536     87.2506
  1754.5000      0.0000    778.9359      3.8594     93.5673
  1754.7500      0.0000    768.5247      3.8035     98.6067
  1755.0000      0.0000    751.0601      3.7026    102.0990
  1755.2500      0.0000    727.6491      3.6007    103.7381
  1755.5000      0.0000    702.5340      3.5445    103.8220
  1755.7500      0.0000    684.9137      3.5472    103.4504
  1756.0000      0.0000    683.3750      3.5873    103.5656
  1756.2500      0.0000    697.1824      3.6362    103.9257
  1756.5000      0.0000    716.3140      3.6719    103.4749
  1756.7500      0.0000    732.1858      3.6760    101.7093
  1757.0000      0.0000    745.4106      3.6298     99.1783
  1757.2500      0.0000    761.1037      3.5246     96.5998
  1757.5000      0.0000    779.8625      3.3828     94.1239
  1757.7500      0.0000    796.1851      3.2579     91.7546
  1758.0000      0.0000    804.0148      3.1938     89.9712
  1758.2500      0.0000    801.3282      3.1863     89.4100
  1758.5000      0.0000    790.0559      3.1976     90.2104
  1758.7500      0.0000    774.2050      3.2015     92.1460
  1759.0000      0.0000    758.9446      3.2023     95.2157
  1759.2500      0.0000    749.8126      3.2196     99.5276
  1759.5000      0.0000    750.4289      3.2708    104.5460
  1759.7500      0.0000    759.9343      3.3697    109.0717
  1760.0000      0.0000    773.1364      3.5335    112.4649
  1760.2500      0.0000    783.9772      3.7870    115.6611
  1760.5000      0.0000    788.9923      4.1530    120.3513
  1760.7500      0.0000    787.7342      4.6422    127.0714
  1761.0000      0.0000    782.0199      5.2565    134.3894
  1761.2500      0.0000    776.3895      5.9796    140.0708
  1761.5000      0.0000    776.7985      6.7357    142.8386
  1761.7500      0.0000    785.1387      7.3862    142.9005
  1762.0000      0.0000    795.2703      7.8190    141.2084
  1762.2500      0.0000    797.5731      8.0333    138.8701
  1762.5000      0.0000    788.4122      8.0967    137.1050
  1762.7500      0.0000    773.3492      8.0479    136.7342
