~Version Information
VERS.                      2.0: CWLS Log ASCII Standard - VERSION 2.0
WRAP.                       NO: One line per depth step
~Well Information Block
STRT.FT                -7.0000: 
STOP.FT               867.2500: 
STEP.FT                 0.2500: 
NULL.                -999.2500: 
COMP.          Pioneer Natural Resources: COMPANY
WELL.          Claim Jumper 41-22: WELL
FLD.           Purgatorie River: FIELD
LOC.           1120' FNL & 977' FEL--: LOCATION
PROV.                       CO: PROVINCE
CNTY.               Las Animas: COUNTRY
SRVC.          Patterson Wireline: SERVICE COMPANY
DATE.          Mon Jun 27 12:47:30 2005: LOG DATE
UWI.           05 071 08405 00: UNIQUE WELL ID
~Curve Information Block
DEPT.FT            0 000 00 00: Depth
CCL.                          : Casing Collar Locator
TT3.usec                      : CBL 3' Travel Time
AMP3.mV                       : CBL 3' Amplitude
GR.GAPI                       : Gamma Ray
~Parameter Information Block
~A  Depth       CCL         TT3         AMP3         GR     
# ...
    60.0000      0.0000   1101.9180      5.9732     96.7908
    60.2500      0.0000   1118.6030      5.8635     94.0098
    60.5000      0.0000   1119.1704      5.7740     90.3610
    60.7500      0.0000   1096.6711      5.7111     86.4319
    61.0000      0.0000   1054.6625      5.6727     82.3029
    61.2500      0.0000   1007.8259      5.6480     77.9723
    61.5000      0.0000    972.1268      5.6196     73.7775
    61.7500      0.0000    952.1738      5.5735     70.3130
    62.0000      0.0000    939.4520      5.5119     67.8417
    62.2500      0.0000    923.8562      5.4537     65.9243
    62.5000      0.0000    904.1511      5.4173     63.8994
    62.7500      0.0000    886.0412      5.4040     61.7945
    63.0000      0.0000    874.0576      5.3987     60.5128
    63.2500      0.0000    868.1237      5.3882     60.9488
    63.5000      0.0000    865.7859      5.3733     63.0594
    63.7500      0.0000    864.9255      5.3611     65.8992
    64.0000      0.0000    864.5227      5.3502     68.3625
    64.2500      0.0000    864.2580      5.3287     69.6488
    64.5000      0.0000    864.0771      5.2864     69.2908
    64.7500      0.0000    863.9572      5.2249     67.3804
    65.0000      0.0000    863.8489      5.1572     64.9117
    65.2500      0.0000    863.5910      5.0989     63.2983
    65.5000      0.0000    862.8394      5.0593     63.2661
    65.7500      0.0000    861.1984      5.0386     64.5995
    66.0000      0.0000    858.7030      5.0338     67.0382
    66.2500      0.0000    856.2722      5.0464     70.7625
    66.5000      0.0000    855.3304      5.0826     75.7436
    66.7500      0.0000    856.5894      5.1426     81.1991
    67.0000      0.0000    859.3134      5.2107     86.0776
    67.2500      0.0000    862.0166      5.2618     89.6344
    67.5000      0.0000    863.6757      5.2793     91.2902
    67.7500      0.0000    864.0967      5.2644     90.4267
    68.0000      0.0000    863.4313      5.2298     86.6802
    68.2500      0.0000    861.8000      5.1895     80.3572
    68.5000      0.0000    859.7739      5.1557     72.4735
    68.7500      0.0000    859.2914      5.1371     64.3603
    69.0000      0.0000    863.8074      5.1361     57.2007
    69.2500      0.0000    876.4071      5.1459     51.8935
    69.5000      0.0000    896.1234      5.1542     49.2781
    69.7500      0.0000    915.6281      5.1524     50.1566
    70.0000      0.0000    924.7415      5.1417     54.5702
    70.2500      0.0000    918.7863      5.1298     60.9304
    70.5000      0.0000    903.0104      5.1248     66.4817
    70.7500      0.0000    887.4422      5.1315     69.2661
    71.0000      0.0000    878.4659      5.1501     69.7198
    71.2500      0.0000    876.2709      5.1772     70.0527
    71.5000      0.0000    878.8293      5.2094     71.9624
    71.7500      0.0000    886.8593      5.2441     75.1455
    72.0000      0.0000    904.6567      5.2742     78.0986
    72.2500      0.0000    935.1603      5.2881     79.9859
    72.5000      0.0000    973.1941      5.2778     81.3181
    72.7500      0.0000   1005.4337      5.2472     82.9486
    73.0000      0.0000   1020.1792      5.2096     84.8993
    73.2500      0.0000   1016.6536      5.1790     86.3980
    73.5000      0.0000   1002.5192      5.1626     86.9398
    73.7500      0.0000    985.1921      5.1592     87.0600
    74.0000      0.0000    969.6103      5.1636     87.7370
    74.2500      0.0000    960.4827      5.1733     89.0542
    74.5000      0.0000    960.0764      5.1903     90.0417
    74.7500      0.0000    965.7161      5.2188     90.0718
    75.0000      0.0000    974.7375      5.2614     89.7112
    75.2500      0.0000    989.4688      5.3161     89.6968
    75.5000      0.0000   1012.6030      5.3774     89.7477
    75.7500      0.0000   1040.4329      5.4398     89.1134
    76.0000      0.0000   1065.6782      5.4988     87.8312
    76.2500      0.0000   1084.6353      5.5479     86.7295
    76.5000      0.0000   1097.3367      5.5790     86.4726
    76.7500      0.0000   1104.0374      5.5882     87.0271
    77.0000      0.0000   1106.5988      5.5788     87.7989
    77.2500      0.0000   1110.3877      5.5587     88.0253
    77.5000      0.0000   1119.0858      5.5360     87.3097
    77.7500      0.0000   1128.2249      5.5160     85.9291
    78.0000      0.0000   1127.2083      5.5018     84.5507
    78.2500      0.0000   1108.5520      5.4982     83.9014
    78.5000      0.0000   1075.9581      5.5143     84.6947
    78.7500      0.0000   1044.8358      5.5602     87.2594
    79.0000      0.0000   1033.2346      5.6363     90.9432
    79.2500      0.0000   1048.6935      5.7289     94.2462
    79.5000      0.0000   1082.9099      5.8167     95.7212
    79.7500      0.0000   1119.5215      5.8846     94.6934
    80.0000      0.0000   1146.4606      5.9279     91.3728
    80.2500      0.0000   1161.1583      5.9464     86.4136
    80.5000      0.0000   1167.0679      5.9412     80.1717
    80.7500      0.0000   1168.0107      5.9197     72.4949
    81.0000      0.0000   1165.1801      5.9018     63.4307
    81.2500      0.0000   1156.9167      5.9113     53.8884
    81.5000      0.0000   1140.2610      5.9584     45.4174
    81.7500      0.0000   1113.7551      6.0255     39.3819
    82.0000      0.0000   1080.3486      6.0772     36.2112
    82.2500      0.0000   1048.0021      6.0876     35.2982
    82.5000      0.0000   1026.3682      6.0597     35.6057
    82.7500      0.0000   1020.9301      6.0196     36.3693
    83.0000      0.0000   1029.2238      5.9939     37.3293
    83.2500      0.0000   1042.7026      5.9919     38.6589
    83.5000      0.0000   1051.8182      6.0070     40.9113
    83.7500      0.0000   1049.1743      6.0292     44.8125
    84.0000      0.0000   1030.8219      6.0534     50.7891
    84.2500      0.0000    998.6830      6.0660     58.5760
    84.5000      0.0000    962.8558      6.0201     67.2030
    84.7500      0.0000    939.4658      5.8480     75.2486
    85.0000      0.0000    943.1108      5.5277     81.1533
    85.2500      0.0000    977.8082      5.1362     83.5761
    85.5000      0.0000   1032.9520      4.8103     81.9882
    85.7500      0.0000   1089.2891      4.6446     77.3326
    86.0000      0.0000   1131.3560      4.6331     71.8557
    86.2500      0.0000   1155.1393      4.7017     67.8667
    86.5000      0.0000   1165.4513      4.7843     66.6526
    86.7500      0.0000   1168.8828      4.8727     68.4962
    87.0000      0.0000   1169.6610      5.0141     73.0436
    87.2500      0.0000   1169.2627      5.2747     79.2051
    87.5000      0.0000   1167.0162      5.6856     85.1277
    87.7500      0.0000   1160.0344      6.1879     88.9378
    88.0000      0.0000   1143.3854      6.6336     89.7733
    88.2500      0.0000   1112.5381      6.8825     88.0416
    88.5000      0.0000   1068.1204      6.9149     84.6344
    88.7500      0.0000   1018.2265      6.8306     80.1907
    89.0000      0.0000    973.8080      6.7481     75.3930
    89.2500      0.0000    940.6816      6.7247     71.5056
    89.5000      0.0000    916.6155      6.7545     69.8729
    89.7500      0.0000    895.6747      6.8045     70.7797
    90.0000      0.0000    874.1584      6.8451     73.1002
    90.2500      0.0000    852.8027      6.8650     75.2296
    90.5000      0.0000    834.7680      6.8685     76.5314
    90.7500      0.0000    822.3378      6.8645     77.9764
    91.0000      0.0000    815.6931      6.8606     81.1802
    91.2500      0.0000    814.5904      6.8675     86.6512
    91.5000      0.0000    820.4142      6.9003     93.0327
    91.7500      0.0000    835.1975      6.9676     97.9694
    92.0000      0.0000    857.4899      7.0593     99.6767
    92.2500      0.0000    879.3796      7.1511     98.0386
    92.5000      0.0000    889.1942      7.2213     94.5731
    92.7500      0.0000    878.8740      7.2632     91.2408
    93.0000      0.0000    849.9707      7.2856     88.9286
    93.2500      0.0000    813.1322      7.3015     86.8791
