~Version Information
VERS.                      2.0: CWLS Log ASCII Standard - VERSION 2.0
WRAP.                       NO: One line per depth step
~Well Information Block
STRT.FT               577.8000: 
STOP.FT              2445.8000: 
STEP.FT                 0.1000: 
NULL.                -999.2500: 
COMP.          Petrogulf Corporation: COMPANY
WELL.             State 16-32V: WELL
FLD.           Purgatorie River: FIELD
LOC.           1599' FNL & 1783' FEL: LOCATION
CNTY.               Las Animas: COUNTY
SRVC.                         : SERVICE COMPANY
DATE.          Thu Jun 05 16:36:04 2003: LOG DATE
UWI.           05 071 07726 00: UNIQUE WELL ID
STAT.                 Colorado: STATE
~Curve Information Block
DEPT.FT            0 000 00 00: Depth
DCAL.in                       : Caliper from Density Tool
RHOB.g/cc                     : Bulk Density
RHOC.g/cc                     : Density Correction
DPOR.pu                       : Density Porosity
GR.GAPI                       : Gamma Ray
NPOR.pu                       : Neutron Porosity
~Parameter Information Block
~A  Depth       DCAL        RHOB        RHOC        DPOR         GR         NPOR    
# ...
  2305.8000      7.9178      2.5354      0.0320      6.9438     68.8134     16.1781
  2305.9000      7.9178      2.5354      0.0320      6.9438     69.0081     16.2413
  2306.0000      7.8635      2.5299      0.0310      7.2786     68.9895     16.3243
  2306.1000      7.8635      2.5299      0.0310      7.2786     68.7403     16.4197
  2306.2000      7.8635      2.5299      0.0310      7.2786     68.2720     16.5206
  2306.3000      7.8461      2.5232      0.0309      7.6856     67.6237     16.6212
  2306.4000      7.8461      2.5232      0.0309      7.6856     66.8554     16.7177
  2306.5000      7.8892      2.5200      0.0318      7.8786     66.0383     16.8088
  2306.6000      7.8892      2.5200      0.0318      7.8786     65.2431     16.8953
  2306.7000      7.8892      2.5200      0.0318      7.8786     64.5326     16.9796
  2306.8000      7.9213      2.5167      0.0346      8.0802     63.9550     17.0649
  2306.9000      7.9213      2.5167      0.0346      8.0802     63.5398     17.1544
  2307.0000      7.9205      2.5153      0.0369      8.1637     63.2972     17.2499
  2307.1000      7.9205      2.5153      0.0369      8.1637     63.2225     17.3517
  2307.2000      7.9205      2.5153      0.0369      8.1637     63.2956     17.4583
  2307.3000      7.8946      2.5148      0.0401      8.1958     63.4897     17.5662
  2307.4000      7.8946      2.5148      0.0401      8.1958     63.7715     17.6703
  2307.5000      7.9046      2.5154      0.0418      8.1555     64.1055     17.7651
  2307.6000      7.9046      2.5154      0.0418      8.1555     64.4590     17.8445
  2307.7000      7.9046      2.5154      0.0418      8.1555     64.8005     17.9037
  2307.8000      7.9851      2.5170      0.0425      8.0605     65.1062     17.9390
  2307.9000      7.9851      2.5170      0.0425      8.0605     65.3589     17.9492
  2308.0000      8.0454      2.5175      0.0417      8.0302     65.5500     17.9355
  2308.1000      8.0454      2.5175      0.0417      8.0302     65.6785     17.9013
  2308.2000      8.0454      2.5175      0.0417      8.0302     65.7505     17.8524
  2308.3000      7.9933      2.5162      0.0383      8.1088     65.7757     17.7961
  2308.4000      7.9933      2.5162      0.0383      8.1088     65.7681     17.7405
  2308.5000      7.8973      2.5139      0.0352      8.2463     65.7429     17.6941
  2308.6000      7.8973      2.5139      0.0352      8.2463     65.7141     17.6643
  2308.7000      7.8973      2.5139      0.0352      8.2463     65.6952     17.6574
  2308.8000      7.8780      2.5095      0.0307      8.5124     65.6963     17.6782
  2308.9000      7.8780      2.5095      0.0307      8.5124     65.7254     17.7293
  2309.0000      7.9468      2.5069      0.0285      8.6700     65.7865     17.8114
  2309.1000      7.9468      2.5069      0.0285      8.6700     65.8815     17.9231
  2309.2000      7.9468      2.5069      0.0285      8.6700     66.0088     18.0616
  2309.3000      8.0294      2.5048      0.0277      8.7972     66.1667     18.2219
  2309.4000      8.0294      2.5048      0.0277      8.7972     66.3553     18.3983
  2309.5000      8.0152      2.5049      0.0289      8.7940     66.5783     18.5837
  2309.6000      8.0152      2.5049      0.0289      8.7940     66.8442     18.7712
  2309.7000      8.0152      2.5049      0.0289      8.7940     67.1674     18.9537
  2309.8000      7.9435      2.5067      0.0327      8.6819     67.5655     19.1245
  2309.9000      7.9435      2.5067      0.0327      8.6819     68.0559     19.2781
  2310.0000      7.9244      2.5087      0.0358      8.5617     68.6526     19.4097
  2310.1000      7.9244      2.5087      0.0358      8.5617     69.3611     19.5155
  2310.2000      7.9244      2.5087      0.0358      8.5617     70.1750     19.5924
  2310.3000      7.9751      2.5123      0.0399      8.3455     71.0742     19.6377
  2310.4000      7.9751      2.5123      0.0399      8.3455     72.0275     19.6488
  2310.5000      8.0174      2.5149      0.0417      8.1870     72.9930     19.6232
  2310.6000      8.0174      2.5149      0.0417      8.1870     73.9260     19.5582
  2310.7000      8.0174      2.5149      0.0417      8.1870     74.7848     19.4516
  2310.8000      7.9687      2.5187      0.0433      7.9557     75.5353     19.3020
  2310.9000      7.9687      2.5187      0.0433      7.9557     76.1566     19.1096
  2311.0000      7.8754      2.5205      0.0438      7.8495     76.6413     18.8772
  2311.1000      7.8754      2.5205      0.0438      7.8495     76.9945     18.6102
  2311.2000      7.8754      2.5205      0.0438      7.8495     77.2298     18.3167
  2311.3000      7.8611      2.5200      0.0438      7.8817     77.3626     18.0072
  2311.4000      7.8611      2.5200      0.0438      7.8817     77.4040     17.6944
  2311.5000      7.9334      2.5165      0.0430      8.0930     77.3596     17.3915
  2311.6000      7.9334      2.5165      0.0430      8.0930     77.2258     17.1119
  2311.7000      7.9334      2.5165      0.0430      8.0930     76.9919     16.8679
  2311.8000      8.0037      2.5065      0.0401      8.6962     76.6464     16.6699
  2311.9000      8.0037      2.5065      0.0401      8.6962     76.1804     16.5263
  2312.0000      8.0194      2.4980      0.0371      9.2094     75.5943     16.4425
  2312.1000      8.0194      2.4980      0.0371      9.2094     74.9012     16.4207
  2312.2000      8.0194      2.4980      0.0371      9.2094     74.1262     16.4600
  2312.3000      7.9862      2.4861      0.0317      9.9354     73.3044     16.5558
  2312.4000      7.9862      2.4861      0.0317      9.9354     72.4758     16.7004
  2312.5000      7.9233      2.4803      0.0282     10.2843     71.6772     16.8830
  2312.6000      7.9233      2.4803      0.0282     10.2843     70.9398     17.0907
  2312.7000      7.9233      2.4803      0.0282     10.2843     70.2854     17.3097
  2312.8000      7.9153      2.4763      0.0242     10.5249     69.7265     17.5263
  2312.9000      7.9153      2.4763      0.0242     10.5249     69.2679     17.7283
  2313.0000      7.9507      2.4766      0.0228     10.5063     68.9101     17.9060
  2313.1000      7.9507      2.4766      0.0228     10.5063     68.6523     18.0530
  2313.2000      7.9507      2.4766      0.0228     10.5063     68.4940     18.1661
  2313.3000      7.9538      2.4805      0.0231     10.2745     68.4331     18.2451
  2313.4000      7.9538      2.4805      0.0231     10.2745     68.4656     18.2919
  2313.5000      7.9278      2.4845      0.0248     10.0308     68.5801     18.3098
  2313.6000      7.9278      2.4845      0.0248     10.0308     68.7594     18.3029
  2313.7000      7.9278      2.4845      0.0248     10.0308     68.9792     18.2752
  2313.8000      7.8972      2.4913      0.0286      9.6177     69.2108     18.2308
  2313.9000      7.8972      2.4913      0.0286      9.6177     69.4265     18.1740
  2314.0000      7.9235      2.4955      0.0311      9.3637     69.6031     18.1087
  2314.1000      7.9235      2.4955      0.0311      9.3637     69.7263     18.0394
  2314.2000      7.9235      2.4955      0.0311      9.3637     69.7909     17.9706
  2314.3000      7.9793      2.5001      0.0336      9.0878     69.8015     17.9067
  2314.4000      7.9793      2.5001      0.0336      9.0878     69.7683     17.8516
  2314.5000      7.9858      2.5017      0.0343      8.9880     69.7020     17.8083
  2314.6000      7.9858      2.5017      0.0343      8.9880     69.6102     17.7777
  2314.7000      7.9858      2.5017      0.0343      8.9880     69.4931     17.7590
  2314.8000      7.9421      2.5027      0.0340      8.9278     69.3403     17.7494
  2314.9000      7.9421      2.5027      0.0340      8.9278     69.1341     17.7440
  2315.0000      7.9061      2.5031      0.0336      8.9016     68.8506     17.7369
  2315.1000      7.9061      2.5031      0.0336      8.9016     68.4667     17.7220
  2315.2000      7.9061      2.5031      0.0336      8.9016     67.9640     17.6936
  2315.3000      7.9494      2.5045      0.0332      8.8161     67.3362     17.6481
