~Version Information
VERS.                      2.0: CWLS Log ASCII Standard - VERSION 2.0
WRAP.                       NO: One line per depth step
~Well Information Block
STRT.FT               234.0000: 
STOP.FT              1773.2000: 
STEP.FT                 0.1000: 
NULL.                -999.2500: 
COMP.          Pioneer Natural Resources: COMPANY
WELL.             Tami J 23-18: WELL
FLD.           Purgatorie River: FIELD
LOC.           2250' FSL & 2400' FWL: LOCATION
PROV.                 Colorado: PROVINCE
CNTY.               Las Animas: COUNTRY
SRVC.                         : SERVICE COMPANY
DATE.          Mon Dec 13 07:02:50 2004: LOG DATE
UWI.           05 071 08073 00: UNIQUE WELL ID
~Curve Information Block
DEPT.FT            0 000 00 00: Depth
LTEN.lb                       : Surface Line Tension
DCAL.in                       : CDL Caliper
RHOB.g/cc                     : CDL Bulk Density
RHOC.g/cc                     : CDL Density Correction
DPOR.pu                       : CDL Density Porosity
GR.GAPI                       : Gamma Ray
NPOR.pu                       : Neutron Porosity
~Parameter Information Block
~A  Depth       LTEN        DCAL        RHOB        RHOC        DPOR         GR         NPOR    
# ...
   334.8000    706.0892      7.8943      2.6624      0.1476     -0.7507    131.2454     26.9503
   334.9000    706.0892      7.8943      2.6296      0.0828      1.2336    134.5535     26.8095
   335.0000    723.2792      7.8962      2.5962      0.0785      3.2597    136.6724     26.6018
   335.1000    723.2792      7.8962      2.5744      0.0432      4.5840    136.4717     26.3567
   335.2000    723.2792      7.8962      2.5648      0.0256      5.1623    134.3210     26.4181
   335.3000    692.8217      7.8992      2.5710      0.0006      4.7860    131.0679     26.9515
   335.4000    692.8217      7.8992      2.5880      0.0500      3.7573    127.9434     27.6687
   335.5000    703.1805      7.8972      2.6035      0.0418      2.8191    127.1783     28.0204
   335.6000    703.1805      7.8972      2.6079      0.0960      2.5494    131.3915     27.8109
   335.7000    703.1805      7.8972      2.6004      0.0032      3.0061    137.4939     27.5209
   335.8000    669.3514      7.8951      2.5966      0.0398      3.2336    138.8447     27.4132
   335.9000    669.3514      7.8951      2.6038      0.0486      2.7978    137.4431     27.4016
   336.0000    714.9970      7.8971      2.6053      0.0582      2.7111    138.3297     27.3131
   336.1000    714.9970      7.8971      2.5916      0.0335      3.5401    139.8273     27.0371
   336.2000    714.9970      7.8971      2.5729      0.0391      4.6703    139.3565     26.7504
   336.3000    727.1317      7.8968      2.5509      0.0255      6.0040    136.2952     26.6828
   336.4000    727.1317      7.8968      2.5237     -0.0239      7.6540    131.1158     26.9365
   336.5000    704.1215      7.8909      2.5070     -0.0442      8.6647    126.1378     27.5961
   336.6000    704.1215      7.8909      2.5166     -0.0176      8.0854    123.8591     28.3798
   336.7000    704.1215      7.8909      2.5515     -0.0120      5.9681    125.3089     28.6408
   336.8000    702.5851      7.8858      2.5971      0.0650      3.2032    128.6101     28.4205
   336.9000    702.5851      7.8858      2.6362      0.0892      0.8351    131.9770     28.2592
   337.0000    720.7387      7.8908      2.6647      0.0926     -0.8904    134.0231     28.1787
   337.1000    720.7387      7.8908      2.6791      0.1312     -1.7610    131.7622     27.9466
   337.2000    720.7387      7.8908      2.6712      0.1002     -1.2867    123.1526     27.6157
   337.3000    703.8848      7.8962      2.6468      0.0954      0.1952    113.6131     27.3951
   337.4000    703.8848      7.8962      2.6248      0.0385      1.5283    110.9916     27.1743
   337.5000    706.8695      7.8928      2.6207      0.0057      1.7751    114.5154     26.7281
   337.6000    706.8695      7.8928      2.6243      0.0816      1.5574    117.0124     26.2290
   337.7000    706.8695      7.8928      2.6157      0.0492      2.0778    116.7415     25.8977
   337.8000    672.5217      7.8846      2.6028      0.0189      2.8594    120.0759     25.7010
   337.9000    672.5217      7.8846      2.6022      0.0529      2.8990    128.0344     25.7212
   338.0000    677.6380      7.8789      2.6032      0.0979      2.8375    132.4155     25.9498
   338.1000    677.6380      7.8789      2.5927      0.0784      3.4742    129.9298     26.1414
   338.2000    677.6380      7.8789      2.5846      0.0642      3.9662    125.5797     26.1815
   338.3000    677.7466      7.8815      2.5884      0.0548      3.7308    124.0571     26.0544
   338.4000    677.7466      7.8815      2.5911      0.0334      3.5727    126.3931     25.7041
   338.5000    687.1349      7.8968      2.5787      0.0727      4.3185    130.4364     25.1326
   338.6000    687.1349      7.8968      2.5520      0.0548      5.9413    132.9279     24.6885
   338.7000    687.1349      7.8968      2.5255      0.0817      7.5437    133.1482     24.7378
   338.8000    763.5659      7.9270      2.5172      0.0561      8.0510    132.8404     25.1129
   338.9000    763.5659      7.9270      2.5314      0.0413      7.1884    131.7666     25.2415
   339.0000    754.5640      7.9545      2.5520      0.0653      5.9370    130.0041     24.7768
   339.1000    754.5640      7.9545      2.5604      0.0618      5.4330    131.1738     24.0591
   339.2000    754.5640      7.9545      2.5561      0.0523      5.6914    135.7478     23.6811
   339.3000    733.6304      7.9711      2.5485      0.0669      6.1488    138.3520     23.6430
   339.4000    733.6304      7.9711      2.5420      0.1172      6.5480    138.9838     23.7458
   339.5000    705.1677      7.9790      2.5435      0.0817      6.4516    141.1522     23.9074
   339.6000    705.1677      7.9790      2.5606      0.1232      5.4167    141.2799     23.8456
   339.7000    705.1677      7.9790      2.5719      0.1171      4.7338    135.2936     23.4010
   339.8000    739.3847      7.9834      2.5515      0.0610      5.9685    126.2015     22.9738
   339.9000    739.3847      7.9834      2.5129      0.0296      8.3082    120.9409     22.8468
   340.0000    753.6625      7.9869      2.4850      0.0705     10.0026    123.2898     22.8466
   340.1000    753.6625      7.9869      2.4747      0.0717     10.6230    128.6117     22.7333
   340.2000    753.6625      7.9869      2.4753      0.0838     10.5868    132.3085     22.4893
   340.3000    726.2256      7.9887      2.4810      0.0538     10.2446    134.8266     22.4847
   340.4000    726.2256      7.9887      2.4860      0.0684      9.9370    135.4432     22.9366
   340.5000    741.5492      7.9864      2.4811      0.1181     10.2393    132.1579     23.3397
   340.6000    741.5492      7.9864      2.4611      0.0922     11.4475    127.9326     23.3874
   340.7000    741.5492      7.9864      2.4341      0.0734     13.0872    127.7203     23.6033
   340.8000    709.3400      7.9838      2.4086      0.1196     14.6312    132.3457     24.1494
   340.9000    709.3400      7.9838      2.3817      0.1178     16.2599    139.0346     24.6013
   341.0000    704.5327      7.9798      2.3491      0.0606     18.2371    142.5206     24.8288
   341.1000    704.5327      7.9798      2.3160      0.0434     20.2411    141.8514     25.0803
   341.2000    704.5327      7.9798      2.2928      0.0094     21.6481    140.3270     25.5872
   341.3000    679.4261      7.9777      2.2896      0.0422     21.8417    137.7845     26.1983
   341.4000    679.4261      7.9777      2.3055      0.0947     20.8761    135.1434     26.5463
   341.5000    698.8624      7.9826      2.3310      0.0902     19.3325    133.6028     26.5582
   341.6000    698.8624      7.9826      2.3674      0.1402     17.1246    131.7949     26.4984
   341.7000    698.8624      7.9826      2.4210      0.1661     13.8786    131.7481     26.7964
   341.8000    680.1307      7.9879      2.4808      0.2266     10.2570    134.8111     27.6232
   341.9000    680.1307      7.9879      2.5225      0.2349      7.7256    139.2638     28.5546
   342.0000    676.5927      7.9835      2.5400      0.1764      6.6677    144.3951     29.0717
   342.1000    676.5927      7.9835      2.5505      0.1588      6.0279    148.2339     29.0681
   342.2000    676.5927      7.9835      2.5668      0.1390      5.0448    148.7564     28.9969
   342.3000    699.2938      7.9779      2.5796      0.1714      4.2663    149.3698     29.2846
   342.4000    699.2938      7.9779      2.5703      0.1496      4.8305    152.6761     29.6304
   342.5000    688.9288      7.9790      2.5403      0.1030      6.6508    156.3265     29.6794
   342.6000    688.9288      7.9790      2.5069      0.0792      8.6738    157.9055     29.6070
   342.7000    688.9288      7.9790      2.4809      0.0674     10.2474    157.2518     29.5219
   342.8000    689.3012      7.9857      2.4712      0.0245     10.8353    155.1537     29.2835
   342.9000    689.3012      7.9857      2.4803      0.0767     10.2876    152.9950     28.8915
   343.0000    676.4904      7.9961      2.4925      0.0303      9.5462    150.5914     28.6519
   343.1000    676.4904      7.9961      2.4923      0.0492      9.5602    148.1721     28.2296
