~Version Information
VERS.                      2.0: CWLS Log ASCII Standard - VERSION 2.0
WRAP.                       NO: One line per depth step
~Well Information Block
STRT.FT               742.0000: 
STOP.FT              2582.0000: 
STEP.FT                 0.2500: 
NULL.                -999.2500: 
COMP.          Petrogulf Corporation: COMPANY
WELL.            Montoya 7-12V: WELL
FLD.           Purgatorie River: FIELD
LOC.           728' FWL & 1764' FNL: LOCATION
CNTY.               Las Animas: COUNTY
SRVC.                         : SERVICE COMPANY
DATE.          Thu Feb 19 20:58:32 2004: LOG DATE
UWI.           05-071-07887-00: UNIQUE WELL ID
STAT.                 Colorado: STATE
~Curve Information Block
DEPT.FT            0 000 00 00: Depth
SP.mV                         : DIL Spontaneous Potential
RILD.Ohm-m                    : DIL Deep Resistivity
RILM.Ohm-m                    : DIL Medium Resistivity
RLL3.Ohm-m                    : DIL Shallow Resistivity
GR.GAPI                       : Gamma Ray
~Parameter Information Block
~A  Depth        SP         RILD        RILM        RLL3         GR     
# ...
  1498.0000   -146.9468      9.5806     10.1470     11.6915    145.3890
  1498.2500   -147.1343      9.4826      9.9657     11.4454    145.8777
  1498.5000   -147.3506      9.3463      9.7232     10.9331    144.9936
  1498.7500   -147.5790      9.1874      9.4442     10.1847    143.5495
  1499.0000   -147.8059      9.0203      9.1591      9.3523    141.4572
  1499.2500   -148.0208      8.8549      8.8943      8.5936    140.9470
  1499.5000   -148.2181      8.6957      8.6663      8.0194    141.8010
  1499.7500   -148.3989      8.5443      8.4808      7.6953    142.8269
  1500.0000   -148.5706      8.4013      8.3349      7.6383    143.3291
  1500.2500   -148.7422      8.2674      8.2199      7.7966    142.1474
  1500.5000   -148.9185      8.1436      8.1255      8.0570    137.9510
  1500.7500   -149.0954      8.0314      8.0426      8.3009    134.4274
  1501.0000   -149.2618      7.9331      7.9655      8.4647    130.6485
  1501.2500   -149.4064      7.8525      7.8925      8.5508    130.3542
  1501.5000   -149.5244      7.7950      7.8247      8.5925    133.3101
  1501.7500   -149.6178      7.7662      7.7657      8.6162    136.3740
  1502.0000   -149.6925      7.7708      7.7197      8.6232    140.0210
  1502.2500   -149.7521      7.8110      7.6913      8.5926    140.9549
  1502.5000   -149.7973      7.8866      7.6849      8.5000    140.5644
  1502.7500   -149.8277      7.9959      7.7056      8.3439    140.0715
  1503.0000   -149.8455      8.1362      7.7611      8.1648    140.2468
  1503.2500   -149.8562      8.3046      7.8619      8.0477    141.0488
  1503.5000   -149.8674      8.4980      8.0205      8.1107    142.8969
  1503.7500   -149.8886      8.7128      8.2487      8.5065    144.5333
  1504.0000   -149.9309      8.9454      8.5548      9.4464    147.8406
  1504.2500   -150.0069      9.1949      8.9408     11.1956    150.4346
  1504.5000   -150.1251      9.4648      9.4005     13.9194    153.6461
  1504.7500   -150.2825      9.7640      9.9179     17.3719    154.4498
  1505.0000   -150.4635     10.1061     10.4706     20.7237    152.9933
  1505.2500   -150.6476     10.5084     11.0369     22.8973    150.5249
  1505.5000   -150.8240     10.9901     11.6076     23.2897    145.6910
  1505.7500   -151.0005     11.5704     12.1956     22.2169    142.4708
  1506.0000   -151.2031     12.2651     12.8384     20.6499    138.8103
  1506.2500   -151.4661     13.0824     13.5944     19.6104    137.4167
  1506.5000   -151.8152     14.0200     14.5340     19.8297    135.8359
  1506.7500   -152.2505     15.0628     15.7278     21.7484    133.7536
  1507.0000   -152.7386     16.1866     17.2326     25.5495    127.3258
  1507.2500   -153.2216     17.3671     19.0748     31.1132    121.0825
  1507.5000   -153.6377     18.5914     21.2364     38.0243    110.8852
  1507.7500   -153.9421     19.8657     23.6549     45.6855    104.6493
  1508.0000   -154.1170     21.2126     26.2498     53.4658     96.7503
  1508.2500   -154.1718     22.6593     28.9686     60.8519     92.3050
  1508.5000   -154.1340     24.2197     31.8204     67.5679     86.5289
  1508.7500   -154.0341     25.8746     34.8642     73.5711     83.2033
  1509.0000   -153.8934     27.5578     38.1496     78.9230     79.0510
  1509.2500   -153.7211     29.1567     41.6393     83.6969     76.8244
  1509.5000   -153.5179     30.5392     45.1475     88.0311     73.9428
  1509.7500   -153.2754     31.5958     48.3147     92.1812     72.0505
  1510.0000   -152.9743     32.2767     50.6413     96.3244     69.2660
  1510.2500   -152.5888     32.5983     51.6016    100.0999     67.8327
  1510.5000   -152.0999     32.6236     50.8424    102.2136     67.1511
  1510.7500   -151.5095     32.4332     48.3970    100.6217     68.0358
  1511.0000   -150.8453     32.1024     44.7521     93.5592     72.0168
  1511.2500   -150.1537     31.6816     40.6688     80.9251     76.9252
  1511.5000   -149.4849     31.1788     36.8695     64.9060     88.0102
  1511.7500   -148.8806     30.5519     33.8226     49.1638     97.3403
  1512.0000   -148.3645     29.7238     31.7133     37.2203    112.0159
  1512.2500   -147.9371     28.6239     30.5160     31.3135    120.4644
  1512.5000   -147.5713     27.2277     30.0618     32.2628    127.9282
  1512.7500   -147.2156     25.5694     30.0589     39.8540    128.2005
  1513.0000   -146.8083     23.7282     30.0903     53.0297    121.9672
  1513.2500   -146.2977     21.8122     29.6643     69.5886    114.9628
  1513.5000   -145.6575     19.9442     28.3823     85.7546    103.1120
  1513.7500   -144.8920     18.2387     26.1607     96.5939     95.3167
  1514.0000   -144.0300     16.7736     23.2912     97.9234     84.9720
  1514.2500   -143.1125     15.5747     20.2500     88.7121     80.1978
  1514.5000   -142.1817     14.6209     17.4426     71.8597     79.2432
  1514.7500   -141.2786     13.8652     15.0859     52.5073     84.2002
  1515.0000   -140.4465     13.2576     13.2306     35.3302    100.4399
  1515.2500   -139.7310     12.7613     11.8335     22.8274    115.8730
  1515.5000   -139.1700     12.3554     10.8168     15.2481    141.6657
  1515.7500   -138.7800     12.0295     10.1017     11.4736    157.6547
  1516.0000   -138.5504     11.7750      9.6227     10.0015    175.7499
  1516.2500   -138.4515     11.5824      9.3330      9.6150    182.8108
  1516.5000   -138.4481     11.4440      9.2040      9.6724    186.3866
  1516.7500   -138.5078     11.3588      9.2222     10.0797    185.2361
  1517.0000   -138.6009     11.3358      9.3840     11.0601    180.3688
  1517.2500   -138.6988     11.3936      9.6892     12.8491    175.9026
  1517.5000   -138.7768     11.5560     10.1350     15.4411    168.0095
  1517.7500   -138.8230     11.8468     10.7138     18.4899    162.1788
  1518.0000   -138.8449     12.2845     11.4168     21.4393    153.6607
  1518.2500   -138.8680     12.8819     12.2428     23.8469    149.1484
  1518.5000   -138.9245     13.6491     13.2078     25.6876    145.1037
  1518.7500   -139.0409     14.5987     14.3491     27.3819    143.5281
  1519.0000   -139.2308     15.7478     15.7213     29.5460    139.6872
  1519.2500   -139.4979     17.1119     17.3840     32.7105    134.2296
  1519.5000   -139.8416     18.6898     19.3873     37.1635    120.6737
  1519.7500   -140.2602     20.4447     21.7596     42.8632    109.3437
  1520.0000   -140.7505     22.2941     24.5019     49.3770     93.2856
  1520.2500   -141.3073     24.1165     27.5860     55.9769     85.6173
  1520.5000   -141.9246     25.7795     30.9472     61.9688     80.1648
  1520.7500   -142.5946     27.1702     34.4619     67.0423     79.5678
  1521.0000   -143.3042     28.2119     37.9111     71.2971     79.8707
  1521.2500   -144.0309     28.8613     40.9600     74.9027     79.2634
  1521.5000   -144.7445     29.1008     43.2029     77.7550     76.4737
  1521.7500   -145.4140     28.9384     44.2847     79.4918     74.0753
  1522.0000   -146.0135     28.4149     44.0276     79.8527     71.3016
  1522.2500   -146.5245     27.6070     42.4701     79.0387     70.4365
  1522.5000   -146.9349     26.6196     39.8194     77.6882     70.4265
  1522.7500   -147.2366     25.5694     36.3983     76.2935     71.2596
  1523.0000   -147.4267     24.5635     32.6122     74.3993     74.5616
  1523.2500   -147.5103     23.6820     28.8900     70.4629     78.6832
  1523.5000   -147.5064     22.9689     25.5861     62.9534     88.1085
  1523.7500   -147.4518     22.4334     22.9102     51.9442     96.6773
  1524.0000   -147.3954     22.0564     20.9275     39.5933    113.4209
  1524.2500   -147.3820     21.7998     19.6064     28.9040    126.8470
  1524.5000   -147.4342     21.6148     18.8690     21.9602    146.9908
  1524.7500   -147.5421     21.4528     18.6206     19.1769    157.1784
  1525.0000   -147.6675     21.2778     18.7588     19.7668    163.3929
  1525.2500   -147.7590     21.0773     19.1719     22.5036    161.5116
  1525.5000   -147.7667     20.8682     19.7405     26.1247    153.5951
  1525.7500   -147.6537     20.6902     20.3501     29.5291    147.6926
