~Version Information
VERS.                      2.0: CWLS Log ASCII Standard - VERSION 2.0
WRAP.                       NO: One line per depth step
~Well Information Block
STRT.FT                 0.0000: 
STOP.FT              2234.2500: 
STEP.FT                 0.2500: 
NULL.                -999.2500: 
COMP.          Pioner Natural Resources: COMPANY
WELL.          Casablanca 11-28 Tr: WELL
FLD.           Purgatoire River: FIELD
LOC.           422' FNL & 215' FWL--: LOCATION
PROV.                 Colorado: PROVINCE
CNTY.               Las Animas: COUNTRY
SRVC.                         : SERVICE COMPANY
DATE.          Fri Mar 11 13:02:46 2005: LOG DATE
UWI.           005 071 08314  : UNIQUE WELL ID
~Curve Information Block
DEPT.FT            0 000 00 00: Depth
CCL.                          : Casing Collar Locator
TT3.usec                      : CBL 3' Travel Time
AMP3.mV                       : CBL 3' Amplitude
AMP5.mV                       : CBL 5' Amplitude
GR.GAPI                       : Gamma Ray
~Parameter Information Block
~A  Depth       CCL         TT3         AMP3        AMP5         GR     
# ...
  1176.0000      0.0000    763.6892      6.5850      1.6927    141.1495
  1176.2500      0.0000    766.1230      6.4674      1.5186    142.7906
  1176.5000      0.0000    768.2326      6.3580      1.6057    142.7698
  1176.7500      0.0000    768.9888      6.2722      1.1705    140.9134
  1177.0000      0.0000    767.9542      6.2049      1.1705    137.4773
  1177.2500      0.0000    765.7958      6.1372      0.2129    132.9635
  1177.5000      0.0000    763.6837      6.0530      0.1259    128.4060
  1177.7500      0.0000    762.3332      5.9494      0.8223    125.5205
  1178.0000      0.0000    761.7443      5.8330      0.9093    125.9348
  1178.2500      0.0000    761.5964      5.7123      0.0389    129.8936
  1178.5000      0.0000    761.6339      5.5941      0.8223    135.7662
  1178.7500      0.0000    761.7556      5.4852      1.2575    140.8928
  1179.0000      0.0000    761.9379      5.3965      0.8223    142.9998
  1179.2500      0.0000    762.1633      5.3370      0.3000    141.2856
  1179.5000      0.0000    762.4024      5.2991     -0.4834    136.5920
  1179.7500      0.0000    762.6342      5.2529     -0.1352    130.5335
  1180.0000      0.0000    762.8584      5.1662     -0.3964    124.2331
  1180.2500      0.0000    763.0822      5.0349     -0.0482    117.7714
  1180.5000      0.0000    763.3248      4.8884     -0.0482    110.7779
  1180.7500      0.0000    763.7040      4.7627     -0.2223    103.3772
  1181.0000      0.0000    764.5952      4.6732     -0.6575     96.2281
  1181.2500      0.0000    766.6898      4.6156     -0.0482     89.5671
  1181.5000      0.0000    770.6536      4.5859      0.3870     82.7705
  1181.7500      0.0000    776.3519      4.5917      0.9964     75.5936
  1182.0000      0.0000    782.2710      4.6437      0.3000     69.7141
  1182.2500      0.0000    785.9522      4.7407      0.1259     68.1197
  1182.5000      0.0000    785.3683      4.8604      0.0389     72.4001
  1182.7500      0.0000    780.1563      4.9673      0.0389     80.9867
  1183.0000      0.0000    771.7917      5.0342      0.0389     90.4567
  1183.2500      0.0000    762.7877      5.0594      0.3000     98.3113
  1183.5000      0.0000    755.6266      5.0651      0.3000    104.1156
  1183.7500      0.0000    751.8624      5.0802      0.8223    108.4225
  1184.0000      0.0000    751.4694      5.1250      0.2129    111.4677
  1184.2500      0.0000    752.7826      5.2048      0.5611    113.1356
  1184.5000      0.0000    753.2560      5.3113     -0.2223    113.6581
  1184.7500      0.0000    750.5644      5.4256     -0.4834    113.8041
  1185.0000      0.0000    743.7245      5.5190     -0.5705    114.1978
  1185.2500      0.0000    734.2422      5.5590     -0.6575    114.6778
  1185.5000      0.0000    726.2300      5.5279     -0.8316    114.6097
  1185.7500      0.0000    724.0680      5.4410      0.5611    113.7386
  1186.0000      0.0000    728.8025      5.3411      0.3000    112.4789
  1186.2500      0.0000    736.7499      5.2682      0.8223    111.4029
  1186.5000      0.0000    741.6100      5.2379      0.4741    110.7888
  1186.7500      0.0000    737.8655      5.2436      0.6482    110.8479
  1187.0000      0.0000    723.1779      5.2709      0.8223    112.1588
  1187.2500      0.0000    699.3127      5.3071     -0.2223    115.4122
  1187.5000      0.0000    671.5527      5.3417     -0.2223    120.5967
  1187.7500      0.0000    646.5775      5.3619     -0.0482    126.5734
  1188.0000      0.0000    630.1262      5.3537     -0.3093    131.4778
  1188.2500      0.0000    625.7696      5.3112     -0.1352    133.7389
  1188.5000      0.0000    634.3286      5.2478     -0.3964    133.1099
  1188.7500      0.0000    653.1773      5.1925     -0.4834    130.8811
  1189.0000      0.0000    676.4706      5.1748     -0.2223    128.9787
  1189.2500      0.0000    697.2880      5.2082     -0.0482    128.7686
  1189.5000      0.0000    710.6473      5.2891      0.3000    130.3897
  1189.7500      0.0000    715.8037      5.4047     -0.1352    132.7083
  1190.0000      0.0000    716.7130      5.5397     -0.3964    134.0256
  1190.2500      0.0000    719.1849      5.6759     -0.4834    133.5192
  1190.5000      0.0000    725.6243      5.7917     -0.4834    131.9909
  1190.7500      0.0000    732.2263      5.8667     -0.3964    130.7300
  1191.0000      0.0000    731.6712      5.8889     -0.3964    130.0060
  1191.2500      0.0000    718.5618      5.8599     -0.6575    129.2742
  1191.5000      0.0000    693.3141      5.7931     -0.9187    128.4406
  1191.7500      0.0000    662.3196      5.7057     -0.6575    128.0048
  1192.0000      0.0000    634.2115      5.6103     -0.2223    127.8968
  1192.2500      0.0000    614.7513      5.5134     -0.7446    126.9709
  1192.5000      0.0000    604.7175      5.4229     -0.9187    124.2922
  1192.7500      0.0000    602.0575      5.3553     -0.6575    120.8225
  1193.0000      0.0000    605.3015      5.3311     -0.4834    119.1359
  1193.2500      0.0000    614.8243      5.3583     -1.0927    120.9621
  1193.5000      0.0000    630.8776      5.4216     -0.7446    125.1987
  1193.7500      0.0000    650.1044      5.4893     -0.8316    128.8026
  1194.0000      0.0000    664.8475      5.5322     -0.6575    129.4877
  1194.2500      0.0000    668.0016      5.5407     -1.1798    127.3063
  1194.5000      0.0000    659.1632      5.5253     -0.5705    124.0909
  1194.7500      0.0000    644.6943      5.5042     -1.0057    122.0771
  1195.0000      0.0000    631.6332      5.4887     -0.7446    122.7956
  1195.2500      0.0000    622.7507      5.4788      0.0389    126.3849
  1195.5000      0.0000    617.0936      5.4673      0.0389    131.6536
  1195.7500      0.0000    613.1705      5.4462     -0.5705    136.9502
  1196.0000      0.0000    610.5618      5.4095     -1.0057    140.8776
  1196.2500      0.0000    609.3807      5.3580     -0.7446    142.3280
  1196.5000      0.0000    609.6671      5.3045     -0.9187    140.7771
  1196.7500      0.0000    611.6918      5.2704     -0.3964    137.1424
  1197.0000      0.0000    616.5081      5.2732     -0.3964    133.7274
  1197.2500      0.0000    626.1821      5.3144     -0.2223    132.6194
  1197.5000      0.0000    643.1639      5.3828     -0.7446    134.1720
  1197.7500      0.0000    667.9576      5.4690      0.1259    136.9382
  1198.0000      0.0000    696.5349      5.5670     -0.3093    138.7097
  1198.2500      0.0000    721.1565      5.6578     -1.3539    137.8010
  1198.5000      0.0000    734.7905      5.7058     -0.7446    133.8613
  1198.7500      0.0000    734.8957      5.6865     -0.9187    127.8009
  1199.0000      0.0000    723.7462      5.6139     -1.0927    121.2253
  1199.2500      0.0000    706.2438      5.5296     -0.9187    116.0417
  1199.5000      0.0000    687.2612      5.4652     -0.8316    114.0897
  1199.7500      0.0000    670.3033      5.4231     -0.6575    116.3135
  1200.0000      0.0000    657.5958      5.3880     -0.3964    122.1190
  1200.2500      0.0000    649.3582      5.3447     -0.2223    129.6480
  1200.5000      0.0000    642.4537      5.2935     -0.6575    136.5694
  1200.7500      0.0000    632.2969      5.2555     -0.3964    140.8512
  1201.0000      0.0000    617.7356      5.2609     -1.0927    141.5856
  1201.2500      0.0000    602.7276      5.3232     -1.0927    139.3575
  1201.5000      0.0000    592.6203      5.4327      0.9093    135.4598
  1201.7500      0.0000    589.8568      5.5795     -1.6150    130.8656
  1202.0000      0.0000    593.0771      5.7642     -0.9187    126.2949
  1202.2500      0.0000    598.6437      5.9678     -0.3964    122.7281
  1202.5000      0.0000    602.5416      6.1302     -0.6575    120.9723
  1202.7500      0.0000    602.3425      6.1897     -1.0927    120.6388
  1203.0000      0.0000    598.6335      6.1399     -0.7446    120.3073
  1203.2500      0.0000    594.5295      6.0269      0.1259    119.2234
  1203.5000      0.0000    593.4343      5.9021     -0.5705    118.3607
  1203.7500      0.0000    597.1873      5.7884     -0.9187    119.2234
