~Version Information
VERS.                      2.0: CWLS Log ASCII Standard - VERSION 2.0
WRAP.                       NO: One line per depth step
~Well Information Block
STRT.FT              1684.7500: 
STOP.FT              2367.7500: 
STEP.FT                 0.2500: 
NULL.                -999.2500: 
COMP.          Petrogulf Corporation: COMPANY
WELL.             Norton 9-14V: WELL
FLD.           Purgatorie River: FIELD
LOC.           250' FSL & 225' FWL--: LOCATION
CNTY.               Las Animas: COUNTY
SRVC.                         : SERVICE COMPANY
DATE.          Mon Jan 10 10:00:10 2005: LOG DATE
UWI.                          : UNIQUE WELL ID
STAT.                       CO: STATE
~Curve Information Block
DEPT.FT            0 000 00 00: Depth
CCL.                          : Casing Collar Locator
TT3.usec                      : CBL 3' Travel Time
AMP3.mV                       : CBL 3' Amplitude
GR.GAPI                       : Gamma Ray
~Parameter Information Block
~A  Depth       CCL         TT3         AMP3         GR     
# ...
  1885.7500      0.0000    605.0365     10.1839    118.4922
  1886.0000      0.0000    563.2329     10.4943    116.9910
  1886.2500      0.0000    524.6240     10.9281    114.2754
  1886.5000      0.0000    508.4072     11.3455    111.4436
  1886.7500      0.0000    521.1837     11.6007    109.8339
  1887.0000      0.0000    555.8643     11.6216    109.4557
  1887.2500      0.0000    599.1309     11.4372    108.7190
  1887.5000      0.0000    638.6846     11.1378    105.8882
  1887.7500      0.0000    667.0405     10.8046    100.9259
  1888.0000      0.0000    682.3249     10.4785     95.8587
  1888.2500      0.0000    686.1296     10.1828     93.1236
  1888.5000      0.0000    680.1747      9.9470     93.6151
  1888.7500      0.0000    665.1647      9.7940     96.5787
  1889.0000      0.0000    643.3400      9.7155    101.1436
  1889.2500      0.0000    621.6163      9.6673    107.2244
  1889.5000      0.0000    609.6182      9.5958    114.7724
  1889.7500      0.0000    612.5646      9.4806    122.7916
  1890.0000      0.0000    627.3865      9.3652    129.5573
  1890.2500      0.0000    647.0052      9.3317    133.6224
  1890.5000      0.0000    665.7751      9.4302    134.4456
  1890.7500      0.0000    679.0956      9.6414    132.2926
  1891.0000      0.0000    681.5368      9.9037    127.9486
  1891.2500      0.0000    670.5449     10.1439    122.5736
  1891.5000      0.0000    652.5798     10.2796    117.4926
  1891.7500      0.0000    640.8923     10.2409    113.6714
  1892.0000      0.0000    642.9565     10.0269    111.3389
  1892.2500      0.0000    650.7275      9.7368    110.3016
  1892.5000      0.0000    645.3129      9.5270    110.5031
  1892.7500      0.0000    611.3369      9.5236    112.0815
  1893.0000      0.0000    548.3282      9.7616    115.1859
  1893.2500      0.0000    471.5968     10.1880    119.8338
  1893.5000      0.0000    402.3055     10.7153    125.5727
  1893.7500      0.0000    354.2148     11.2738    131.2277
  1894.0000      0.0000    328.1585     11.8283    135.2041
  1894.2500      0.0000    316.8858     12.3652    136.1688
  1894.5000      0.0000    312.7319     12.8845    133.6511
  1894.7500      0.0000    311.1700     13.3927    128.3753
  1895.0000      0.0000    310.4068     13.8883    122.0185
  1895.2500      0.0000    309.9248     14.3569    116.2253
  1895.5000      0.0000    309.5934     14.7895    111.5620
  1895.7500      0.0000    309.3844     15.1820    107.5891
  1896.0000      0.0000    309.4059     15.4876    104.1212
  1896.2500      0.0000    309.9476     15.6007    102.0358
  1896.5000      0.0000    311.4393     15.4374    102.3745
  1896.7500      0.0000    314.1832     15.0224    104.8016
  1897.0000      0.0000    317.9371     14.4547    107.4306
  1897.2500      0.0000    321.7668     13.8154    108.0913
  1897.5000      0.0000    324.7070     13.1640    105.6387
  1897.7500      0.0000    327.0066     12.5865    100.4706
  1898.0000      0.0000    330.6993     12.1670     94.3202
  1898.2500      0.0000    338.7726     11.9104     89.4110
  1898.5000     -2.0000    353.3179     11.7312     87.3129
  1898.7500     -2.0000    373.2396     11.5187     88.2598
  1899.0000      0.0000    392.7268     11.2267     91.1947
  1899.2500      0.0000    403.2932     10.9342     94.1903
  1899.5000      0.0000    399.6649     10.8184     95.1178
  1899.7500      0.0000    384.1126     11.0223     92.7637
  1900.0000      0.0000    364.4479     11.5230     87.9380
  1900.2500      0.0000    348.7426     12.1438     83.5797
  1900.5000      0.0000    342.4534     12.6893     83.2044
  1900.7500      0.0000    348.4397     13.0511     88.1301
  1901.0000      0.0000    366.8474     13.2153     95.7236
  1901.2500      0.0000    393.9276     13.2223    101.1756
  1901.5000      0.0000    422.1675     13.1420    101.8354
  1901.7500      0.0000    443.3777     13.0695     99.4807
  1902.0000      0.0000    452.4821     13.1051     98.0666
  1902.2500      0.0000    447.8585     13.3092    100.0724
  1902.5000      0.0000    429.4213     13.6768    105.3100
  1902.7500      0.0000    399.8111     14.1464    111.7146
  1903.0000      0.0000    366.6504     14.6205    116.3177
  1903.2500      0.0000    339.2481     14.9893    116.8712
  1903.5000      0.0000    322.2701     15.1748    113.8407
  1903.7500      0.0000    314.2717     15.1732    110.0083
  1904.0000      0.0000    311.3262     15.0500    107.3170
  1904.2500      0.0000    310.4198     14.8848    104.9398
  1904.5000      0.0000    310.1475     14.7151    101.0687
  1904.7500      0.0000    310.0769     14.5334     95.7385
  1905.0000      0.0000    310.1273     14.3297     91.0930
  1905.2500      0.0000    310.2495     14.1241     89.3253
  1905.5000      0.0000    310.3836     13.9592     90.9615
  1905.7500      0.0000    310.4579     13.8763     94.8263
  1906.0000      0.0000    310.4199     13.9048     99.1073
  1906.2500      0.0000    310.2527     14.0596    102.5300
  1906.5000      0.0000    309.9797     14.3313    104.8592
  1906.7500      0.0000    309.6616     14.6764    106.3389
  1907.0000      0.0000    309.3864     15.0277    106.6676
  1907.2500      0.0000    309.2415     15.3248    104.7800
  1907.5000      0.0000    309.2777     15.5448     99.7622
  1907.7500      0.0000    309.4855     15.7080     91.8217
  1908.0000      0.0000    309.8021     15.8562     82.1318
  1908.2500      0.0000    310.1409     16.0176     71.8576
  1908.5000      0.0000    310.4196     16.1914     61.8030
  1908.7500      0.0000    310.5759     16.3619     52.9783
  1909.0000      0.0000    310.5799     16.5262     46.8538
  1909.2500      0.0000    310.4480     16.6908     44.6493
  1909.5000      0.0000    310.2446     16.8429     46.3946
  1909.7500      0.0000    310.0581     16.9431     50.7273
  1910.0000      0.0000    309.9608     16.9580     55.6965
  1910.2500      0.0000    309.9788     16.8879     59.8880
  1910.5000      0.0000    310.0906     16.7533     62.8390
  1910.7500      0.0000    310.2534     16.5611     64.6085
  1911.0000      0.0000    310.4371     16.2940     65.3012
  1911.2500      0.0000    310.6376     15.9369     65.0055
  1911.5000      0.0000    310.8639     15.5063     63.8886
  1911.7500      0.0000    311.1429     15.0448     62.2603
  1912.0000      0.0000    311.5789     14.5853     60.6198
  1912.2500      0.0000    312.6799     14.1327     59.4777
  1912.5000      0.0000    316.1780     13.6784     58.9318
  1912.7500      0.0000    326.3046     13.2172     58.3659
  1913.0000      0.0000    350.1060     12.7469     56.7468
  1913.2500      0.0000    394.2055     12.2618     53.5104
  1913.5000      0.0000    458.0984     11.7636     49.3161
  1913.7500      0.0000    530.2880     11.2703     45.8265
  1914.0000      0.0000    593.8122     10.8044     44.6863
  1914.2500      0.0000    637.3061     10.3652     46.5865
  1914.5000      0.0000    660.4416      9.9265     50.8909
  1914.7500      0.0000    669.9379      9.4681     55.7582
  1915.0000      0.0000    672.8074      9.0100     58.9978
  1915.2500      0.0000    673.2321      8.6035     59.7250
  1915.5000      0.0000    673.0972      8.2822     59.2925
  1915.7500      0.0000    673.3568      8.0275     59.9121
  1916.0000      0.0000    674.6303      7.7876     62.2371
  1916.2500      0.0000    676.8715      7.5241     64.7277
  1916.5000      0.0000    678.8464      7.2368     65.3909
  1916.7500      0.0000    678.5711      6.9591     63.7356
  1917.0000      0.0000    674.6600      6.7335     61.0450
  1917.2500      0.0000    666.6729      6.5735     59.0582
  1917.5000      0.0000    653.6030      6.4445     58.3899
  1917.7500      0.0000    633.1230      6.2953     58.0066
  1918.0000      0.0000    603.7928      6.1057     56.3950
  1918.2500      0.0000    568.0934      5.8986     53.3954
  1918.5000      0.0000    532.8500      5.7152     50.5142
  1918.7500      0.0000    506.9625      5.5832     49.1878
  1919.0000      0.0000    498.3011      5.5029     49.2770
