~Version Information
VERS.                      2.0: CWLS Log ASCII Standard - VERSION 2.0
WRAP.                       NO: One line per depth step
~Well Information Block
STRT.FT               500.0000: 
STOP.FT              2732.5000: 
STEP.FT                 0.1000: 
NULL.                -999.2500: 
COMP.          Pioneer Natural Resources: COMPANY
WELL.          Dude Canyon 22-32: WELL
FLD.           Purgatoire River: FIELD
LOC.           1662' FNL & 2446' FWL----: LOCATION
PROV.                 Colorado: PROVINCE
CNTY.               Las Animas: COUNTRY
SRVC.                Patterson: SERVICE COMPANY
DATE.          Thu Mar 10 07:06:34 2005: LOG DATE
UWI.           05 071 08257 00: UNIQUE WELL ID
~Curve Information Block
DEPT.FT            0 000 00 00: Depth
GR.GAPI                       : Gamma Ray
DCAL.in                       : CDL Caliper
DPOR.pu                       : CDL Density Porosity
NPOR.pu                       : Neutron Porosity
RHOB.g/cc                     : CDL Bulk Density
RHOC.g/cc                     : CDL Density Correction
~Parameter Information Block
~A  Depth        GR         DCAL        DPOR        NPOR        RHOB        RHOC    
# ...
   941.6000    119.5052      8.0269      4.4940     31.0588      2.5758     -0.0076
   941.7000    123.1858      8.0269      6.5122     30.9722      2.5425     -0.0466
   941.8000    128.4181      8.0265      7.7847     30.8331      2.5216     -0.0022
   941.9000    129.9570      8.0265      8.0733     30.5846      2.5168     -0.0287
   942.0000    127.9546      8.0267      7.3930     30.3306      2.5280     -0.0028
   942.1000    126.0618      8.0267      6.4583     29.9991      2.5434      0.0063
   942.2000    124.0125      8.0267      6.0348     29.4962      2.5504     -0.0044
   942.3000    119.0575      8.0277      6.4461     29.1526      2.5436      0.0403
   942.4000    111.7890      8.0277      6.9432     29.1917      2.5354     -0.0440
   942.5000    108.9892      8.0265      6.5348     29.5279      2.5422      0.0338
   942.6000    116.2373      8.0265      5.8582     30.1198      2.5533      0.0407
   942.7000    127.6677      8.0265      5.5886     30.6922      2.5578      0.0469
   942.8000    133.6796      8.0259      5.4325     30.9617      2.5604      0.0382
   942.9000    131.9074      8.0259      5.3469     30.8685      2.5618      0.0200
   943.0000    125.2258      8.0274      5.8270     30.2059      2.5539      0.0555
   943.1000    120.1782      8.0274      6.8481     29.0165      2.5370      0.0007
   943.2000    120.8866      8.0274      7.3121     28.1037      2.5294     -0.0011
   943.3000    123.1041      8.0293      6.4985     28.1662      2.5428      0.0179
   943.4000    122.5592      8.0293      4.9361     28.9220      2.5686      0.0323
   943.5000    120.0786      8.0285      3.6032     29.7192      2.5905      0.0623
   943.6000    116.5318      8.0285      3.0769     30.0943      2.5992      0.0193
   943.7000    111.5242      8.0285      3.2107     29.8886      2.5970      0.0459
   943.8000    107.9981      8.0236      3.5209     29.4542      2.5919      0.0432
   943.9000    108.0735      8.0236      3.5485     28.9761      2.5915      0.0003
   944.0000    110.1905      8.0168      3.4955     28.0765      2.5923      0.0322
   944.1000    111.1665      8.0168      3.8460     26.7948      2.5865      0.0036
   944.2000    109.7148      8.0168      4.1124     25.7935      2.5821      0.0218
   944.3000    108.2169      8.0123      3.9109     25.4715      2.5855      0.0389
   944.4000    109.0971      8.0123      3.8508     25.5967      2.5865      0.0223
   944.5000    108.4968      8.0116      4.1263     25.6796      2.5819      0.0029
   944.6000    101.6204      8.0116      4.0447     25.3131      2.5833      0.0221
   944.7000     93.7660      8.0116      3.0673     24.5901      2.5994      0.0459
   944.8000     89.6419      8.0108      1.7378     23.9685      2.6213      0.0826
   944.9000     84.8663      8.0108      0.6616     23.5286      2.6391      0.0655
   945.0000     77.4731      8.0092     -0.4532     23.1076      2.6575      0.0631
   945.1000     71.4063      8.0092     -1.1579     22.8838      2.6691      0.1144
   945.2000     68.8638      8.0092     -0.6822     23.1556      2.6613      0.0582
   945.3000     68.7279      8.0101      0.3888     23.8530      2.6436      0.0606
   945.4000     70.9906      8.0101      1.2487     24.5993      2.6294      0.0285
   945.5000     75.7927      8.0135      1.5700     25.4042      2.6241      0.0255
   945.6000     80.0911      8.0135      1.1728     26.4937      2.6306      0.0028
   945.7000     82.2508      8.0135      0.3794     27.6289      2.6437      0.0594
   945.8000     84.1127      8.0168      0.5243     28.6288      2.6413      0.1086
   945.9000     86.3031      8.0168      2.4336     29.6817      2.6098      0.0392
   946.0000     87.7248      8.0173      4.8942     30.7133      2.5692     -0.0132
   946.1000     86.9812      8.0173      6.5203     31.5168      2.5424     -0.0020
   946.2000     85.1283      8.0173      7.5368     32.3112      2.5256     -0.0221
   946.3000     86.9532      8.0147      8.9684     33.0091      2.5020     -0.0155
   946.4000     94.2473      8.0147     11.7093     32.8820      2.4568      0.0053
   946.5000    104.8055      8.0104     16.1698     31.8226      2.3832     -0.0294
   946.6000    116.8276      8.0104     22.4064     30.6236      2.2803     -0.0372
   946.7000    126.5118      8.0104     30.1113     29.6226      2.1532     -0.1069
   946.8000    131.3356      8.0064     37.9777     28.2773      2.0234     -0.1501
   946.9000    132.5207      8.0064     45.2970     26.2187      1.9026     -0.1396
   947.0000    129.0725      8.0041     52.6095     23.7170      1.7819     -0.2115
   947.1000    121.2575      8.0041     59.6233     21.1322      1.6662     -0.1764
   947.2000    116.0577      8.0041     65.1760     18.8728      1.5746     -0.2244
   947.3000    115.5410      8.0058     68.6596     17.1914      1.5171     -0.1670
   947.4000    112.3030      8.0058     70.0408     15.9399      1.4943     -0.0977
   947.5000    105.7441      8.0152     68.8537     14.8517      1.5139     -0.0608
   947.6000    103.1516      8.0152     64.6197     13.6570      1.5838      0.0303
   947.7000    104.9924      8.0152     58.6424     12.2832      1.6824      0.1909
   947.8000    106.9772      8.0269     53.4540     10.9829      1.7680      0.2485
   947.9000    107.0978      8.0269     49.8934     10.0741      1.8268      0.2055
   948.0000    107.1086      8.0333     47.1323      9.5793      1.8723      0.2364
   948.1000    108.4587      8.0333     44.9461      9.4047      1.9084      0.2501
   948.2000    110.7042      8.0333     44.1393      9.6825      1.9217      0.2404
   948.3000    113.7742      8.0375     45.9540     10.4063      1.8918      0.1645
   948.4000    115.8949      8.0375     51.2321     11.3896      1.8047      0.0857
   948.5000    117.6782      8.0480     59.0209     12.6418      1.6762      0.0083
   948.6000    123.1878      8.0480     65.3734     13.9961      1.5713     -0.0876
   948.7000    131.9692      8.0480     65.3163     15.2194      1.5723     -0.0242
   948.8000    138.6053      8.1165     57.7196     16.7447      1.6976      0.1171
   948.9000    141.7450      8.1165     46.5600     18.9293      1.8818      0.3839
   949.0000    143.3214      8.2617     36.2902     21.2341      2.0512      0.4485
   949.1000    143.0044      8.2617     28.0526     22.9004      2.1871      0.5258
   949.2000    142.4398      8.2617     21.9629     23.5367      2.2876      0.5607
   949.3000    144.5452      8.3653     18.8268     23.3963      2.3394      0.4974
   949.4000    146.5404      8.3653     18.6427     23.2082      2.3424      0.4445
   949.5000    145.7958      8.3459     20.9061     23.2917      2.3050      0.4146
   949.6000    146.8160      8.3459     25.7283     23.3937      2.2255      0.3929
   949.7000    151.6086      8.3459     32.9563     23.3750      2.1062      0.3008
   949.8000    155.9085      8.2664     40.7817     23.2066      1.9771      0.1413
   949.9000    156.4464      8.2664     47.0547     23.0523      1.8736      0.1590
   950.0000    154.7337      8.2107     51.5733     23.1493      1.7990      0.1764
   950.1000    155.1975      8.2107     54.4190     23.3591      1.7521      0.0893
   950.2000    155.7732      8.2107     53.3419     23.5790      1.7699      0.0424
   950.3000    152.1510      8.2659     46.3118     23.9790      1.8859      0.1754
   950.4000    147.5431      8.2659     36.4130     24.5160      2.0492      0.4488
   950.5000    144.8931      8.5605     30.1495     25.0667      2.1525      0.5573
   950.6000    144.7109      8.5605     30.3050     25.3456      2.1500      0.5390
   950.7000    147.8623      8.5605     33.2404     24.9138      2.1015      0.4193
   950.8000    150.9853      9.0789     34.4525     24.1205      2.0815      0.4966
   950.9000    150.8933      9.0789     35.5056     23.3584      2.0642      0.5916
   951.0000    150.9139      9.6045     40.7410     22.1492      1.9778      0.5003
   951.1000    152.8903      9.6045     49.2720     20.4318      1.8370      0.3947
