~Version Information
VERS.                      2.0: CWLS Log ASCII Standard - VERSION 2.0
WRAP.                       NO: One line per depth step
~Well Information Block
STRT.FT               -11.0000: 
STOP.FT              1896.2500: 
STEP.FT                 0.2500: 
NULL.                -999.2500: 
COMP.          Pioneer Natural Resources: COMPANY
WELL.            Summers 21-19: WELL
FLD.           Purgatoire River: FIELD
LOC.           900' FNL & 1950' FWL--: LOCATION
PROV.                 Colorado: PROVINCE
CNTY.               Las Animas: COUNTRY
SRVC.                Patterson: SERVICE COMPANY
DATE.          Thu Oct 20 15:06:00 2005: LOG DATE
UWI.           05 071 08315 00: UNIQUE WELL ID
~Curve Information Block
DEPT.FT            0 000 00 00: Depth
GR.GAPI                       : Gamma Ray
CCL.                          : Casing Collar Locator
TT3.usec                      : CBL 3' Travel Time
AMP3.mV                       : CBL 3' Amplitude
~Parameter Information Block
~A  Depth        GR         CCL         TT3         AMP3    
# ...
   994.0000    158.6482      0.0000    701.2835      4.1967
   994.2500    162.9371      0.0000    703.7535      4.2270
   994.5000    166.6355      0.0000    707.8281      4.2355
   994.7500    167.7069      0.0000    712.8942      4.2363
   995.0000    165.5201      0.0000    717.3725      4.2554
   995.2500    160.7731      0.0000    719.8596      4.3116
   995.5000    154.8198      0.0000    720.6049      4.4118
   995.7500    149.1826      0.0000    721.4062      4.5559
   996.0000    145.3055      0.0000    723.6953      4.7333
   996.2500    144.2246      0.0000    727.0330      4.9136
   996.5000    146.2225      0.0000    729.5772      5.0592
   996.7500    150.6368      0.0000    729.3134      5.1502
   997.0000    155.8754      0.0000    724.5237      5.1915
   997.2500    159.8836      0.0000    714.0880      5.1992
   997.5000    161.0779      0.0000    698.6609      5.1897
   997.7500    159.0645      0.0000    681.6919      5.1803
   998.0000    154.3496      0.0000    668.4194      5.1869
   998.2500    147.1950      0.0000    663.1852      5.2208
   998.5000    136.9483      0.0000    667.2303      5.2906
   998.7500    122.9736      0.0000    678.1555      5.3984
   999.0000    106.3818      0.0000    691.0311      5.5305
   999.2500     90.3120      0.0000    700.6778      5.6520
   999.5000     77.9883      0.0000    703.7111      5.7145
   999.7500     70.5492      0.0000    699.2424      5.6748
  1000.0000     66.8414      0.0000    689.3113      5.5243
  1000.2500     65.0371      0.0000    679.3947      5.3063
  1000.5000     64.2823      0.0000    676.4243      5.0956
  1000.7500     64.9220      0.0000    683.8412      4.9458
  1001.0000     67.4151      0.0000    698.5924      4.8564
  1001.2500     71.2869      0.0000    713.8661      4.7894
  1001.5000     75.2582      0.0000    724.5037      4.7036
  1001.7500     78.4100      0.0000    729.5624      4.5743
  1002.0000     81.1963      0.0000    730.9115      4.3962
  1002.2500     85.1965      0.0000    730.7415      4.1811
  1002.5000     91.7198      0.0000    730.3255      3.9522
  1002.7500    100.7056      0.0000    730.0804      3.7306
  1003.0000    111.0092      0.0000    730.0161      3.5289
  1003.2500    121.3680      0.0000    730.0300      3.3580
  1003.5000    130.8927      0.0000    730.0336      3.2347
  1003.7500    138.9691      0.0000    730.0040      3.1744
  1004.0000    144.9606      0.0000    729.9919      3.1746
  1004.2500    148.0090      0.0000    730.0692      3.2121
  1004.5000    147.5085      0.0000    730.2640      3.2580
  1004.7500    144.2357      0.0000    730.5517      3.2961
  1005.0000    140.5716      0.0000    730.8777      3.3284
  1005.2500    138.8960      0.0000    731.1027      3.3714
  1005.5000    139.9663      0.0000    730.8281      3.4466
  1005.7500    143.0679      0.0000    729.3195      3.5609
  1006.0000    147.0352      0.0000    725.8402      3.6856
  1006.2500    150.6872      0.0000    720.3392      3.7671
  1006.5000    152.9318      0.0000    713.8375      3.7751
  1006.7500    153.0674      0.0000    707.9227      3.7323
  1007.0000    150.8680      0.0000    703.7211      3.6893
  1007.2500    146.4977      0.0000    701.3365      3.6796
  1007.5000    140.9455      0.0000    700.1353      3.7027
  1007.7500    136.2975      0.0000    699.3842      3.7393
  1008.0000    134.6803      0.0000    698.6665      3.7734
  1008.2500    136.8513      0.0000    697.9335      3.8013
  1008.5000    141.9830      0.0000    697.3290      3.8247
  1008.7500    148.2430      0.0000    696.9653      3.8416
  1009.0000    153.2942      0.0000    696.7994      3.8461
  1009.2500    155.1219      0.0000    696.6943      3.8375
  1009.5000    153.1953      0.0000    696.6027      3.8253
  1009.7500    148.6799      0.0000    696.7249      3.8238
  1010.0000    143.4335      0.0000    697.5199      3.8406
  1010.2500    138.8797      0.0000    699.5125      3.8684
  1010.5000    135.3168      0.0000    702.8444      3.8910
  1010.7500    131.8050      0.0000    706.7958      3.8969
  1011.0000    127.2608      0.0000    709.9990      3.8876
  1011.2500    121.9897      0.0000    711.6432      3.8700
  1011.5000    117.5355      0.0000    712.4614      3.8447
  1011.7500    114.7849      0.0000    714.0154      3.8044
  1012.0000    112.8014      0.0000    716.9668      3.7440
  1012.2500    109.7492      0.0000    720.5037      3.6681
  1012.5000    104.5733      0.0000    723.4040      3.5886
  1012.7500     97.6907      0.0000    725.1393      3.5176
  1013.0000     90.3721      0.0000    725.9272      3.4614
  1013.2500     83.7290      0.0000    726.1990      3.4199
  1013.5000     78.1940      0.0000    726.2433      3.3904
  1013.7500     73.7321      0.0000    726.1788      3.3706
  1014.0000     70.4044      0.0000    726.0585      3.3574
  1014.2500     68.5791      0.0000    725.9402      3.3447
  1014.5000     68.5440      0.0000    725.8762      3.3256
  1014.7500     70.0816      0.0000    725.8699      3.2956
  1015.0000     72.5607      0.0000    725.8645      3.2547
  1015.2500     75.3633      0.0000    725.7755      3.2068
  1015.5000     78.2134      0.0000    725.5437      3.1565
  1015.7500     81.1123      0.0000    725.1710      3.1059
  1016.0000     83.9407      0.0000    724.7099      3.0546
  1016.2500     86.2232      0.0000    724.2302      3.0014
  1016.5000     87.3964      0.0000    723.7990      2.9453
  1016.7500     87.1978      0.0000    723.4452      2.8850
  1017.0000     85.6569      0.0000    723.0694      2.8232
  1017.2500     82.8825      0.0000    722.3463      2.7710
  1017.5000     79.1276      0.0000    720.8600      2.7451
  1017.7500     74.9715      0.0000    718.6333      2.7557
  1018.0000     71.0353      0.0000    716.6149      2.7956
  1018.2500     67.4090      0.0000    716.2488      2.8435
  1018.5000     63.6397      0.0000    718.1595      2.8819
  1018.7500     59.4393      0.0000    721.4291      2.9086
  1019.0000     55.2764      0.0000    724.4352      2.9322
  1019.2500     52.1058      0.0000    726.2004      2.9611
  1019.5000     50.5541      0.0000    726.7877      2.9973
  1019.7500     50.5299      0.0000    726.7617      3.0364
  1020.0000     51.6098      0.0000    726.5992      3.0706
  1020.2500     53.4869      0.0000    726.4884      3.0932
  1020.5000     55.7827      0.0000    726.4023      3.1020
  1020.7500     57.6190      0.0000    726.2393      3.1000
  1021.0000     57.9153      0.0000    725.9399      3.0917
  1021.2500     56.4240      0.0000    725.5309      3.0819
  1021.5000     54.2105      0.0000    725.1021      3.0781
  1021.7500     52.7690      0.0000    724.7417      3.0881
  1022.0000     52.7794      0.0000    724.4898      3.1142
  1022.2500     53.8620      0.0000    724.3417      3.1498
  1022.5000     55.2082      0.0000    724.2720      3.1856
  1022.7500     56.1480      0.0000    724.2538      3.2202
  1023.0000     56.3505      0.0000    724.2740      3.2614
  1023.2500     55.8823      0.0000    724.3201      3.3153
  1023.5000     55.2031      0.0000    724.2937      3.3767
  1023.7500     54.9580      0.0000    723.8411      3.4312
  1024.0000     55.6307      0.0000    722.2634      3.4638
  1024.2500     57.3021      0.0000    718.8002      3.4747
  1024.5000     59.6613      0.0000    713.3150      3.4902
  1024.7500     62.2198      0.0000    706.8110      3.5533
  1025.0000     64.6336      0.0000    701.1139      3.6947
  1025.2500     66.9931      0.0000    697.9479      3.9087
  1025.5000     69.9422      0.0000    698.2160      4.1554
  1025.7500     74.5178      0.0000    701.7400      4.3783
  1026.0000     81.6775      0.0000    707.1530      4.5252
  1026.2500     91.5577      0.0000    712.2263      4.5671
  1026.5000    102.8918      0.0000    715.1778      4.5137
  1026.7500    113.3612      0.0000    716.1662      4.4108
  1027.0000    120.9091      0.0000    717.0259      4.3143
  1027.2500    124.7873      0.0000    719.0458      4.2645
