~Version Information
 VERS.                      2.0: CWLS Log ASCII Standard - VERSION 2.0
 WRAP.                       NO: One line per depth step
 ~Well Information Block
 STRT.FT               462.4000: 
 STOP.FT              2260.5000: 
 STEP.FT                 0.1000: 
 NULL.                -999.2500: 
 COMP.          Petrogulf Corporation: COMPANY
 WELL.             McLeod 9-42V: WELL
 FLD.           Purgatorie River: FIELD
 LOC.           1658' FNL & 415' FEL: LOCATION
 CNTY.               Las Animas: COUNTY
 SRVC.                         : SERVICE COMPANY
 DATE.          Fri Nov 12 10:12:24 2004: LOG DATE
 UWI.           05 071 08071 00: UNIQUE WELL ID
 STAT.                 Colorado: STATE
 PROV.                         :Province
 ~Curve Information Block
 DEPT.FT            0 000 00 00: Depth
 DCAL.in                       : CDL Caliper
 RHOB.g/cc                     : CDL Bulk Density
 RHOC.g/cc                     : CDL Density Correction
 DPOR.pu                       : CDL Density Porosity
 GR.GAPI                       : Gamma Ray
 NPOR.pu                       : Neutron Porosity
 ~Parameter Information Block
 ~A  Depth       DCAL        RHOB        RHOC        DPOR         GR         NPOR    
# ...
  1067.2000      8.1434      2.5209      0.0337      7.8215    124.6531     28.5892
  1067.3000      8.1426      2.5184      0.0177      7.9786    124.7981     28.1810
  1067.4000      8.1426      2.5041      0.0072      8.8445    125.6451     27.8922
  1067.5000      8.1503      2.4890     -0.0299      9.7595    128.0157     27.9851
  1067.6000      8.1503      2.4837     -0.0096     10.0770    130.2237     28.1176
  1067.7000      8.1503      2.4875     -0.0306      9.8488    131.0254     28.1637
  1067.8000      8.1535      2.5002     -0.0002      9.0786    131.9194     28.1711
  1067.9000      8.1535      2.5124      0.0227      8.3419    132.9093     27.9596
  1068.0000      8.1494      2.5126     -0.0251      8.3281    133.6578     27.5907
  1068.1000      8.1494      2.5101     -0.0195      8.4792    134.3100     27.2832
  1068.2000      8.1494      2.5090      0.0060      8.5472    135.2376     27.2588
  1068.3000      8.1694      2.4984      0.0025      9.1873    136.7576     27.6501
  1068.4000      8.1694      2.4755      0.0356     10.5760    136.6468     28.2464
  1068.5000      8.1678      2.4496     -0.0038     12.1476    134.8148     28.7587
  1068.6000      8.1678      2.4283     -0.0047     13.4352    134.8954     29.0128
  1068.7000      8.1678      2.4061     -0.0011     14.7803    137.5562     28.9189
  1068.8000      8.1498      2.3801     -0.0597     16.3569    138.0928     28.4906
  1068.9000      8.1498      2.3533      0.0116     17.9844    135.3419     27.8823
  1069.0000      8.1436      2.3257     -0.0210     19.6553    133.2610     27.4423
  1069.1000      8.1436      2.3081     -0.0266     20.7187    133.7503     27.1669
  1069.2000      8.1436      2.3164     -0.0168     20.2172    136.5063     26.8840
  1069.3000      8.1546      2.3482      0.0213     18.2890    140.9435     26.6834
  1069.4000      8.1546      2.3842      0.0938     16.1113    146.0319     26.3574
  1069.5000      8.1649      2.4218      0.1259     13.8293    148.2139     25.7485
  1069.6000      8.1649      2.4811      0.1992     10.2390    144.5507     25.2224
  1069.7000      8.1649      2.5578      0.3768      5.5866    138.9458     25.0280
  1069.8000      8.1861      2.6167      0.4274      2.0210    136.5159     24.9266
  1069.9000      8.1861      2.6259      0.4259      1.4602    136.7778     24.4761
  1070.0000      8.3018      2.5761      0.3318      4.4768    137.6671     23.9589
  1070.1000      8.3018      2.4919      0.2107      9.5811    139.5906     24.0348
  1070.2000      8.3018      2.4148      0.1596     14.2528    140.9138     24.5335
  1070.3000      8.6561      2.3572      0.1791     17.7435    138.7388     24.8858
  1070.4000      8.6561      2.2925      0.1619     21.6678    135.0678     25.0776
  1070.5000      8.8202      2.2050      0.1174     26.9703    134.7611     25.5199
  1070.6000      8.8202      2.1261      0.0834     31.7506    137.8672     26.1185
  1070.7000      8.8202      2.1063      0.1026     32.9536    139.3723     26.3380
  1070.8000      8.6603      2.1737      0.1156     28.8652    138.1250     26.3103
  1070.9000      8.6603      2.3199      0.2625     20.0041    139.3579     26.7205
  1071.0000      8.7238      2.4986      0.3956      9.1762    144.0655     27.7430
  1071.1000      8.7238      2.6424      0.4782      0.4589    146.4662     28.8353
  1071.2000      8.7238      2.7045      0.5101     -3.3007    143.7534     29.4010
  1071.3000      8.8450      2.6913      0.4555     -2.5039    139.5045     29.1768
  1071.4000      8.8450      2.6377      0.3839      0.7433    138.9751     28.5021
  1071.5000      8.6092      2.5591      0.3496      5.5084    142.9902     28.1806
  1071.6000      8.6092      2.4575      0.1798     11.6671    147.2023     28.3977
  1071.7000      8.6092      2.3633     -0.0304     17.3729    147.9516     28.3291
  1071.8000      8.2466      2.3235     -0.0737     19.7879    146.6376     27.6795
  1071.9000      8.2466      2.3470      0.0077     18.3622    144.9061     27.0903
  1072.0000      8.1516      2.4088      0.0477     14.6209    144.3904     26.7630
  1072.1000      8.1516      2.4870      0.2036      9.8766    146.6577     26.3609
  1072.2000      8.1516      2.5601      0.3547      5.4459    150.1850     25.9270
  1072.3000      8.1707      2.6032      0.4384      2.8377    153.0111     25.8395
  1072.4000      8.1707      2.6133      0.3873      2.2236    154.8343     26.0220
  1072.5000      8.3369      2.6092      0.2947      2.4719    156.7943     26.0898
  1072.6000      8.3369      2.5989      0.2619      3.0955    159.5549     26.2399
  1072.7000      8.3369      2.5819      0.1849      4.1294    160.8174     26.8255
  1072.8000      8.2724      2.5682      0.1199      4.9564    158.9238     27.7207
  1072.9000      8.2724      2.5536      0.1514      5.8413    154.4754     28.5983
  1073.0000      8.2349      2.5176      0.1413      8.0236    148.1782     29.0682
  1073.1000      8.2349      2.4717      0.0362     10.8067    142.5141     29.0191
  1073.2000      8.2349      2.4468      0.0622     12.3150    139.9724     28.8634
  1073.3000      8.2234      2.4417      0.0810     12.6220    137.9689     28.7373
  1073.4000      8.2234      2.4434      0.0185     12.5184    135.0306     28.5603
  1073.5000      8.1921      2.4596      0.0287     11.5407    135.9722     28.7394
  1073.6000      8.1921      2.4915      0.0579      9.6045    142.2369     29.3546
  1073.7000      8.1921      2.5217      0.1221      7.7777    147.6975     29.8041
  1073.8000      8.1737      2.5424      0.1077      6.5205    148.0971     29.7138
  1073.9000      8.1737      2.5681      0.1253      4.9619    145.8071     29.2534
  1074.0000      8.2354      2.5994      0.1856      3.0655    142.9535     28.8542
  1074.1000      8.2354      2.6028      0.2127      2.8617    139.9667     28.8423
  1074.2000      8.2354      2.5566      0.1061      5.6627    138.7534     29.1437
  1074.3000      8.2388      2.4834      0.0227     10.0969    139.1799     29.4764
  1074.4000      8.2388      2.4175     -0.0267     14.0918    141.0118     29.6139
  1074.5000      8.2044      2.3708      0.0103     16.9186    146.1985     29.2963
  1074.6000      8.2044      2.3379      0.0305     18.9138    152.2606     28.4280
  1074.7000      8.2044      2.3169     -0.0244     20.1865    154.3444     27.5828
  1074.8000      8.2260      2.3082      0.0115     20.7134    153.2346     27.3709
  1074.9000      8.2260      2.3139      0.0316     20.3721    151.4139     27.4454
  1075.0000      8.1711      2.3527      0.0531     18.0167    148.1219     27.1446
  1075.1000      8.1711      2.4324      0.2297     13.1866    144.7369     26.4060
  1075.2000      8.1711      2.5156      0.3730      8.1458    145.8190     25.4644
  1075.3000      8.2164      2.5613      0.3878      5.3743    151.0685     24.4187
  1075.4000      8.2164      2.5634      0.3773      5.2510    155.0659     23.2871
  1075.5000      8.2025      2.5265      0.3757      7.4856    155.2115     22.2662
  1075.6000      8.2025      2.4550      0.2217     11.8152    152.4018     21.4704
  1075.7000      8.2025      2.3590      0.1687     17.6334    147.4880     20.5347
  1075.8000      8.3525      2.2451      0.1596     24.5393    142.5164     19.3270
  1075.9000      8.3525      2.1178      0.0299     32.2524    140.5452     18.3666
  1076.0000      8.3118      1.9849      0.0170     40.3073    141.5827     17.8510
  1076.1000      8.3118      1.8675     -0.0377     47.4218    141.7487     17.6144
  1076.2000      8.3118      1.8007     -0.0374     51.4745    138.6029     17.6717
  1076.3000      8.4108      1.7927      0.0192     51.9564    134.2004     17.9624
  1076.4000      8.4108      1.8247      0.0062     50.0157    131.2387     18.7342
  1076.5000      8.2779      1.8855      0.1128     46.3355    129.0205     20.1904
  1076.6000      8.2779      1.9692      0.1355     41.2636    125.8966     21.6626
  1076.7000      8.2779      2.0628      0.2362     35.5878    123.6387     22.7015
