~Version Information
VERS.                      2.0: CWLS Log ASCII Standard - VERSION 2.0
WRAP.                       NO: One line per depth step
~Well Information Block
STRT.FT               840.0000: 
STOP.FT              2450.0000: 
STEP.FT                 0.1000: 
NULL.                -999.2500: 
COMP.          Petrogulf Corporation: COMPANY
WELL.             Leier 17-42V: WELL
FLD.           Purgatorie River: FIELD
LOC.           2309' FNL & 1062' FEL SENE 17 33S 67W: LOCATION
PROV.                 Colorado: PROVINCE
CNTY.               Las Animas: COUNTRY
SRVC.                Patterson: SERVICE COMPANY
DATE.          Thu Sep 22 09:35:36 2005: LOG DATE
UWI.           071 08409 : UNIQUE WELL ID
~Curve Information Block
DEPT.FT            0 000 00 00: Depth
DCAL.in                       : CDL Caliper
RHOB.g/cc                     : CDL Bulk Density
RHOC.g/cc                     : CDL Density Correction
DPOR.pu                       : CDL Density Porosity
GR.GAPI                       : Gamma Ray
NPOR.pu                       : Neutron Porosity
~Parameter Information Block
~A  Depth       DCAL        RHOB        RHOC        DPOR         GR         NPOR    
# ...
  1156.8000      8.1354      2.4553      0.1405     11.8025    155.2087     30.4433
  1156.9000      8.1354      2.4575      0.0906     11.6648    155.8681     30.5276
  1157.0000      8.1682      2.4706      0.0729     10.8748    160.1972     31.0474
  1157.1000      8.1682      2.4765      0.0995     10.5178    168.0012     31.6522
  1157.2000      8.1682      2.4533      0.0407     11.9214    172.9513     32.0723
  1157.3000      8.1857      2.4098      0.0243     14.5577    173.3219     32.1822
  1157.4000      8.1857      2.3698      0.0455     16.9845    171.6008     32.0572
  1157.5000      8.1895      2.3487      0.0367     18.2630    168.0266     31.9106
  1157.6000      8.1895      2.3453      0.0652     18.4692    160.3319     31.8838
  1157.7000      8.1895      2.3449      0.0752     18.4937    151.1512     32.0482
  1157.8000      8.2130      2.3329      0.0732     19.2161    147.9069     32.2669
  1157.9000      8.2130      2.3079      0.0201     20.7326    153.7010     32.2937
  1158.0000      8.2345      2.2843      0.0371     22.1659    162.9753     31.9885
  1158.1000      8.2345      2.2765     -0.0099     22.6363    166.2830     31.5923
  1158.2000      8.2345      2.2850      0.0553     22.1197    161.6508     31.5380
  1158.3000      8.2643      2.2966      0.0519     21.4211    157.5369     31.8515
  1158.4000      8.2643      2.3042      0.0247     20.9603    158.3473     32.2115
  1158.5000      8.2607      2.3097      0.0495     20.6225    161.0679     32.3198
  1158.6000      8.2607      2.3067      0.0247     20.8054    163.5284     32.2017
  1158.7000      8.2607      2.2885      0.0615     21.9102    165.1909     32.0977
  1158.8000      8.3154      2.2618      0.0410     23.5261    165.4553     32.1127
  1158.9000      8.3154      2.2401      0.0584     24.8418    164.8119     32.1379
  1159.0000      8.2574      2.2318      0.0363     25.3429    165.2997     32.0456
  1159.1000      8.2574      2.2415      0.0159     24.7600    166.3569     31.9411
  1159.2000      8.2574      2.2609      0.0555     23.5807    165.0210     32.0542
  1159.3000      8.2593      2.2712      0.0729     22.9586    162.2928     32.4072
  1159.4000      8.2593      2.2655      0.0506     23.3023    160.4009     32.7798
  1159.5000      8.2722      2.2515      0.0490     24.1521    158.7832     32.8408
  1159.6000      8.2722      2.2292      0.0691     25.5052    159.1264     32.4967
  1159.7000      8.2722      2.1914      0.0147     27.7924    160.0508     32.0794
  1159.8000      8.2604      2.1373      0.0339     31.0736    154.2122     31.9193
  1159.9000      8.2604      2.0617      0.0324     35.6570    140.2212     31.9565
  1160.0000      8.2599      1.9553     -0.0269     42.1032    126.2678     32.0392
  1160.1000      8.2599      1.8252     -0.1047     49.9860    118.2837     32.1234
  1160.2000      8.2599      1.6958     -0.1707     57.8326    112.1805     32.0097
  1160.3000      8.2792      1.5791     -0.1789     64.9032    100.7685     31.7281
  1160.4000      8.2792      1.4708     -0.1466     71.4649     84.9073     31.6421
  1160.5000      8.2985      1.3834     -0.1431     76.7635     71.0974     31.8433
  1160.6000      8.2985      1.3358     -0.0830     79.6492     62.4488     32.1217
  1160.7000      8.2985      1.3163     -0.0146     80.8326     58.2598     32.1865
  1160.8000      8.3210      1.3009     -0.0120     81.7651     55.3010     31.9669
  1160.9000      8.3210      1.2852     -0.0240     82.7129     50.1744     31.7244
  1161.0000      8.2868      1.2753     -0.0302     83.3132     43.9331     31.7092
  1161.1000      8.2868      1.2732     -0.0132     83.4401     40.0129     32.0618
  1161.2000      8.2868      1.2851     -0.0427     82.7194     38.9669     32.7627
  1161.3000      8.2840      1.3271     -0.0473     80.1777     39.8338     33.3716
  1161.4000      8.2840      1.4015      0.0101     75.6660     42.0648     33.5007
  1161.5000      8.2708      1.4833      0.0568     70.7119     45.8056     33.3539
  1161.6000      8.2708      1.5598      0.0396     66.0709     51.5195     33.3339
  1161.7000      8.2708      1.6541      0.0456     60.3590     58.1732     33.6313
  1161.8000      8.2685      1.7713      0.1274     53.2558     65.3910     34.1412
  1161.9000      8.2685      1.8721      0.1613     47.1463     72.0978     34.5164
  1162.0000      8.2916      1.9283      0.1260     43.7384     76.6634     34.4854
  1162.1000      8.2916      1.9476      0.1099     42.5673     80.9514     34.0672
  1162.2000      8.2916      1.9379      0.0727     43.1605     86.0304     33.6893
  1162.3000      8.3724      1.9033     -0.0052     45.2530     89.1553     33.6363
  1162.4000      8.3724      1.8523      0.0159     48.3460     88.7654     33.6577
  1162.5000      8.3141      1.7862      0.0109     52.3523     86.3980     33.5109
  1162.6000      8.3141      1.7114     -0.0770     56.8861     83.6548     33.2477
  1162.7000      8.3141      1.6360     -0.0850     61.4572     79.4490     33.1687
  1162.8000      8.3129      1.5551     -0.0514     66.3590     73.4484     33.4624
  1162.9000      8.3129      1.4743     -0.0567     71.2534     67.0570     33.9202
  1163.0000      8.3233      1.4148     -0.0580     74.8609     61.6344     34.1855
  1163.1000      8.3233      1.3780     -0.0067     77.0921     56.3936     34.1253
  1163.2000      8.3233      1.3436      0.0538     79.1767     48.3652     33.9478
  1163.3000      8.3451      1.3053      0.0310     81.4974     39.0143     33.9457
  1163.4000      8.3451      1.2762      0.0185     83.2627     33.0845     34.0860
  1163.5000      8.5355      1.2634     -0.0023     84.0374     30.7327     34.3738
  1163.6000      8.5355      1.2627     -0.0051     84.0773     29.0724     34.8087
  1163.7000      8.5355      1.2693     -0.0147     83.6765     26.9853     35.0770
  1163.8000      8.8759      1.2778      0.0280     83.1633     24.1909     35.1387
  1163.9000      8.8759      1.2804      0.0192     83.0052     21.2159     35.1120
  1164.0000      9.0971      1.2773     -0.0089     83.1917     20.3367     34.8685
  1164.1000      9.0971      1.2747      0.0029     83.3543     21.2641     34.6076
  1164.2000      9.0971      1.2727      0.0071     83.4726     20.8970     34.8127
  1164.3000      8.8348      1.2695     -0.0147     83.6674     18.6676     35.3855
  1164.4000      8.8348      1.2654     -0.0106     83.9161     16.6529     35.6318
  1164.5000      8.6172      1.2599     -0.0121     84.2477     15.9141     35.3314
  1164.6000      8.6172      1.2547     -0.0161     84.5654     16.6520     35.1434
  1164.7000      8.6172      1.2534     -0.0068     84.6452     18.6347     35.3512
  1164.8000      8.9265      1.2537      0.0109     84.6224     19.7905     35.5381
  1164.9000      8.9265      1.2504     -0.0204     84.8216     18.4454     35.4485
  1165.0000      9.3095      1.2426     -0.0015     85.2996     15.9218     35.1917
  1165.1000      9.3095      1.2356     -0.0291     85.7219     14.7605     35.0467
  1165.2000      9.3095      1.2352     -0.0172     85.7456     16.1207     35.0851
  1165.3000      9.5152      1.2386      0.0098     85.5414     18.8928     35.0949
  1165.4000      9.5152      1.2452     -0.0330     85.1404     21.7250     35.0708
  1165.5000      9.5085      1.2604     -0.0030     84.2165     25.3211     35.1836
  1165.6000      9.5085      1.2867     -0.0193     82.6216     29.2511     35.3462
  1165.7000      9.5085      1.3274     -0.0004     80.1600     31.3401     35.2471
  1165.8000      8.9984      1.3744      0.0549     77.3093     32.8908     34.8950
  1165.9000      8.9984      1.4001      0.0858     75.7507     35.8530     34.6307
  1166.0000      8.7029      1.3892      0.0499     76.4143     38.5497     34.6207
  1166.1000      8.7029      1.3595      0.0088     78.2151     39.3198     34.7824
  1166.2000      8.7029      1.3377     -0.0097     79.5331     38.6413     34.8278
  1166.3000      8.7737      1.3322      0.0224     79.8667     37.9703     34.6018
