~Version Information
VERS.                      2.0: CWLS Log ASCII Standard - VERSION 2.0
WRAP.                       NO: One line per depth step
~Well Information Block
STRT.FT               298.0000: 
STOP.FT              1302.0000: 
STEP.FT                 0.1000: 
NULL.                -999.2500: 
COMP.          Pioneer Natural Resources: COMPANY
WELL.          Bouncer 41-27 Tr: WELL
FLD.           Purgatoire River: FIELD
LOC.           292' FNL & 222' FEL: LOCATION
PROV.                 Colorado: PROVINCE
CNTY.               Las Animas: COUNTRY
SRVC.                Patterson: SERVICE COMPANY
DATE.          Mon Feb 07 12:55:19 2005: LOG DATE
UWI.           05 071 08291 00: UNIQUE WELL ID
~Curve Information Block
DEPT.FT            0 000 00 00: Depth
DCAL.in                       : CDL Caliper
RHOB.g/cc                     : CDL Bulk Density
RHOC.g/cc                     : CDL Density Correction
DPOR.pu                       : CDL Density Porosity
GR.GAPI                       : Gamma Ray
NPOR.pu                       : Neutron Porosity
~Parameter Information Block
~A  Depth       DCAL        RHOB        RHOC        DPOR         GR         NPOR    
# ...
   960.4000      7.9014      2.5274      0.0822      7.4303    161.1376     11.9819
   960.5000      7.9336      2.5262      0.0507      7.5019    162.2296     12.5739
   960.6000      7.9336      2.5289      0.0468      7.3404    155.2277     12.5810
   960.7000      7.9336      2.5203      0.0718      7.8621    149.3327     12.1236
   960.8000      7.9531      2.5007     -0.0050      9.0482    149.3792     12.0787
   960.9000      7.9531      2.5014     -0.0061      9.0076    150.4036     12.5400
   961.0000      7.9626      2.5267      0.0853      7.4747    150.5643     12.8507
   961.1000      7.9626      2.5481      0.0298      6.1782    151.0575     12.9766
   961.2000      7.9626      2.5492      0.0861      6.1098    152.8716     12.9284
   961.3000      7.9545      2.5326      0.0637      7.1137    153.5118     12.6251
   961.4000      7.9545      2.5094      0.0696      8.5192    147.9262     12.5693
   961.5000      7.9543      2.4898      0.0436      9.7070    138.0956     12.9962
   961.6000      7.9543      2.4816      0.0117     10.2073    133.0158     13.2306
   961.7000      7.9543      2.4768      0.0623     10.4992    137.4637     12.4771
   961.8000      7.9375      2.4604      0.0088     11.4884    142.9144     11.0447
   961.9000      7.9375      2.4438     -0.0389     12.4972    140.8741     10.4366
   962.0000      7.9482      2.4389      0.0187     12.7963    134.9556     11.2067
   962.1000      7.9482      2.4426      0.0006     12.5673    130.8626     12.3032
   962.2000      7.9482      2.4552      0.0689     11.8038    128.1580     12.8103
   962.3000      7.9516      2.4688      0.0494     10.9840    125.3950     12.7847
   962.4000      7.9516      2.4766      0.0789     10.5116    123.9982     12.7697
   962.5000      7.9419      2.4919      0.0872      9.5788    124.2586     12.7670
   962.6000      7.9419      2.5424      0.1331      6.5216    125.0569     12.1850
   962.7000      7.9419      2.6324      0.1609      1.0652    125.2236     11.2767
   962.8000      7.8759      2.7201      0.2392     -4.2501    122.6764     10.8224
   962.9000      7.8759      2.7521      0.2622     -6.1876    116.0306     10.6773
   963.0000      7.8491      2.7186      0.1963     -4.1596    108.3766     10.1872
   963.1000      7.8491      2.6543      0.1819     -0.2608    105.2341      9.3489
   963.2000      7.8491      2.5917      0.1237      3.5325    105.3361      8.7562
   963.3000      7.8521      2.5389      0.0595      6.7329    105.2276      8.7458
   963.4000      7.8521      2.4953      0.0626      9.3774    104.9074      9.0378
   963.5000      7.8800      2.4659      0.0158     11.1557    105.5321      8.9905
   963.6000      7.8800      2.4534      0.0180     11.9123    109.1731      8.1542
   963.7000      7.8800      2.4551      0.0396     11.8140    115.6634      6.8388
   963.8000      7.9109      2.4763      0.0483     10.5299    122.6391      6.0318
   963.9000      7.9109      2.5165      0.0607      8.0898    128.5565      6.3211
   964.0000      7.9070      2.5544      0.1680      5.7963    132.1417      6.9932
   964.1000      7.9070      2.5762      0.1553      4.4726    134.1530      7.3953
   964.2000      7.9070      2.5895      0.1498      3.6662    137.3622      8.3023
   964.3000      7.9187      2.5923      0.1869      3.4972    141.2424      9.6636
   964.4000      7.9187      2.5755      0.1758      4.5151    142.1272      9.8242
   964.5000      7.9571      2.5544      0.0979      5.7966    139.7701      8.7778
   964.6000      7.9571      2.5528      0.1497      5.8922    137.6107      8.6798
   964.7000      7.9571      2.5678      0.1374      4.9789    136.9992     10.4530
   964.8000      7.9660      2.5771      0.1241      4.4156    135.3966     12.6094
   964.9000      7.9660      2.5768      0.1027      4.4344    132.1975     13.9426
   965.0000      7.9408      2.5861      0.0771      3.8752    131.3584     15.0092
   965.1000      7.9408      2.6071      0.1105      2.5977    135.4398     16.4067
   965.2000      7.9408      2.6173      0.0970      1.9841    141.8522     17.6419
   965.3000      7.9561      2.6074      0.0770      2.5825    146.1979     18.1859
   965.4000      7.9561      2.5996      0.0148      3.0574    146.7136     18.4120
   965.5000      7.9604      2.6111      0.0188      2.3582    139.8816     18.4870
   965.6000      7.9604      2.6198      0.0833      1.8323    124.9328     17.8260
   965.7000      7.9604      2.6025      0.0554      2.8784    114.4212     16.5656
   965.8000      7.9650      2.5792      0.0364      4.2931    116.5730     15.7910
   965.9000      7.9650      2.5783      0.0476      4.3430    122.8101     15.8493
   966.0000      7.9310      2.5944      0.1315      3.3725    128.4977     15.9898
   966.1000      7.9310      2.6087      0.0936      2.5041    134.0144     15.7457
   966.2000      7.9310      2.6162      0.1397      2.0475    134.8268     15.0181
   966.3000      7.9249      2.6027      0.1357      2.8641    130.6444     13.9426
   966.4000      7.9249      2.5613      0.0805      5.3765    126.5339     13.3492
   966.5000      7.9127      2.5172      0.0631      8.0489    124.8930     13.4026
   966.6000      7.9127      2.4951      0.0418      9.3903    125.0221     13.3854
   966.7000      7.9127      2.4944      0.0312      9.4305    123.7192     13.3233
   966.8000      7.9399      2.5015      0.0475      8.9988    120.5514     13.7025
   966.9000      7.9399      2.5111      0.0601      8.4167    120.8950     14.2194
   967.0000      7.9440      2.5263      0.0767      7.4947    128.4256     14.1910
   967.1000      7.9440      2.5361      0.1017      6.9024    138.8559     13.7833
   967.2000      7.9440      2.5209      0.0683      7.8238    145.7997     13.7532
   967.3000      7.9422      2.4885      0.0112      9.7895    149.0785     14.0761
   967.4000      7.9422      2.4689      0.0297     10.9783    149.1049     14.1620
   967.5000      7.9444      2.4637      0.1302     11.2939    147.8723     14.1166
   967.6000      7.9444      2.4577      0.0333     11.6550    150.7221     14.3181
   967.7000      7.9444      2.4589      0.0712     11.5847    155.1162     15.1151
   967.8000      7.9382      2.4726      0.1286     10.7536    153.8861     16.5580
   967.9000      7.9382      2.4946      0.1110      9.4187    147.4924     17.5465
   968.0000      7.9332      2.5226      0.1093      7.7207    142.3467     17.5345
   968.1000      7.9332      2.5443      0.1273      6.4044    142.1848     17.7005
   968.2000      7.9332      2.5513      0.1375      5.9848    146.2085     18.8267
   968.3000      7.9575      2.5484      0.1310      6.1547    152.5299     19.7170
   968.4000      7.9575      2.5341      0.1212      7.0261    159.5258     19.1429
   968.5000      7.9515      2.5058      0.0897      8.7410    163.2081     17.6587
   968.6000      7.9515      2.4803      0.0202     10.2859    158.2427     16.9096
   968.7000      7.9515      2.4692      0.0283     10.9581    147.5121     17.7231
   968.8000      7.9656      2.4641      0.0422     11.2696    142.0396     19.2946
   968.9000      7.9656      2.4576      0.0700     11.6593    143.3193     20.1262
   969.0000      7.9757      2.4597      0.0172     11.5361    143.5737     19.6429
   969.1000      7.9757      2.4776      0.0964     10.4514    141.8669     18.8522
   969.2000      7.9757      2.4980      0.1260      9.2128    141.5977     18.7366
   969.3000      8.0027      2.5173      0.0895      8.0427    144.2692     19.0577
   969.4000      8.0027      2.5405      0.1458      6.6349    146.5070     19.1785
   969.5000      8.0367      2.5595      0.1519      5.4837    145.0695     18.9547
   969.6000      8.0367      2.5710      0.1357      4.7881    143.6628     18.7375
   969.7000      8.0367      2.5727      0.1324      4.6857    145.4380     18.5247
   969.8000      8.0547      2.5474      0.1345      6.2172    148.5712     18.0775
   969.9000      8.0547      2.4969      0.0856      9.2771    150.5569     17.9000
