~Version Information
 VERS.                                  2.0 : CWLS LAS VERSION
 WRAP.                                   NO : WRAPING MODE
 SWARE .                 MController 2.5.0J : SOFTWARE VERSION
~Well Information
 WELL.                         State 16-24R : WELL
 COMP.                Petrogulf Corporation : COMPANY
 FLD.                      Purgatoire River : FIELD
 LOC.                SE/SW Sec 16 T33S R67W : LOCATION
 DATE.                            8/9-11/05 : DATE(S) LOGGED
 SRVC.       BLANCO Geological Services LLC : SERVICE COMPANY
 STAT.                                   CO : STATE
 CNTY.                           Las Animas : COUNTY
 CTRY.                                  USA : COUNTRY
 API.                       05-071-08312-00 : API NUMBER
 STRT.FT                              27.00 : START DEPTH
 STOP.FT                            1870.00 : STOP DEPTH
 STEP.FT                               1.00 : DEPTH INCREMENT
 NULL.                                -9999 : NULL VALUE
~Curve information
 DEPTH.FT                                   :
 ROP.MIN/FT                                 :
 GAS.UNITS                                  :
~ASCII Log data
# ...
      1027.0         0.23         65.8 
      1028.0         0.20         38.7 
      1029.0         0.20         26.9 
      1030.0         0.17         20.4 
      1031.0         0.20         16.7 
      1032.0         0.22         13.7 
      1033.0         0.20         18.1 
      1034.0         0.20         32.6 
      1035.0         0.17         49.0 
      1036.0         0.20         73.8 
      1037.0         0.23         99.3 
      1038.0         0.37        133.0 
      1039.0         0.40        157.9 
      1040.0         0.23        168.7 
      1041.0         0.28        173.5 
      1042.0         0.30        168.0 
      1043.0         0.27        137.0 
      1044.0         0.20        149.5 
      1045.0         0.10        165.7 
      1046.0         0.13        199.4 
      1047.0         0.10        230.1 
      1048.0         1.53       1523.3 
      1049.0         0.28       1179.9 
      1050.0         0.50        980.9 
      1051.0         0.40        771.7 
      1052.0         0.40        683.2 
      1053.0         0.37        621.3 
      1054.0         0.27        592.1 
      1055.0         0.33        567.6 
      1056.0         0.23        549.2 
      1057.0         0.20        546.4 
      1058.0         0.20        549.9 
      1059.0         0.17        549.5 
      1060.0         0.25        547.3 
      1061.0         0.27        536.2 
      1062.0         0.30        517.2 
      1063.0         0.30        481.9 
      1064.0         0.23        468.9 
      1065.0         0.27        465.8 
      1066.0         0.17        471.5 
      1067.0         0.17        489.6 
      1068.0         0.17        507.6 
      1069.0         0.13        522.9 
      1070.0         0.27        543.2 
      1071.0         0.60        561.6 
      1072.0         0.58        561.6 
      1073.0         0.53        533.7 
      1074.0         0.33        440.0 
      1075.0         0.20        137.3 
      1076.0         0.23        151.5 
      1077.0         0.20        200.3 
      1078.0         2.58       2066.0 
      1079.0         0.37        876.1 
      1080.0         0.43        755.2 
      1081.0         0.33        682.8 
      1082.0         0.30        653.0 
      1083.0         0.37        632.4 
      1084.0         0.52        485.4 
      1085.0         0.73        260.9 
      1086.0         0.40        271.8 
      1087.0         0.60        273.3 
      1088.0         0.53        271.3 
      1089.0         0.47        267.0 
      1090.0         0.30        223.5 
      1091.0         0.42        137.1 
      1092.0         0.33         54.1 
      1093.0         1.73        309.4 
      1094.0         0.53        309.0 
      1095.0         0.42        293.7 
      1096.0         0.37        282.3 
      1097.0         0.67        276.9 
      1098.0         0.57        269.0 
      1099.0         0.47        256.3 
      1100.0         0.47        251.7 
      1101.0         0.40        219.9 
      1102.0         0.38        194.6 
      1103.0         0.33        183.2 
      1104.0         0.47        196.5 
      1105.0         0.67        222.9 
      1106.0         0.47        229.1 
      1107.0         0.37        220.7 
      1108.0        19.47        310.9 
      1109.0         0.55        110.9 
      1110.0         0.57         82.0 
      1111.0         0.53         57.0 
      1112.0         0.50         34.1 
      1113.0         0.47         12.1 
      1114.0         0.37          5.2 
      1115.0         0.40          5.1 
      1116.0         0.52         25.0 
      1117.0         0.40         38.8 
      1118.0         0.20         46.7 
      1119.0         0.17         51.9 
      1120.0         0.20         59.1 
      1121.0         0.17         63.0 
      1122.0         0.17         63.4 
      1123.0         0.23         62.5 
      1124.0         0.17         57.2 
      1125.0         0.20         53.0 
      1126.0         0.17         47.5 
      1127.0         0.33         44.2 
      1128.0         0.40         37.4 
      1129.0         0.28         32.6 
      1130.0         0.90         29.4 
      1131.0         0.30         26.8 
      1132.0         0.30         32.2 
      1133.0         0.30         33.3 
      1134.0         0.17         29.8 
      1135.0         0.20         26.2 
      1136.0         0.20         24.9 
      1137.0         0.20         24.3 
      1138.0         4.37       1386.8 
      1139.0         0.27        648.9 
      1140.0         0.37        611.4 
      1141.0         0.40        568.0 
      1142.0         0.40        498.8 
      1143.0         0.37        440.0 
      1144.0         0.33         99.5 
      1145.0         0.33         81.7 
      1146.0         0.38         60.8 
      1147.0         0.33         47.2 
      1148.0         0.50         67.6 
      1149.0         0.37         67.5 
      1150.0         0.27         51.3 
      1151.0         0.30         34.8 
      1152.0         0.27         48.0 
      1153.0         0.73         75.4 
      1154.0         0.37         81.0 
      1155.0         0.42         81.1 
      1156.0         0.40         74.2 
      1157.0         0.50         67.3 
      1158.0         0.40         45.3 
      1159.0         0.53         27.9 
      1160.0         0.17         29.9 
      1161.0         0.20         35.1 
      1162.0         0.23         41.5 
      1163.0         0.20         46.0 
      1164.0         0.13         45.9 
      1165.0         0.22         43.6 
      1166.0         0.37         32.6 
      1167.0         0.33         22.4 
      1168.0         5.68       1373.2 
      1169.0         0.45        500.3 
      1170.0         0.40        462.6 
      1171.0         0.40        475.9 
      1172.0         0.43        476.9 
      1173.0         0.47        459.1 
      1174.0         0.43        440.0 
      1175.0         0.43        140.0 
      1176.0         0.37        142.3 
      1177.0         0.55        134.2 
      1178.0         0.43        135.0 
      1179.0         0.53        121.5 
      1180.0         0.43         80.3 
      1181.0         0.50         39.8 
      1182.0         0.40         22.4 
      1183.0         0.45         17.7 
      1184.0         0.37         16.6 
      1185.0         0.43         20.0 
      1186.0         0.37         25.3 
      1187.0         0.27         27.5 
      1188.0         0.17         27.9 
      1189.0         0.27         27.3 
      1190.0         0.37         25.1 
      1191.0         0.37         23.0 
      1192.0         0.43         22.2 
      1193.0         0.45         21.4 
      1194.0         0.23         21.2 
      1195.0         0.37         20.7 
      1196.0         0.70         19.5 
      1197.0         0.60         15.4 
      1198.0         4.40       1177.3 
      1199.0         0.63        728.9 
      1200.0         0.90        588.3 
      1201.0         0.53        480.0 
      1202.0         0.53         86.1 
      1203.0         0.35         40.0 
      1204.0         0.30         30.1 
      1205.0         0.33         30.4 
      1206.0         0.37         32.8 
      1207.0         0.20         32.9 
      1208.0         0.20         32.0 
      1209.0         0.23         31.1 
      1210.0         0.23         30.1 
      1211.0         0.33         29.2 
      1212.0         0.40         28.7 
      1213.0         0.35         31.9 
      1214.0         0.30         33.7 
      1215.0         0.20         33.4 
      1216.0         0.20         33.2 
      1217.0         0.20         32.8 
      1218.0         0.30         37.0 
      1219.0         0.30         39.1 
      1220.0         0.23         42.1 
      1221.0         0.20         42.7 
      1222.0         0.23         43.2 
      1223.0         0.20         41.6 
      1224.0         0.13         39.2 
      1225.0         0.33         37.9 
      1226.0         0.55         34.8 
