~Version Information
 VERS.                                  2.0 : CWLS LAS VERSION
 WRAP.                                   NO : WRAPING MODE
 SWARE .                 MController 2.5.0N : SOFTWARE VERSION
~Well Information
 WELL.                                  N/A : WELL
 COMP.                                  N/A : COMPANY
 FLD.                                   N/A : FIELD
 LOC.                                   N/A : LOCATION
 DATE.                                  N/A : DATE(S) LOGGED
 SRVC.                                  N/A : SERVICE COMPANY
 STAT.                                  N/A : STATE
 CNTY.                                  N/A : COUNTY
 CTRY.                                  N/A : COUNTRY
 API.                                   N/A : API NUMBER
 STRT.FT                             445.00 : START DEPTH
 STOP.FT                            1905.00 : STOP DEPTH
 STEP.FT                               1.00 : DEPTH INCREMENT
 NULL.                                -9999 : NULL VALUE
~Curve information
 DEPTH.FT                                   :
 ROP.MIN/FT                                 :
 GAS.UNITS                                  :
~ASCII Log data
# ...
       645.0         0.27          3.2 
       646.0         0.27          3.1 
       647.0         0.27          3.4 
       648.0         0.28          3.7 
       649.0         0.23          2.1 
       650.0         0.23          2.3 
       651.0         0.20          3.1 
       652.0         0.23          3.2 
       653.0         0.20          3.8 
       654.0         0.23          2.7 
       655.0         0.30          3.9 
       656.0         1.50          3.6 
       657.0         0.32          3.4 
       658.0         0.27          2.3 
       659.0         0.23          2.9 
       660.0         0.23          3.6 
       661.0         0.20          3.6 
       662.0         0.20          3.5 
       663.0         0.17          3.5 
       664.0         0.20          3.0 
       665.0         0.20          2.7 
       666.0         0.17          2.7 
       667.0         0.17          2.9 
       668.0         0.17          3.6 
       669.0         0.17          3.0 
       670.0         0.17          3.6 
       671.0         0.17          4.2 
       672.0         0.17          4.2 
       673.0         0.20          3.6 
       674.0         0.18          3.5 
       675.0         0.23          3.3 
       676.0         0.20          3.2 
       677.0         0.17          2.8 
       678.0         0.17          3.2 
       679.0         0.17          2.7 
       680.0         0.17          2.7 
       681.0         0.20          3.0 
       682.0         0.13          3.2 
       683.0         0.17          2.7 
       684.0         0.13          2.7 
       685.0         0.30          3.7 
       686.0         1.35          7.8 
       687.0         0.20          3.2 
       688.0         0.27          3.8 
       689.0         0.23          3.2 
       690.0         0.17          3.3 
       691.0         0.17          4.1 
       692.0         0.17          4.1 
       693.0         0.20          3.8 
       694.0         0.13          2.7 
       695.0         0.13          3.7 
       696.0         0.17          2.5 
       697.0         0.17          3.5 
       698.0         0.17          3.8 
       699.0         0.13          2.6 
       700.0         0.17          2.6 
       701.0         0.20          3.6 
       702.0         0.17          3.6 
       703.0         0.25          4.3 
       704.0         0.20          3.2 
       705.0         0.20          3.6 
       706.0         0.23          5.5 
       707.0         0.17          5.2 
       708.0         0.23          4.8 
       709.0         0.20          4.1 
       710.0         0.20          2.8 
       711.0         0.23          3.9 
       712.0         0.27          2.9 
       713.0         0.23          2.6 
       714.0         0.20          2.8 
       715.0         0.20          2.5 
       716.0         1.58          2.7 
       717.0         0.27          2.4 
       718.0         0.33          3.1 
       719.0         0.30          3.2 
       720.0         0.23          2.9 
       721.0         0.23          3.3 
       722.0         0.23          3.5 
       723.0         0.23          4.3 
       724.0         0.17          3.0 
       725.0         0.20          2.4 
       726.0         0.20          2.6 
       727.0         0.28          3.2 
       728.0         0.20          3.2 
       729.0         0.20          2.8 
       730.0         0.17          2.8 
       731.0         0.20          2.4 
       732.0         0.20          1.6 
       733.0         0.20          1.5 
       734.0         0.20          3.2 
       735.0         0.20          2.8 
       736.0         0.20          2.8 
       737.0         0.20          2.6 
       738.0         0.17          3.3 
       739.0         0.17          3.8 
       740.0         0.17          2.3 
       741.0         0.17          2.3 
       742.0         0.20          5.9 
       743.0         0.17          2.8 
       744.0         0.25          3.7 
       745.0         0.20          4.2 
       746.0         1.97          5.8 
       747.0         0.33          3.6 
       748.0         0.27          2.1 
       749.0         0.27          2.9 
       750.0         0.20          3.8 
       751.0         0.22          4.1 
       752.0         0.20          3.5 
       753.0         0.17          3.2 
       754.0         0.20          3.2 
       755.0         0.17          3.2 
       756.0         0.23          2.9 
       757.0         0.20          2.5 
       758.0         0.23          3.1 
       759.0         0.20          4.0 
       760.0         0.20          4.6 
       761.0         0.20          3.4 
       762.0         0.20          3.6 
       763.0         0.17          3.6 
       764.0         0.20          4.8 
       765.0         0.20          3.6 
       766.0         0.17          3.5 
       767.0         0.20          2.9 
       768.0         0.38          2.6 
       769.0         0.27          3.4 
       770.0         0.17          3.4 
       771.0         0.20          3.1 
       772.0         0.20          3.4 
       773.0         0.27          3.9 
       774.0         0.20          4.4 
       775.0         0.40          4.1 
       776.0         1.45          4.2 
       777.0         0.27          3.8 
       778.0         0.33          4.4 
       779.0         0.27          5.0 
       780.0         0.20          4.5 
       781.0         0.20          3.6 
       782.0         0.30          4.6 
       783.0         0.27          3.6 
       784.0         0.20          3.6 
       785.0         0.23          3.7 
       786.0         0.27          3.5 
       787.0         0.23          3.3 
       788.0         0.23          3.5 
       789.0         0.20          3.5 
       790.0         0.22          4.1 
       791.0         0.20          4.7 
       792.0         0.17          4.7 
       793.0         0.20          4.8 
       794.0         0.23          5.2 
       795.0         0.30          4.5 
       796.0         0.23          4.4 
       797.0         0.20          5.1 
       798.0         0.17          4.9 
       799.0         0.13          4.8 
       800.0         0.13          3.5 
       801.0         0.17          3.6 
       802.0         0.17          4.4 
       803.0         0.17          5.1 
       804.0         0.13          5.1 
       805.0         0.20          3.5 
       806.0         1.65          5.4 
       807.0         0.30          4.3 
       808.0         0.27          4.0 
       809.0         0.20          4.7 
       810.0         0.20          5.4 
       811.0         0.17          4.7 
       812.0         0.17          4.9 
       813.0         0.17          4.9 
       814.0         0.23          5.0 
       815.0         0.20          5.5 
       816.0         0.18          4.5 
       817.0         0.20          5.0 
       818.0         0.17          4.0 
       819.0         0.17          4.6 
       820.0         0.13          4.1 
       821.0         0.17          4.1 
       822.0         0.20          4.5 
       823.0         0.17          5.1 
       824.0         0.17          5.1 
       825.0         0.20          4.9 
       826.0         0.23          5.1 
       827.0         0.17          4.3 
       828.0         0.17          4.8 
       829.0         0.17          4.8 
       830.0         0.20          4.6 
       831.0         0.27          4.5 
       832.0         0.27          5.4 
       833.0         0.23          4.7 
       834.0         0.22          4.7 
       835.0         0.17          4.5 
       836.0         0.83          4.7 
       837.0         0.27          4.8 
       838.0         0.17          4.8 
       839.0         0.53          5.0 
       840.0         0.30          5.2 
       841.0         0.30          5.4 
       842.0         0.23          4.9 
       843.0         0.20          5.6 
       844.0         0.22          4.8 
