~Version Information
VERS.                      2.0: CWLS Log ASCII Standard - VERSION 2.0
WRAP.                       NO: One line per depth step
~Well Information Block
STRT.FT                -7.5000: 
STOP.FT              1545.0000: 
STEP.FT                 0.2500: 
NULL.                -999.2500: 
COMP.          Pioneer Natural Resources: COMPANY
WELL.          Kristin 22-23 Tr: WELL
FLD.           Purgatorie River: FIELD
LOC.           2273' FNL & 2029' FWL--: LOCATION
PROV.                       CO: PROVINCE
CNTY.               Las Animas: COUNTRY
SRVC.                         : SERVICE COMPANY
DATE.          Tue Jan 25 11:16:36 2005: LOG DATE
UWI.           071-08259      : UNIQUE WELL ID
~Curve Information Block
DEPT.FT            0 000 00 00: Depth
CCL.                          : Casing Collar Locator
TT3.usec                      : CBL 3' Travel Time
AMP3.mV                       : CBL 3' Amplitude
GR.GAPI                       : Gamma Ray
~Parameter Information Block
~A  Depth       CCL         TT3         AMP3         GR     
# ...
   595.5000      0.0000    747.0858      4.5749    125.5651
   595.7500      0.0000    744.0133      4.5366    119.3926
   596.0000      0.0000    739.6690      4.4834    115.2044
   596.2500      0.0000    736.2355      4.4368    115.6242
   596.5000      0.0000    734.5801      4.4131    121.4093
   596.7500      0.0000    734.3636      4.4121    131.0053
   597.0000      0.0000    734.8983      4.4188    141.2147
   597.2500      0.0000    735.7052      4.4164    148.8182
   597.5000      0.0000    736.5873      4.3992    151.8178
   597.7500      0.0000    737.4756      4.3778    149.1283
   598.0000      0.0000    738.2626      4.3730    140.0752
   598.2500      0.0000    738.7455      4.4079    125.3986
   598.5000      0.0000    738.6691      4.5049    108.2183
   598.7500      0.0000    737.7266      4.6811     92.5779
   599.0000      0.0000    735.5179      4.9344     80.9240
   599.2500      0.0000    731.8055      5.2263     73.4926
   599.5000      0.0000    727.1204      5.4823     69.5837
   599.7500      0.0000    722.9849      5.6295     68.7295
   600.0000      0.0000    721.0344      5.6491     71.0531
   600.2500      0.0000    721.6972      5.5932     77.2278
   600.5000      0.0000    723.9521      5.5451     87.9997
   600.7500      0.0000    726.5275      5.5601    103.1945
   601.0000      0.0000    729.0535      5.6454    120.8995
   601.2500      0.0000    731.7308      5.7832    137.5939
   601.5000      0.0000    734.2379      5.9598    149.4245
   601.7500      0.0000    735.7787      6.1670    154.1289
   602.0000      0.0000    736.2796      6.3814    152.4147
   602.2500      0.0000    737.0890      6.5630    147.4395
   602.5000      0.0000    740.3936      6.6810    142.6130
   602.7500      0.0000    747.5701      6.7342    139.7244
   603.0000      0.0000    757.5116      6.7442    138.6875
   603.2500      0.0000    766.9371      6.7351    138.2812
   603.5000      0.0000    772.8872      6.7221    137.1354
   603.7500      0.0000    774.5880      6.7128    134.8390
   604.0000      0.0000    772.7969      6.7152    132.4114
   604.2500      0.0000    768.2688      6.7374    131.3308
   604.5000      0.0000    761.4336      6.7753    132.0417
   604.7500      0.0000    753.0609      6.8117    133.5929
   605.0000      0.0000    744.5933      6.8314    134.5945
   605.2500      0.0000    737.7410      6.8325    134.2515
   605.5000      0.0000    733.6901      6.8182    132.6552
   605.7500      0.0000    732.1368      6.7913    130.5126
   606.0000      0.0000    730.7061      6.7664    128.7881
   606.2500      0.0000    725.3259      6.7777    128.3287
   606.5000      0.0000    712.1982      6.8502    129.3737
   606.7500      0.0000    691.5884      6.9493    131.1751
   607.0000      0.0000    670.7338      6.9710    132.1680
   607.2500      0.0000    660.3985      6.8169    130.6144
   607.5000      0.0000    665.5800      6.4941    125.4145
   607.7500      0.0000    680.9103      6.1251    117.1244
   608.0000      0.0000    697.0807      5.8403    108.3833
   608.2500      0.0000    709.5175      5.6756    102.4943
   608.5000      2.0000    718.9667      5.5796    101.1633
   608.7500      2.0000    726.3322      5.4958    103.7958
   609.0000      0.0000    729.9080      5.4217    108.4931
   609.2500      0.0000    726.6410      5.4115    113.2257
   609.5000      0.0000    714.4089      5.5407    116.8348
   609.7500      0.0000    694.5649      5.8485    119.7713
   610.0000      0.0000    674.4944      6.2712    123.4288
   610.2500      0.0000    665.3087      6.6388    128.2650
   610.5000      0.0000    673.0260      6.7859    133.2484
   610.7500      0.0000    692.6174      6.6842    137.5786
   611.0000      0.0000    713.1220      6.4457    141.9227
   611.2500      0.0000    727.1774      6.2111    146.9356
   611.5000      0.0000    734.1725      6.0597    151.2545
   611.7500      0.0000    736.8946      6.0010    152.3278
   612.0000      0.0000    737.9295      6.0106    149.3100
   612.2500      0.0000    738.5896      6.0608    144.3053
   612.5000      0.0000    739.2407      6.1271    140.5698
   612.7500      0.0000    739.7770      6.1805    139.9314
   613.0000      0.0000    739.9831      6.1920    141.8757
   613.2500      0.0000    739.6725      6.1525    144.4859
   613.5000      0.0000    738.6866      6.0860    146.0255
   613.7500      0.0000    736.9066      6.0391    146.0142
   614.0000      0.0000    734.5266      6.0507    145.2398
   614.2500      0.0000    732.3473      6.1295    145.0217
   614.5000      0.0000    731.4512      6.2557    146.4996
   614.7500      0.0000    732.2346      6.3961    149.8818
   615.0000      0.0000    733.8785      6.5190    153.6648
   615.2500      0.0000    734.9960      6.6068    155.1903
   615.5000      0.0000    734.7380      6.6553    153.0107
   615.7500      0.0000    733.3303      6.6623    148.5439
   616.0000      0.0000    731.8854      6.6271    144.7205
   616.2500      0.0000    731.6915      6.5640    143.2782
   616.5000      0.0000    733.2717      6.5027    144.0058
   616.7500      0.0000    735.9772      6.4734    146.0955
   617.0000      0.0000    738.5987      6.4935    148.9635
   617.2500      0.0000    740.3204      6.5593    151.7139
   617.5000      0.0000    741.0491      6.6465    153.0434
   617.7500      0.0000    741.0970      6.7257    152.3128
   618.0000      0.0000    740.7921      6.7780    150.1996
   618.2500      0.0000    740.3311      6.7926    148.0420
   618.5000      0.0000    739.8102      6.7598    146.8879
   618.7500      0.0000    739.2948      6.6759    146.9648
   619.0000      0.0000    738.8442      6.5467    147.5835
   619.2500      0.0000    738.4659      6.3841    147.6947
   619.5000      0.0000    738.0784      6.2096    146.9263
   619.7500      0.0000    737.5678      6.0569    145.8110
   620.0000      0.0000    736.8945      5.9513    144.8823
   620.2500      0.0000    736.1321      5.8881    144.0608
   620.5000      0.0000    735.4103      5.8466    142.8157
   620.7500      0.0000    734.8502      5.8179    140.0839
   621.0000      0.0000    734.5432      5.8046    134.4626
   621.2500      0.0000    734.5486      5.8003    125.9692
   621.5000      0.0000    734.8828      5.7856    117.6520
   621.7500      0.0000    735.4884      5.7427    114.2239
   622.0000      0.0000    736.1985      5.6715    118.5572
   622.2500      0.0000    736.7623      5.5942    129.5516
   622.5000      0.0000    736.9763      5.5398    143.0611
   622.7500      0.0000    736.8083      5.5193    154.6014
   623.0000      0.0000    736.3638      5.5241    161.8212
   623.2500      0.0000    735.7507      5.5495    165.3631
   623.5000      0.0000    735.0278      5.6025    167.6667
   623.7500      0.0000    734.2649      5.6818    170.5663
   624.0000      0.0000    733.5957      5.7692    173.7614
   624.2500      0.0000    733.1992      5.8417    175.4452
   624.5000      0.0000    733.2364      5.8805    174.2147
   624.7500      0.0000    733.7625      5.8729    169.9789
   625.0000      0.0000    734.6188      5.8236    163.1152
   625.2500      0.0000    735.3603      5.7563    153.5722
   625.5000      0.0000    735.3087      5.6908    141.2301
   625.7500      0.0000    733.8005      5.6281    126.7654
   626.0000      0.0000    730.6683      5.5699    111.9810
   626.2500      0.0000    726.7601      5.5359     99.3813
   626.5000      0.0000    723.8535      5.5488     91.1340
   626.7500      0.0000    723.3861      5.6161     87.8753
   627.0000      0.0000    724.8010      5.7376     88.3514
   627.2500      0.0000    725.1665      5.9129     90.3644
   627.5000      0.0000    720.8518      6.1315     92.2336
   627.7500      0.0000    710.0723      6.3674     93.6240
   628.0000      0.0000    694.5524      6.5914     95.1943
   628.2500      0.0000    679.3281      6.7780     97.3460
   628.5000      0.0000    670.6147      6.9056     99.3966
   628.7500      0.0000    672.2382      6.9644    100.2841
