~Version Information
 VERS.                                  2.0 : CWLS LAS VERSION
 WRAP.                                   NO : WRAPING MODE
 SWARE .                  MController 2.6.3 : SOFTWARE VERSION
~Well Information
 WELL.                       Stampede 42-18 : WELL
 COMP.    Pioneer Natural Resources USA Inc : COMPANY
 FLD.                      Purgatoire River : FIELD
 LOC.                SE/NE Sec 18 T32S R65W : LOCATION
 DATE.                           6/8-9/2007 : DATE(S) LOGGED
 SRVC.       Blanco Geological Services LLC : SERVICE COMPANY
 STAT.                                   CO : STATE
 CNTY.                           Las Animas : COUNTY
 CTRY.                                  USA : COUNTRY
 API.                       05-071-08237-00 : API NUMBER
 STRT.FT                             561.00 : START DEPTH
 STOP.FT                            1934.00 : STOP DEPTH
 STEP.FT                               1.00 : DEPTH INCREMENT
 NULL.                                -9999 : NULL VALUE
~Curve information
 DEPTH.FT                                   :
 ROP.MIN/FT                                 :
 GAS.UNITS                                  :
~ASCII Log data
# ...
     1361.00         0.38        111.0 
     1362.00         0.37        123.4 
     1363.00         0.33        136.5 
     1364.00         0.33        149.2 
     1365.00         0.30        153.3 
     1366.00         0.33        159.4 
     1367.00         0.33        163.2 
     1368.00         0.33        166.4 
     1369.00         0.33        167.3 
     1370.00         0.33        168.4 
     1371.00         0.55        172.4 
     1372.00         3.28        206.1 
     1373.00         0.63        151.0 
     1374.00         0.43        538.7 
     1375.00         0.40        710.6 
     1376.00         0.30       1038.4 
     1377.00         0.47       1578.5 
     1378.00         0.53       1627.6 
     1379.00         0.65       1543.4 
     1380.00         0.37       1445.1 
     1381.00         0.40       1720.9 
     1382.00         0.53       1908.3 
     1383.00         0.53       1944.8 
     1384.00         0.53       1944.8 
     1385.00         0.37       1832.5 
     1386.00         0.42       1643.0 
     1387.00         0.33       1445.5 
     1388.00         0.37       1382.3 
     1389.00         0.43       1343.7 
     1390.00         0.40       1262.3 
     1391.00         0.37       1224.0 
     1392.00         0.30       1275.6 
     1393.00         0.30       1295.6 
     1394.00         0.33       1289.7 
     1395.00         0.33       1227.2 
     1396.00         0.42       1114.5 
     1397.00         0.40        904.3 
     1398.00         0.47        603.6 
     1399.00         0.37        559.0 
     1400.00         0.40        562.5 
     1401.00         0.33        546.1 
     1402.00         4.43        478.9 
     1403.00         0.80       2566.0 
     1404.00         0.53       3453.3 
     1405.00         0.80       3519.7 
     1406.00         0.53       3181.1 
     1407.00         0.43       2516.4 
     1408.00         0.52       2532.1 
     1409.00         0.47       2498.9 
     1410.00         0.47       2101.1 
     1411.00         0.47       1542.1 
     1412.00         0.47        613.7 
     1413.00         0.43        362.8 
     1414.00         0.43        249.4 
     1415.00         0.42        138.2 
     1416.00         0.47         86.5 
     1417.00         0.40         54.6 
     1418.00         0.50         44.0 
     1419.00         0.40         50.3 
     1420.00         0.43         62.9 
     1421.00         0.47         85.3 
     1422.00         0.47        110.5 
     1423.00         0.45        135.4 
     1424.00         0.43        155.0 
     1425.00         0.40        177.8 
     1426.00         0.40        196.6 
     1427.00         0.43        208.5 
     1428.00         0.43        217.2 
     1429.00         0.40        231.2 
     1430.00         0.40        250.4 
     1431.00         0.45        268.3 
     1432.00         3.82        333.9 
     1433.00         0.57        730.7 
     1434.00         0.50        709.4 
     1435.00         0.43        961.9 
     1436.00         0.43       1180.0 
     1437.00         0.57       1339.7 
     1438.00         0.55       1344.7 
     1439.00         0.57       1102.5 
     1440.00         0.47        982.4 
     1441.00         0.53       1329.8 
     1442.00         0.53       1438.1 
     1443.00         0.53       1574.5 
     1444.00         0.48       1574.1 
     1445.00         0.60       1610.2 
     1446.00         0.63       1704.4 
     1447.00         0.57       1909.8 
     1448.00         0.50       2003.2 
     1449.00         0.50       2001.1 
     1450.00         0.52       1877.5 
     1451.00         0.43       1625.1 
     1452.00         0.27       1521.0 
     1453.00         0.30       1493.7 
     1454.00         0.33       1485.2 
     1455.00         0.37       1492.3 
     1456.00         0.33       1462.6 
     1457.00         0.20       1219.0 
     1458.00         0.17       1105.3 
     1459.00         0.23        900.3 
     1460.00         0.13        753.3 
     1461.00         0.38        646.4 
     1462.00         3.62        440.0 
     1463.00         0.40       1622.9 
     1464.00         0.37       2768.8 
     1465.00         0.50       3012.1 
     1466.00         0.40       2730.9 
     1467.00         0.37       2769.1 
     1468.00         0.47       2787.0 
     1469.00         0.47       2661.9 
     1470.00         0.85       2157.8 
     1471.00         0.60       1952.0 
     1472.00         0.53       2153.9 
     1473.00         0.47       2183.5 
     1474.00         0.47       2113.8 
     1475.00         0.55       1893.7 
     1476.00         0.33       1756.2 
     1477.00         0.30       1824.4 
     1478.00         0.30       1834.4 
     1479.00         0.40       1793.7 
     1480.00         0.43       1756.9 
     1481.00         0.40       1845.9 
     1482.00         0.60       1870.5 
     1483.00         0.27       1849.4 
     1484.00         0.35       1808.0 
     1485.00         0.40       1676.9 
     1486.00         0.47       1488.6 
     1487.00         0.43       1359.2 
     1488.00         0.43       1315.3 
     1489.00         0.43       1333.1 
     1490.00         0.47       1339.2 
     1491.00         0.37       1346.0 
     1492.00         6.47       3703.6 
     1493.00         0.68       2509.7 
     1494.00         0.57       2774.6 
     1495.00         0.43       3030.5 
     1496.00         0.23       3151.1 
     1497.00         0.33       3221.8 
     1498.00         0.33       3221.8 
     1499.00         0.40       3155.0 
     1500.00         0.40       2961.2 
     1501.00         0.43       2862.0 
     1502.00         0.35       2774.6 
     1503.00         0.37       2598.3 
     1504.00         0.43       2382.3 
     1505.00         0.43       2044.0 
     1506.00         0.40       1550.0 
     1507.00         0.43        924.7 
     1508.00         0.47        522.8 
     1509.00         0.47        440.0 
     1510.00         0.45        323.4 
     1511.00         0.47        272.7 
     1512.00         0.47        252.4 
     1513.00         0.50        243.6 
     1514.00         0.47        251.8 
     1515.00         0.43        266.4 
     1516.00         0.33        279.9 
     1517.00         0.38        297.2 
     1518.00         0.33        313.7 
     1519.00         0.37        322.8 
     1520.00         0.27        319.9 
     1521.00         0.27        305.9 
     1522.00         4.15       1263.1 
     1523.00         0.30       1301.7 
     1524.00         0.27       1134.0 
     1525.00         0.30        852.6 
     1526.00         0.30        870.6 
     1527.00         0.35       1166.7 
     1528.00         0.30       1546.4 
     1529.00         0.33       1795.6 
     1530.00         0.30       1963.6 
     1531.00         0.33       1997.3 
     1532.00         0.30       1995.2 
     1533.00         0.27       1898.0 
     1534.00         0.30       1741.3 
     1535.00         0.30       1574.4 
     1536.00         0.43       1240.4 
     1537.00         0.35        740.9 
     1538.00         0.30        598.0 
     1539.00         0.23        730.3 
     1540.00         0.27        994.7 
     1541.00         0.27       1233.3 
     1542.00         0.20       1319.1 
     1543.00         0.23       1390.7 
     1544.00         0.20       1403.5 
     1545.00         0.23       1407.0 
     1546.00         0.30       1408.4 
     1547.00         0.27       1445.7 
     1548.00         0.27       1597.0 
     1549.00         0.27       1805.5 
     1550.00         0.28       2039.5 
     1551.00         0.30       2325.2 
     1552.00         2.98       2665.6 
     1553.00         0.50       2120.5 
     1554.00         0.57       2833.4 
     1555.00         0.47       3183.5 
     1556.00         0.40       3209.5 
     1557.00         0.40       3028.0 
     1558.00         0.37       2685.5 
     1559.00         0.40       2093.4 
     1560.00         0.42       1551.9 
