~Version Information
VERS.                      2.0: CWLS Log ASCII Standard - VERSION 2.0
WRAP.                       NO: One line per depth step
~Well Information Block
STRT.FT                -7.0000: 
STOP.FT              2730.2500: 
STEP.FT                 0.2500: 
NULL.                -999.2500: 
COMP.          Pioneer Natural Resources: COMPANY
WELL.             Squeal 11-26: WELL
FLD.           Purgatorie River: FIELD
LOC.           1186' FNL & 152' FWL--: LOCATION
PROV.                       CO: PROVINCE
CNTY.               Las Animas: COUNTRY
SRVC.          Patterson Wireline: SERVICE COMPANY
DATE.          Tue Jul 26 11:59:46 2005: LOG DATE
UWI.           05 071 08404 00: UNIQUE WELL ID
~Curve Information Block
DEPT.FT            0 000 00 00: Depth
CCL.                          : Casing Collar Locator
TT3.usec                      : CBL 3' Travel Time
AMP3.mV                       : CBL 3' Amplitude
GR.GAPI                       : Gamma Ray
~Parameter Information Block
~A  Depth       CCL         TT3         AMP3         GR     
# ...
   529.0000      0.0000    690.3203      6.5840    126.0150
   529.2500      0.0000    704.2001      6.5050    126.5510
   529.5000      0.0000    725.5381      6.4515    129.7022
   529.7500      0.0000    749.7350      6.4304    135.0671
   530.0000      0.0000    770.5065      6.4451    141.1697
   530.2500      0.0000    783.6125      6.4957    146.8504
   530.5000      0.0000    789.0129      6.5791    151.4519
   530.7500      0.0000    789.8969      6.6864    154.3141
   531.0000      0.0000    790.0350      6.8008    154.6747
   531.2500      0.0000    791.5222      6.8996    152.1545
   531.5000      0.0000    794.2269      6.9642    147.3755
   531.7500      0.0000    796.9443      6.9897    142.1725
   532.0000      0.0000    798.8452      6.9848    138.8386
   532.2500      0.0000    799.8912      6.9619    138.5021
   532.5000      0.0000    800.3556      6.9313    139.9102
   532.7500      0.0000    800.2928      6.9015    140.1764
   533.0000      0.0000    799.2180      6.8802    137.1357
   533.2500      0.0000    795.7559      6.8695    130.8906
   533.5000      0.0000    787.5246      6.8603    123.0122
   533.7500      0.0000    772.2252      6.8358    115.0408
   534.0000      0.0000    749.9986      6.7804    108.2879
   534.2500      0.0000    724.8223      6.6921    104.1363
   534.5000      0.0000    702.5970      6.5876    103.2493
   534.7500      0.0000    687.2980      6.4934    104.6668
   535.0000      0.0000    679.0955      6.4270    106.4145
   535.2500      0.0000    675.7750      6.3883    107.0371
   535.5000      0.0000    675.2139      6.3681    106.3517
   535.7500      0.0000    676.7283      6.3609    105.1496
   536.0000      0.0000    680.9351      6.3665    104.4451
   536.2500      0.0000    688.3539      6.3837    104.5839
   536.5000      0.0000    697.4626      6.4082    104.6858
   536.7500      0.0000    704.2694      6.4357    103.3291
   537.0000      0.0000    705.0456      6.4639    100.0464
   537.2500      0.0000    699.9663      6.4903     95.8030
   537.5000      0.0000    693.4606      6.5109     91.9459
   537.7500      0.0000    690.6071      6.5203     89.1363
   538.0000      0.0000    693.1563      6.5128     87.2040
   538.2500      0.0000    698.5884      6.4856     85.4942
   538.5000      0.0000    703.0466      6.4405     83.2764
   538.7500      0.0000    705.9023      6.3851     80.2496
   539.0000      0.0000    711.1638      6.3303     76.8263
   539.2500      0.0000    723.3571      6.2847     73.8635
   539.5000      0.0000    742.1812      6.2500     72.1559
   539.7500      0.0000    761.9670      6.2209     72.1301
   540.0000      0.0000    775.9767      6.1914     73.6143
   540.2500      0.0000    780.6609      6.1620     75.6289
   540.5000      0.0000    776.6419      6.1413     76.4707
   540.7500      0.0000    767.2422      6.1412     74.4461
   541.0000      0.0000    756.5112      6.1689     69.1102
   541.2500      0.0000    747.4178      6.2223     62.0163
   541.5000      0.0000    740.3376      6.2933     55.9105
   541.7500      0.0000    733.0182      6.3744     52.8127
   542.0000      0.0000    723.2595      6.4613     52.7128
   542.2500      0.0000    712.3295      6.5479     54.0602
   542.5000      0.0000    704.9020      6.6244     55.4159
   542.7500      0.0000    705.0829      6.6819     56.5684
   543.0000      0.0000    713.0021      6.7190     58.1787
   543.2500      0.0000    725.3545      6.7425     60.6401
   543.5000      0.0000    738.0613      6.7613     63.3392
   543.7500      0.0000    747.4716      6.7812     64.8636
   544.0000      0.0000    750.5581      6.8062     64.0630
   544.2500      0.0000    746.9055      6.8410     61.2447
   544.5000      0.0000    740.7722      6.8907     58.2636
   544.7500      0.0000    738.6319      6.9577     57.1344
   545.0000      0.0000    743.4412      7.0429     58.4264
   545.2500      0.0000    752.3762      7.1489     60.9865
   545.5000      0.0000    760.4632      7.2770     63.0625
   545.7500      0.0000    765.2639      7.4179     63.5376
   546.0000      0.0000    767.4866      7.5464     62.2825
   546.2500      0.0000    768.1987      7.6327     59.9727
   546.5000      0.0000    767.2286      7.6603     57.8700
   546.7500      0.0000    764.9384      7.6360     57.2199
   547.0000      0.0000    763.8727      7.5834     58.2823
   547.2500      0.0000    766.7186      7.5281     60.0493
   547.5000      0.0000    773.2240      7.4862     61.1318
   547.7500      0.0000    780.7746      7.4607     60.8660
   548.0000      0.0000    787.4536      7.4462     59.6361
   548.2500      0.0000    793.0121      7.4348     58.3543
   548.5000      0.0000    797.3843      7.4160     57.5508
   548.7500      0.0000    799.7402      7.3746     56.7991
   549.0000      0.0000    799.1149      7.2970     55.2289
   549.2500      0.0000    795.4709      7.1851     52.7782
   549.5000      0.0000    790.3370      7.0610     50.5709
   549.7500      0.0000    786.4780      6.9533     49.7716
   550.0000      0.0000    786.1580      6.8767     50.4204
   550.2500      0.0000    789.1977      6.8240     51.7383
   550.5000      0.0000    792.9033      6.7758     53.3962
   550.7500      0.0000    794.0415      6.7175     56.1184
   551.0000      0.0000    790.9576      6.6493     61.0938
   551.2500      0.0000    784.5164      6.5825     69.1779
   551.5000      0.0000    777.6618      6.5317     80.5464
   551.7500      0.0000    773.5281      6.5074     94.3975
   552.0000      0.0000    772.9618      6.5125    108.6425
   552.2500      0.0000    773.8018      6.5422    120.4922
   552.5000      0.0000    773.1660      6.5875    128.1415
   552.7500      0.0000    770.5490      6.6362    131.8559
   553.0000      0.0000    768.3762      6.6759    133.0897
   553.2500      0.0000    769.6267      6.6983    132.7942
   553.5000      0.0000    775.1763      6.7026    131.0623
   553.7500      0.0000    783.1918      6.6913    128.2150
   554.0000      0.0000    790.5831      6.6640    125.6049
   554.2500      0.0000    794.8373      6.6181    125.0337
   554.5000      0.0000    794.7501      6.5540    127.2914
   554.7500      0.0000    790.2257      6.4768    131.0667
   555.0000      0.0000    782.1930      6.3927    133.4715
   555.2500      0.0000    772.6682      6.3075    132.2506
   555.5000      0.0000    764.0914      6.2284    127.6355
   555.7500      0.0000    758.0689      6.1642    121.8111
   556.0000      0.0000    754.7950      6.1231    116.7850
   556.2500      0.0000    753.6799      6.1100    113.0776
   556.5000      0.0000    754.3364      6.1243    110.2082
   556.7500      0.0000    756.8907      6.1598    107.8320
   557.0000      0.0000    761.2356      6.2066    106.1301
   557.2500      0.0000    765.8115      6.2527    105.2175
   557.5000      0.0000    767.4979      6.2872    104.5920
   557.7500      0.0000    763.7644      6.3051    103.3606
   558.0000      0.0000    755.5277      6.3113    100.8433
   558.2500      0.0000    747.2869      6.3186     96.9904
   558.5000      0.0000    743.7338      6.3422     92.5299
   558.7500      0.0000    746.2187      6.3929     88.6747
   559.0000      0.0000    752.3907      6.4718     86.3868
   559.2500      0.0000    758.4926      6.5712     85.8852
   559.5000      0.0000    761.7752      6.6836     86.7769
   559.7500      0.0000    761.6588      6.8119     88.2286
   560.0000      0.0000    759.4584      6.9670     88.9057
   560.2500      0.0000    757.0140      7.1558     87.3201
   560.5000      0.0000    755.3761      7.3694     82.8920
   560.7500      0.0000    754.5867      7.5832     76.7471
   561.0000      0.0000    754.2731      7.7674     71.1710
   561.2500      0.0000    754.1318      7.8970     67.9821
   561.5000      0.0000    753.9950      7.9590     67.3503
   561.7500      0.0000    753.7785      7.9559     67.9175
   562.0000      0.0000    753.5364      7.9091     67.8676
   562.2500      0.0000    753.5739      7.8528     66.2290
