~Version Information
VERS.                      2.0: CWLS Log ASCII Standard - VERSION 2.0
WRAP.                       NO: One line per depth step
~Well Information Block
STRT.FT               460.0000: 
STOP.FT               961.2000: 
STEP.FT                 0.1000: 
NULL.                -999.2500: 
COMP.          Pioneer Natural Resources: COMPANY
WELL.                Pug 33-19: WELL
FLD.           Purgatoire River: FIELD
LOC.           1381' FSL & 2140' FEL: LOCATION
PROV.                 Colorado: PROVINCE
CNTY.               Las Animas: COUNTRY
SRVC.                Patterson: SERVICE COMPANY
DATE.          Wed Dec 15 07:19:20 2004: LOG DATE
UWI.           05 071 08193 00: UNIQUE WELL ID
~Curve Information Block
DEPT.FT            0 000 00 00: Depth
DCAL.in                       : CDL Caliper
RHOB.g/cc                     : CDL Bulk Density
RHOC.g/cc                     : CDL Density Correction
DPOR.pu                       : CDL Density Porosity
NPOR.pu                       : Neutron Porosity
GR.GAPI                       : Gamma Ray
~Parameter Information Block
~A  Depth       DCAL        RHOB        RHOC        DPOR        NPOR         GR     
# ...
   709.6000      7.8504      2.5110      0.0508      8.4239     23.9843    110.5011
   709.7000      7.8504      2.4928      0.0848      9.5284     23.4762    105.7690
   709.8000      7.8425      2.4630      0.0349     11.3344     22.7159    102.0408
   709.9000      7.8425      2.4448      0.0199     12.4366     21.8541     95.3034
   710.0000      7.8358      2.4540      0.0472     11.8811     21.1924     91.1118
   710.1000      7.8358      2.4892      0.0742      9.7468     21.3642     96.1331
   710.2000      7.8358      2.5354      0.0954      6.9463     22.2237    104.9676
   710.3000      7.8334      2.5713      0.1150      4.7713     22.5590    109.2834
   710.4000      7.8334      2.5896      0.1102      3.6633     22.0293    107.9282
   710.5000      7.8363      2.5984      0.1464      3.1275     21.1242    103.4184
   710.6000      7.8363      2.6064      0.1432      2.6434     20.3960    100.3549
   710.7000      7.8363      2.6153      0.1289      2.1057     20.2501     99.1539
   710.8000      7.8408      2.6217      0.1419      1.7147     20.3365     95.7884
   710.9000      7.8408      2.6246      0.1221      1.5375     20.1360     91.5551
   711.0000      7.8444      2.6248      0.1394      1.5276     19.9148     87.5131
   711.1000      7.8444      2.6135      0.1367      2.2131     19.7273     82.7071
   711.2000      7.8444      2.5826      0.1006      4.0854     19.1421     81.1230
   711.3000      7.8434      2.5431      0.0092      6.4796     18.4777     85.0484
   711.4000      7.8434      2.5183      0.0270      7.9826     18.5454     90.4333
   711.5000      7.8417      2.5206      0.0369      7.8453     19.3527     94.1776
   711.6000      7.8417      2.5397      0.0508      6.6864     20.4282     97.2846
   711.7000      7.8417      2.5598      0.0278      5.4672     21.4432     96.5391
   711.8000      7.8408      2.5730      0.0831      4.6655     22.0217     87.6350
   711.9000      7.8408      2.5735      0.0733      4.6337     22.0683     77.8429
   712.0000      7.8431      2.5630      0.0797      5.2716     22.0142     77.6984
   712.1000      7.8431      2.5506      0.1001      6.0222     22.2410     85.8205
   712.2000      7.8431      2.5412      0.1029      6.5968     22.8098     96.4648
   712.3000      7.8498      2.5338      0.0982      7.0442     23.0054    108.3987
   712.4000      7.8498      2.5242      0.1056      7.6243     22.6157    116.9851
   712.5000      7.8551      2.5032      0.0773      8.8979     22.6522    118.7943
   712.6000      7.8551      2.4730      0.0463     10.7280     23.1111    119.1949
   712.7000      7.8551      2.4568      0.0066     11.7100     22.9343    121.6814
   712.8000      7.8572      2.4676      0.0349     11.0531     22.2337    122.2919
   712.9000      7.8572      2.4863      0.0857      9.9182     21.9358    119.8447
   713.0000      7.8544      2.4946      0.0331      9.4161     21.9256    117.6287
   713.1000      7.8544      2.5013      0.0705      9.0130     21.6075    112.6314
   713.2000      7.8544      2.5091      0.1464      8.5415     21.1705    105.7352
   713.3000      7.8503      2.4987      0.1165      9.1714     21.2024    104.8513
   713.4000      7.8503      2.4650      0.0758     11.2104     21.7668    105.4670
   713.5000      7.8475      2.4302      0.0471     13.3242     22.3704    100.1000
   713.6000      7.8475      2.4179      0.0387     14.0681     22.8850     93.1827
   713.7000      7.8475      2.4274      0.0638     13.4909     23.5553     91.6462
   713.8000      7.8434      2.4369      0.0733     12.9141     24.1274     95.1684
   713.9000      7.8434      2.4370      0.0446     12.9110     24.1135    100.2301
   714.0000      7.8399      2.4369      0.0441     12.9129     23.6076    103.9012
   714.1000      7.8399      2.4420      0.0685     12.6040     22.9147    106.5313
   714.2000      7.8399      2.4503      0.1088     12.1002     21.8239    110.4587
   714.3000      7.8329      2.4656      0.1358     11.1784     20.4028    112.8298
   714.4000      7.8329      2.4897      0.1221      9.7169     19.3898    108.6547
   714.5000      7.8269      2.5146      0.1299      8.2071     18.9459     99.7956
   714.6000      7.8269      2.5383      0.1079      6.7689     18.5571     93.2718
   714.7000      7.8269      2.5646      0.1674      5.1751     18.1175     90.8196
   714.8000      7.8280      2.5839      0.1648      4.0052     17.4406     86.1738
   714.9000      7.8280      2.5902      0.1348      3.6227     16.3388     75.6378
   715.0000      7.8421      2.5864      0.1799      3.8558     15.3837     64.9101
   715.1000      7.8421      2.5739      0.0929      4.6108     14.9697     61.1423
   715.2000      7.8421      2.5636      0.0858      5.2364     14.9301     64.0611
   715.3000      7.8655      2.5604      0.1008      5.4304     15.2679     66.7913
   715.4000      7.8655      2.5541      0.0926      5.8137     16.1849     65.0034
   715.5000      7.8792      2.5445      0.0688      6.3928     16.9969     61.4823
   715.6000      7.8792      2.5487      0.0412      6.1392     16.5506     61.0538
   715.7000      7.8792      2.5703      0.0866      4.8325     15.1752     63.0067
   715.8000      7.8817      2.5838      0.1054      4.0133     14.1263     63.5631
   715.9000      7.8817      2.5782      0.0515      4.3493     13.6617     61.2883
   716.0000      7.8829      2.5758      0.0424      4.4940     13.4584     58.3443
   716.1000      7.8829      2.5878      0.0503      3.7716     13.3924     56.7320
   716.2000      7.8829      2.5954      0.1124      3.3069     13.4751     56.9476
   716.3000      7.8836      2.5823      0.0544      4.1002     13.7782     58.3495
   716.4000      7.8836      2.5662      0.0383      5.0811     14.0453     58.6612
   716.5000      7.8827      2.5719      0.0170      4.7328     14.0355     56.2670
   716.6000      7.8827      2.5920      0.0661      3.5136     13.8600     53.5497
   716.7000      7.8827      2.5975      0.0688      3.1847     13.8044     53.1618
   716.8000      7.8836      2.5817      0.0297      4.1386     13.8248     53.0004
   716.9000      7.8836      2.5636      0.0104      5.2387     13.6709     52.4355
   717.0000      7.8862      2.5529      0.0738      5.8870     13.4217     52.7099
   717.1000      7.8862      2.5501      0.0293      6.0520     13.0466     51.8223
   717.2000      7.8862      2.5572      0.0620      5.6234     12.5650     49.9996
   717.3000      7.8868      2.5655      0.0701      5.1198     12.4501     51.8176
   717.4000      7.8868      2.5695      0.0177      4.8773     12.8132     57.0399
   717.5000      7.8862      2.5728      0.0607      4.6778     13.1831     59.4755
   717.6000      7.8862      2.5732      0.0724      4.6556     13.5410     58.9486
   717.7000      7.8862      2.5715      0.0535      4.7571     14.2154     59.3137
   717.8000      7.8856      2.5711      0.0724      4.7796     14.8374     59.3412
   717.9000      7.8856      2.5650      0.0640      5.1508     14.9473     57.6909
   718.0000      7.8847      2.5532      0.0378      5.8691     14.8872     56.5202
   718.1000      7.8847      2.5497      0.0261      6.0788     15.2108     58.8041
   718.2000      7.8847      2.5580      0.0511      5.5741     15.7469     64.7886
   718.3000      7.8836      2.5656      0.0637      5.1148     15.8783     71.6475
   718.4000      7.8836      2.5615      0.0436      5.3612     15.5855     76.0034
   718.5000      7.8829      2.5446      0.0605      6.3891     15.0345     74.1202
   718.6000      7.8829      2.5292      0.0277      7.3198     14.2911     68.4196
   718.7000      7.8829      2.5350      0.0351      6.9681     13.6251     65.5512
   718.8000      7.8836      2.5585      0.1003      5.5479     13.3050     64.8091
   718.9000      7.8836      2.5804      0.0792      4.2164     13.3988     60.7748
   719.0000      7.8854      2.5946      0.0871      3.3548     13.6919     53.8410
   719.1000      7.8854      2.6003      0.1192      3.0148     13.9395     51.4107
