~Version Information
VERS.                      2.0: CWLS Log ASCII Standard - VERSION 2.0
WRAP.                       NO: One line per depth step
~Well Information Block
STRT.FT                -7.0000: 
STOP.FT              2730.2500: 
STEP.FT                 0.2500: 
NULL.                -999.2500: 
COMP.          Pioneer Natural Resources: COMPANY
WELL.             Squeal 11-26: WELL
FLD.           Purgatorie River: FIELD
LOC.           1186' FNL & 152' FWL--: LOCATION
PROV.                       CO: PROVINCE
CNTY.               Las Animas: COUNTRY
SRVC.          Patterson Wireline: SERVICE COMPANY
DATE.          Tue Jul 26 11:59:46 2005: LOG DATE
UWI.           05 071 08404 00: UNIQUE WELL ID
~Curve Information Block
DEPT.FT            0 000 00 00: Depth
CCL.                          : Casing Collar Locator
TT3.usec                      : CBL 3' Travel Time
AMP3.mV                       : CBL 3' Amplitude
GR.GAPI                       : Gamma Ray
~Parameter Information Block
~A  Depth       CCL         TT3         AMP3         GR     
# ...
  2539.0000      0.0000    671.2139      5.2681     74.8003
  2539.2500      0.0000    678.6696      5.2761     79.9532
  2539.5000      0.0000    684.5403      5.2749     82.6511
  2539.7500      0.0000    687.2498      5.2714     83.1369
  2540.0000      0.0000    685.6086      5.2725     83.4217
  2540.2500      0.0000    679.2016      5.2807     85.6367
  2540.5000      0.0000    669.0312      5.2932     90.1670
  2540.7500      0.0000    657.7731      5.3024     95.1744
  2541.0000      0.0000    648.4002      5.3012     98.0691
  2541.2500      0.0000    641.5161      5.2903     97.5657
  2541.5000      0.0000    634.1001      5.2784     94.5085
  2541.7500      0.0000    621.7106      5.2744     91.0008
  2542.0000      0.0000    602.5186      5.2764     88.7455
  2542.2500      0.0000    579.1172      5.2725     87.9275
  2542.5000      0.0000    557.2653      5.2528     87.5711
  2542.7500      0.0000    544.3809      5.2206     87.0142
  2543.0000      0.0000    547.8992      5.1908     86.8284
  2543.2500      0.0000    570.8400      5.1784     88.0269
  2543.5000      0.0000    606.7966      5.1845     90.6180
  2543.7500      0.0000    640.4832      5.1936     93.3789
  2544.0000      0.0000    655.4335      5.1833     95.0396
  2544.2500      0.0000    643.9914      5.1406     95.3054
  2544.5000      0.0000    613.0289      5.0728     94.5783
  2544.7500      0.0000    580.8023      5.0020     92.9469
  2545.0000      0.0000    565.7159      4.9516     89.7247
  2545.2500      0.0000    574.7423      4.9346     84.0876
  2545.5000      0.0000    600.8624      4.9530     76.2197
  2545.7500      0.0000    630.9022      5.0016     67.6882
  2546.0000      0.0000    655.4871      5.0702     60.3918
  2546.2500      0.0000    672.5625      5.1415     55.1331
  2546.5000      0.0000    684.5202      5.1899     51.4784
  2546.7500      0.0000    694.1828      5.1902     48.8423
  2547.0000      0.0000    702.6085      5.1357     47.1937
  2547.2500      0.0000    708.5367      5.0507     46.6764
  2547.5000      0.0000    709.2870      4.9773     47.0753
  2547.7500      0.0000    702.6204      4.9464     47.8535
  2548.0000      0.0000    688.4797      4.9597     48.4066
  2548.2500      0.0000    670.0264      4.9965     48.1372
  2548.5000      0.0000    653.6379      5.0326     46.6176
  2548.7500      0.0000    646.2880      5.0549     43.9768
  2549.0000      0.0000    650.6115      5.0647     41.0277
  2549.2500      0.0000    662.5782      5.0671     38.7770
  2549.5000      0.0000    675.1631      5.0614     37.8137
  2549.7500      0.0000    683.8571      5.0411     38.3656
  2550.0000      0.0000    688.2783      5.0034     40.8259
  2550.2500      0.0000    690.0812      4.9514     45.6942
  2550.5000      0.0000    690.7757      4.8911     52.7049
  2550.7500      0.0000    691.1053      4.8276     60.3107
  2551.0000      0.0000    691.3141      4.7645     66.4952
  2551.2500      0.0000    691.4158      4.7041     70.2148
  2551.5000      0.0000    691.2911      4.6495     71.9669
  2551.7500      0.0000    690.6611      4.6067     73.0931
  2552.0000      0.0000    689.1423      4.5837     74.6483
  2552.2500      0.0000    686.4676      4.5852     76.6740
  2552.5000      0.0000    682.8583      4.6073     78.2297
  2552.7500      0.0000    679.1359      4.6343     78.2079
  2553.0000      0.0000    676.2733      4.6441     76.3382
  2553.2500      0.0000    674.8183      4.6196     73.4132
  2553.5000      0.0000    674.7578      4.5565     70.5748
  2553.7500      0.0000    675.7490      4.4605     68.5580
  2554.0000      0.0000    677.3706      4.3462     67.6082
  2554.2500      0.0000    679.2852      4.2516     67.7689
  2554.5000      0.0000    681.2540      4.2365     68.7903
  2554.7500      0.0000    683.0359      4.3399     69.6946
  2555.0000      0.0000    684.0836      4.5447     68.9180
  2555.2500      0.0000    682.3802      4.8107     65.3977
  2555.5000      0.0000    673.0090      5.1236     59.5912
  2555.7500      0.0000    650.6141      5.4777     53.2778
  2556.0000      0.0000    616.7622      5.8299     48.2636
  2556.2500     -2.0000    583.6878      6.1095     45.2094
  2556.5000      0.0000    566.7986      6.2660     43.5498
  2556.7500      0.0000    573.1840      6.2959     42.3723
  2557.0000      0.0000    598.7273      6.2421     41.2920
  2557.2500      0.0000    633.4833      6.1748     40.6037
  2557.5000      0.0000    667.1059      6.1434     40.7694
  2557.7500      0.0000    692.1574      6.1339     41.8723
  2558.0000      0.0000    706.3765      6.0877     43.5844
  2558.2500      0.0000    712.2169      5.9677     45.5539
  2558.5000      0.0000    713.2600      5.7950     47.7817
  2558.7500      0.0000    710.9280      5.6245     50.7699
  2559.0000      0.0000    703.5184      5.4955     55.2081
  2559.2500      0.0000    686.7909      5.4078     61.1470
  2559.5000      0.0000    656.7490      5.3358     67.3936
  2559.7500      0.0000    615.9666      5.2573     72.1541
  2560.0000      0.0000    577.9698      5.1671     74.5692
  2560.2500      0.0000    561.0774      5.0700     75.3552
  2560.5000      0.0000    574.0511      4.9694     75.7411
  2560.7500      0.0000    608.5038      4.8643     76.2143
  2561.0000      0.0000    646.6797      4.7556     76.6536
  2561.2500      0.0000    675.2408      4.6533     77.2756
  2561.5000      0.0000    691.0770      4.5742     78.8455
  2561.7500      0.0000    697.6267      4.5323     81.9616
  2562.0000      0.0000    699.6420      4.5298     86.3162
  2562.2500      0.0000    700.8863      4.5535     90.5230
  2562.5000      0.0000    703.6682      4.5817     92.6766
  2562.7500      0.0000    709.0407      4.5972     91.3303
  2563.0000      0.0000    717.3328      4.5975     86.1194
  2563.2500      0.0000    728.2184      4.5902     77.7045
  2563.5000      0.0000    740.2583      4.5813     67.4960
  2563.7500      0.0000    751.1958      4.5684     57.5534
  2564.0000      0.0000    758.7896      4.5447     50.4068
  2564.2500      0.0000    761.0224      4.5060     48.4136
  2564.5000      0.0000    756.3932      4.4574     52.7814
  2564.7500      0.0000    745.4995      4.4171     62.8337
  2565.0000      0.0000    732.1951      4.4108     75.9468
  2565.2500      0.0000    721.7479      4.4570     88.3999
  2565.5000      0.0000    717.0059      4.5525     96.9669
  2565.7500      0.0000    716.5004      4.6738    100.3836
  2566.0000      0.0000    716.3447      4.7911     99.6334
  2566.2500      0.0000    713.7280      4.8831     96.9926
  2566.5000      0.0000    708.6817      4.9451     94.6773
  2566.7500      0.0000    703.1000      4.9861     93.8599
  2567.0000      0.0000    698.7445      5.0219     94.4143
  2567.2500      0.0000    696.3171      5.0665     95.4034
  2567.5000      0.0000    695.9151      5.1283     95.9666
  2567.7500      0.0000    697.7252      5.2074     96.0443
  2568.0000      0.0000    701.9782      5.2930     96.4230
  2568.2500      0.0000    708.3038      5.3674     98.0024
  2568.5000      0.0000    715.3752      5.4170    100.7502
  2568.7500      0.0000    721.4846      5.4409    103.1662
  2569.0000      0.0000    725.5690      5.4481    102.9749
  2569.2500      0.0000    727.6114      5.4471     99.0263
  2569.5000      0.0000    728.1117      5.4402     92.7468
  2569.7500      0.0000    727.3082      5.4265     87.2928
  2570.0000      0.0000    724.8671      5.4072     85.1251
  2570.2500      0.0000    720.2721      5.3874     86.5988
  2570.5000      0.0000    713.6313      5.3721     90.3453
  2570.7500      0.0000    706.1312      5.3627     94.1269
  2571.0000      0.0000    699.5006      5.3571     95.7968
  2571.2500      0.0000    694.9156      5.3520     94.7790
  2571.5000      0.0000    692.4963      5.3452     92.8049
  2571.7500      0.0000    691.7604      5.3367     92.3294
  2572.0000      0.0000    692.3228      5.3285     94.0289
  2572.2500      0.0000    694.0587      5.3228     96.2840
