~Version Information
VERS.                      2.0: CWLS Log ASCII Standard - VERSION 2.0
WRAP.                       NO: One line per depth step
~Well Information Block
STRT.FT                 5.5000: 
STOP.FT              1635.7500: 
STEP.FT                 0.2500: 
NULL.                -999.2500: 
COMP.          Pioneer Natural Resources: COMPANY
WELL.                Mead 11-9: WELL
FLD.           Purgatoire River: FIELD
LOC.           1127' FNL & 668' FWL: LOCATION
PROV.                 Colorado: PROVINCE
CNTY.               Las Animas: COUNTRY
SRVC.                Patterson: SERVICE COMPANY
DATE.          Wed Mar 02 13:48:38 2005: LOG DATE
UWI.           05 071 08160 00: UNIQUE WELL ID
~Curve Information Block
DEPT.FT            0 000 00 00: Depth
CCL.                          : Casing Collar Locator
TT3.usec                      : CBL 3' Travel Time
AMP3.mV                       : CBL 3' Amplitude
GR.GAPI                       : Gamma Ray
~Parameter Information Block
~A  Depth       CCL         TT3         AMP3         GR     
# ...
   977.0000      0.0000    912.6050      4.9963    113.6056
   977.2500      0.0000    898.9922      5.0587    111.4999
   977.5000      0.0000    887.2977      5.0990    109.9782
   977.7500      0.0000    877.6693      5.1142    108.7168
   978.0000      0.0000    868.7302      5.1029    107.5153
   978.2500      0.0000    859.2889      5.0652    106.8335
   978.5000      0.0000    849.8568      5.0019    107.9153
   978.7500      0.0000    841.9631      4.9165    111.4710
   979.0000      0.0000    836.4163      4.8183    116.2607
   979.2500      0.0000    832.9738      4.7209    119.7320
   979.5000      0.0000    831.9172      4.6368    120.2547
   979.7500      0.0000    835.9909      4.5741    118.3450
   980.0000      0.0000    850.5692      4.5384    115.6957
   980.2500      0.0000    880.2745      4.5355    113.3417
   980.5000      0.0000    923.1566      4.5728    110.8373
   980.7500      0.0000    967.8259      4.6562    107.2074
   981.0000      0.0000    999.2769      4.7821    102.5139
   981.2500      0.0000   1010.6418      4.9308     98.0693
   981.5000      0.0000   1008.9657      5.0729     95.0423
   981.7500      0.0000   1006.8976      5.1861     93.4462
   982.0000      0.0000   1008.0967      5.2627     92.8157
   982.2500      0.0000   1003.0694      5.3042     93.3437
   982.5000      0.0000    980.8516      5.3146     95.8242
   982.7500      0.0000    942.6111      5.2968    100.6134
   983.0000      0.0000    901.2739      5.2518    107.0695
   983.2500      0.0000    869.6112      5.1805    114.0436
   983.5000      0.0000    851.5854      5.0879    120.5792
   983.7500      0.0000    843.6392      4.9838    126.0547
   984.0000      0.0000    840.2448      4.8788    130.1662
   984.2500      0.0000    837.3148      4.7831    133.1942
   984.5000      0.0000    833.0786      4.7108    136.0219
   984.7500      0.0000    828.1501      4.6767    139.5271
   985.0000      0.0000    825.1417      4.6840    143.8648
   985.2500      0.0000    827.4714      4.7147    148.3960
   985.5000      0.0000    838.7054      4.7408    152.4668
   985.7500      0.0000    863.2680      4.7459    156.3570
   986.0000      0.0000    905.5897      4.7352    161.1688
   986.2500      0.0000    964.8391      4.7245    167.4336
   986.5000      0.0000   1030.2864      4.7199    173.9929
   986.7500      0.0000   1085.7682      4.7120    178.5628
   987.0000      0.0000   1120.6805      4.6892    179.5080
   987.2500      0.0000   1135.0322      4.6522    177.0859
   987.5000      0.0000   1133.5608      4.6135    173.0154
   987.7500      0.0000   1117.5469      4.5864    169.0498
   988.0000      0.0000   1084.2737      4.5780    166.0542
   988.2500      0.0000   1034.4187      4.5894    164.0075
   988.5000      0.0000    978.3417      4.6194    162.4485
   988.7500      0.0000    932.4955      4.6657    161.0032
   989.0000      0.0000    908.9825      4.7258    159.5302
   989.2500      0.0000    910.2905      4.7975    157.6691
   989.5000      0.0000    933.5609      4.8767    154.4163
   989.7500      0.0000    975.3542      4.9568    148.6111
   990.0000      0.0000   1029.8011      5.0314    140.3045
   990.2500      0.0000   1085.7496      5.0978    131.6073
   990.5000      0.0000   1130.4976      5.1589    125.5903
   990.7500      0.0000   1156.8712      5.2169    123.8919
   991.0000      0.0000   1165.6259      5.2670    125.5903
   991.2500      0.0000   1162.0981      5.2951    128.6243
   991.5000      0.0000   1151.4811      5.2865    131.9703
   991.7500      0.0000   1135.4052      5.2367    136.0925
   992.0000      0.0000   1110.7388      5.1557    141.4048
   992.2500      0.0000   1072.6426      5.0606    146.7049
   992.5000      0.0000   1021.5758      4.9634    149.6707
   992.7500      0.0000    968.1356      4.8640    149.2394
   993.0000      0.0000    928.6069      4.7538    147.1770
   993.2500      0.0000    913.3764      4.6264    146.7301
   993.5000      0.0000    919.3410      4.4859    149.6114
   993.7500      0.0000    934.2184      4.3457    154.4370
   994.0000      0.0000    948.2322      4.2201    158.0131
   994.2500      0.0000    960.7819      4.1167    157.9693
   994.5000      0.0000    975.7645      4.0353    154.2629
   994.7500      0.0000    992.4888      3.9729    148.5900
   995.0000      0.0000   1003.3065      3.9252    142.9501
   995.2500      0.0000    999.5458      3.8853    138.8351
   995.5000      0.0000    978.3531      3.8450    136.8923
   995.7500      0.0000    945.2000      3.8007    136.6701
   996.0000      0.0000    912.9200      3.7531    137.0492
   996.2500      0.0000    897.6827      3.7004    137.3954
   996.5000      0.0000    911.0571      3.6418    137.9120
   996.7500      0.0000    951.8398      3.5937    138.3042
   997.0000      0.0000   1005.1198      3.5889    136.6646
   997.2500      0.0000   1052.0927      3.6472    130.8940
   997.5000     -3.0000   1082.0409      3.7567    121.2104
   997.7500     -2.5922   1094.0558      3.8921    110.3758
   998.0000      3.0000   1089.6542      4.0427    101.5095
   998.2500      0.0000   1069.4651      4.2262     96.1499
   998.5000      0.0000   1038.6168      4.4797     93.8672
   998.7500      0.0000   1010.5192      4.8183     93.0244
   999.0000      0.0000   1000.8192      5.1807     92.2060
   999.2500      0.0000   1016.1194      5.4379     91.3054
   999.5000      0.0000   1049.1122      5.4945     90.9856
   999.7500      0.0000   1084.9500      5.3742     91.1823
  1000.0000      0.0000   1112.5715      5.1851     90.8947
  1000.2500      0.0000   1130.3545      5.0211     89.6931
  1000.5000      0.0000   1143.3596      4.9146     88.7310
  1000.7500      0.0000   1159.1575      4.8549     89.7378
  1001.0000      0.0000   1185.7363      4.8241     93.4297
  1001.2500      0.0000   1226.2650      4.8127     99.3644
  1001.5000      0.0000   1272.6167      4.8157    106.9632
  1001.7500      0.0000   1309.1143      4.8241    116.0125
  1002.0000      0.0000   1325.1947      4.8272    126.0114
  1002.2500      0.0000   1320.3827      4.8224    135.4127
  1002.5000      0.0000   1296.5437      4.8175    142.1628
  1002.7500      0.0000   1251.6970      4.8178    145.4424
  1003.0000      0.0000   1184.8691      4.8155    146.5812
  1003.2500      0.0000   1102.5361      4.7953    147.7284
  1003.5000      0.0000   1017.2012      4.7496    149.8490
  1003.7500      0.0000    941.4670      4.6829    152.4690
  1004.0000      0.0000    885.1407      4.6029    154.9315
  1004.2500      0.0000    855.6536      4.5147    157.0515
  1004.5000      0.0000    856.6238      4.4245    158.4113
  1004.7500      0.0000    884.1567      4.3439    157.7165
  1005.0000      0.0000    929.0062      4.2859    153.6209
  1005.2500      0.0000    985.8705      4.2561    146.3546
  1005.5000      0.0000   1057.2322      4.2476    137.9706
  1005.7500      0.0000   1143.9036      4.2469    130.6062
  1006.0000      0.0000   1233.7369      4.2462    125.0483
  1006.2500      0.0000   1303.3528      4.2486    121.4039
  1006.5000      0.0000   1331.1843      4.2617    120.2194
  1006.7500      0.0000   1308.7186      4.2889    121.7880
  1007.0000      0.0000   1244.4025      4.3261    124.8029
  1007.2500      0.0000   1161.1531      4.3669    127.0711
  1007.5000      0.0000   1086.9359      4.4075    127.9117
  1007.7500      0.0000   1041.3420      4.4477    128.9568
  1008.0000      0.0000   1028.2306      4.4873    132.1867
  1008.2500      0.0000   1039.2749      4.5246    137.7293
  1008.5000      0.0000   1061.4658      4.5598    143.7435
  1008.7500      0.0000   1081.6045      4.5964    148.0035
  1009.0000      0.0000   1088.6888      4.6393    149.4280
  1009.2500      0.0000   1076.5717      4.6905    148.5466
  1009.5000      0.0000   1046.5818      4.7479    146.9922
  1009.7500      0.0000   1007.5617      4.8082    146.6372
  1010.0000      0.0000    970.5135      4.8704    148.7400
  1010.2500      0.0000    940.6259      4.9393    153.2437
