~Version Information
VERS.                      2.0: CWLS Log ASCII Standard - VERSION 2.0
WRAP.                       NO: One line per depth step
~Well Information Block
STRT.FT               928.1000: 
STOP.FT              2417.7000: 
STEP.FT                 0.1000: 
NULL.                -999.2500: 
COMP.          Pioneer Natural Resources: COMPANY
WELL.            Chevron 13-13: WELL
FLD.           Purgatoire River: FIELD
LOC.           1560' FSL & 711' FWL--: LOCATION
CNTY.               Las Animas: COUNTY
SRVC.          Superior Well Services: SERVICE COMPANY
DATE.          Mon Feb 12 14:51:53 2007: LOG DATE
UWI.           05 071 08319 00: UNIQUE WELL ID
STAT.                 Colorado: STATE
~Curve Information Block
DEPT.FT            0 000 00 00: Depth
DIR.Ohm-m                     : IEL Induction Resistivity
GR.GAPI                       : Gamma Ray
SN.Ohm-m                      : IEL Short Normal
SP.mV                         : IEL Spontaneous Potential
~Parameter Information Block
~A  Depth       DIR          GR          SN          SP     
# ...
  2308.3000     24.3617     88.2356     27.7198     93.6343
  2308.4000     24.3617     86.7953     27.7198     93.6343
  2308.5000     23.7273     85.3210     26.8945     94.3966
  2308.6000     23.7273     83.8644     26.8945     94.3966
  2308.7000     23.7273     82.4710     26.8945     94.3966
  2308.8000     23.0954     81.1809     26.1194     95.1866
  2308.9000     23.0954     80.0293     26.1194     95.1866
  2309.0000     22.4975     79.0453     25.4082     95.9774
  2309.1000     22.4975     78.2503     25.4082     95.9774
  2309.2000     22.4975     77.6566     25.4082     95.9774
  2309.3000     21.9616     77.2650     24.7245     96.7449
  2309.4000     21.9616     77.0615     24.7245     96.7449
  2309.5000     21.4932     77.0246     24.0990     97.4687
  2309.6000     21.4932     77.1250     24.0990     97.4687
  2309.7000     21.4932     77.3317     24.0990     97.4687
  2309.8000     21.0729     77.6144     23.5029     98.1335
  2309.9000     21.0729     77.9505     23.5029     98.1335
  2310.0000     20.6735     78.3245     22.9196     98.7287
  2310.1000     20.6735     78.7235     22.9196     98.7287
  2310.2000     20.6735     79.1435     22.9196     98.7287
  2310.3000     20.2834     79.5828     22.3306     99.2491
  2310.4000     20.2834     80.0398     22.3306     99.2491
  2310.5000     19.9166     80.5153     21.8180     99.6938
  2310.6000     19.9166     81.0104     21.8180     99.6938
  2310.7000     19.9166     81.5269     21.8180     99.6938
  2310.8000     19.6024     82.0676     21.4804    100.0663
  2310.9000     19.6024     82.6353     21.4804    100.0663
  2311.0000     19.3636     83.2344     21.2512    100.3730
  2311.1000     19.3636     83.8723     21.2512    100.3730
  2311.2000     19.3636     84.5539     21.2512    100.3730
  2311.3000     19.2037     85.2804     21.0508    100.6231
  2311.4000     19.2037     86.0429     21.0508    100.6231
  2311.5000     19.1091     86.8209     20.8765    100.8269
  2311.6000     19.1091     87.5754     20.8765    100.8269
  2311.7000     19.1091     88.2524     20.8765    100.8269
  2311.8000     19.0598     88.7872     20.7428    100.9949
  2311.9000     19.0598     89.1168     20.7428    100.9949
  2312.0000     19.0387     89.1903     20.6496    101.1373
  2312.1000     19.0387     88.9862     20.6496    101.1373
  2312.2000     19.0387     88.5174     20.6496    101.1373
  2312.3000     19.0329     87.8375     20.5725    101.2623
  2312.4000     19.0329     87.0311     20.5725    101.2623
  2312.5000     19.0327     86.2067     20.5032    101.3761
  2312.6000     19.0327     85.4741     20.5032    101.3761
  2312.7000     19.0327     84.9318     20.5032    101.3761
  2312.8000     19.0319     84.6533     20.4689    101.4819
  2312.9000     19.0319     84.6712     20.4689    101.4819
  2313.0000     19.0307     84.9858     20.4492    101.5801
  2313.1000     19.0307     85.5613     20.4492    101.5801
  2313.2000     19.0307     86.3418     20.4492    101.5801
  2313.3000     19.0348     87.2609     20.3870    101.6688
  2313.4000     19.0348     88.2532     20.3870    101.6688
  2313.5000     19.0515     89.2671     20.2776    101.7439
  2313.6000     19.0515     90.2663     20.2776    101.7439
  2313.7000     19.0515     91.2374     20.2776    101.7439
  2313.8000     19.0861     92.1843     20.1959    101.8006
  2313.9000     19.0861     93.1257     20.1959    101.8006
  2314.0000     19.1435     94.0862     20.1851    101.8343
  2314.1000     19.1435     95.0894     20.1851    101.8343
  2314.2000     19.1435     96.1492     20.1851    101.8343
  2314.3000     19.2324     97.2615     20.2086    101.8418
  2314.4000     19.2324     98.4014     20.2086    101.8418
  2314.5000     19.3669     99.5225     20.2739    101.8219
  2314.6000     19.3669    100.5642     20.2739    101.8219
  2314.7000     19.3669    101.4628     20.2739    101.8219
  2314.8000     19.5599    102.1595     20.4019    101.7757
  2314.9000     19.5599    102.6184     20.4019    101.7757
  2315.0000     19.8145    102.8323     20.5321    101.7071
  2315.1000     19.8145    102.8250     20.5321    101.7071
  2315.2000     19.8145    102.6440     20.5321    101.7071
  2315.3000     20.1175    102.3594     20.6337    101.6219
  2315.4000     20.1175    102.0440     20.6337    101.6219
  2315.5000     20.4437    101.7690     20.7462    101.5272
  2315.6000     20.4437    101.5916     20.7462    101.5272
  2315.7000     20.4437    101.5536     20.7462    101.5272
  2315.8000     20.7652    101.6802     20.9085    101.4304
  2315.9000     20.7652    101.9843     20.9085    101.4304
  2316.0000     21.0598    102.4645     21.1306    101.3385
  2316.1000     21.0598    103.1113     21.1306    101.3385
  2316.2000     21.0598    103.9031     21.1306    101.3385
  2316.3000     21.3119    104.8073     21.3325    101.2574
  2316.4000     21.3119    105.7778     21.3325    101.2574
  2316.5000     21.5108    106.7540     21.4407    101.1912
  2316.6000     21.5108    107.6643     21.4407    101.1912
  2316.7000     21.5108    108.4293     21.4407    101.1912
  2316.8000     21.6514    108.9691     21.4836    101.1424
  2316.9000     21.6514    109.2106     21.4836    101.1424
  2317.0000     21.7385    109.1031     21.5412    101.1120
  2317.1000     21.7385    108.6174     21.5412    101.1120
  2317.2000     21.7385    107.7592     21.5412    101.1120
  2317.3000     21.7861    106.5650     21.6132    101.0998
  2317.4000     21.7861    105.0988     21.6132    101.0998
  2317.5000     21.8108    103.4440     21.7107    101.1049
  2317.6000     21.8108    101.6888     21.7107    101.1049
  2317.7000     21.8108     99.9202     21.7107    101.1049
  2317.8000     21.8231     98.2098     21.8255    101.1261
  2317.9000     21.8231     96.6131     21.8255    101.1261
  2318.0000     21.8233     95.1669     21.9383    101.1619
  2318.1000     21.8233     93.8908     21.9383    101.1619
  2318.2000     21.8233     92.7919     21.9383    101.1619
  2318.3000     21.8045     91.8666     22.0395    101.2109
  2318.4000     21.8045     91.1040     22.0395    101.2109
  2318.5000     21.7580     90.4881     22.0647    101.2716
  2318.6000     21.7580     89.9974     22.0647    101.2716
  2318.7000     21.7580     89.6045     22.0647    101.2716
  2318.8000     21.6782     89.2803     22.0058    101.3424
  2318.9000     21.6782     88.9955     22.0058    101.3424
  2319.0000     21.5624     88.7211     21.8940    101.4215
  2319.1000     21.5624     88.4322     21.8940    101.4215
  2319.2000     21.5624     88.1086     21.8940    101.4215
  2319.3000     21.4109     87.7400     21.8003    101.5072
  2319.4000     21.4109     87.3199     21.8003    101.5072
  2319.5000     21.2309     86.8554     21.7831    101.5978
  2319.6000     21.2309     86.3600     21.7831    101.5978
  2319.7000     21.2309     85.8553     21.7831    101.5978
  2319.8000     21.0427     85.3705     21.8198    101.6917
  2319.9000     21.0427     84.9333     21.8198    101.6917
  2320.0000     20.8780     84.5666     21.8821    101.7878
  2320.1000     20.8780     84.2814     21.8821    101.7878
  2320.2000     20.8780     84.0731     21.8821    101.7878
  2320.3000     20.7669     83.9197     22.0012    101.8851
  2320.4000     20.7669     83.7863     22.0012    101.8851
  2320.5000     20.7199     83.6316     22.1346    101.9828
  2320.6000     20.7199     83.4179     22.1346    101.9828
  2320.7000     20.7199     83.1198     22.1346    101.9828
  2320.8000     20.7212     82.7328     22.2155    102.0796
  2320.9000     20.7212     82.2758     22.2155    102.0796
  2321.0000     20.7400     81.7911     22.2618    102.1728
  2321.1000     20.7400     81.3349     22.2618    102.1728
  2321.2000     20.7400     80.9720     22.2618    102.1728
  2321.3000     20.7534     80.7612     22.3074    102.2582
  2321.4000     20.7534     80.7451     22.3074    102.2582
  2321.5000     20.7600     80.9433     22.3025    102.3294
  2321.6000     20.7600     81.3451     22.3025    102.3294
