~Version Information
VERS.                      2.0: CWLS Log ASCII Standard - VERSION 2.0
WRAP.                       NO: One line per depth step
~Well Information Block
STRT.FT                -2.0000: 
STOP.FT              1016.0000: 
STEP.FT                 0.2500: 
NULL.                -999.2500: 
COMP.          Evergreen Operating Corp.: COMPANY
WELL.              Sunset 24-3: WELL
FLD.           Purgatorie River: FIELD
LOC.           467' FSL & 2262' FWL--: LOCATION
PROV.                       CO: PROVINCE
CNTY.               Las Animas: COUNTRY
SRVC.                         : SERVICE COMPANY
DATE.          Mon Sep 27 13:40:22 2004: LOG DATE
UWI.           005 071 08158  : UNIQUE WELL ID
~Curve Information Block
DEPT.FT            0 000 00 00: Depth
GR.GAPI                       : Gamma Ray
CCL.                          : Casing Collar Locator
TT3.usec                      : CBL 3' Travel Time
AMP3.mV                       : CBL 3' Amplitude
~Parameter Information Block
~A  Depth        GR         CCL         TT3         AMP3    
# ...
    65.0000     71.3310      0.0000    854.9496      9.6067
    65.2500     77.4225      0.0000    858.3520      9.5888
    65.5000     79.4086      0.0000    856.5086      9.6213
    65.7500     78.3542      0.0000    847.4359      9.7713
    66.0000     76.9064      0.0000    832.5257     10.0764
    66.2500     76.3059      0.0000    815.0545     10.5110
    66.5000     75.5372      0.0000    798.9673     10.9923
    66.7500     73.5099      0.0000    787.3140     11.4260
    67.0000     71.2423      0.0000    780.9752     11.7541
    67.2500     71.2748      0.0000    779.3098     11.9700
    67.5000     75.1726      0.0000    782.2092     12.1007
    67.7500     82.0133      0.0000    791.2932     12.1812
    68.0000     89.1777      0.0000    808.7178     12.2448
    68.2500     94.2992      0.0000    834.1581     12.3140
    68.5000     96.6509      0.0000    863.0054     12.3814
    68.7500     97.2001      0.0000    888.4319     12.4025
    69.0000     97.4443      0.0000    905.7876     12.3251
    69.2500     97.9152      0.0000    914.8201     12.1301
    69.5000     97.6437      0.0000    918.2100     11.8453
    69.7500     94.9015      0.0000    918.9620     11.5262
    70.0000     88.4692      0.0000    919.0286     11.2243
    70.2500     78.8291      0.0000    919.1238     10.9662
    70.5000     68.5917      0.0000    918.9438     10.7573
    70.7500     61.1744      0.0000    917.4030     10.6051
    71.0000     58.3083      0.0000    913.0512     10.5341
    71.2500     58.9734      0.0000    904.8762     10.5650
    71.5000     61.0008      0.0000    893.2853     10.6727
    71.7500     63.1889      0.0000    880.1577     10.7827
    72.0000     65.3685      0.0000    867.3401     10.8298
    72.2500     67.0116      0.0000    854.9011     10.8146
    72.5000     66.9464      0.0000    841.2851     10.7896
    72.7500     64.6840      0.0000    825.5939     10.7985
    73.0000     61.2839      0.0000    809.4304     10.8418
    73.2500     58.5541      0.0000    795.9017     10.8934
    73.5000     57.7458      0.0000    786.9750     10.9344
    73.7500     59.0885      0.0000    782.3147     10.9660
    74.0000     62.0757      0.0000    780.3158     10.9953
    74.2500     65.7250      0.0000    779.4982     11.0162
    74.5000     68.8061      0.0000    778.9375     11.0128
    74.7500     70.6055      0.0000    777.9044     10.9837
    75.0000     71.8056      0.0000    775.5543     10.9555
    75.2500     74.0674      0.0000    771.1370     10.9650
    75.5000     78.3646      0.0000    764.6981     11.0276
    75.7500     84.0785      0.0000    757.5276     11.1307
    76.0000     89.7560      0.0000    751.7076     11.2533
    76.2500     94.0906      0.0000    748.9833     11.3844
    76.5000     96.0607      0.0000    749.7697     11.5236
    76.7500     95.1134      0.0000    752.8536     11.6619
    77.0000     91.8722      0.0000    756.1254     11.7638
    77.2500     88.0603      0.0000    758.2219     11.7803
    77.5000     85.2098      0.0000    759.6938     11.6897
    77.7500     83.7635      0.0000    762.1511     11.5208
    78.0000     83.4274      0.0000    766.2366     11.3288
    78.2500     83.7757      0.0000    770.9296     11.1555
    78.5000     84.4957      0.0000    774.7708     11.0150
    78.7500     85.5974      0.0000    777.1561     10.9071
    79.0000     87.4973      0.0000    778.3799     10.8284
    79.2500     90.5749      0.0000    778.9700     10.7697
    79.5000     94.5159      0.0000    779.2704     10.7127
    79.7500     98.2261      0.0000    779.4475     10.6323
    80.0000    100.4423      0.0000    779.6110     10.5044
    80.2500    100.5009      0.0000    779.8493     10.3204
    80.5000     98.6952      0.0000    780.2002     10.1020
    80.7500     95.9784      0.0000    780.6375      9.8967
    81.0000     93.3041      0.0000    781.0989      9.7467
    81.2500     91.1983      0.0000    781.5270      9.6639
    81.5000     89.7933      0.0000    781.9017      9.6356
    81.7500     89.0250      0.0000    782.3571      9.6457
    82.0000     88.7797      0.0000    783.3857      9.6783
    82.2500     88.9372      0.0000    785.9993      9.7003
    82.5000     89.2751      0.0000    791.3117      9.6586
    82.7500     89.4117      0.0000    799.2501      9.5138
    83.0000     89.0201      0.0000    807.4779      9.2771
    83.2500     88.0741      0.0000    812.7590      9.0082
    83.5000     86.6912      0.0000    814.2255      8.7720
    83.7500     84.8716      0.0000    814.0554      8.6005
    84.0000     82.7219      0.0000    813.8398      8.4899
    84.2500     80.9362      0.0000    811.9749      8.4177
    84.5000     80.6272      0.0000    806.2618      8.3582
    84.7500     82.3986      0.0000    797.5671      8.2934
    85.0000     85.6575      0.0000    789.1917      8.2177
    85.2500     88.9408      0.0000    783.7272      8.1319
    85.5000     90.7981      0.0000    781.8809      8.0335
    85.7500     90.4067      0.0000    783.7869      7.9223
    86.0000     87.9272      0.0000    790.2025      7.8143
    86.2500     84.7701      0.0000    802.0859      7.7290
    86.5000     83.1715      0.0000    819.2483      7.6451
    86.7500     84.7478      0.0000    839.9296      7.4976
    87.0000     89.1774      0.0000    861.6826      7.2633
    87.2500     94.3051      0.0000    882.1000      7.0315
    87.5000     97.5030      0.0000    898.8436      6.9447
    87.7500     97.2159      0.0000    910.1877      7.0689
    88.0000     93.8907      0.0000    915.4984      7.3547
    88.2500     89.7056      0.0000    914.0889      7.7129
    88.5000     86.8044      0.0000    902.9566      8.1124
    88.7500     85.2602      0.0000    877.0615      8.6021
    89.0000     83.1640      0.0000    835.0776      9.2187
    89.2500     79.2106      0.0000    786.5836      9.8642
    89.5000     74.6966      0.0000    750.0108     10.3305
    89.7500     72.3417      0.0000    738.7483     10.5081
    90.0000     73.5186      0.0000    749.9905     10.5166
    90.2500     77.1344      0.0000    769.5951     10.5640
    90.5000     80.8828      0.0000    785.5893     10.7361
    90.7500     83.0918      0.0000    794.9879     10.9712
    91.0000     83.5245      0.0000    800.6062     11.1640
    91.2500     82.9629      0.0000    805.2728     11.2384
    91.5000     82.3797      0.0000    809.8047     11.1671
    91.7500     82.3961      0.0000    814.6754     10.9623
    92.0000     83.1594      0.0000    821.3564     10.6474
    92.2500     84.4445      0.0000    831.4303     10.2398
    92.5000     85.8996      0.0000    844.7613      9.7791
    92.7500     87.3510      0.0000    858.4799      9.3554
    93.0000     88.8415      0.0000    867.4489      9.0837
    93.2500     90.3830      0.0000    866.6231      9.0339
    93.5000     91.7941      0.0000    854.4017      9.1757
    93.7500     92.7720      0.0000    834.2075      9.3922
    94.0000     92.9236      0.0000    812.2905      9.5539
    94.2500     91.5642      0.0000    793.5029      9.5903
    94.5000     87.6544      0.0000    778.9926      9.5046
    94.7500     80.4159      0.0000    767.2855      9.3387
    95.0000     70.3046      0.0000    756.9209      9.1391
    95.2500     59.1741      0.0000    748.2337      8.9497
    95.5000     49.3230      0.0000    743.0830      8.8118
    95.7500     42.4294      0.0000    743.1024      8.7507
    96.0000     39.1942      0.0000    748.0912      8.7612
    96.2500     39.4698      0.0000    756.0041      8.8065
    96.5000     42.4020      0.0000    764.5378      8.8370
    96.7500     46.6085      0.0000    772.9136      8.8156
    97.0000     50.7009      0.0000    782.0046      8.7351
    97.2500     54.1258      0.0000    792.2381      8.6172
    97.5000     57.6211      0.0000    801.3513      8.4928
    97.7500     62.5233      0.0000    805.2367      8.3789
    98.0000     69.3223      0.0000    801.8741      8.2733
    98.2500     76.8202      0.0000    793.7403      8.1724
