~Version Information
VERS.                      2.0: CWLS Log ASCII Standard - VERSION 2.0
WRAP.                       NO: One line per depth step
~Well Information Block
STRT.FT               456.0000: 
STOP.FT              1703.0000: 
STEP.FT                 0.2500: 
NULL.                -999.2500: 
COMP.          Pioneer Natural Resources: COMPANY
WELL.                Mead 11-9: WELL
FLD.           Purgatoire River: FIELD
LOC.           1127' FNL & 668' FWL: LOCATION
PROV.                 Colorado: PROVINCE
CNTY.               Las Animas: COUNTRY
SRVC.                Patterson: SERVICE COMPANY
DATE.          Fri Feb 18 16:14:34 2005: LOG DATE
UWI.           05 071 08160 00: UNIQUE WELL ID
~Curve Information Block
DEPT.FT            0 000 00 00: Depth
SN.Ohm-m                      : IEL Short Normal
SP.mV                         : IEL Spontaneous Potential
DIR.Ohm-m                     : IEL Induction Resistivity
GR.GAPI                       : Gamma Ray
~Parameter Information Block
~A  Depth        SN          SP         DIR          GR     
# ...
   925.0000      8.4566   -206.9391      7.1329    154.4612
   925.2500      8.3729   -206.8366      7.2096    154.1898
   925.5000      8.3475   -206.7686      7.3163    152.3192
   925.7500      8.3683   -206.7008      7.4509    150.3258
   926.0000      8.4406   -206.6157      7.6045    146.7233
   926.2500      8.5671   -206.5182      7.7699    144.0397
   926.5000      8.7088   -206.4232      7.9491    139.4934
   926.7500      8.7995   -206.3382      8.1547    136.1074
   927.0000      8.8085   -206.2558      8.4055    130.9530
   927.2500      8.8070   -206.1643      8.7209    127.9472
   927.5000      8.9708   -206.0615      9.1165    124.7069
   927.7500      9.5087   -205.9581      9.6019    123.3081
   928.0000     10.5886   -205.8729     10.1798    121.2942
   928.2500     12.2470   -205.8255     10.8443    119.1264
   928.5000     14.2657   -205.8280     11.5788    113.5399
   928.7500     16.2134   -205.8769     12.3585    108.1765
   929.0000     17.7798   -205.9489     13.1597     98.4642
   929.2500     19.0969   -206.0041     13.9732     91.6220
   929.5000     20.6408   -205.9989     14.8069     81.9857
   929.7500     22.7777   -205.9029     15.6726     76.5280
   930.0000     25.3717   -205.7078     16.5668     71.0363
   930.2500     27.8686   -205.4222     17.4648     70.3027
   930.5000     29.7749   -205.0614     18.3350     75.2866
   930.7500     30.9190   -204.6418     19.1578     82.5421
   931.0000     31.3281   -204.1875     19.9234     96.5445
   931.2500     31.1286   -203.7397     20.6020    105.5808
   931.5000     30.5468   -203.3492     21.1138    115.4057
   931.7500     29.8412   -203.0461     21.3465    118.5762
   932.0000     29.1913   -202.8183     21.2271    118.2074
   932.2500     28.6329   -202.6275     20.7872    115.1356
   932.5000     28.0907   -202.4386     20.1453    108.5096
   932.7500     27.4708   -202.2314     19.4289    104.7673
   933.0000     26.7223   -201.9995     18.7187    103.7560
   933.2500     25.8222   -201.7522     18.0492    107.2458
   933.5000     24.7468   -201.5145     17.4381    117.7097
   933.7500     23.4981   -201.3162     16.9067    126.2847
   934.0000     22.1516   -201.1774     16.4780    138.0226
   934.2500     20.8395   -201.0997     16.1609    143.7784
   934.5000     19.6746   -201.0714     15.9399    148.9514
   934.7500     18.7124   -201.0821     15.7804    150.7983
   935.0000     17.9797   -201.1324     15.6480    152.8781
   935.2500     17.5028   -201.2289     15.5292    154.3832
   935.5000     17.3010   -201.3725     15.4358    156.1288
   935.7500     17.3681   -201.5510     15.3913    155.6079
   936.0000     17.6641   -201.7428     15.4157    149.8561
   936.2500     18.1397   -201.9265     15.5203    142.3169
   936.5000     18.7756   -202.0916     15.7152    127.4776
   936.7500     19.5958   -202.2451     16.0182    117.3906
   937.0000     20.6585   -202.4068     16.4550    105.1329
   937.2500     21.9960   -202.5905     17.0490     99.5145
   937.5000     23.5288   -202.7846     17.8072     93.8537
   937.7500     25.0754   -202.9512     18.7153     90.7303
   938.0000     26.4577   -203.0475     19.7451     85.6661
   938.2500     27.5776   -203.0534     20.8691     82.1571
   938.5000     28.4238   -202.9841     22.0673     77.9211
   938.7500     29.0654   -202.8825     23.3182     76.2793
   939.0000     29.6134   -202.7978     24.5844     75.1886
   939.2500     30.1281   -202.7629     25.8165     74.7155
   939.5000     30.5981   -202.7818     26.9759     73.6978
   939.7500     31.0715   -202.8337     28.0572     72.9467
   940.0000     31.7113   -202.8875     29.0816     72.3417
   940.2500     32.5962   -202.9190     30.0658     72.3866
   940.5000     33.5907   -202.9196     30.9954     72.3687
   940.7500     34.5252   -202.8941     31.8212     71.6094
   941.0000     35.3376   -202.8517     32.4829     68.9477
   941.2500     36.0168   -202.8027     32.9432     66.7217
   941.5000     36.5707   -202.7615     33.2121     64.2570
   941.7500     37.0345   -202.7460     33.3471     63.7385
   942.0000     37.4318   -202.7634     33.4280     64.5470
   942.2500     37.7566   -202.7956     33.5248     65.7453
   942.5000     38.0197   -202.8062     33.6750     67.6914
   942.7500     38.2657   -202.7683     33.8871     68.5991
   943.0000     38.5333   -202.6882     34.1634     68.8199
   943.2500     38.8336   -202.6032     34.5246     68.2120
   943.5000     39.1604   -202.5564     35.0045     66.6991
   943.7500     39.4908   -202.5721     35.6077     65.6745
   944.0000     39.7810   -202.6518     36.2593     64.4043
   944.2500     39.9890   -202.7888     36.8041     63.6246
   944.5000     40.1095   -202.9822     37.0862     62.3668
   944.7500     40.1765   -203.2404     37.0645     61.7409
   945.0000     40.2284   -203.5730     36.8557     62.1655
   945.2500     40.2733   -203.9781     36.6589     63.6900
   945.5000     40.2955   -204.4343     36.6328     66.9495
   945.7500     40.2969   -204.9025     36.8180     68.6559
   946.0000     40.3155   -205.3370     37.1366     69.1469
   946.2500     40.3920   -205.6990     37.4557     68.1988
   946.5000     40.5345   -205.9682     37.6843     66.2501
   946.7500     40.7237   -206.1484     37.8329     65.4217
   947.0000     40.9410   -206.2654     37.9923     65.2344
   947.2500     41.1840   -206.3603     38.2572     65.4025
   947.5000     41.4616   -206.4794     38.6598     65.3353
   947.7500     41.7824   -206.6593     39.1537     65.0869
   948.0000     42.1421   -206.9157     39.6383     65.0214
   948.2500     42.5187   -207.2385     40.0108     65.4078
   948.5000     42.8839   -207.5930     40.2160     66.4380
   948.7500     43.2123   -207.9230     40.2625     67.2399
   949.0000     43.4859   -208.1628     40.1959     68.5920
   949.2500     43.7038   -208.2587     40.0624     69.5980
   949.5000     43.8831   -208.1889     39.8970     70.9214
   949.7500     44.0342   -207.9730     39.7320     71.3968
   950.0000     44.1358   -207.6630     39.5918     71.3503
   950.2500     44.1548   -207.3201     39.4667     70.9600
   950.5000     44.0924   -206.9899     39.2872     70.1749
   950.7500     43.9756   -206.6887     38.9337     69.6511
   951.0000     43.8014   -206.4067     38.2811     69.0090
   951.2500     43.5099   -206.1195     37.2493     68.7494
   951.5000     43.0296   -205.8016     35.8261     68.7531
   951.7500     42.3394   -205.4373     34.0508     69.0849
   952.0000     41.4414   -205.0240     31.9970     70.0433
   952.2500     40.2679   -204.5681     29.7688     70.8663
   952.5000     38.6359   -204.0788     27.4991     72.3195
   952.7500     36.2899   -203.5632     25.3242     73.6999
   953.0000     33.0490   -203.0206     23.3451     77.2578
   953.2500     29.0661   -202.4426     21.6037     81.0728
   953.5000     24.9459   -201.8271     20.0885     89.1852
   953.7500     21.4426   -201.1966     18.7595     95.9141
   954.0000     18.9900   -200.6017     17.5741    106.8455
   954.2500     17.5406   -200.1006     16.5029    113.7637
   954.5000     16.7448   -199.7307     15.5351    122.2313
   954.7500     16.2014   -199.4878     14.6752    126.4539
   955.0000     15.6546   -199.3274     13.9361    131.8627
   955.2500     15.0754   -199.1861     13.3277    135.9140
   955.5000     14.5756   -199.0117     12.8462    143.3285
   955.7500     14.2618   -198.7858     12.4662    148.3277
   956.0000     14.1380   -198.5332     12.1431    153.1764
   956.2500     14.0752   -198.3096     11.8263    153.2859
   956.5000     13.8776   -198.1680     11.4795    148.1199
   956.7500     13.4074   -198.1220     11.0943    141.8170
   957.0000     12.6505   -198.1292     10.6900    130.6773
   957.2500     11.7060   -198.1098     10.2993    124.1312
   957.5000     10.7693   -197.9887      9.9533    118.9174
   957.7500     10.0997   -197.7325      9.6732    119.5655
   958.0000      9.8787   -197.3627      9.4672    125.9362
   958.2500     10.0508   -196.9418      9.3320    132.0816
