~Version Information
VERS.                      2.0: CWLS Log ASCII Standard - VERSION 2.0
WRAP.                       NO: One line per depth step
~Well Information Block
STRT.FT               720.0000: 
STOP.FT              2265.7000: 
STEP.FT                 0.1000: 
NULL.                -999.2500: 
COMP.          Pioneer Natural Resources: COMPANY
WELL.          Casablanca 11-28 Tr: WELL
FLD.           Purgatoire River: FIELD
LOC.           422' FNL & 215' FWL----: LOCATION
PROV.                 Colorado: PROVINCE
CNTY.               Las Animas: COUNTRY
SRVC.                Patterson: SERVICE COMPANY
DATE.          Mon Mar 07 07:16:34 2005: LOG DATE
UWI.           05 071 08314 00: UNIQUE WELL ID
~Curve Information Block
DEPT.FT            0 000 00 00: Depth
DCAL.in                       : CDL Caliper
RHOB.g/cc                     : CDL Bulk Density
RHOC.g/cc                     : CDL Density Correction
DPOR.pu                       : CDL Density Porosity
NPOR.pu                       : Neutron Porosity
GR.GAPI                       : Gamma Ray
~Parameter Information Block
~A  Depth       DCAL        RHOB        RHOC        DPOR        NPOR         GR     
# ...
  1027.2000      8.2161      2.6213     -0.0071      1.7393     26.5963    100.9129
  1027.3000      8.2211      2.6316     -0.0279      1.1146     27.4513    103.0227
  1027.4000      8.2211      2.6553      0.0705     -0.3189     28.1408    106.0954
  1027.5000      8.2321      2.6653      0.0685     -0.9292     28.5014    110.1929
  1027.6000      8.2321      2.6528      0.0567     -0.1681     29.2749    113.6324
  1027.7000      8.2321      2.6284      0.0332      1.3073     30.3854    115.9832
  1027.8000      8.2457      2.6010      0.0488      2.9708     31.1457    116.7463
  1027.9000      8.2457      2.5727     -0.0022      4.6842     31.5080    116.0703
  1028.0000      8.2566      2.5444      0.0182      6.3993     31.6278    115.7281
  1028.1000      8.2566      2.5160     -0.0441      8.1240     31.3062    116.4855
  1028.2000      8.2566      2.4924     -0.0456      9.5540     30.1594    118.9340
  1028.3000      8.2674      2.4640     -0.0452     11.2705     27.9271    121.5728
  1028.4000      8.2674      2.3950     -0.0189     15.4571     24.7933    121.7309
  1028.5000      8.2842      2.2715     -0.0554     22.9417     21.5561    122.3616
  1028.6000      8.2842      2.1399     -0.1393     30.9139     18.9619    128.8911
  1028.7000      8.2842      2.0561     -0.1150     35.9935     17.3529    141.8476
  1028.8000      8.3209      2.0303     -0.1222     37.5597     16.8698    151.2692
  1028.9000      8.3209      2.0447     -0.0682     36.6824     17.4452    146.1026
  1029.0000      8.4308      2.0791     -0.0342     34.5989     18.7556    133.5561
  1029.1000      8.4308      2.1151      0.0909     32.4172     20.3761    127.6762
  1029.2000      8.4308      2.1396      0.2143     30.9323     22.2156    131.0806
  1029.3000      8.6725      2.1646      0.2081     29.4181     23.9749    136.5380
  1029.4000      8.6725      2.2108      0.3344     26.6192     24.9823    135.2293
  1029.5000      8.9390      2.2589      0.4147     23.7054     25.3038    127.4240
  1029.6000      8.9390      2.2730      0.3364     22.8485     25.3679    120.0529
  1029.7000      8.9390      2.2463      0.2241     24.4693     25.1390    116.8730
  1029.8000      8.8924      2.1903      0.1039     27.8606     24.3236    115.6457
  1029.9000      8.8924      2.1154      0.0362     32.3980     22.9355    114.4604
  1030.0000      8.5028      2.0325     -0.0287     37.4230     21.1559    116.6442
  1030.1000      8.5028      1.9631     -0.0876     41.6303     19.3579    122.9390
  1030.2000      8.5028      1.9289     -0.0493     43.7013     18.1419    130.1247
  1030.3000      8.2298      1.9322     -0.0601     43.5013     17.4721    134.1735
  1030.4000      8.2298      1.9610     -0.0344     41.7561     16.6488    132.9294
  1030.5000      8.1704      2.0047      0.0239     39.1061     15.2242    129.5311
  1030.6000      8.1704      2.0623      0.0576     35.6181     13.6165    125.2954
  1030.7000      8.1704      2.1408      0.1275     30.8588     12.6607    117.2635
  1030.8000      8.1672      2.2446      0.2181     24.5668     12.6048    108.0023
  1030.9000      8.1672      2.3680      0.2447     17.0897     13.1225    104.1341
  1031.0000      8.1684      2.4884      0.2823      9.7934     13.8834    106.0563
  1031.1000      8.1684      2.5693      0.2506      4.8893     14.7337    112.0890
  1031.2000      8.1684      2.5936      0.1781      3.4169     15.7650    119.0839
  1031.3000      8.1694      2.5850      0.0721      3.9397     16.9928    122.1849
  1031.4000      8.1694      2.5778      0.0281      4.3788     18.2838    121.0993
  1031.5000      8.1700      2.5783      0.0458      4.3472     19.5483    118.5558
  1031.6000      8.1700      2.5820      0.0294      4.1184     20.7676    115.7196
  1031.7000      8.1700      2.5926      0.0712      3.4774     21.9141    113.3257
  1031.8000      8.1701      2.6061      0.0735      2.6612     23.0889    110.9282
  1031.9000      8.1701      2.6119      0.0369      2.3070     24.2342    107.3913
  1032.0000      8.1668      2.6030      0.0800      2.8477     25.1051    103.4634
  1032.1000      8.1668      2.5793      0.0325      4.2854     25.8227    101.2410
  1032.2000      8.1668      2.5559     -0.0001      5.7023     26.4864    101.0731
  1032.3000      8.1508      2.5435      0.0539      6.4564     26.6286    101.5125
  1032.4000      8.1508      2.5402      0.0035      6.6528     26.1564    101.6243
  1032.5000      8.1225      2.5491      0.0297      6.1140     25.8327    102.3921
  1032.6000      8.1225      2.5664      0.0361      5.0674     25.8910    105.0761
  1032.7000      8.1225      2.5827      0.0466      4.0769     25.7716    108.4577
  1032.8000      8.1007      2.5948      0.0368      3.3475     25.3619    110.7223
  1032.9000      8.1007      2.6025      0.0162      2.8778     24.9245    111.3153
  1033.0000      8.0970      2.6057      0.0252      2.6822     24.7210    109.6022
  1033.1000      8.0970      2.6013      0.0503      2.9518     25.0171    106.8220
  1033.2000      8.0970      2.5877      0.0694      3.7737     25.4464    107.0116
  1033.3000      8.1062      2.5714      0.0524      4.7606     25.3420    109.2408
  1033.4000      8.1062      2.5620      0.0540      5.3335     24.6598    108.8709
  1033.5000      8.1147      2.5632      0.0500      5.2606     24.1422    105.9664
  1033.6000      8.1147      2.5648      0.0812      5.1609     24.4654    104.1855
  1033.7000      8.1147      2.5562      0.0183      5.6830     25.0924    108.2542
  1033.8000      8.1175      2.5492      0.0175      6.1094     25.2657    116.6961
  1033.9000      8.1175      2.5516      0.0182      5.9660     25.0337    120.4340
  1034.0000      8.1178      2.5478      0.0535      6.1960     24.4649    116.3989
  1034.1000      8.1178      2.5283      0.0213      7.3786     23.7141    111.8795
  1034.2000      8.1178      2.5054      0.0082      8.7629     23.3036    109.1996
  1034.3000      8.1194      2.4943     -0.0206      9.4362     23.4108    104.1502
  1034.4000      8.1194      2.4963      0.0280      9.3128     23.7002     97.7173
  1034.5000      8.1197      2.5019      0.0310      8.9758     23.9270     95.6302
  1034.6000      8.1197      2.5043     -0.0011      8.8316     24.2123     98.3169
  1034.7000      8.1197      2.5064     -0.0220      8.7046     24.4783    101.9529
  1034.8000      8.1184      2.5135      0.0139      8.2711     24.3476    106.5026
  1034.9000      8.1184      2.5327      0.0198      7.1065     24.1092    108.6919
  1035.0000      8.1180      2.5712      0.0428      4.7768     24.2079    104.5856
  1035.1000      8.1180      2.6169      0.1135      2.0088     24.4523     99.6967
  1035.2000      8.1180      2.6431      0.1073      0.4155     24.5419     99.2308
  1035.3000      8.1166      2.6368      0.0654      0.7979     24.4888    100.4608
  1035.4000      8.1166      2.6123      0.0481      2.2833     24.4638     98.9140
  1035.5000      8.1123      2.5912      0.0165      3.5612     24.4849     94.9646
  1035.6000      8.1123      2.5749      0.0301      4.5519     24.6561     92.2832
  1035.7000      8.1123      2.5608      0.0144      5.4083     25.1044     92.1389
  1035.8000      8.1078      2.5598      0.0070      5.4678     25.3699     93.8023
  1035.9000      8.1078      2.5772      0.0277      4.4100     25.1593     97.0954
  1036.0000      8.1022      2.6049      0.0098      2.7353     24.9906    101.8987
  1036.1000      8.1022      2.6277      0.0638      1.3513     25.2432    105.2373
  1036.2000      8.1022      2.6334      0.0413      1.0033     25.6317    103.7551
  1036.3000      8.0902      2.6321      0.0430      1.0867     25.6383     99.6545
  1036.4000      8.0902      2.6376      0.0675      0.7543     25.2586     97.8942
  1036.5000      8.0755      2.6394      0.0990      0.6408     24.8116     98.2845
  1036.6000      8.0755      2.6293      0.0536      1.2554     24.6326     95.8902
  1036.7000      8.0755      2.6226      0.0497      1.6580     25.0045     91.2038
