~Version Information
VERS.                      2.0: CWLS Log ASCII Standard - VERSION 2.0
WRAP.                       NO: One line per depth step
~Well Information Block
STRT.FT               -12.5000: 
STOP.FT              2200.2500: 
STEP.FT                 0.2500: 
NULL.                -999.2500: 
COMP.          Pioneer Natural Resources: COMPANY
WELL.           Ogallela 44-12: WELL
FLD.           Purgatorie River: FIELD
LOC.           610' FSL & 671' FEL------: LOCATION
PROV.                       CO: PROVINCE
CNTY.               Las Animas: COUNTRY
SRVC.          Patterson Wireline: SERVICE COMPANY
DATE.          Tue Mar 22 17:18:22 2005: LOG DATE
UWI.           05 071 08283 00: UNIQUE WELL ID
~Curve Information Block
DEPT.FT            0 000 00 00: Depth
CCL.                          : Casing Collar Locator
TT3.usec                      : CBL 3' Travel Time
AMP3.mV                       : CBL 3' Amplitude
GR.GAPI                       : Gamma Ray
~Parameter Information Block
~A  Depth       CCL         TT3         AMP3         GR     
# ...
  1294.0000      0.0000    268.5012     66.9055     57.4967
  1294.2500      0.0000    268.4575     66.8818     55.6543
  1294.5000      0.0000    268.4278     66.8114     54.7217
  1294.7500      0.0000    268.4225     66.7160     54.3958
  1295.0000      0.0000    268.4342     66.6074     54.8273
  1295.2500      0.0000    268.4475     66.4840     56.4773
  1295.5000      0.0000    268.4543     66.3625     59.8127
  1295.7500      0.0000    268.4577     66.3013     64.9785
  1296.0000      0.0000    268.4637     66.3700     71.3443
  1296.2500      0.0000    268.4744     66.5902     77.4145
  1296.5000      0.0000    268.4876     66.9184     81.7245
  1296.7500      0.0000    268.5005     67.2875     84.1488
  1297.0000      0.0000    268.5100     67.6511     86.2377
  1297.2500      0.0000    268.5124     67.9812     90.1870
  1297.5000      0.0000    268.5052     68.2385     97.2975
  1297.7500      0.0000    268.4907     68.3729    106.9678
  1298.0000      0.0000    268.4763     68.3632    117.0394
  1298.2500      0.0000    268.4686     68.2464    125.3677
  1298.5000      0.0000    268.4684     68.1077    130.9806
  1298.7500      0.0000    268.4720     68.0410    133.6425
  1299.0000      0.0000    268.4774     68.1023    132.9502
  1299.2500      0.0000    268.4846     68.2712    128.5510
  1299.5000      0.0000    268.4919     68.4565    121.1466
  1299.7500      0.0000    268.4957     68.5632    112.8148
  1300.0000      0.0000    268.4956     68.5593    106.1382
  1300.2500      0.0000    268.4959     68.4581    102.8271
  1300.5000      0.0000    268.5014     68.2280    103.0171
  1300.7500      0.0000    268.5129     67.7301    105.7766
  1301.0000      0.0000    268.5337     66.7523    110.0292
  1301.2500      0.0000    268.5767     65.1272    114.8448
  1301.5000      0.0000    268.6612     62.8824    119.3138
  1301.7500      0.0000    268.7930     60.3482    122.6909
  1302.0000      0.0000    268.9476     58.1221    124.6076
  1302.2500      0.0000    269.0754     56.8677    124.8336
  1302.5000      0.0000    269.1268     57.0500    122.8543
  1302.7500      0.0000    269.0796     58.7128    117.8573
  1303.0000      0.0000    268.9526     61.3776    109.2740
  1303.2500      0.0000    268.7953     64.1840     97.5561
  1303.5000      0.0000    268.6594     66.2744     84.6220
  1303.7500      0.0000    268.5726     67.1520     73.5473
  1304.0000      0.0000    268.5370     66.7512     67.3949
  1304.2500      0.0000    268.5446     65.3007     67.7470
  1304.5000      0.0000    268.5886     63.2073     74.0796
  1304.7500      0.0000    268.6586     61.0011     84.3760
  1305.0000      0.0000    268.7325     59.2469     96.1525
  1305.2500      0.0000    268.7775     58.4186    107.1401
  1305.5000      0.0000    268.7651     58.7805    115.7603
  1305.7500      0.0000    268.6903     60.2733    121.6269
  1306.0000      0.0000    268.5787     62.4568    125.7194
  1306.2500      0.0000    268.4687     64.6586    129.6253
  1306.5000      0.0000    268.3842     66.3232    134.1542
  1306.7500      0.0000    268.3261     67.2785    138.8552
  1307.0000      0.0000    268.2858     67.6874    143.0447
  1307.2500      0.0000    268.2583     67.8042    146.7143
  1307.5000      0.0000    268.2418     67.7995    150.0435
  1307.7500      0.0000    268.2323     67.7484    152.5558
  1308.0000      0.0000    268.2253     67.6885    153.3494
  1308.2500      0.0000    268.2199     67.6469    152.4092
  1308.5000      0.0000    268.2181     67.6351    151.4592
  1308.7500      0.0000    268.2204     67.6484    152.6991
  1309.0000      0.0000    268.2235     67.6831    156.3072
  1309.2500      0.0000    268.2219     67.7473    159.7966
  1309.5000      0.0000    268.2119     67.8478    160.3889
  1309.7500      0.0000    268.1943     67.9696    157.9342
  1310.0000      0.0000    268.1752     68.0734    155.1007
  1310.2500      0.0000    268.1629     68.1064    154.4933
  1310.5000      0.0000    268.1649     68.0046    155.7467
  1310.7500      0.0000    268.1848     67.7006    155.6487
  1311.0000      0.0000    268.2220     67.1573    151.0675
  1311.2500      0.0000    268.2714     66.4029    141.7398
  1311.5000      0.0000    268.3263     65.5212    130.4596
  1311.7500      0.0000    268.3811     64.6040    120.8300
  1312.0000      0.0000    268.4333     63.7138    114.8438
  1312.2500      0.0000    268.4823     62.8807    112.0803
  1312.5000      0.0000    268.5285     62.1209    110.4747
  1312.7500      0.0000    268.5726     61.4530    107.9139
  1313.0000      0.0000    268.6140     60.8910    103.8910
  1313.2500      0.0000    268.6515     60.4144    100.1116
  1313.5000      0.0000    268.6860     59.9517     99.3928
  1313.7500      0.0000    268.7231     59.4043    103.6312
  1314.0000      0.0000    268.7706     58.6873    112.4510
  1314.2500      0.0000    268.8363     57.7546    123.5450
  1314.5000      0.0000    268.9254     56.6098    134.2324
  1314.7500      0.0000    269.0398     55.3187    142.7409
  1315.0000      0.0000    269.1735     54.0134    148.1926
  1315.2500      0.0000    269.3086     52.8757    149.8504
  1315.5000      0.0000    269.4166     52.1003    146.9506
  1315.7500      0.0000    269.4706     51.8292    139.5053
  1316.0000      0.0000    269.4612     52.0633    129.3978
  1316.2500      0.0000    269.4056     52.6208    120.5622
  1316.5000      0.0000    269.3382     53.2176    117.2389
  1316.7500      0.0000    269.2911     53.6221    121.1310
  1317.0000      0.0000    269.2793     53.7571    130.2138
  1317.2500      0.0000    269.2979     53.6839    140.4768
  1317.5000      0.0000    269.3319     53.5077    148.5514
  1317.7500      0.0000    269.3677     53.2993    152.9523
  1318.0000      0.0000    269.4053     53.0998    153.9259
  1318.2500      0.0000    269.4704     52.9680    152.7516
  1318.5000      0.0000    269.7135     52.9584    150.8296
  1318.7500      0.0000    270.6128     52.9862    148.9646
  1319.0000      0.0000    273.1903     52.6767    147.4205
  1319.2500      0.0000    278.7493     51.4480    146.5144
  1319.5000      0.0000    287.7128     48.9321    146.7877
  1319.7500      0.0000    298.3864     45.3886    148.4725
  1320.0000      0.0000    307.5588     41.5892    151.0358
  1320.2500      0.0000    313.0375     38.2644    153.1355
  1320.5000      0.0000    315.2227     35.7379    152.6500
  1320.7500      0.0000    315.9171     33.9854    147.1309
  1321.0000      0.0000    316.3644     32.8274    135.2354
  1321.2500      0.0000    316.8308     32.0645    118.1939
  1321.5000     -2.0000    317.2895     31.5749     99.4882
  1321.7500      0.0000    317.8622     31.3365     82.7147
  1322.0000      0.0000    318.6022     31.4160     69.7868
  1322.2500      0.0000    318.9394     31.9953     60.9180
  1322.5000      0.0000    317.4620     33.3245     55.4606
  1322.7500      0.0000    312.6989     35.4741     52.4446
  1323.0000      0.0000    304.5130     38.1325     50.9818
  1323.2500      0.0000    294.5475     40.7883     50.6746
  1323.5000      0.0000    285.1703     43.0789     51.5874
  1323.7500      0.0000    278.0685     44.8884     53.8219
  1324.0000      0.0000    273.6644     46.2601     57.1585
  1324.2500      0.0000    271.4040     47.3540     60.9291
  1324.5000      0.0000    270.4031     48.3855     64.2339
  1324.7500      0.0000    269.9611     49.4866     66.4924
  1325.0000      0.0000    269.7170     50.6292     67.8870
  1325.2500      0.0000    269.5507     51.6768     69.2652
  1325.5000      0.0000    269.4367     52.4812     71.5582
  1325.7500      0.0000    269.3741     52.9422     75.0973
  1326.0000      0.0000    269.3576     53.0409     79.2227
  1326.2500      0.0000    269.3763     52.8488     82.6333
  1326.5000      0.0000    269.4136     52.5139     84.3659
  1326.7500      0.0000    269.4523     52.2188     84.4782
  1327.0000      0.0000    269.4788     52.1175     83.7425
  1327.2500      0.0000    269.4850     52.2847     82.9312
