~Version Information
VERS.                      2.0: CWLS Log ASCII Standard - VERSION 2.0
WRAP.                       NO: One line per depth step
~Well Information Block
STRT.FT                -6.2500: 
STOP.FT              2316.0000: 
STEP.FT                 0.2500: 
NULL.                -999.2500: 
COMP.          Pioneer Natural Resources: COMPANY
WELL.             Trimax 44-23: WELL
FLD.           Purgatorie River: FIELD
LOC.           527' FSL & 1064' FEL------: LOCATION
PROV.                       CO: PROVINCE
CNTY.               Las Animas: COUNTRY
SRVC.          Patterson Wireline: SERVICE COMPANY
DATE.          Sat Mar 19 11:18:53 2005: LOG DATE
UWI.           05 071 08326 00: UNIQUE WELL ID
~Curve Information Block
DEPT.FT            0 000 00 00: Depth
CCL.                          : Casing Collar Locator
TT3.usec                      : CBL 3' Travel Time
AMP3.mV                       : CBL 3' Amplitude
GR.GAPI                       : Gamma Ray
~Parameter Information Block
~A  Depth       CCL         TT3         AMP3         GR     
# ...
  1501.2500      0.0000    764.0620      7.9807    119.0079
  1501.5000      0.0000    774.4694      7.7632    111.7780
  1501.7500      0.0000    780.7101      7.3318    106.5045
  1502.0000      0.0000    780.8254      6.7235    104.5920
  1502.2500      0.0000    774.5403      6.0769    106.1668
  1502.5000      0.0000    763.6874      5.5570    109.8635
  1502.7500      0.0000    752.6711      5.2511    113.7464
  1503.0000      0.0000    746.5724      5.1322    116.8545
  1503.2500      0.0000    747.4866      5.1292    119.7081
  1503.5000      0.0000    752.7828      5.2178    122.9994
  1503.7500      0.0000    757.1310      5.4164    126.0581
  1504.0000      0.0000    756.1704      5.7151    127.0765
  1504.2500      0.0000    749.3488      6.0752    124.7325
  1504.5000      0.0000    740.6935      6.4995    119.3206
  1504.7500      0.0000    736.3427      7.0247    112.5199
  1505.0000      0.0000    739.6165      7.6107    106.2784
  1505.2500      0.0000    748.0544      8.0894    101.7082
  1505.5000      0.0000    755.7585      8.2834     98.8795
  1505.7500      0.0000    758.3259      8.1793     97.5613
  1506.0000      0.0000    755.3759      7.9534     97.7967
  1506.2500      0.0000    749.5055      7.8069     99.6891
  1506.5000      0.0000    744.0070      7.7889    103.0629
  1506.7500      0.0000    741.1665      7.7916    107.3199
  1507.0000      0.0000    741.5721      7.6966    111.3272
  1507.2500      0.0000    744.2327      7.4929    113.7720
  1507.5000      0.0000    747.1375      7.2627    114.0196
  1507.7500      0.0000    747.9842      7.0833    112.4480
  1508.0000      0.0000    745.0261      6.9637    109.7938
  1508.2500      0.0000    737.9979      6.8790    106.4033
  1508.5000      0.0000    728.6326      6.8384    102.2648
  1508.7500      0.0000    720.0453      6.8837     97.6506
  1509.0000      0.0000    715.2208      7.0273     93.5396
  1509.2500      0.0000    715.5449      7.2171     91.1722
  1509.5000      0.0000    720.0820      7.3670     91.1286
  1509.7500      0.0000    726.0483      7.4297     93.0196
  1510.0000      0.0000    730.6010      7.4403     96.0592
  1510.2500      0.0000    732.7791      7.4690     99.6175
  1510.5000      0.0000    733.6916      7.5364    103.1804
  1510.7500      0.0000    734.8448      7.6010    106.1373
  1511.0000      0.0000    736.7555      7.6188    108.0483
  1511.2500      0.0000    739.1193      7.5852    109.1810
  1511.5000      0.0000    741.4625      7.5253    110.3951
  1511.7500      0.0000    743.0936      7.4584    112.2365
  1512.0000      0.0000    742.7809      7.3793    114.4619
  1512.2500      0.0000    739.3011      7.2843    116.8508
  1512.5000      0.0000    732.7659      7.2049    120.1767
  1512.7500      0.0000    725.1328      7.1858    125.7865
  1513.0000      0.0000    719.0039      7.2401    134.1099
  1513.2500      0.0000    715.6945      7.3480    143.8065
  1513.5000      0.0000    714.2505      7.4792    152.4719
  1513.7500      0.0000    712.4399      7.6015    158.2922
  1514.0000      0.0000    709.3982      7.6947    161.2792
  1514.2500      0.0000    707.3489      7.7598    163.0890
  1514.5000      0.0000    709.8792      7.7912    165.6220
  1514.7500      0.0000    717.9663      7.7564    169.5372
  1515.0000      0.0000    727.7012      7.6270    173.7387
  1515.2500      0.0000    732.2211      7.4088    176.1028
  1515.5000      0.0000    726.5790      7.1297    175.1578
  1515.7500      0.0000    711.3875      6.8129    171.6250
  1516.0000      0.0000    692.1121      6.4564    168.0504
  1516.2500      0.0000    675.1991      6.0191    166.4657
  1516.5000      0.0000    664.6660      5.4608    166.4402
  1516.7500      0.0000    661.1453      4.8166    165.5166
  1517.0000      0.0000    662.9656      4.1985    161.2541
  1517.2500      0.0000    668.1214      3.7054    152.6944
  1517.5000      0.0000    675.8334      3.3530    140.2154
  1517.7500      0.0000    686.2856      3.0946    124.6976
  1518.0000      0.0000    698.3672      2.8918    107.2825
  1518.2500      0.0000    707.9211      2.7550     89.6953
  1518.5000      0.0000    709.9436      2.7128     74.2871
  1518.7500      0.0000    703.7356      2.7555     63.5039
  1519.0000      0.0000    694.9337      2.8409     58.9663
  1519.2500      0.0000    691.2532      2.9615     60.6713
  1519.5000      0.0000    696.4041      3.1725     67.0013
  1519.7500      0.0000    707.9858      3.5291     75.5201
  1520.0000      0.0000    720.2618      4.0207     83.8790
  1520.2500      0.0000    728.5959      4.5884     90.6295
  1520.5000      0.0000    732.0317      5.1943     95.8158
  1520.7500      0.0000    732.6819      5.8378    100.7073
  1521.0000      0.0000    733.2928      6.5054    106.3739
  1521.2500      0.0000    735.1539      7.1400    112.3377
  1521.5000      0.0000    737.3937      7.6871    116.8081
  1521.7500      0.0000    737.2900      8.1480    118.3031
  1522.0000      0.0000    731.3890      8.5588    117.0209
  1522.2500      0.0000    718.1065      8.9242    114.7990
  1522.5000      0.0000    700.4478      9.1947    113.8478
  1522.7500      0.0000    684.8420      9.3092    115.3415
  1523.0000      0.0000    675.9118      9.2512    118.8515
  1523.2500      0.0000    673.0609      9.0687    122.7798
  1523.5000      0.0000    672.4621      8.8461    125.1768
  1523.7500      0.0000    671.3065      8.6481    124.5285
  1524.0000      0.0000    669.8519      8.4805    120.4025
  1524.2500      0.0000    670.3617      8.3137    113.7522
  1524.5000      0.0000    674.2305      8.1440    106.5634
  1524.7500      0.0000    679.6381      8.0173    100.8337
  1525.0000      0.0000    682.7114      7.9825     97.3636
  1525.2500      0.0000    681.4943      8.0269     95.3145
  1525.5000      0.0000    677.8390      8.0717     93.2721
  1525.7500      0.0000    675.1528      8.0334     91.0576
  1526.0000      0.0000    675.2847      7.8903     90.2519
  1526.2500      0.0000    677.6215      7.6976     92.6092
  1526.5000      0.0000    680.0690      7.5467     98.1691
  1526.7500      0.0000    680.4377      7.5034    105.0487
  1527.0000      0.0000    677.4958      7.5749    110.6181
  1527.2500      0.0000    671.5766      7.7221    112.5470
  1527.5000      0.0000    664.5723      7.8875    109.2878
  1527.7500      0.0000    659.2990      8.0274    100.5812
  1528.0000      0.0000    658.5795      8.1446     87.9632
  1528.2500      0.0000    664.6398      8.2768     74.4746
  1528.5000      0.0000    678.5850      8.4306     63.3368
  1528.7500      0.0000    699.5292      8.5505     56.4370
  1529.0000      0.0000    723.7582      8.5854     53.6002
  1529.2500      0.0000    745.2128      8.5741     53.0333
  1529.5000      0.0000    757.3356      8.6319     52.7357
  1529.7500      0.0000    755.6373      8.8321     51.9477
  1530.0000      0.0000    740.7880      9.1147     51.3063
  1530.2500      0.0000    720.4896      9.3365     51.6109
  1530.5000      0.0000    705.7463      9.4122     52.7957
  1530.7500      0.0000    701.8269      9.3954     54.2149
  1531.0000      0.0000    703.8993      9.4270     55.5069
  1531.2500      0.0000    703.9627      9.6122     56.7428
  1531.5000      0.0000    700.4612      9.9360     57.7660
  1531.7500      0.0000    698.6524     10.2896     57.9158
  1532.0000      0.0000    702.9572     10.5659     56.9008
  1532.2500      0.0000    711.8188     10.7228     55.7067
  1532.5000      0.0000    719.9811     10.7736     56.0313
  1532.7500      0.0000    723.4011     10.7489     58.7475
  1533.0000      0.0000    721.1987     10.6762     63.2746
  1533.2500      0.0000    714.8269     10.5757     68.4162
  1533.5000      0.0000    706.7548     10.4550     73.5231
  1533.7500      0.0000    699.4321     10.3071     78.8950
  1534.0000      0.0000    694.3260     10.1291     85.3060
  1534.2500      0.0000    691.5404      9.9529     93.1279
  1534.5000      0.0000    690.3074      9.8345    101.8362
