~Version Information
VERS.                      2.0: CWLS Log ASCII Standard - VERSION 2.0
WRAP.                       NO: One line per depth step
~Well Information Block
STRT.FT               575.0000: 
STOP.FT              2016.2500: 
STEP.FT                 0.2500: 
NULL.                -999.2500: 
COMP.          Pioneer Natural Resources: COMPANY
WELL.          Bucksnort 41-35: WELL
FLD.           Purgatoire River: FIELD
LOC.           117' FNL & 463' FEL--: LOCATION
PROV.                 Colorado: PROVINCE
CNTY.               Las Animas: COUNTRY
SRVC.                Patterson: SERVICE COMPANY
DATE.          Thu Jul 21 10:13:55 2005: LOG DATE
UWI.           05 071 08401 00: UNIQUE WELL ID
~Curve Information Block
DEPT.FT            0 000 00 00: Depth
SN.Ohm-m                      : IEL Short Normal
SP.mV                         : IEL Spontaneous Potential
DIR.Ohm-m                     : IEL Induction Resistivity
GR.GAPI                       : Gamma Ray
~Parameter Information Block
~A  Depth        SN          SP         DIR          GR     
# ...
  1714.0000     34.2754    106.9575     27.4179     72.1948
  1714.2500     34.1862    103.9324     27.6100     72.1370
  1714.5000     34.0456    101.1493     27.8266     72.0775
  1714.7500     33.8894     98.6474     28.0601     72.4274
  1715.0000     33.7598     96.4421     28.2958     73.6454
  1715.2500     33.6902     94.5326     28.5226     74.6348
  1715.5000     33.6938     92.9089     28.7419     75.8414
  1715.7500     33.7569     91.5562     28.9696     76.4445
  1716.0000     33.8438     90.4568     29.2287     77.4881
  1716.2500     33.9155     89.5908     29.5364     78.4264
  1716.5000     33.9572     88.9353     29.8912     79.8122
  1716.7500     33.9985     88.4634     30.2687     80.2338
  1717.0000     34.1029     88.1434     30.6286     79.2388
  1717.2500     34.3315     87.9385     30.9302     77.2053
  1717.5000     34.7025     87.8062     31.1479     72.5610
  1717.7500     35.1773     87.7005     31.2799     69.2335
  1718.0000     35.6789     87.5754     31.3432     65.4064
  1718.2500     36.1281     87.3886     31.3557     64.1065
  1718.5000     36.4709     87.1071     31.3238     64.0920
  1718.7500     36.6857     86.7101     31.2467     65.0413
  1719.0000     36.7765     86.1920     31.1320     66.8059
  1719.2500     36.7649     85.5611     31.0036     67.5436
  1719.5000     36.6863     84.8355     30.8906     67.6364
  1719.7500     36.5902     84.0374     30.8127     67.3758
  1720.0000     36.5359     83.1858     30.7767     67.4508
  1720.2500     36.5817     82.2908     30.7870     68.1901
  1720.5000     36.7689     81.3502     30.8579     70.3815
  1720.7500     37.1096     80.3508     31.0163     72.2216
  1721.0000     37.5840     79.2739     31.2936     74.4913
  1721.2500     38.1515     78.1035     31.7132     74.9839
  1721.5000     38.7718     76.8345     32.2798     73.3014
  1721.7500     39.4247     75.4791     32.9784     70.4461
  1722.0000     40.1166     74.0682     33.7814     64.3985
  1722.2500     40.8688     72.6485     34.6609     60.2585
  1722.5000     41.6918     71.2750     35.5949     55.8965
  1722.7500     42.5647     70.0033     36.5637     54.8388
  1723.0000     43.4356     68.8817     37.5365     55.5396
  1723.2500     44.2422     67.9472     38.4609     56.6705
  1723.5000     44.9286     67.2244     39.2620     58.1401
  1723.7500     45.4471     66.7265     39.8517     58.7345
  1724.0000     45.7573     66.4572     40.1446     58.9952
  1724.2500     45.8346     66.4107     40.0847     58.6323
  1724.5000     45.6866     66.5702     39.6799     57.3137
  1724.7500     45.3602     66.9038     39.0187     56.4276
  1725.0000     44.9266     67.3620     38.2415     56.5030
  1725.2500     44.4520     67.8773     37.4781     57.9963
  1725.5000     43.9694     68.3688     36.8029     61.9901
  1725.7500     43.4695     68.7530     36.2301     65.0048
  1726.0000     42.9110     68.9574     35.7329     68.5335
  1726.2500     42.2423     68.9357     35.2589     69.6448
  1726.5000     41.4221     68.6788     34.7377     69.3289
  1726.7500     40.4350     68.2187     34.0943     68.2368
  1727.0000     39.3024     67.6243     33.2741     66.5040
  1727.2500     38.0819     66.9877     32.2673     65.9342
  1727.5000     36.8482     66.4079     31.1122     66.6285
  1727.7500     35.6636     65.9725     29.8798     68.3757
  1728.0000     34.5539     65.7461     28.6515     73.4914
  1728.2500     33.5041     65.7658     27.4983     78.9508
  1728.5000     32.4692     66.0459     26.4655     90.2066
  1728.7500     31.3936     66.5880     25.5624     98.9195
  1729.0000     30.2278     67.3934     24.7663    111.2190
  1729.2500     28.9440     68.4717     24.0407    117.4329
  1729.5000     27.5468     69.8422     23.3592    122.3739
  1729.7500     26.0845     71.5278     22.7193    122.7318
  1730.0000     24.6567     73.5435     22.1368    120.0868
  1730.2500     23.4071     75.8833     21.6289    117.3702
  1730.5000     22.4855     78.5108     21.2005    113.6424
  1730.7500     21.9856     81.3579     20.8410    111.8856
  1731.0000     21.8894     84.3308     20.5275    110.4259
  1731.2500     22.0595     87.3237     20.2294    110.1372
  1731.5000     22.2963     90.2353     19.9120    110.4309
  1731.7500     22.4287     92.9840     19.5444    110.7187
  1732.0000     22.3795     95.5177     19.1105    110.4924
  1732.2500     22.1691     97.8162     18.6194    109.7700
  1732.5000     21.8729     99.8862     18.1051    108.5054
  1732.7500     21.5707    101.7519     17.6151    108.1178
  1733.0000     21.3180    103.4425     17.1930    108.6995
  1733.2500     21.1390    104.9825     16.8644    109.7781
  1733.5000     21.0349    106.3840     16.6344    112.0987
  1733.7500     20.9940    107.6452     16.4936    113.9501
  1734.0000     21.0019    108.7509     16.4295    116.7458
  1734.2500     21.0455    109.6775     16.4334    118.0992
  1734.5000     21.1170    110.3982     16.5031    118.2890
  1734.7500     21.2195    110.8872     16.6402    116.9783
  1735.0000     21.3736    111.1244     16.8485    113.7687
  1735.2500     21.6181    111.0976     17.1332    111.6657
  1735.5000     21.9970    110.8048     17.5013    109.3357
  1735.7500     22.5370    110.2552     17.9578    108.1323
  1736.0000     23.2276    109.4703     18.5000    105.9609
  1736.2500     24.0177    108.4835     19.1098    103.9603
  1736.5000     24.8318    107.3387     19.7523    100.6125
  1736.7500     25.6003    106.0867     20.3843     98.7750
  1737.0000     26.2857    104.7801     20.9724     97.0101
  1737.2500     26.8888    103.4668     21.5077     96.1274
  1737.5000     27.4302    102.1852     22.0050     94.6926
  1737.7500     27.9231    100.9591     22.4851     93.9810
  1738.0000     28.3557     99.7978     22.9520     94.4291
  1738.2500     28.6913     98.6973     23.3804     95.9112
  1738.5000     28.8850     97.6443     23.7187     98.6144
  1738.7500     28.9085     96.6213     23.9074     99.5791
  1739.0000     28.7693     95.6103     23.9026     98.8134
  1739.2500     28.5100     94.5942     23.6968     97.3966
  1739.5000     28.1923     93.5570     23.3227     96.2674
  1739.7500     27.8749     92.4820     22.8403     97.3898
  1740.0000     27.5947     91.3501     22.3178    102.0229
  1740.2500     27.3577     90.1401     21.8172    106.0292
  1740.5000     27.1430     88.8326     21.3880    111.2353
  1740.7500     26.9179     87.4177     21.0628    113.3821
  1741.0000     26.6531     85.9068     20.8535    114.2193
  1741.2500     26.3239     84.3472     20.7479    113.3505
  1741.5000     25.8939     82.8342     20.7109    110.5725
  1741.7500     25.3004     81.5176     20.6884    108.0372
  1742.0000     24.4654     80.5974     20.6128    103.0069
  1742.2500     23.3415     80.3030     20.4109     98.4005
  1742.5000     21.9645     80.8588     20.0202     89.2008
  1742.7500     20.4706     82.4404     19.4139     81.9697
  1743.0000     19.0527     85.1307     18.6188     71.6285
  1743.2500     17.8792     88.8908     17.7068     66.7712
  1743.5000     17.0285     93.5529     16.7618     64.7975
  1743.7500     16.4759     98.8422     15.8443     67.3345
  1744.0000     16.1277    104.4218     14.9766     75.6557
  1744.2500     15.8728    109.9508     14.1509     82.8413
  1744.5000     15.6238    115.1380     13.3500     93.5308
  1744.7500     15.3310    119.7799     12.5673     99.5041
  1745.0000     14.9767    123.7740     11.8161    106.3701
  1745.2500     14.5643    127.1077     11.1233    110.0655
  1745.5000     14.1147    129.8313     10.5182    114.7798
  1745.7500     13.6637    132.0237     10.0225    116.8059
  1746.0000     13.2534    133.7635      9.6477    116.7878
  1746.2500     12.9188    135.1100      9.3959    114.7820
  1746.5000     12.6825    136.0988      9.2609    110.6600
  1746.7500     12.5593    136.7469      9.2295    108.4750
  1747.0000     12.5662    137.0651      9.2828    107.2663
  1747.2500     12.7222    137.0694      9.3997    107.9481
