~Version Information
VERS.                      2.0: CWLS Log ASCII Standard - VERSION 2.0
WRAP.                       NO: One line per depth step
~Well Information Block
STRT.FT               675.0000: 
STOP.FT              2371.5000: 
STEP.FT                 0.1000: 
NULL.                -999.2500: 
COMP.          Pioneer Natural Resources: COMPANY
WELL.            Harrier 44-33: WELL
FLD.           Purgatoire River: FIELD
LOC.           456' FSL & 930' FEL: LOCATION
PROV.                 Colorado: PROVINCE
CNTY.               Las Animas: COUNTRY
SRVC.                Patterson: SERVICE COMPANY
DATE.          Mon Jun 20 10:36:59 2005: LOG DATE
UWI.           05 071 08398 00: UNIQUE WELL ID
~Curve Information Block
DEPT.FT            0 000 00 00: Depth
DCAL.in                       : CDL Caliper
RHOB.g/cc                     : CDL Bulk Density
RHOC.g/cc                     : CDL Density Correction
DPOR.pu                       : CDL Density Porosity
GR.GAPI                       : Gamma Ray
NPOR.pu                       : Neutron Porosity
~Parameter Information Block
~A  Depth       DCAL        RHOB        RHOC        DPOR         GR         NPOR    
# ...
  1462.2000      7.9619      2.5897      0.1059      3.6571    107.1121     18.7578
  1462.3000      8.0144      2.5693      0.1134      4.8888    106.1244     19.7452
  1462.4000      8.0144      2.5391      0.0350      6.7188    109.6460     21.3591
  1462.5000      8.0102      2.5243      0.0390      7.6193    116.1914     22.2940
  1462.6000      8.0102      2.5204      0.0944      7.8556    121.7172     22.3450
  1462.7000      8.0102      2.5121      0.0511      8.3574    120.3287     23.0824
  1462.8000      8.0086      2.5038      0.0861      8.8633    114.7702     24.9231
  1462.9000      8.0086      2.5013      0.0474      9.0100    113.5916     26.6869
  1463.0000      8.0076      2.5075      0.0771      8.6384    116.7276     27.6548
  1463.1000      8.0076      2.5146      0.1249      8.2074    122.4184     28.0175
  1463.2000      8.0076      2.5119      0.0762      8.3705    131.1622     27.3456
  1463.3000      7.9987      2.5179      0.0776      8.0070    138.0360     25.8837
  1463.4000      7.9987      2.5470      0.1024      6.2447    140.3650     25.0061
  1463.5000      7.9656      2.5742      0.1647      4.5916    143.1900     25.1684
  1463.6000      7.9656      2.5776      0.1449      4.3908    147.5350     25.4763
  1463.7000      7.9656      2.5723      0.1000      4.7101    149.5666     25.3712
  1463.8000      7.9794      2.5702      0.1345      4.8390    149.1873     25.1565
  1463.9000      7.9794      2.5576      0.1145      5.5974    147.6730     25.0324
  1464.0000      8.0237      2.5464      0.0696      6.2768    144.3433     25.0973
  1464.1000      8.0237      2.5650      0.0545      5.1517    143.7425     24.9809
  1464.2000      8.0237      2.6040      0.1090      2.7908    148.7781     24.6175
  1464.3000      8.0213      2.6235      0.1728      1.6063    151.1768     24.3775
  1464.4000      8.0213      2.6067      0.0603      2.6217    148.5537     23.8790
  1464.5000      7.9894      2.5904      0.0093      3.6145    145.5999     23.5211
  1464.6000      7.9894      2.6109      0.0707      2.3723    139.8887     23.9764
  1464.7000      7.9894      2.6501      0.1385     -0.0072    134.1208     24.1572
  1464.8000      7.9692      2.6650      0.1499     -0.9119    137.8833     23.5119
  1464.9000      7.9692      2.6393      0.1336      0.6471    146.4773     23.0786
  1465.0000      7.9476      2.5954      0.0759      3.3102    148.2925     22.8731
  1465.1000      7.9476      2.5655      0.0535      5.1222    141.9349     22.6106
  1465.2000      7.9476      2.5563      0.0271      5.6806    132.3715     23.0700
  1465.3000      7.9385      2.5556      0.0153      5.7191    126.1141     24.0295
  1465.4000      7.9385      2.5648     -0.0720      5.1639    126.0783     23.9725
  1465.5000      7.9512      2.5863      0.0378      3.8580    128.1812     22.8915
  1465.6000      7.9512      2.6026      0.0507      2.8710    127.4721     21.7654
  1465.7000      7.9512      2.6065      0.0366      2.6385    121.9509     20.5471
  1465.8000      8.0016      2.6077      0.0684      2.5607    114.7527     19.6123
  1465.9000      8.0016      2.6143      0.0560      2.1657    112.6602     19.9000
  1466.0000      8.0057      2.6300      0.0834      1.2143    115.8115     20.9354
  1466.1000      8.0057      2.6490      0.0555      0.0608    115.6431     21.3616
  1466.2000      8.0057      2.6638      0.1225     -0.8346    109.0978     20.9426
  1466.3000      7.9756      2.6694      0.1413     -1.1777    105.1014     20.6103
  1466.4000      7.9756      2.6686      0.1017     -1.1291    108.7883     21.0895
  1466.5000      7.9605      2.6656      0.1413     -0.9440    114.3499     21.8096
  1466.6000      7.9605      2.6415      0.1580      0.5166    118.2882     22.0115
  1466.7000      7.9605      2.5845      0.0495      3.9709    122.4781     22.1460
  1466.8000      7.9471      2.5277     -0.0471      7.4149    125.2882     22.7476
  1466.9000      7.9471      2.4984      0.0365      9.1864    123.8403     23.8708
  1467.0000      7.9496      2.4819      0.0436     10.1891    119.3437     25.1718
  1467.1000      7.9496      2.4674      0.0342     11.0675    116.0478     26.0997
  1467.2000      7.9496      2.4617      0.0637     11.4096    117.5973     26.6166
  1467.3000      7.9590      2.4629      0.0500     11.3388    121.7388     26.3995
  1467.4000      7.9590      2.4693      0.0506     10.9509    122.9559     25.4363
  1467.5000      8.0020      2.4731      0.0990     10.7238    126.6508     24.9772
  1467.6000      8.0020      2.4584      0.0597     11.6097    139.4290     25.4220
  1467.7000      8.0020      2.4379      0.0239     12.8543    153.9080     25.6618
  1467.8000      8.0189      2.4353      0.0478     13.0127    162.4299     24.9284
  1467.9000      8.0189      2.4461      0.0406     12.3563    163.7221     23.8666
  1468.0000      8.0263      2.4554      0.0394     11.7944    158.6636     23.5867
  1468.1000      8.0263      2.4646      0.0246     11.2345    153.8857     24.0435
  1468.2000      8.0263      2.4863      0.0340      9.9221    154.4480     24.3310
  1468.3000      7.9919      2.5245      0.0715      7.6075    156.8680     24.1225
  1468.4000      7.9919      2.5611      0.1372      5.3873    157.0454     24.1295
  1468.5000      7.9860      2.5711      0.1512      4.7793    156.7393     24.9587
  1468.6000      7.9860      2.5530      0.1047      5.8778    156.1407     25.7828
  1468.7000      7.9860      2.5303      0.0753      7.2530    152.8510     25.6617
  1468.8000      8.0097      2.5205      0.0967      7.8484    150.1137     25.4176
  1468.9000      8.0097      2.5244      0.0935      7.6133    149.9908     25.8441
  1469.0000      7.9739      2.5361      0.1417      6.9028    150.0852     26.0922
  1469.1000      7.9739      2.5437      0.1260      6.4405    150.9423     25.7398
  1469.2000      7.9739      2.5364      0.1485      6.8853    153.9946     25.8381
  1469.3000      7.9547      2.5150      0.1767      8.1846    158.9912     26.9069
  1469.4000      7.9547      2.4899      0.1207      9.7020    164.9596     27.9956
  1469.5000      7.9571      2.4698      0.0749     10.9202    167.9070     28.2694
  1469.6000      7.9571      2.4566      0.0740     11.7232    163.3200     27.6827
  1469.7000      7.9571      2.4545      0.0448     11.8487    156.2502     27.1907
  1469.8000      8.0407      2.4694      0.0879     10.9445    157.0760     27.6860
  1469.9000      8.0407      2.4928      0.0857      9.5265    167.5659     28.6439
  1470.0000      8.0886      2.5134      0.0751      8.2790    175.9527     29.3482
  1470.1000      8.0886      2.5307      0.1235      7.2329    172.3961     29.5345
  1470.2000      8.0886      2.5408      0.1517      6.6164    164.1172     28.9661
  1470.3000      8.0884      2.5388      0.1414      6.7372    161.3478     27.6262
  1470.4000      8.0884      2.5298      0.1011      7.2870    162.8336     26.0602
  1470.5000      8.0869      2.5211      0.0853      7.8147    164.0540     24.9600
  1470.6000      8.0869      2.5108      0.0901      8.4393    163.1487     24.5994
  1470.7000      8.0869      2.4971      0.0616      9.2688    157.3621     24.9725
  1470.8000      8.0654      2.4889      0.0639      9.7663    146.9043     25.7212
  1470.9000      8.0654      2.4863      0.0632      9.9201    137.3028     25.8744
  1471.0000      8.0296      2.4690      0.0709     10.9686    135.6360     25.0098
  1471.1000      8.0296      2.4267      0.0550     13.5310    140.9522     24.3629
  1471.2000      8.0296      2.3795      0.0288     16.3915    146.7031     25.1885
  1471.3000      8.0795      2.3587     -0.0277     17.6544    153.1114     27.2893
  1471.4000      8.0795      2.3824      0.0290     16.2195    159.0854     29.2320
  1471.5000      8.0374      2.4401      0.1196     12.7217    158.9063     30.2014
  1471.6000      8.0374      2.5044      0.1384      8.8261    154.3222     30.3548
  1471.7000      8.0374      2.5502      0.2187      6.0495    150.6779     29.5218
