~Version Information
VERS.                      2.0: CWLS Log ASCII Standard - VERSION 2.0
WRAP.                       NO: One line per depth step
~Well Information Block
STRT.FT               554.0000: 
STOP.FT              1002.0000: 
STEP.FT                 0.1000: 
NULL.                -999.2500: 
COMP.          Pioneer Natural Resources: COMPANY
WELL.          Rising Star 22-11: WELL
FLD.           Purgatoire River: FIELD
LOC.           2152' FNL & 2105' FWL: LOCATION
PROV.                 Colorado: PROVINCE
CNTY.               Las Animas: COUNTRY
SRVC.                Patterson: SERVICE COMPANY
DATE.          Mon Apr 11 16:46:53 2005: LOG DATE
UWI.           05 071 08354 00: UNIQUE WELL ID
~Curve Information Block
DEPT.FT            0 000 00 00: Depth
DCAL.in                       : CDL Caliper
RHOB.g/cc                     : CDL Bulk Density
RHOC.g/cc                     : CDL Density Correction
DPOR.pu                       : CDL Density Porosity
GR.GAPI                       : Gamma Ray
NPOR.pu                       : Neutron Porosity
~Parameter Information Block
~A  Depth       DCAL        RHOB        RHOC        DPOR         GR         NPOR    
   554.0000      4.6201      2.1157     -0.1051     32.3806    111.3862     22.5348
   554.1000      4.6201      2.4061      0.0476     14.7799    108.2302     22.6111
   554.2000      4.6201      2.5815     -0.0159      4.1523    104.1915     22.0380
   554.3000      1.9772      2.6675      0.0709     -1.0596    101.5548     21.1473
   554.4000      1.9772      2.6684      0.2769     -1.1162     98.5647     20.4364
   554.5000      7.4170      2.5396      0.0684      6.6914     92.8775     20.2393
   554.6000      7.4170      2.3341     -0.4089     19.1473     90.5510     20.6642
   554.7000      7.4170      2.1888     -0.5888     27.9499     92.8856     21.4067
   554.8000      8.2164      2.1620     -0.4669     29.5778     93.8675     21.7487
   554.9000      8.2164      2.1926     -0.4071     27.7232     93.0586     21.2960
   555.0000      8.2179      2.2075     -0.4440     26.8158     94.5495     20.6428
   555.1000      8.2179      2.1937     -0.5158     27.6532     95.1907     20.1649
   555.2000      8.2179      2.1671     -0.4643     29.2686     90.2123     19.7846
   555.3000      8.2199      2.1352     -0.5441     31.1989     85.0216     19.7380
   555.4000      8.2199      2.1069     -0.5096     32.9175     84.0460     20.2071
   555.5000      8.2230      2.0952     -0.5921     33.6252     83.5666     20.8459
   555.6000      8.2230      2.1183     -0.5754     32.2268     83.4745     21.0844
   555.7000      8.2230      2.1702     -0.4594     29.0778     86.4809     20.8449
   555.8000      8.2259      2.2114     -0.3868     26.5822     89.7133     20.4295
   555.9000      8.2259      2.2141     -0.3953     26.4182     89.4535     19.8564
   556.0000      8.2208      2.1879     -0.4644     28.0040     87.9068     19.3956
   556.1000      8.2208      2.1630     -0.4953     29.5180     87.0344     19.4468
   556.2000      8.2208      2.1550     -0.4763     30.0028     85.7571     20.0684
   556.3000      8.2174      2.1626     -0.5347     29.5420     84.0426     20.8542
   556.4000      8.2174      2.1865     -0.4873     28.0892     83.2711     21.0528
   556.5000      8.2181      2.2194     -0.4278     26.0944     84.5747     20.7640
   556.6000      8.2181      2.2481     -0.4751     24.3594     85.8963     20.7992
   556.7000      8.2181      2.2722     -0.4460     22.8971     84.3275     20.9576
   556.8000      8.2190      2.2922     -0.3698     21.6878     82.4421     20.3056
   556.9000      8.2190      2.2998     -0.4317     21.2229     82.3482     18.9372
   557.0000      8.2179      2.2925     -0.4451     21.6661     79.5904     17.9677
   557.1000      8.2179      2.2696     -0.4118     23.0546     74.0002     18.0143
   557.2000      8.2179      2.2326     -0.4324     25.2982     69.8441     18.4437
   557.3000      8.2153      2.2010     -0.5158     27.2103     66.1331     18.6060
   557.4000      8.2153      2.1962     -0.4658     27.5044     62.7807     18.5500
   557.5000      8.2149      2.2008     -0.3843     27.2247     62.8319     18.5002
   557.6000      8.2149      2.1842     -0.4381     28.2281     65.5241     18.6849
   557.7000      8.2149      2.1457     -0.4294     30.5626     68.3377     18.8456
   557.8000      8.2172      2.0991     -0.4842     33.3903     71.0018     18.7471
   557.9000      8.2172      2.0616     -0.5929     35.6576     72.6798     18.9179
   558.0000      8.2147      2.0456     -0.5679     36.6273     73.2320     19.4978
   558.1000      8.2147      2.0472     -0.5601     36.5351     75.8441     20.0028
   558.2000      8.2147      2.0612     -0.5060     35.6864     82.1231     20.1877
   558.3000      8.2163      2.0786     -0.4762     34.6316     88.8558     20.2193
   558.4000      8.2163      2.0854     -0.5283     34.2165     89.3571     20.2966
   558.5000      8.2111      2.0741     -0.5179     34.9033     82.6846     20.2842
   558.6000      8.2111      2.0622     -0.5858     35.6261     76.7655     20.1142
   558.7000      8.2111      2.0748     -0.5233     34.8591     74.7481     20.2023
   558.8000      8.2145      2.1030     -0.4972     33.1502     73.9552     20.5698
   558.9000      8.2145      2.1228     -0.4838     31.9504     73.6080     20.5493
   559.0000      8.2152      2.1271     -0.4811     31.6900     74.3110     19.9998
   559.1000      8.2152      2.1165     -0.5079     32.3341     76.2929     19.5072
   559.2000      8.2152      2.0935     -0.5114     33.7265     77.8383     19.6902
   559.3000      8.2165      2.0709     -0.5583     35.0974     79.6029     20.1856
   559.4000      8.2165      2.0613     -0.5240     35.6768     84.1496     20.1404
   559.5000      8.2186      2.0609     -0.5372     35.7041     89.3682     19.6446
   559.6000      8.2186      2.0613     -0.5550     35.6789     93.8876     19.2239
   559.7000      8.2186      2.0621     -0.5409     35.6331     97.1435     18.9346
   559.8000      8.2161      2.0617     -0.5148     35.6553     96.9127     18.6816
   559.9000      8.2161      2.0603     -0.5612     35.7414     93.9747     18.7116
   560.0000      8.2170      2.0683     -0.5821     35.2524     91.7726     18.9678
   560.1000      8.2170      2.0870     -0.5428     34.1191     93.3906     19.0349
   560.2000      8.2170      2.0979     -0.4613     33.4617     96.0062     18.9950
   560.3000      8.2254      2.0993     -0.5546     33.3782     94.7304     18.8237
   560.4000      8.2254      2.1116     -0.5450     32.6319     92.3231     18.2833
   560.5000      8.2159      2.1274     -0.4739     31.6755     95.5275     17.8063
   560.6000      8.2159      2.1212     -0.5123     32.0489    104.5214     18.2000
   560.7000      8.2159      2.0927     -0.4619     33.7747    113.0002     19.3320
   560.8000      8.2144      2.0588     -0.5537     35.8274    119.8941     20.1201
   560.9000      8.2144      2.0287     -0.5087     37.6570    125.7382     20.1280
   561.0000      8.2180      1.9968     -0.5143     39.5877    126.2009     19.8445
   561.1000      8.2180      1.9794     -0.6399     40.6450    123.8231     19.8245
   561.2000      8.2180      2.0064     -0.5937     39.0042    127.4545     20.0741
   561.3000      8.2213      2.0577     -0.4977     35.8963    136.6862     20.2756
   561.4000      8.2213      2.0813     -0.4855     34.4688    143.5949     20.4802
   561.5000      8.2217      2.0702     -0.6271     35.1385    143.7176     20.7941
   561.6000      8.2217      2.0646     -0.5321     35.4782    139.0796     21.0609
   561.7000      8.2217      2.0787     -0.4476     34.6261    131.2426     21.2376
   561.8000      8.2219      2.0880     -0.4922     34.0611    121.0684     21.5654
   561.9000      8.2219      2.0810     -0.4815     34.4850    112.6362     21.8084
   562.0000      8.2216      2.0692     -0.5335     35.2018    107.8240     21.3642
   562.1000      8.2216      2.0613     -0.5020     35.6816    106.1364     20.2962
   562.2000      8.2216      2.0595     -0.5791     35.7887    107.9771     19.1091
   562.3000      8.2306      2.0674     -0.5299     35.3082    108.4434     18.4895
   562.4000      8.2306      2.0817     -0.5323     34.4395    103.9801     18.5186
   562.5000      8.2215      2.0972     -0.5113     33.5027     99.7296     18.8751
   562.6000      8.2215      2.1093     -0.4921     32.7667    101.0834     19.6213
   562.7000      8.2215      2.1141     -0.4408     32.4798    107.1604     20.2804
   562.8000      8.2246      2.1136     -0.4470     32.5076    113.6160     20.2699
   562.9000      8.2246      2.1164     -0.5270     32.3406    117.0263     20.0896
   563.0000      8.2208      2.1230     -0.4854     31.9387    116.6583     20.1043
   563.1000      8.2208      2.1199     -0.4600     32.1264    114.0454     19.7067
   563.2000      8.2208      2.1033     -0.5336     33.1330    108.9393     18.9226
   563.3000      8.2181      2.0820     -0.4816     34.4240    103.5340     18.7679
   563.4000      8.2181      2.0755     -0.5930     34.8185    102.0194     19.2066
   563.5000      8.2167      2.1099     -0.5430     32.7318    103.8465     19.1692
