~Version Information
VERS.                      2.0: CWLS Log ASCII Standard - VERSION 2.0
WRAP.                       NO: One line per depth step
~Well Information Block
STRT.FT               425.0000: 
STOP.FT              2461.0000: 
STEP.FT                 0.2500: 
NULL.                -999.2500: 
COMP.          Evergreen Operating Corporation: COMPANY
WELL.              Nomad 32-10: WELL
FLD.           Purgatorie River: FIELD
LOC.           2281' FNL & 1585' FEL: LOCATION
PROV.                 Colorado: PROVINCE
CNTY.               Las Animas: COUNTRY
SRVC.                Patterson: SERVICE COMPANY
DATE.          Thu Aug 12 02:01:07 2004: LOG DATE
UWI.           05 071 08127 00: UNIQUE WELL ID
~Curve Information Block
DEPT.FT            0 000 00 00: Depth
SN.Ohm-m                      : IEL Short Normal
SP.mV                         : IEL Spontaneous Potential
DIR.Ohm-m                     : IEL Induction Resistivity
GR.GAPI                       : Gamma Ray
~Parameter Information Block
~A  Depth        SN          SP         DIR          GR     
# ...
  2167.0000     35.9141    147.8771     30.9335     99.7483
  2167.2500     36.8721    147.9507     30.7594    100.8499
  2167.5000     38.1002    148.1029     30.5826     95.9496
  2167.7500     39.4938    148.3412     30.4304     89.7446
  2168.0000     40.9552    148.6949     30.3009     80.1200
  2168.2500     42.2555    149.1976     30.1586     75.4987
  2168.5000     43.1624    149.8602     29.9541     72.7852
  2168.7500     43.6555    150.6499     29.6536     73.6271
  2169.0000     43.8590    151.4917     29.2603     77.4685
  2169.2500     43.8350    152.2951     28.8090     80.6980
  2169.5000     43.5523    152.9888     28.3360     85.0373
  2169.7500     42.9666    153.5382     27.8548     87.0350
  2170.0000     42.0461    153.9413     27.3632     88.2354
  2170.2500     40.7720    154.2175     26.8749     87.8702
  2170.5000     39.1794    154.4007     26.4391     86.3848
  2170.7500     37.4018    154.5327     26.1263     85.7892
  2171.0000     35.6551    154.6530     25.9939     87.6931
  2171.2500     34.1597    154.7857     26.0605     91.6400
  2171.5000     33.0557    154.9312     26.2989    100.7245
  2171.7500     32.3877    155.0724     26.6414    107.0098
  2172.0000     32.1789    155.1979     26.9916    112.6878
  2172.2500     32.5070    155.3188     27.2448    112.2091
  2172.5000     33.4775    155.4622     27.3185    104.3753
  2172.7500     35.1225    155.6497     27.1872     95.2765
  2173.0000     37.3592    155.8892     26.8982     78.6037
  2173.2500     39.9790    156.1821     26.5552     67.3674
  2173.5000     42.5306    156.5351     26.2725     53.5921
  2173.7500     44.2780    156.9604     26.1304     48.1766
  2174.0000     44.6124    157.4635     26.1496     47.4236
  2174.2500     43.6505    158.0300     26.2939     51.6294
  2174.5000     42.1925    158.6255     26.4930     62.8483
  2174.7500     41.0045    159.2071     26.6790     72.0048
  2175.0000     40.3165    159.7362     26.8125     86.0014
  2175.2500     39.9888    160.1854     26.8893     94.5955
  2175.5000     39.8963    160.5399     26.9342    105.2577
  2175.7500     40.0185    160.7993     26.9976    110.3604
  2176.0000     40.2993    160.9828     27.1490    114.5799
  2176.2500     40.6106    161.1269     27.4524    115.3328
  2176.5000     40.8575    161.2732     27.9319    114.3529
  2176.7500     41.0472    161.4529     28.5524    112.8857
  2177.0000     41.2357    161.6804     29.2403    110.2433
  2177.2500     41.4838    161.9544     29.9239    108.3074
  2177.5000     41.9235    162.2621     30.5543    104.0416
  2177.7500     42.7828    162.5841     31.0879     99.0225
  2178.0000     44.2830    162.9043     31.4617     86.9023
  2178.2500     46.5421    163.2206     31.5985     76.4270
  2178.5000     49.4799    163.5522     31.4436     60.2754
  2178.7500     52.5569    163.9344     30.9993     51.1195
  2179.0000     54.7043    164.3998     30.3190     41.6799
  2179.2500     54.9799    164.9629     29.4703     38.5088
  2179.5000     53.2716    165.6216     28.5019     38.1258
  2179.7500     50.0672    166.3689     27.4474     40.4214
  2180.0000     45.8278    167.1951     26.3399     46.7421
  2180.2500     40.9240    168.0816     25.2130     52.1356
  2180.5000     35.9026    168.9982     24.0774     60.9329
  2180.7500     31.4253    169.9054     22.9050     67.1350
  2181.0000     27.9316    170.7538     21.6516     77.2988
  2181.2500     25.4621    171.4861     20.3133     84.5855
  2181.5000     23.7793    172.0560     18.9638     95.1393
  2181.7500     22.5874    172.4552     17.7252    101.0529
  2182.0000     21.6663    172.7157     16.6981    107.4261
  2182.2500     20.8961    172.8791     15.9156    110.0240
  2182.5000     20.2117    172.9685     15.3488    111.8484
  2182.7500     19.5709    172.9905     14.9451    112.0557
  2183.0000     18.9782    172.9592     14.6644    111.8757
  2183.2500     18.4834    172.9056     14.4958    112.0389
  2183.5000     18.1469    172.8604     14.4493    112.9836
  2183.7500     18.0388    172.8315     14.5382    113.7429
  2184.0000     18.2359    172.8065     14.7628    114.5645
  2184.2500     18.7803    172.7770     15.1018    114.9940
  2184.5000     19.6443    172.7583     15.5167    115.9122
  2184.7500     20.7285    172.7809     15.9721    116.8269
  2185.0000     21.9124    172.8560     16.4664    118.5315
  2185.2500     23.1303    172.9411     17.0478    119.5438
  2185.5000     24.3772    172.9473     17.7931    119.5413
  2185.7500     25.6266    172.7986     18.7548    117.6878
  2186.0000     26.7915    172.4954     19.9066    112.2286
  2186.2500     27.8312    172.1183     21.1304    108.1767
  2186.5000     28.8187    171.7718     22.2750    104.7505
  2186.7500     29.8284    171.5203     23.2581    105.3189
  2187.0000     30.8448    171.3649     24.1101    109.2981
  2187.2500     31.8216    171.2627     24.9156    112.0667
  2187.5000     32.7533    171.1645     25.7272    113.2827
  2187.7500     33.6695    171.0442     26.5380    111.4749
  2188.0000     34.6047    170.9005     27.3128    105.6422
  2188.2500     35.5731    170.7382     28.0301    100.7689
  2188.5000     36.5358    170.5495     28.6965     94.3592
  2188.7500     37.4014    170.3138     29.3328     91.9859
  2189.0000     38.0938    170.0121     29.9508     91.9653
  2189.2500     38.6256    169.6462     30.5454     93.3893
  2189.5000     39.1064    169.2520     31.1035     95.2439
  2189.7500     39.6616    168.9012     31.6241     95.6151
  2190.0000     40.3237    168.6800     32.1270     95.3736
  2190.2500     41.0371    168.6459     32.6410     95.0712
  2190.5000     41.7975    168.7869     33.1814     94.0390
  2190.7500     42.7477    169.0156     33.7392     92.4062
  2191.0000     44.0704    169.2126     34.2922     88.3344
  2191.2500     45.7710    169.2819     34.8245     85.2829
  2191.5000     47.6360    169.1718     35.3343     82.2579
  2191.7500     49.3666    168.8664     35.8227     81.9917
  2192.0000     50.6934    168.3850     36.2749     83.5983
  2192.2500     51.5127    167.7894     36.6651     84.9453
  2192.5000     51.9645    167.1675     36.9835     85.7867
  2192.7500     52.2882    166.5922     37.2607     85.2482
  2193.0000     52.5994    166.0945     37.5624     83.4294
  2193.2500     52.8242    165.6663     37.9472     82.3027
  2193.5000     52.8043    165.2777     38.4132     81.5895
  2193.7500     52.4292    164.8898     38.8599     81.5739
  2194.0000     51.6921    164.4572     39.0986     81.1945
  2194.2500     50.6727    163.9294     38.9389     80.3119
  2194.5000     49.5105    163.2611     38.3320     78.3965
  2194.7500     48.3661    162.4325     37.4554     77.3380
  2195.0000     47.3574    161.4637     36.6378     76.8909
  2195.2500     46.5454    160.4109     36.1729     77.2969
  2195.5000     45.9564    159.3473     36.1724     78.1375
  2195.7500     45.5852    158.3372     36.5267     78.3468
  2196.0000     45.3984    157.4088     36.9721     77.6953
  2196.2500     45.3530    156.5395     37.2377     76.6145
  2196.5000     45.3976    155.6755     37.1963     74.4104
  2196.7500     45.4463    154.7814     36.9103     72.9754
  2197.0000     45.3969    153.8829     36.5516     71.7071
  2197.2500     45.2176    153.0639     36.2849     71.8326
  2197.5000     44.9952    152.4176     36.2043     73.6125
  2197.7500     44.8657    151.9968     36.3311     75.4582
  2198.0000     44.8680    151.8096     36.6467     77.8139
  2198.2500     44.8732    151.8539     37.1195     78.3234
  2198.5000     44.7273    152.1272     37.7040     77.0761
  2198.7500     44.4106    152.5908     38.2776     75.2080
  2199.0000     43.9614    153.1477     38.5509     71.6508
  2199.2500     43.3482    153.6886     38.0719     69.1636
  2199.5000     42.5017    154.1607     36.4903     65.8909
  2199.7500     41.3838    154.5799     33.9362     64.4493
  2200.0000     40.0015    154.9907     31.0191     64.0714
  2200.2500     38.3949    155.4240     28.3916     65.2366
