~Version Information
VERS.                      2.0: CWLS Log ASCII Standard - VERSION 2.0
WRAP.                       NO: One line per depth step
~Well Information Block
STRT.FT               840.0000: 
STOP.FT              2019.0000: 
STEP.FT                 0.2500: 
NULL.                -999.2500: 
COMP.          Petrogulf Corporation: COMPANY
WELL.           Lavedure 7-44R: WELL
FLD.           Purgatorie River: FIELD
LOC.           946' FSL & 521' FEL: LOCATION
PROV.                 Colorado: PROVINCE
CNTY.               Las Animas: COUNTRY
SRVC.                Patterson: SERVICE COMPANY
DATE.          Mon Sep 26 08:35:42 2005: LOG DATE
UWI.                          : UNIQUE WELL ID
~Curve Information Block
DEPT.FT            0 000 00 00: Depth
SP.mV                         : DIL Spontaneous Potential
RILD.Ohm-m                    : DIL Deep Resistivity
RILM.Ohm-m                    : DIL Medium Resistivity
RLL3.Ohm-m                    : DIL Shallow Resistivity
GR.GAPI                       : Gamma Ray
~Parameter Information Block
~A  Depth        SP         RILD        RILM        RLL3         GR     
# ...
  1232.0000    152.7666      9.3104      9.2370     14.8612     94.7739
  1232.2500    152.7371      9.3820      8.7533     11.3151    101.0198
  1232.5000    152.5269      9.5529      8.4828     10.1750     85.6770
  1232.7500    152.2775      9.6694      8.3062     10.6720    113.0150
  1233.0000    151.8759      9.7935      8.2035     10.9074    137.2823
  1233.2500    151.4456      9.7833      8.2022     10.4480    142.0916
  1233.5000    150.9964      9.5939      8.2609     10.7415    125.9279
  1233.7500    150.4768      9.4706      8.3136     10.8694    112.2304
  1234.0000    150.0175      9.3262      8.5384     10.5298    116.6262
  1234.2500    149.5685      9.1629      8.8262     11.9507    111.7390
  1234.5000    149.1830      9.0517      9.2099     13.7651    111.8557
  1234.7500    148.8705      8.9508      9.7167     16.0535    108.4418
  1235.0000    148.6972      8.7215     10.1802     18.1772    116.6536
  1235.2500    148.7430      8.5563     10.5660     20.5650    133.1873
  1235.5000    149.0068      8.5144     10.4516     23.3523    118.8624
  1235.7500    149.4115      8.4685     10.1602     26.2275    111.8619
  1236.0000    149.9393      8.4518      9.6510     21.8100     93.0311
  1236.2500    150.4248      8.5043      9.1366     13.6830     81.6604
  1236.5000    150.7672      8.4312      8.6365     10.8307     79.7102
  1236.7500    150.8662      8.3539      8.2661      9.6985     97.8137
  1237.0000    150.8365      8.3032      7.9445      9.7391    108.0815
  1237.2500    150.7479      8.2119      7.7578      9.5208     98.0024
  1237.5000    150.6288      8.0445      7.5852      9.1161    130.7738
  1237.7500    150.4736      7.8789      7.4287      9.1494    111.6395
  1238.0000    150.2309      7.6643      7.2618      9.5729    141.2704
  1238.2500    149.9910      7.5868      7.0933     10.1521    164.8307
  1238.5000    149.7607      7.5471      6.9589     10.1449    152.9893
  1238.7500    149.5754      7.5984      6.8928      9.8066    149.3893
  1239.0000    149.3112      7.6573      6.9102      9.5367    135.6011
  1239.2500    149.0925      7.8413      7.0231      9.3042    131.5133
  1239.5000    148.9470      8.1487      7.2826      9.7653    142.7612
  1239.7500    148.8848      8.4914      7.6572     10.1798    131.5408
  1240.0000    148.8999      8.9855      8.0575     10.9092    116.1967
  1240.2500    148.8514      9.4287      8.8041     11.7567    126.4804
  1240.5000    148.8252      9.9037      9.8941     13.6197    115.8143
  1240.7500    148.7569     10.3773     11.0418     17.5421    129.3476
  1241.0000    148.4731     10.8081     12.4375     25.0150    115.0350
  1241.2500    147.9699     11.3644     13.7097     37.0842    113.9212
  1241.5000    147.3879     11.9350     14.8713     48.4497     95.3261
  1241.7500    146.7745     12.4718     15.5080     49.2058     97.2582
  1242.0000    146.1395     13.2171     16.5034     39.6254    108.2930
  1242.2500    145.5164     13.7700     16.3292     27.9514    122.3319
  1242.5000    144.8555     14.4624     16.2859     20.4368    100.4767
  1242.7500    144.2540     14.7395     16.3887     16.9385     95.0620
  1243.0000    143.6404     15.1254     16.5404     15.9957    102.9604
  1243.2500    143.1824     15.3487     16.5551     16.6327    120.5119
  1243.5000    142.7685     15.2747     16.6337     16.3375     95.4372
  1243.7500    142.3891     14.8423     16.5099     15.2840    112.4499
  1244.0000    142.1947     14.5127     15.9169     14.7526    130.3155
  1244.2500    142.0651     13.8601     15.8233     14.9477    117.6321
  1244.5000    142.0239     13.4736     15.5503     15.8020    118.0755
  1244.7500    141.9869     13.0955     15.0205     16.6636    131.2694
  1245.0000    141.9896     12.9198     14.5928     16.6721    150.3389
  1245.2500    141.9323     12.5040     14.3456     16.1771    127.0875
  1245.5000    141.8313     12.3867     14.2354     15.6311    105.2741
  1245.7500    141.5645     12.0837     13.8305     15.6506    126.3252
  1246.0000    141.1855     12.0119     13.5560     15.7637    141.1233
  1246.2500    140.8131     11.9586     13.3556     15.9712    124.5273
  1246.5000    140.4923     11.7245     12.9199     15.9938    158.1019
  1246.7500    140.2635     11.5440     12.6719     15.5879    130.3113
  1247.0000    139.9583     11.1638     12.2738     14.7782    147.7509
  1247.2500    139.7178     10.9155     11.9340     14.7104    160.8827
  1247.5000    139.4944     10.7016     11.7087     14.9165    131.3033
  1247.7500    139.3768     10.4793     11.2500     14.4294    107.0319
  1248.0000    139.3208     10.2234     10.8241     13.8336    140.3353
  1248.2500    139.3107      9.9849     10.3598     13.2593    125.1311
  1248.5000    139.3509      9.6961      9.9293     13.3728    111.7038
  1248.7500    139.5311      9.5485      9.4682     13.1988    126.7502
  1249.0000    139.8374      9.5201      9.1519     11.8886    145.5031
  1249.2500    140.2233      9.4661      8.8423     10.8253    153.8603
  1249.5000    140.6398      9.5800      8.6404     10.2933    156.4109
  1249.7500    141.1653      9.8064      8.6418     10.2846    152.6430
  1250.0000    141.7103     10.1200      8.7568     10.3301    132.7739
  1250.2500    142.2884     10.5664      9.0417     10.0926    130.1232
  1250.5000    142.8489     10.9400      9.5763     10.2521    132.7810
  1250.7500    143.4217     11.3371     10.5704     10.8427    123.9035
  1251.0000    144.1767     11.5042     11.7327     13.9364    123.6194
  1251.2500    145.0936     11.5506     13.2089     26.1480    122.2257
  1251.5000    146.0980     11.6621     14.9291     61.1604    123.3829
  1251.7500    147.1037     11.7833     16.9359    125.9368    109.0604
  1252.0000    148.1341     11.7090     18.5770    210.2013     88.3226
  1252.2500    149.0460     11.5086     19.0940    267.7408     74.7941
  1252.5000    149.9337     11.2394     18.4990    246.0712     49.3314
  1252.7500    150.8747     11.0958     17.0025    147.8203     51.4404
  1253.0000    151.8430     11.0218     15.1040     65.3803     55.7242
  1253.2500    152.7008     11.0714     13.3767     26.8288     49.8246
  1253.5000    153.5030     10.9941     11.7444     14.2385     67.1212
  1253.7500    154.0071     10.8382     10.6810     10.2379     68.3305
  1254.0000    154.4427     10.7157      9.8393      8.3300     91.2691
  1254.2500    154.8024     10.4280      9.2493      8.1379    109.0092
  1254.5000    154.9749     10.0638      8.9924      8.8080    121.7329
  1254.7500    155.0005      9.7412      8.9245      8.8459    130.7865
  1255.0000    154.8675      9.4439      8.9251      9.1718    136.5013
  1255.2500    154.5663      9.1257      8.9682     10.7134    132.7194
  1255.5000    154.3077      8.8592      9.0378     12.1703    110.3438
  1255.7500    154.1557      8.6887      9.1241     12.2321    116.0124
  1256.0000    154.0111      8.5469      9.1793     13.3430    127.5912
  1256.2500    153.8806      8.5923      9.2100     15.8017    134.8565
  1256.5000    153.8185      8.6236      9.3273     16.9849    117.4300
  1256.7500    153.8479      8.7322      9.5363     14.9703    116.8388
  1257.0000    153.9735      8.8622      9.7318     13.3759    108.4624
  1257.2500    154.1138      9.0300      9.9123     15.2478    115.6554
  1257.5000    154.2982      9.1367      9.8919     17.5024    116.9149
  1257.7500    154.6648      9.3539      9.8432     17.0050    108.7072
  1258.0000    155.1575      9.5921      9.6591     14.3142    100.8555
  1258.2500    155.6679      9.7527      9.3214     11.7025     83.5031
  1258.5000    156.0458      9.8640      9.2522     10.0042    113.9760
  1258.7500    156.3580     10.0051      9.2831      9.3743    123.9951
  1259.0000    156.6020     10.1117      9.4067      9.7373    127.3709
  1259.2500    156.6262     10.1842      9.5874     10.1871    121.6821
  1259.5000    156.4552     10.2009      9.9387     10.7689    132.6324
  1259.7500    156.1243     10.1638     10.1305     11.9661    138.5675
