~Version Information
VERS.                      2.0: CWLS Log ASCII Standard - VERSION 2.0
WRAP.                       NO: One line per depth step
~Well Information Block
STRT.FT                -8.0000: 
STOP.FT              1540.2500: 
STEP.FT                 0.2500: 
NULL.                -999.2500: 
COMP.          Pioneer Natural Resources: COMPANY
WELL.           Telna 24-22 Tr: WELL
FLD.           Purgatorie River: FIELD
LOC.           748' FSL & 1931' FWL--: LOCATION
PROV.                       CO: PROVINCE
CNTY.               Las Animas: COUNTRY
SRVC.          Patterson Wireline: SERVICE COMPANY
DATE.          Fri May 06 12:29:21 2005: LOG DATE
UWI.           05 071 08304 00: UNIQUE WELL ID
~Curve Information Block
DEPT.FT            0 000 00 00: Depth
CCL.                          : Casing Collar Locator
TT3.usec                      : CBL 3' Travel Time
AMP3.mV                       : CBL 3' Amplitude
GR.GAPI                       : Gamma Ray
~Parameter Information Block
~A  Depth       CCL         TT3         AMP3         GR     
# ...
    92.5000      0.0000    900.6354      6.2937     90.2619
    92.7500      0.0000    922.8801      6.3040     86.6150
    93.0000      0.0000    950.2941      6.3360     81.1411
    93.2500      0.0000    979.6097      6.3723     76.7696
    93.5000      0.0000   1006.6961      6.3965     75.7318
    93.7500      0.0000   1026.2206      6.4049     77.7638
    94.0000      0.0000   1031.1699      6.4003     80.8095
    94.2500      0.0000   1015.8798      6.3843     83.3930
    94.5000      0.0000    982.3019      6.3594     85.7680
    94.7500      0.0000    941.6387      6.3308     88.7166
    95.0000      0.0000    907.0931      6.3000     92.1260
    95.2500      0.0000    885.2950      6.2637     95.3217
    95.5000      0.0000    874.9727      6.2228     98.1136
    95.7500      0.0000    871.5940      6.1861    100.6916
    96.0000      0.0000    871.7210      6.1569    102.7018
    96.2500      0.0000    874.0786      6.1247    103.1291
    96.5000      0.0000    878.3167      6.0743    101.2443
    96.7500      0.0000    883.2780      6.0041     97.4036
    97.0000      0.0000    886.6042      5.9340     92.8701
    97.2500      0.0000    886.2764      5.8938     89.0420
    97.5000      0.0000    882.4502      5.9026     86.8243
    97.7500      0.0000    877.3009      5.9567     86.4291
    98.0000      0.0000    873.0584      6.0326     87.5133
    98.2500      0.0000    870.5430      6.0999     89.3926
    98.5000      0.0000    869.3657      6.1362     91.1885
    98.7500      0.0000    868.8585      6.1346     92.0361
    99.0000      0.0000    868.6036      6.1002     91.4550
    99.2500      0.0000    868.4368      6.0426     89.6227
    99.5000      0.0000    868.3040      5.9740     87.3286
    99.7500      0.0000    868.1940      5.9092     85.7650
   100.0000      0.0000    868.1561      5.8610     86.1697
   100.2500      0.0000    868.3507      5.8348     89.0853
   100.5000      0.0000    869.0990      5.8357     93.6665
   100.7500      0.0000    870.7684      5.8731     97.9815
   101.0000      0.0000    873.3185      5.9497    100.3107
   101.2500      0.0000    875.8560      6.0472    100.2009
   101.5000      0.0000    877.0070      6.1344     98.3068
   101.7500      0.0000    876.1150      6.1914     95.5984
   102.0000      0.0000    873.9127      6.2189     92.9808
   102.2500      0.0000    871.7593      6.2258     91.3001
   102.5000      0.0000    870.4335      6.2144     90.9442
   102.7500      0.0000    869.8417      6.1791     91.3076
   103.0000      0.0000    869.5627      6.1163     91.2198
   103.2500      0.0000    869.3376      6.0360     90.1741
   103.5000      0.0000    869.1263      5.9628     88.8702
   103.7500      0.0000    868.9513      5.9226     88.3769
   104.0000      0.0000    868.7913      5.9256     88.9832
   104.2500      0.0000    868.5876      5.9622     90.1063
   104.5000      0.0000    868.3227      6.0121     91.0760
   104.7500      0.0000    868.0566      6.0549     91.5634
   105.0000      0.0000    867.8596      6.0738     91.4660
   105.2500      0.0000    867.7227      6.0578     90.9648
   105.5000      0.0000    867.5831      6.0075     90.7181
   105.7500      0.0000    867.4384      5.9386     91.6472
   106.0000      0.0000    867.3814      5.8741     94.4636
   106.2500      0.0000    867.4948      5.8319     99.2366
   106.5000      0.0000    867.7474      5.8208    104.9788
   106.7500      0.0000    868.0236      5.8441    109.8540
   107.0000      0.0000    868.2288      5.9009    112.2517
   107.2500      0.0000    868.3299      5.9809    111.5599
   107.5000      0.0000    868.3311      6.0629    107.9609
   107.7500      0.0000    868.2710      6.1171    102.2305
   108.0000      0.0000    868.2335      6.1160     95.9141
   108.2500      0.0000    868.3023      6.0511     90.7926
   108.5000      0.0000    868.4809      5.9413     87.6796
   108.7500      0.0000    868.6867      5.8242     86.3178
   109.0000      0.0000    868.8401      5.7372     86.6697
   109.2500      0.0000    868.9382      5.7018     89.3390
   109.5000      0.0000    869.0322      5.7188     94.0889
   109.7500      0.0000    869.1687      5.7712     98.8033
   110.0000      0.0000    869.3702      5.8318    101.0129
   110.2500      0.0000    869.6863      5.8728    100.2103
   110.5000      0.0000    870.2776      5.8733     97.9099
   110.7500      0.0000    871.5144      5.8256     95.7396
   111.0000      0.0000    873.9517      5.7379     94.1800
   111.2500      0.0000    878.0307      5.6359     92.8689
   111.5000      0.0000    883.6831      5.5563     91.3556
   111.7500      0.0000    890.3126      5.5301     89.5655
   112.0000      0.0000    897.1799      5.5637     87.9273
   112.2500      0.0000    903.6252      5.6355     87.1283
   112.5000      0.0000    909.0060      5.7122     87.5949
   112.7500      0.0000    912.8276      5.7692     89.1338
   113.0000      0.0000    915.0456      5.7946     91.1057
   113.2500      0.0000    916.0453      5.7812     92.8946
   113.5000      0.0000    916.2958      5.7246     94.1039
   113.7500      0.0000    916.1021      5.6314     94.4136
   114.0000      0.0000    915.5833      5.5246     93.5396
   114.2500      0.0000    914.6676      5.4358     91.3750
   114.5000      0.0000    912.9800      5.3892     88.0066
   114.7500      0.0000    909.8708      5.3902     83.6933
   115.0000      0.0000    904.9152      5.4271     78.9946
   115.2500      0.0000    898.6393      5.4801     74.6398
   115.5000      0.0000    892.2921      5.5297     71.0604
   115.7500      0.0000    886.2614      5.5635     68.3274
   116.0000      0.0000    879.4001      5.5827     66.5692
   116.2500      0.0000    871.4954      5.6000     65.9769
   116.5000      0.0000    866.4279      5.6237     66.2841
   116.7500      0.0000    870.3237      5.6398     66.7492
   117.0000      0.0000    884.2089      5.6138     66.9270
   117.2500      0.0000    899.6017      5.5154     67.1357
   117.5000      0.0000    905.2625      5.3480     67.8995
   117.7500      0.0000    899.8094      5.1586     69.0772
   118.0000      0.0000    895.0853      5.0075     69.6599
   118.2500      0.0000    905.9556      4.9071     68.4511
   118.5000      0.0000    938.6757      4.8016     65.1288
   118.7500      0.0000    987.5591      4.6310     60.7599
   119.0000      0.0000   1037.9126      4.4082     57.0419
   119.2500      0.0000   1072.6050      4.2084     54.8716
   119.5000      0.0000   1082.0967      4.0947     53.7940
   119.7500      2.0000   1072.1365      4.0741     52.8651
   120.0000      2.0000   1060.0520      4.1157     51.7376
   120.2500      0.0000   1059.7272      4.1962     50.7464
   120.5000      0.0000   1068.9513      4.3258     50.2902
   120.7500      0.0000   1072.8557      4.5309     50.5075
   121.0000      0.0000   1059.9237      4.8086     51.3889
   121.2500      0.0000   1033.0134      5.1105     52.8141
   121.5000      0.0000   1004.7632      5.3866     54.4773
   121.7500      0.0000    984.9755      5.6285     55.9436
   122.0000      0.0000    974.7462      5.8504     56.8095
   122.2500      0.0000    971.1109      6.0511     56.8392
   122.5000      0.0000    973.3096      6.2151     55.9940
   122.7500      0.0000    983.2417      6.3371     54.2569
   123.0000      0.0000   1001.3049      6.4279     51.5069
   123.2500      0.0000   1022.2799      6.5009     47.9232
   123.5000      0.0000   1035.3414      6.5617     44.5318
   123.7500      0.0000   1030.4800      6.6099     42.8234
   124.0000      0.0000   1006.7689      6.6438     43.4935
   124.2500      0.0000    973.3052      6.6586     45.8628
   124.5000      0.0000    941.5908      6.6446     48.7405
   124.7500      0.0000    918.5781      6.5914     51.4072
   125.0000      0.0000    906.7162      6.4940     53.5275
   125.2500      0.0000    907.1028      6.3538     54.7816
   125.5000      0.0000    919.7572      6.1783     55.1344
   125.7500      0.0000    941.6516      5.9837     55.0214
