~Version Information
 VERS.                                  2.0 : CWLS LAS VERSION
 WRAP.                                   NO : WRAPING MODE
 SWARE .                 MController 2.5.0J : SOFTWARE VERSION
~Well Information
 WELL.                      Robinson 15-11R : WELL
 COMP.                       Petrogulf Corp : COMPANY
 FLD.                      Purgatoire River : FIELD
 LOC.                NW/NW Sec 15 T33S R67W : LOCATION
 DATE.                             11/06/04 : DATE(S) LOGGED
 SRVC.       Blanco Geological Services LLC : SERVICE COMPANY
 STAT.                                   CO : STATE
 CNTY.                           Las Animas : COUNTY
 CTRY.                                  USA : COUNTRY
 API.                       05-071-08029-00 : API NUMBER
 STRT.FT                             571.00 : START DEPTH
 STOP.FT                            1521.00 : STOP DEPTH
 STEP.FT                               1.00 : DEPTH INCREMENT
 NULL.                                -9999 : NULL VALUE
~Curve information
 DEPTH.FT                                   :
 ROP.MIN/FT                                 :
 GAS.UNITS                                  :
~ASCII Log data
# ...
      1171.0         0.20         15.3 
      1172.0         0.17         14.5 
      1173.0         0.20         14.5 
      1174.0         0.17         14.3 
      1175.0         0.17         14.3 
      1176.0         0.20         13.4 
      1177.0         0.17         13.8 
      1178.0         0.27         12.1 
      1179.0         0.33         10.9 
      1180.0         0.30         10.2 
      1181.0         0.27         10.9 
      1182.0         0.20         11.4 
      1183.0         0.17         12.5 
      1184.0         0.20         13.7 
      1185.0         0.20         15.5 
      1186.0         0.27         17.5 
      1187.0         0.33         19.1 
      1188.0         0.33         23.4 
      1189.0         0.30         27.2 
      1190.0         0.22         27.7 
      1191.0         0.27         27.6 
      1192.0         0.23         26.6 
      1193.0         0.27         25.1 
      1194.0         0.27         23.1 
      1195.0         0.23         21.9 
      1196.0         0.23         20.8 
      1197.0         0.20         21.0 
      1198.0         0.20         18.4 
      1199.0         0.20         17.6 
      1200.0         0.20         17.6 
      1201.0         0.23         17.2 
      1202.0         0.23         15.9 
      1203.0         0.23         15.5 
      1204.0         0.35         15.4 
      1205.0         0.27         15.1 
      1206.0         0.20         15.3 
      1207.0         0.17         14.6 
      1208.0         0.20         14.1 
      1209.0         0.27         14.4 
      1210.0         0.23         16.3 
      1211.0         0.17         16.9 
      1212.0         0.20         19.4 
      1213.0         0.27         21.7 
      1214.0         0.30         23.8 
      1215.0         0.27         24.0 
      1216.0         0.23         23.7 
      1217.0         0.23         22.8 
      1218.0         0.22         22.8 
      1219.0         0.30         21.9 
      1220.0         0.30         20.4 
      1221.0         0.23         19.4 
      1222.0         0.17         18.7 
      1223.0         0.13         19.1 
      1224.0         0.20         17.7 
      1225.0         0.23         16.8 
      1226.0         0.20         15.2 
      1227.0         0.23         13.8 
      1228.0         0.23         14.1 
      1229.0         0.23         15.0 
      1230.0         0.23         15.6 
      1231.0         0.23         14.8 
      1232.0         0.23         14.3 
      1233.0         0.18         12.2 
      1234.0         0.23         11.6 
      1235.0         0.33         20.8 
      1236.0         0.27         19.4 
      1237.0         0.30         18.9 
      1238.0         0.27         19.1 
      1239.0         0.27         19.3 
      1240.0         0.37         18.0 
      1241.0         0.30         17.2 
      1242.0         0.27         15.8 
      1243.0         0.22         14.8 
      1244.0         0.20         14.7 
      1245.0         0.27         14.1 
      1246.0         0.20         13.9 
      1247.0         0.20         13.2 
      1248.0         0.20         13.1 
      1249.0         0.23         12.9 
      1250.0         0.20         13.4 
      1251.0         0.23         13.9 
      1252.0         0.23         13.5 
      1253.0         0.23         12.6 
      1254.0         0.27         12.7 
      1255.0         0.27         12.4 
      1256.0         0.20         12.0 
      1257.0         0.20         12.4 
      1258.0         0.25         13.3 
      1259.0         0.33         13.3 
      1260.0         0.23         13.6 
      1261.0         0.17         13.2 
      1262.0         0.23         12.8 
      1263.0         0.20         12.2 
      1264.0         0.30         23.6 
      1265.0         0.27         26.5 
      1266.0         0.20         26.4 
      1267.0         0.20         26.9 
      1268.0         0.17         25.3 
      1269.0         0.18         23.7 
      1270.0         0.17         21.8 
      1271.0         0.17         21.0 
      1272.0         0.17         19.0 
      1273.0         0.20         17.9 
      1274.0         0.27         16.8 
      1275.0         0.27         15.5 
      1276.0         0.30         14.9 
      1277.0         0.30         13.2 
      1278.0         0.30         12.7 
      1279.0         0.30         14.1 
      1280.0         0.23         14.9 
      1281.0         0.30         14.5 
      1282.0         0.38         12.7 
      1283.0         0.37         12.3 
      1284.0         0.37         12.6 
      1285.0         0.37         12.2 
      1286.0         0.37         12.6 
      1287.0         0.33         12.9 
      1288.0         0.30         13.0 
      1289.0         0.27         12.9 
      1290.0         0.37         14.6 
      1291.0         0.37         17.9 
      1292.0         0.38         20.0 
      1293.0         0.27         21.7 
      1294.0         0.20         22.2 
      1295.0         0.23         22.5 
      1296.0         0.20         21.9 
      1297.0         0.20         21.8 
      1298.0         0.23         19.8 
      1299.0         0.17         19.4 
      1300.0         0.17         17.5 
      1301.0         0.13         16.9 
      1302.0         0.13         17.1 
      1303.0         0.17         17.1 
      1304.0         0.13         16.3 
      1305.0         0.17         16.2 
      1306.0         0.17         15.1 
      1307.0         0.20         14.2 
      1308.0         0.20         14.1 
      1309.0         0.17         14.1 
      1310.0         0.15         14.2 
      1311.0         0.13         14.8 
      1312.0         0.17         14.1 
      1313.0         0.20         13.3 
      1314.0         0.23         13.0 
      1315.0         0.17         12.8 
      1316.0         0.10         12.9 
      1317.0         0.27          8.8 
      1318.0         0.30          8.6 
      1319.0         0.23          9.6 
      1320.0         0.17         10.3 
      1321.0         0.20         11.1 
      1322.0         0.20         12.7 
      1323.0         0.27         14.8 
      1324.0         0.20         14.6 
      1325.0         0.20         14.1 
      1326.0         0.20         15.1 
      1327.0         0.25         15.9 
      1328.0         0.23         16.8 
      1329.0         0.17         17.5 
      1330.0         0.13         16.1 
      1331.0         0.13         15.2 
      1332.0         0.13         14.7 
      1333.0         0.23         13.9 
      1334.0         0.27         13.9 
      1335.0         0.33         14.9 
      1336.0         0.27         14.8 
      1337.0         0.33         14.8 
      1338.0         0.30         12.7 
      1339.0         0.27         11.7 
      1340.0         0.17         11.6 
      1341.0         0.17         11.8 
      1342.0         0.12         11.8 
      1343.0         0.13         12.3 
      1344.0         0.17         12.2 
      1345.0         0.23         12.0 
      1346.0         0.17         11.9 
      1347.0         0.27          9.5 
      1348.0         0.30          9.8 
      1349.0         0.33          9.8 
      1350.0         0.33          9.7 
      1351.0         0.27         10.0 
      1352.0         0.23         11.8 
      1353.0         0.27         13.9 
      1354.0         0.47         15.4 
      1355.0         0.27         16.5 
      1356.0         0.27         17.2 
      1357.0         0.20         18.7 
      1358.0         0.27         18.6 
      1359.0         0.18         18.4 
      1360.0         0.33         17.5 
      1361.0         0.27         16.8 
      1362.0         0.37         15.9 
      1363.0         0.47         14.6 
      1364.0         0.20         13.7 
      1365.0         0.17         13.9 
      1366.0         0.20         14.1 
      1367.0         0.37         12.9 
      1368.0         0.23         13.1 
      1369.0         0.33         12.0 
      1370.0         0.13         12.2 
