~Version Information
VERS.                      2.0: CWLS Log ASCII Standard - VERSION 2.0
WRAP.                       NO: One line per depth step
~Well Information Block
STRT.FT               454.0000: 
STOP.FT              1389.0000: 
STEP.FT                 0.1000: 
NULL.                -999.2500: 
COMP.          Pioneer Natural Resources: COMPANY
WELL.          Lorencito 6-3-34-66: WELL
FLD.           Purgatoire River: FIELD
LOC.           2545' FNL & 1914' FWL: LOCATION
STAT.                 Colorado: State
CNTY.               Las Animas: COUNTY
CTRY. USA : Country
SECT. 3 : Section
TOWN. 34S : Township
RANG. 66W : Range
SRVC.                Patterson: SERVICE COMPANY
DATE.          Mon Sep 12 07:20:37 2005: LOG DATE
API.        05 071 08369 00: UNIQUE WELL ID
~Curve Information Block
DEPT.FT            0 000 00 00: Depth
DCAL.in                       : CDL Caliper
RHOB.g/cc                     : CDL Bulk Density
RHOC.g/cc                     : CDL Density Correction
DPOR.pu                       : CDL Density Porosity
GR.GAPI                       : Gamma Ray
NPOR.pu                       : Neutron Porosity
~Parameter Information Block
~A  Depth       DCAL        RHOB        RHOC        DPOR         GR         NPOR    
# ...
   511.6000      8.1768      2.4698      0.0911     10.9185    166.5134     23.7108
   511.7000      8.1768      2.4699      0.1022     10.9130    167.1163     24.4433
   511.8000      8.1771      2.4755      0.0681     10.5767    163.7835     24.7036
   511.9000      8.1771      2.4818      0.1093     10.1964    154.9210     24.7223
   512.0000      8.1808      2.4811      0.0651     10.2369    144.8899     24.7955
   512.1000      8.1808      2.4745      0.0707     10.6378    139.5522     24.7417
   512.2000      8.1808      2.4679      0.0200     11.0334    136.6882     24.6231
   512.3000      8.1862      2.4741      0.0083     10.6606    133.7587     24.4290
   512.4000      8.1862      2.4935     -0.0056      9.4851    130.4467     23.8810
   512.5000      8.1066      2.5094      0.0138      8.5199    124.0388     22.9304
   512.6000      8.1066      2.5139      0.0277      8.2455    116.6846     22.0674
   512.7000      8.1066      2.5140      0.0029      8.2415    116.5282     21.7635
   512.8000      8.1802      2.5170      0.0600      8.0622    124.0581     21.7865
   512.9000      8.1802      2.5224      0.0365      7.7357    130.6551     21.7369
   513.0000      8.1836      2.5254      0.0569      7.5540    132.2826     21.4934
   513.1000      8.1836      2.5257      0.0309      7.5319    131.3485     21.1233
   513.2000      8.1836      2.5279      0.0391      7.3988    127.1817     20.7721
   513.3000      8.1522      2.5274      0.0601      7.4303    120.0911     20.6425
   513.4000      8.1522      2.5180      0.0135      7.9970    114.6248     20.8611
   513.5000      8.1671      2.5043      0.0203      8.8298    112.9285     21.2017
   513.6000      8.1671      2.4912     -0.0278      9.6223    114.2082     21.3054
   513.7000      8.1671      2.4794     -0.0200     10.3389    117.6658     21.0964
   513.8000      8.1823      2.4688      0.0150     10.9841    123.5253     20.8184
   513.9000      8.1823      2.4572      0.0305     11.6829    130.0163     20.7953
   514.0000      8.1920      2.4467     -0.0026     12.3238    134.3833     21.1564
   514.1000      8.1920      2.4470      0.0081     12.3017    140.1435     21.6316
   514.2000      8.1920      2.4614      0.0198     11.4329    150.9186     21.9595
   514.3000      8.1804      2.4888      0.0290      9.7690    158.4944     22.2880
   514.4000      8.1804      2.5298      0.1100      7.2871    156.5070     22.7326
   514.5000      8.2390      2.5758      0.1139      4.4994    151.2435     23.0424
   514.6000      8.2390      2.6145      0.1611      2.1529    146.6761     23.2866
   514.7000      8.2390      2.6346      0.1779      0.9313    139.6883     23.7983
   514.8000      8.1930      2.6431      0.1020      0.4200    132.5824     24.2606
   514.9000      8.1930      2.6539      0.1164     -0.2338    128.4486     24.3738
   515.0000      8.2003      2.6508      0.1258     -0.0506    126.7843     24.3635
   515.1000      8.2003      2.6189      0.0492      1.8848    126.7537     24.3203
   515.2000      8.2003      2.5805      0.0501      4.2110    126.1084     24.1258
   515.3000      8.1872      2.5586      0.0253      5.5415    123.1628     23.8399
   515.4000      8.1872      2.5514      0.0463      5.9758    118.1094     23.8152
   515.5000      8.1534      2.5459      0.0231      6.3109    113.7094     24.0145
   515.6000      8.1534      2.5400      0.0037      6.6659    112.8710     24.0270
   515.7000      8.1534      2.5400      0.0230      6.6653    114.4475     24.0960
   515.8000      8.0779      2.5415      0.0218      6.5770    115.4934     24.6178
   515.9000      8.0779      2.5332      0.0193      7.0801    114.1813     25.3230
   516.0000      8.2081      2.5169     -0.0195      8.0661    114.3478     25.9552
   516.1000      8.2081      2.5097     -0.0798      8.5030    118.7332     26.6676
   516.2000      8.2081      2.5188     -0.0177      7.9541    120.5354     27.3596
   516.3000      8.2349      2.5319     -0.0290      7.1553    116.6034     27.5745
   516.4000      8.2349      2.5367     -0.0209      6.8654    113.6242     27.1690
   516.5000      8.1918      2.5249      0.0381      7.5789    113.5019     26.5784
   516.6000      8.1918      2.5007     -0.0056      9.0461    116.0362     26.3379
   516.7000      8.1918      2.4839     -0.0249     10.0694    122.4922     26.3381
   516.8000      8.1953      2.4832      0.0146     10.1089    130.0047     26.1774
   516.9000      8.1953      2.4912      0.0154      9.6247    135.7930     25.9403
   517.0000      8.1920      2.4989      0.0257      9.1567    141.8869     25.9493
   517.1000      8.1920      2.4983     -0.0045      9.1949    150.5524     26.2348
   517.2000      8.1920      2.4766      0.0267     10.5100    157.5582     26.5310
   517.3000      8.2034      2.4335     -0.0012     13.1217    159.5981     26.5942
   517.4000      8.2034      2.4030     -0.0930     14.9686    158.2646     26.5359
   517.5000      8.1551      2.4199     -0.0354     13.9427    154.9226     26.4692
   517.6000      8.1551      2.4716      0.0405     10.8134    150.6744     26.2362
   517.7000      8.1551      2.5180      0.0775      8.0023    147.3466     25.8123
   517.8000      8.1906      2.5358      0.0939      6.9184    146.3828     25.4104
   517.9000      8.1906      2.5325      0.0241      7.1189    145.5983     25.0651
   518.0000      8.1758      2.5248      0.0700      7.5887    141.5807     24.6161
   518.1000      8.1758      2.5121      0.0860      8.3595    136.6127     24.2227
   518.2000      8.1758      2.4936      0.0561      9.4774    134.3272     24.2172
   518.3000      8.1636      2.4870      0.0500      9.8777    136.2053     24.6271
   518.4000      8.1636      2.5086      0.0627      8.5699    140.8182     25.1231
   518.5000      8.1339      2.5550      0.1095      5.7579    142.4703     25.3192
   518.6000      8.1339      2.6036      0.1275      2.8116    136.7727     25.3103
   518.7000      8.1339      2.6277      0.1555      1.3497    129.8268     25.3415
   518.8000      8.1036      2.6256      0.1126      1.4761    130.6062     25.3740
   518.9000      8.1036      2.6168      0.1212      2.0100    135.2937     25.2875
   519.0000      8.1183      2.6099      0.0977      2.4295    137.3784     25.1107
   519.1000      8.1183      2.5983      0.0964      3.1319    138.5371     24.9113
   519.2000      8.1183      2.5810     -0.0068      4.1832    137.9628     24.6198
   519.3000      8.1174      2.5651      0.0208      5.1468    132.3754     24.4007
   519.4000      8.1174      2.5532     -0.0108      5.8664    125.5694     24.5501
   519.5000      8.1313      2.5490     -0.0522      6.1209    120.1111     25.0627
   519.6000      8.1313      2.5467      0.0428      6.2610    114.7820     25.4812
   519.7000      8.1313      2.5343     -0.0161      7.0121    110.8874     25.4693
   519.8000      8.1926      2.5282     -0.0142      7.3789    105.1045     25.2595
   519.9000      8.1926      2.5465      0.0299      6.2710     93.0102     25.3081
   520.0000      8.1491      2.5821      0.0164      4.1144     81.1009     25.6214
   520.1000      8.1491      2.6200      0.0406      1.8177     76.4291     25.7062
   520.2000      8.1491      2.6436      0.0861      0.3901     80.2918     25.2914
   520.3000      8.2260      2.6454      0.0066      0.2807     89.7404     24.6167
   520.4000      8.2260      2.6359      0.0020      0.8532     94.7444     24.0657
   520.5000      8.1690      2.6150      0.0059      2.1237     92.4994     23.5706
   520.6000      8.1690      2.5688      0.0251      4.9232     92.9280     22.9853
   520.7000      8.1690      2.5055     -0.0510      8.7583    101.1814     22.5468
   520.8000      8.1332      2.4535     -0.0519     11.9104    111.3042     22.4046
   520.9000      8.1332      2.4320     -0.0418     13.2101    117.4388     22.4422
   521.0000      8.1085      2.4407     -0.0313     12.6852    119.0705     22.5619
   521.1000      8.1085      2.4558      0.0346     11.7727    117.7548     22.7666
