~Version Information
VERS.                      2.0: CWLS Log ASCII Standard - VERSION 2.0
WRAP.                       NO: One line per depth step
~Well Information Block
STRT.FT               419.7500: 
STOP.FT              1170.0000: 
STEP.FT                 0.2500: 
NULL.                -999.2500: 
COMP.          Evergreen Operating Corporation: COMPANY
WELL.             Bernice 21-3: WELL
FLD.           Purgatoire River: FIELD
LOC.           201' FNL & 2575' FWL: LOCATION
PROV.                 Colorado: PROVINCE
CNTY.               Las Animas: COUNTRY
SRVC.                Patterson: SERVICE COMPANY
DATE.          Mon Jan 26 13:04:04 2004: LOG DATE
UWI.           05 071 07912   : UNIQUE WELL ID
~Curve Information Block
DEPT.FT            0 000 00 00: Depth
SN.Ohm-m                      : IEL Short Normal
SP.mV                         : IEL Spontaneous Potential
DIR.Ohm-m                     : IEL Induction Resistivity
GR.GAPI                       : Gamma Ray
~Parameter Information Block
~A  Depth        SN          SP         DIR          GR     
# ...
  1123.2500     10.6323     -8.2501     10.3428    133.7358
  1123.5000     10.5187     -8.3958     10.1122    132.4495
  1123.7500     10.5038     -8.4405      9.8930    131.8176
  1124.0000     10.5031     -8.3820      9.7098    132.0629
  1124.2500     10.5056     -8.2493      9.5831    132.8204
  1124.5000     10.5694     -8.0923      9.5214    134.0058
  1124.7500     10.6909     -7.9712      9.5193    134.6117
  1125.0000     10.7775     -7.9263      9.5629    135.5791
  1125.2500     10.7802     -7.9135      9.6387    136.4723
  1125.5000     10.7628     -7.7484      9.7385    137.8693
  1125.7500     10.7848     -7.1428      9.8600    138.3661
  1126.0000     10.8683     -5.8735     10.0024    137.9091
  1126.2500     11.0780     -3.9948     10.1618    136.8508
  1126.5000     11.4433     -1.8864     10.3286    134.6855
  1126.7500     11.8172     -0.0414     10.4883    133.2419
  1127.0000     11.9932      1.2282     10.6263    131.5824
  1127.2500     11.9788      1.9035     10.7337    131.0023
  1127.5000     11.9717      2.1460     10.8094    130.9209
  1127.7500     12.0906      2.1373     10.8572    130.9708
  1128.0000     12.3023      2.0029     10.8796    129.7192
  1128.2500     12.5382      1.8161     10.8760    127.2602
  1128.5000     12.7581      1.6173     10.8462    121.5353
  1128.7500     12.9419      1.4179     10.7973    117.7853
  1129.0000     13.0577      1.1993     10.7445    115.2847
  1129.2500     13.0327      0.9241     10.7058    116.4734
  1129.5000     12.7909      0.5655     10.6918    120.8668
  1129.7500     12.3599      0.1365     10.6980    123.5874
  1130.0000     11.9001     -0.2949     10.7055    125.2914
  1130.2500     11.5584     -0.6231     10.6915    125.1523
  1130.5000     11.3176     -0.7615     10.6434    124.8060
  1130.7500     11.0889     -0.7127     10.5639    125.1461
  1131.0000     10.8780     -0.5843     10.4632    126.4321
  1131.2500     10.7315     -0.5227     10.3493    127.3942
  1131.5000     10.6559     -0.6178     10.2263    128.3953
  1131.7500     10.6825     -0.8568     10.1031    128.7152
  1132.0000     10.8743     -1.1488      9.9979    128.9280
  1132.2500     11.2114     -1.3843      9.9346    128.9013
  1132.5000     11.5435     -1.4840      9.9330    128.3028
  1132.7500     11.7052     -1.4170      9.9995    127.6031
  1133.0000     11.6605     -1.1931     10.1243    127.0475
  1133.2500     11.5040     -0.8504     10.2851    127.6186
  1133.5000     11.3456     -0.4493     10.4542    130.1154
  1133.7500     11.2341     -0.0647     10.6090    132.4013
  1134.0000     11.1761      0.2360     10.7389    135.1052
  1134.2500     11.1780      0.4218     10.8491    135.2967
  1134.5000     11.2580      0.5071     10.9580    132.1519
  1134.7500     11.4153      0.5304     11.0897    127.9708
  1135.0000     11.6170      0.5252     11.2640    118.8042
  1135.2500     11.8473      0.5100     11.4887    109.8668
  1135.5000     12.1347      0.4941     11.7600     89.9038
  1135.7500     12.5043      0.4787     12.0669     72.3054
  1136.0000     12.9287      0.4471     12.3959     43.9530
  1136.2500     13.3432      0.3589     12.7318     27.5638
  1136.5000     13.7038      0.1688     13.0564     10.8906
  1136.7500     14.0400     -0.1297     13.3495      4.9780
  1137.0000     14.4383     -0.4752     13.5956      1.1853
  1137.2500     14.9444     -0.7666     13.7923      0.3794
  1137.5000     15.4931     -0.9422     13.9534      0.0502
  1137.7500     15.9396     -1.0351     14.1005      0.0094
  1138.0000     16.1592     -1.1456     14.2483   -999.2500
  1138.2500     16.1368     -1.3541     14.3927   -999.2500
  1138.5000     15.9616     -1.6626     14.5099   -999.2500
  1138.7500     15.7300     -2.0127     14.5697   -999.2500
  1139.0000     15.4836     -2.3435     14.5571   -999.2500
  1139.2500     15.2438     -2.6291     14.4914   -999.2500
  1139.5000     15.0484     -2.8697     14.4246   -999.2500
  1139.7500     14.9355     -3.0603     14.4143   -999.2500
  1140.0000     14.9395     -3.1791     14.4909   -999.2500
  1140.2500     15.0829     -3.2076     14.6471   -999.2500
  1140.5000     15.3359     -3.1577     14.8571   -999.2500
  1140.7500     15.6236     -3.0751     15.1006   -999.2500
  1141.0000     15.8850     -3.0144     15.3709   -999.2500
  1141.2500     16.1160     -3.0050     15.6627   -999.2500
  1141.5000     16.3827     -3.0309     15.9641   -999.2500
  1141.7500     16.7491     -3.0428     16.2627   -999.2500
  1142.0000     17.1594     -2.9916     16.5545   -999.2500
  1142.2500     17.4763     -2.8512     16.8430   -999.2500
  1142.5000     17.6350     -2.6167     17.1322   -999.2500
  1142.7500     17.6732     -2.3013     17.4166   -999.2500
  1143.0000     17.6684     -1.9496     17.6778   -999.2500
  1143.2500     17.6767     -1.6501     17.8818   -999.2500
  1143.5000     17.6917     -1.5055     17.9820   -999.2500
  1143.7500     17.6919     -1.5699     17.9276   -999.2500
  1144.0000     17.7051     -1.8112     17.6853   -999.2500
  1144.2500     17.7775     -2.1416     17.2707   -999.2500
  1144.5000     17.9023     -2.4844     16.7670   -999.2500
  1144.7500     17.9875     -2.7992     16.3012   -999.2500
  1145.0000     17.9023     -3.0489     15.9902   -999.2500
  1145.2500     17.6262     -3.1690     15.8925   -999.2500
  1145.5000     17.3160     -3.0963     15.9888   -999.2500
  1145.7500     17.0894     -2.8258     16.1941   -999.2500
  1146.0000     16.8517     -2.4314     16.3950   -999.2500
  1146.2500     16.4946     -2.0317     16.4993   -999.2500
  1146.5000     16.0941     -1.7311     16.4685   -999.2500
  1146.7500     15.7641     -1.5805     16.3140   -999.2500
  1147.0000     15.5028     -1.5769     16.0696   -999.2500
  1147.2500     15.2725     -1.6892     15.7699   -999.2500
  1147.5000     15.0714     -1.8847     15.4421   -999.2500
  1147.7500     14.8899     -2.1321     15.1057   -999.2500
  1148.0000     14.7012     -2.3862     14.7698   -999.2500
  1148.2500     14.4960     -2.5756     14.4302   -999.2500
  1148.5000     14.2776     -2.6149     14.0740   -999.2500
  1148.7500     14.0460     -2.4428     13.6951   -999.2500
  1149.0000     13.8073     -2.0586     13.3115   -999.2500
  1149.2500     13.5661     -1.5336     12.9677   -999.2500
  1149.5000     13.3174     -0.9898     12.7144   -999.2500
  1149.7500     13.0742     -0.5629     12.5792   -999.2500
  1150.0000     12.8651     -0.3562     12.5506   -999.2500
  1150.2500     12.6877     -0.3970     12.5850   -999.2500
  1150.5000     12.5277     -0.6194     12.6304   -999.2500
  1150.7500     12.4163     -0.8954     12.6533   -999.2500
  1151.0000     12.3959     -1.0965     12.6467   -999.2500
  1151.2500     12.4416     -1.1450     12.6197   -999.2500
  1151.5000     12.4731     -1.0356     12.5784   -999.2500
  1151.7500     12.4703     -0.8334     12.5183   -999.2500
  1152.0000     12.5128     -0.6533     12.4300   -999.2500
  1152.2500     12.6432     -0.6232     12.3146   -999.2500
  1152.5000     12.8116     -0.8363     12.1930   -999.2500
  1152.7500     12.9600     -1.3042     12.1033   -999.2500
  1153.0000     13.0705     -1.9349     12.0853   -999.2500
  1153.2500     13.1756     -2.5615     12.1632   -999.2500
  1153.5000     13.3184     -3.0159     12.3327   -999.2500
  1153.7500     13.4724     -3.2066     12.5603   -999.2500
  1154.0000     13.5559     -3.1442     12.7972   -999.2500
  1154.2500     13.5327     -2.9067     13.0000   -999.2500
  1154.5000     13.4575     -2.5862     13.1441   -999.2500
  1154.7500     13.4158     -2.2623     13.2211   -999.2500
  1155.0000     13.4490     -1.9990     13.2297   -999.2500
  1155.2500     13.5583     -1.8346     13.1737   -999.2500
  1155.5000     13.7339     -1.7687     13.0678   -999.2500
  1155.7500     13.9499     -1.7707     12.9419   -999.2500
  1156.0000     14.1600     -1.8162     12.8361   -999.2500
  1156.2500     14.3294     -1.9151     12.7877   -999.2500
  1156.5000     14.4571     -2.1049     12.8188   -999.2500
