~Version Information
VERS.                      2.0: CWLS Log ASCII Standard - VERSION 2.0
WRAP.                       NO: One line per depth step
~Well Information Block
STRT.FT               456.0000: 
STOP.FT              1703.0000: 
STEP.FT                 0.2500: 
NULL.                -999.2500: 
COMP.          Pioneer Natural Resources: COMPANY
WELL.                Mead 11-9: WELL
FLD.           Purgatoire River: FIELD
LOC.           1127' FNL & 668' FWL: LOCATION
PROV.                 Colorado: PROVINCE
CNTY.               Las Animas: COUNTRY
SRVC.                Patterson: SERVICE COMPANY
DATE.          Fri Feb 18 16:14:34 2005: LOG DATE
UWI.           05 071 08160 00: UNIQUE WELL ID
~Curve Information Block
DEPT.FT            0 000 00 00: Depth
SN.Ohm-m                      : IEL Short Normal
SP.mV                         : IEL Spontaneous Potential
DIR.Ohm-m                     : IEL Induction Resistivity
GR.GAPI                       : Gamma Ray
~Parameter Information Block
~A  Depth        SN          SP         DIR          GR     
# ...
  1595.0000     20.8519     16.6777     20.7353     63.7405
  1595.2500     20.7375     16.8149     20.6128     64.1700
  1595.5000     20.6513     16.9474     20.4911     65.1850
  1595.7500     20.5749     17.0873     20.3901     65.7343
  1596.0000     20.4890     17.2493     20.3088     66.2128
  1596.2500     20.3851     17.4439     20.2278     66.3279
  1596.5000     20.2696     17.6714     20.1245     66.2355
  1596.7500     20.1587     17.9195     19.9911     66.1322
  1597.0000     20.0643     18.1669     19.8411     66.2320
  1597.2500     19.9882     18.3890     19.7020     66.3946
  1597.5000     19.9306     18.5657     19.6002     66.2255
  1597.7500     19.8980     18.6901     19.5506     65.7351
  1598.0000     19.8970     18.7723     19.5531     65.1065
  1598.2500     19.9184     18.8338     19.5949     65.2463
  1598.5000     19.9455     18.8924     19.6609     66.3042
  1598.7500     19.9784     18.9523     19.7479     67.0541
  1599.0000     20.0272     19.0042     19.8715     67.3225
  1599.2500     20.1082     19.0352     20.0581     66.8351
  1599.5000     20.2659     19.0374     20.3249     65.6852
  1599.7500     20.5331     19.0100     20.6638     64.9859
  1600.0000     20.8860     18.9563     21.0413     64.1023
  1600.2500     21.2902     18.8795     21.4141     63.4500
  1600.5000     21.7416     18.7791     21.7469     62.0899
  1600.7500     22.2358     18.6511     22.0131     60.8591
  1601.0000     22.7433     18.4939     22.1739     58.6804
  1601.2500     23.2334     18.3162     22.1580     57.2809
  1601.5000     23.7052     18.1386     21.8752     55.8391
  1601.7500     24.1629     17.9879     21.2757     55.5131
  1602.0000     24.5707     17.8894     20.4079     55.8853
  1602.2500     24.8563     17.8599     19.4117     56.4840
  1602.5000     24.9054     17.9021     18.4488     57.5738
  1602.7500     24.5397     18.0014     17.6377     58.4469
  1603.0000     23.5875     18.1327     17.0333     60.4198
  1603.2500     22.0302     18.2778     16.6387     62.5327
  1603.5000     20.0832     18.4408     16.4219     67.2798
  1603.7500     18.1374     18.6482     16.3282     71.3981
  1604.0000     16.5558     18.9292     16.2928     78.0426
  1604.2500     15.4797     19.2926     16.2596     81.8148
  1604.5000     14.8293     19.7166     16.1988     84.7224
  1604.7500     14.4594     20.1632     16.1144     84.1392
  1605.0000     14.3137     20.6007     16.0331     79.4441
  1605.2500     14.4843     21.0165     15.9885     74.5418
  1605.5000     15.1633     21.4119     16.0122     66.7944
  1605.7500     16.5319     21.7911     16.1367     62.5926
  1606.0000     18.6141     22.1531     16.4007     58.5546
  1606.2500     21.1349     22.4892     16.8461     57.0768
  1606.5000     23.5611     22.7861     17.5044     55.8358
  1606.7500     25.4080     23.0321     18.3805     55.4889
  1607.0000     26.5257     23.2227     19.4423     56.0387
  1607.2500     27.0676     23.3623     20.6224     57.3188
  1607.5000     27.2617     23.4640     21.8302     60.3801
  1607.7500     27.2653     23.5451     22.9747     62.7198
  1608.0000     27.1618     23.6162     23.9851     65.6843
  1608.2500     27.0037     23.6714     24.8249     66.8302
  1608.5000     26.8311     23.6901     25.4941     67.0536
  1608.7500     26.6732     23.6529     26.0206     66.4270
  1609.0000     26.5451     23.5590     26.4354     64.9709
  1609.2500     26.4420     23.4318     26.7326     63.9209
  1609.5000     26.3398     23.3077     26.8482     62.4307
  1609.7500     26.2091     23.2171     26.7015     61.6450
  1610.0000     26.0307     23.1714     26.2843     61.1435
  1610.2500     25.7949     23.1634     25.7027     61.3452
  1610.5000     25.4907     23.1752     25.1179     62.2783
  1610.7500     25.1087     23.1873     24.6499     63.2183
  1611.0000     24.6609     23.1861     24.3329     65.0824
  1611.2500     24.1840     23.1708     24.1315     66.5929
  1611.5000     23.7162     23.1557     23.9838     69.0066
  1611.7500     23.2745     23.1650     23.8427     70.4848
  1612.0000     22.8571     23.2174     23.7002     72.1673
  1612.2500     22.4602     23.3148     23.5810     72.8677
  1612.5000     22.0959     23.4399     23.5113     73.3387
  1612.7500     21.7878     23.5656     23.4873     73.2604
  1613.0000     21.5426     23.6661     23.4672     72.4956
  1613.2500     21.3501     23.7263     23.3979     71.6208
  1613.5000     21.2129     23.7442     23.2504     70.0523
  1613.7500     21.1474     23.7293     23.0392     68.9731
  1614.0000     21.1609     23.6988     22.8126     67.3317
  1614.2500     21.2458     23.6754     22.6248     66.1829
  1614.5000     21.3869     23.6784     22.5084     64.4454
  1614.7500     21.5638     23.7109     22.4589     63.4156
  1615.0000     21.7564     23.7559     22.4376     62.2667
  1615.2500     21.9473     23.7882     22.3920     61.7834
  1615.5000     22.1275     23.7899     22.2792     61.3782
  1615.7500     22.3046     23.7556     22.0775     61.2263
  1616.0000     22.4757     23.6860     21.7819     61.0260
  1616.2500     22.5943     23.5765     21.4028     60.8689
  1616.5000     22.6115     23.4084     20.9725     60.6235
  1616.7500     22.5148     23.1507     20.5507     60.5744
  1617.0000     22.2896     22.7706     20.2123     61.2613
  1617.2500     21.9134     22.2484     20.0206     62.7409
  1617.5000     21.4176     21.5904     20.0046     66.9898
  1617.7500     20.9018     20.8329     20.1507     70.8277
  1618.0000     20.4698     20.0394     20.4088     76.3007
  1618.2500     20.1741     19.2898     20.7090     78.4473
  1618.5000     20.0309     18.6616     20.9818     77.9902
  1618.7500     20.0822     18.2077     21.1767     75.3986
  1619.0000     20.4387     17.9471     21.2744     69.9703
  1619.2500     21.2109     17.8745     21.2892     66.7406
  1619.5000     22.3489     17.9750     21.2611     64.1007
  1619.7500     23.6164     18.2257     21.2403     63.9653
  1620.0000     24.7708     18.5906     21.2699     65.5636
  1620.2500     25.7001     19.0215     21.3747     67.3921
  1620.5000     26.3772     19.4673     21.5583     70.8081
  1620.7500     26.7565     19.8837     21.8071     73.3650
  1621.0000     26.7558     20.2409     22.0939     77.4519
  1621.2500     26.3386     20.5296     22.3764     80.3191
  1621.5000     25.5900     20.7622     22.6002     84.5699
  1621.7500     24.6896     20.9654     22.7126     86.8601
  1622.0000     23.8162     21.1650     22.6868     88.2492
  1622.2500     23.0807     21.3729     22.5368     87.2980
  1622.5000     22.5138     21.5849     22.3107     83.0102
  1622.7500     22.1151     21.7889     22.0696     78.7149
  1623.0000     21.9450     21.9740     21.8674     71.5601
  1623.2500     22.1404     22.1345     21.7414     67.2365
  1623.5000     22.7852     22.2683     21.7117     62.4037
  1623.7500     23.7877     22.3731     21.7843     60.3817
  1624.0000     24.9133     22.4431     21.9549     59.0048
  1624.2500     25.9122     22.4658     22.2098     59.1860
  1624.5000     26.6203     22.4233     22.5264     60.9608
  1624.7500     26.9890     22.3021     22.8730     62.6861
  1625.0000     27.0554     22.1081     23.2091     64.8554
  1625.2500     26.8960     21.8730     23.4875     65.5278
  1625.5000     26.6034     21.6414     23.6601     65.4434
  1625.7500     26.2513     21.4489     23.6903     65.0697
  1626.0000     25.8644     21.3091     23.5689     64.7826
  1626.2500     25.4524     21.2156     23.3196     65.0619
  1626.5000     25.0386     21.1552     22.9867     66.3222
  1626.7500     24.6407     21.1156     22.6120     67.5889
  1627.0000     24.2597     21.0856     22.2171     69.6075
  1627.2500     23.8947     21.0531     21.8047     70.6461
  1627.5000     23.5512     21.0078     21.3710     71.1868
  1627.7500     23.2301     20.9426     20.9168     70.7955
  1628.0000     22.9294     20.8538     20.4497     69.5773
  1628.2500     22.6597     20.7418     19.9791     68.8281
