~Version Information
VERS.                      2.0: CWLS Log ASCII Standard - VERSION 2.0
WRAP.                       NO: One line per depth step
~Well Information Block
STRT.FT                -6.5000: 
STOP.FT              2698.5000: 
STEP.FT                 0.2500: 
NULL.                -999.2500: 
COMP.          Pioneer Natural Resources: COMPANY
WELL.              Cluck 21-25: WELL
FLD.           Purgatorie River: FIELD
LOC.           91' FNL & 1834' FWL--: LOCATION
PROV.                       CO: PROVINCE
CNTY.               Las Animas: COUNTRY
SRVC.          Patterson Wireline: SERVICE COMPANY
DATE.          Mon Jun 13 14:54:35 2005: LOG DATE
UWI.           05 071 08397 00: UNIQUE WELL ID
~Curve Information Block
DEPT.FT            0 000 00 00: Depth
CCL.                          : Casing Collar Locator
TT3.usec                      : CBL 3' Travel Time
AMP3.mV                       : CBL 3' Amplitude
GR.GAPI                       : Gamma Ray
~Parameter Information Block
~A  Depth       CCL         TT3         AMP3         GR     
# ...
   161.0000      0.0000    826.7123      8.4920     40.5818
   161.2500      0.0000    838.2258      8.1034     39.2072
   161.5000      0.0000    867.9391      7.7771     39.2646
   161.7500      0.0000    915.4975      7.4635     39.8659
   162.0000      0.0000    971.7845      7.1640     40.5113
   162.2500      0.0000   1024.7850      6.9328     41.6383
   162.5000      0.0000   1064.7438      6.8090     44.4613
   162.7500      2.0000   1086.0897      6.7784     50.3611
   163.0000      0.0000   1086.8292      6.7972     59.8657
   163.2500      0.0000   1066.4205      6.8524     71.6956
   163.5000      0.0000   1025.6906      7.0018     82.9326
   163.7500      0.0000    969.9536      7.3424     90.7252
   164.0000      0.0000    910.0644      7.9074     94.1178
   164.2500      0.0000    858.3727      8.5925     94.0114
   164.5000      0.0000    823.3364      9.2061     91.6522
   164.7500      0.0000    806.7523      9.6016     87.9643
   165.0000      0.0000    804.2684      9.7586     84.1065
   165.2500      0.0000    808.6586      9.7544     81.4142
   165.5000      0.0000    813.9360      9.6813     80.3631
   165.7500      0.0000    817.4322      9.5944     80.2912
   166.0000      0.0000    819.0152      9.5122     80.4489
   166.2500      0.0000    819.3649      9.4425     80.8542
   166.5000      0.0000    819.2570      9.3995     81.9813
   166.7500      0.0000    820.0712      9.4073     84.0227
   167.0000      0.0000    824.2936      9.4916     86.6361
   167.2500      0.0000    834.2184      9.6598     88.9546
   167.5000      0.0000    848.8856      9.8825     89.6707
   167.7500      0.0000    862.4987     10.1013     87.6320
   168.0000      0.0000    867.7076     10.2628     82.7317
   168.2500      0.0000    861.6944     10.3492     76.0544
   168.5000      0.0000    848.8607     10.3797     69.1625
   168.7500      0.0000    837.1464     10.3935     63.3397
   169.0000      0.0000    831.9107     10.4304     59.1413
   169.2500      0.0000    832.8582     10.5143     56.2227
   169.5000      0.0000    835.4384     10.6437     53.6887
   169.7500      0.0000    834.7610     10.7992     50.9496
   170.0000      0.0000    829.7019     10.9587     48.2580
   170.2500      0.0000    824.8132     11.1019     46.2699
   170.5000      0.0000    827.6722     11.2072     45.1538
   170.7500      0.0000    842.4907     11.2581     44.3586
   171.0000      0.0000    865.8550     11.2639     43.3237
   171.2500      0.0000    889.4802     11.2622     42.1768
   171.5000      0.0000    906.8126     11.2883     41.5651
   171.7500      0.0000    916.4788     11.3488     41.8894
   172.0000      0.0000    920.6937     11.4273     42.8784
   172.2500      0.0000    922.1851     11.5091     43.8283
   172.5000      0.0000    922.6991     11.5902     44.0610
   172.7500      0.0000    923.0370     11.6703     43.2641
   173.0000      0.0000    923.5972     11.7425     41.7494
   173.2500      0.0000    924.8427     11.7872     40.4573
   173.5000      0.0000    927.5222     11.7772     40.4232
   173.7500      0.0000    932.4048     11.6969     42.0327
   174.0000      0.0000    939.5958     11.5581     44.7482
   174.2500      0.0000    948.1512     11.3947     47.5121
   174.5000      0.0000    956.7194     11.2402     49.5108
   174.7500      0.0000    964.6816     11.1074     50.8124
   175.0000      0.0000    972.3198     10.9935     52.3103
   175.2500      0.0000    979.7184     10.8959     54.9450
   175.5000      0.0000    985.9182     10.8165     59.0549
   175.7500      0.0000    989.4648     10.7490     64.3612
   176.0000      0.0000    989.1902     10.6753     70.1199
   176.2500      0.0000    983.9783     10.5775     75.2279
   176.5000      0.0000    972.3312     10.4529     78.7626
   176.7500      0.0000    953.1052     10.3167     80.8100
   177.0000      0.0000    926.8923     10.1889     82.5099
   177.2500      0.0000    896.7330     10.0770     84.8147
   177.5000      0.0000    867.7938      9.9756     87.2281
   177.7500      0.0000    846.0874      9.8794     88.3203
   178.0000      0.0000    836.1973      9.7903     87.6484
   178.2500      0.0000    838.3929      9.7109     86.5367
   178.5000      0.0000    847.5510      9.6409     86.5753
   178.7500      0.0000    856.5644      9.5796     87.8010
   179.0000      0.0000    861.9238      9.5309     88.6770
   179.2500      0.0000    865.6584      9.5026     87.5307
   179.5000      0.0000    872.7553      9.4942     83.9065
   179.7500      0.0000    888.0099      9.4913     78.9682
   180.0000      0.0000    914.0612      9.4791     74.7893
   180.2500      0.0000    949.5502      9.4605     73.0264
   180.5000      0.0000    988.0576      9.4541     74.1005
   180.7500      0.0000   1020.1277      9.4770     77.3853
   181.0000      0.0000   1037.5760      9.5345     81.7264
   181.2500      0.0000   1036.7860      9.6191     85.8259
   181.5000      0.0000   1019.6064      9.7118     88.6928
   181.7500      0.0000    992.2785      9.7883     90.0560
   182.0000      0.0000    962.3281      9.8304     90.2718
   182.2500      0.0000    934.7583      9.8388     89.8197
   182.5000      0.0000    911.1138      9.8316     88.9994
   182.7500      0.0000    891.9499      9.8265     88.0550
   183.0000      0.0000    878.5825      9.8278     87.2596
   183.2500      0.0000    871.9506      9.8338     86.5435
   183.5000      0.0000    871.8115      9.8494     85.1651
   183.7500      0.0000    877.6554      9.8802     82.3238
   184.0000      0.0000    888.4442      9.9166     78.2625
   184.2500      0.0000    901.2286      9.9331     74.2497
   184.5000      0.0000    912.0933      9.9053     71.4060
   184.7500      0.0000    918.8287      9.8288     70.0050
   185.0000      0.0000    921.6205      9.7234     69.7932
   185.2500      0.0000    921.2487      9.6257     70.5051
   185.5000      0.0000    917.1653      9.5759     72.0993
   185.7500      0.0000    907.3560      9.5972     74.6555
   186.0000      0.0000    890.5923      9.6807     78.0753
   186.2500      0.0000    869.7078      9.7935     82.1145
   186.5000      0.0000    851.4457      9.9001     86.7028
   186.7500      0.0000    840.5536      9.9742     91.6894
   187.0000      0.0000    834.4186     10.0002     96.0765
   187.2500      0.0000    826.6020      9.9799     97.9855
   187.5000      0.0000    815.5266      9.9418     95.8750
   187.7500      0.0000    805.8931      9.9274     89.9385
   188.0000      0.0000    800.9564      9.9594     82.2797
   188.2500      0.0000    797.4603     10.0248     75.6517
   188.5000      0.0000    790.1793     10.0921     71.8625
   188.7500      0.0000    778.7169     10.1399     70.9976
   189.0000      0.0000    767.7768     10.1673     71.8380
   189.2500      0.0000    762.8561     10.1832     72.9372
   189.5000      0.0000    767.7452     10.1943     73.4111
   189.7500      0.0000    784.4196     10.2014     73.1515
   190.0000      0.0000    812.0974     10.2040     72.8295
   190.2500      0.0000    845.7842     10.1975     73.4795
   190.5000      0.0000    877.6966     10.1650     75.3328
   190.7500      0.0000    901.6523     10.0832     76.9464
   191.0000      0.0000    916.1170      9.9495     76.0277
   191.2500      0.0000    923.2819      9.8003     71.3212
   191.5000      0.0000    926.1613      9.6870     63.6445
   191.7500      0.0000    926.6583      9.6275     55.3238
   192.0000      0.0000    925.0786      9.5962     48.7258
   192.2500      0.0000    920.0781      9.5680     44.9326
   192.5000      0.0000    908.9656      9.5531     43.3900
   192.7500      0.0000    889.3602      9.5730     42.8103
   193.0000      0.0000    861.9337      9.6190     42.5463
   193.2500      0.0000    831.4341      9.6572     43.0333
   193.5000      0.0000    803.9525      9.6708     44.8494
   193.7500      0.0000    783.1487      9.6759     47.7019
   194.0000      0.0000    769.6180      9.6937     50.6376
   194.2500      0.0000    762.9073      9.7213     52.8290
