~Version Information
VERS.                      2.0: CWLS Log ASCII Standard - VERSION 2.0
WRAP.                       NO: One line per depth step
~Well Information Block
STRT.FT                -3.7500: 
STOP.FT               930.7500: 
STEP.FT                 0.2500: 
NULL.                -999.2500: 
COMP.          Pioneer Natural Resources: COMPANY
WELL.                Pug 33-19: WELL
FLD.           Purgatorie River: FIELD
LOC.           1381' FSL & 2140' FEL--: LOCATION
PROV.                       CO: PROVINCE
CNTY.               Las Animas: COUNTRY
SRVC.                         : SERVICE COMPANY
DATE.          Mon Dec 20 15:44:45 2004: LOG DATE
UWI.                          : UNIQUE WELL ID
~Curve Information Block
DEPT.FT            0 000 00 00: Depth
GR.GAPI                       : Gamma Ray
CCL.                          : Casing Collar Locator
TT3.usec                      : CBL 3' Travel Time
AMP3.mV                       : CBL 3' Amplitude
~Parameter Information Block
~A  Depth        GR         CCL         TT3         AMP3    
# ...
   532.2500    168.3966      0.0000    763.8284      6.5940
   532.5000    171.6004      0.0000    763.9191      6.6340
   532.7500    172.8688      0.0000    763.6428      6.6668
   533.0000    174.1189      0.0000    763.0549      6.6909
   533.2500    176.0950      0.0000    762.1592      6.7073
   533.5000    177.7038      0.0000    760.6264      6.7174
   533.7500    177.4137      0.0000    757.7200      6.7242
   534.0000    174.9750      0.0000    752.6983      6.7332
   534.2500    171.4078      0.0000    745.5843      6.7488
   534.5000    167.5855      0.0000    737.5958      6.7699
   534.7500    163.5101      0.0000    730.5611      6.7877
   535.0000    159.1553      0.0000    725.7344      6.7897
   535.2500    155.2514      0.0000    723.1872      6.7708
   535.5000    152.4570      0.0000    722.2021      6.7380
   535.7500    150.3503      0.0000    721.9938      6.7021
   536.0000    148.2674      0.0000    722.0701      6.6676
   536.2500    146.5555      0.0000    722.2075      6.6380
   536.5000    145.7159      0.0000    722.3156      6.6257
   536.7500    144.8118      0.0000    722.3524      6.6457
   537.0000    142.2411      0.0000    722.2961      6.6951
   537.2500    138.0538      0.0000    722.1542      6.7449
   537.5000    134.2604      0.0000    721.9785      6.7566
   537.7500    132.5797      0.0000    721.8576      6.7149
   538.0000    132.5471      0.0000    721.8755      6.6460
   538.2500    132.1021      0.0000    722.0634      6.6022
   538.5000    129.7383      0.0000    722.3719      6.6235
   538.7500    125.7637      0.0000    722.6786      6.7091
   539.0000    121.5981      0.0000    722.8841      6.8232
   539.2500    118.5465      0.0000    723.1078      6.9225
   539.5000    117.5527      0.0000    723.8886      6.9833
   539.7500    119.3611      0.0000    726.1379      7.0080
   540.0000    124.0195      0.0000    730.6135      7.0131
   540.2500    130.1344      0.0000    737.0466      7.0118
   540.5000    134.9253      0.0000    743.8015      7.0062
   540.7500    135.3147      0.0000    748.9182      6.9931
   541.0000    129.6575      0.0000    751.7914      6.9721
   541.2500    119.1930      0.0000    753.5209      6.9486
   541.5000    107.6273      0.0000    755.4572      6.9348
   541.7500     98.5755      0.0000    757.8429      6.9454
   542.0000     93.2703      0.0000    760.0582      6.9841
   542.2500     90.7321      0.0000    761.6254      7.0366
   542.5000     89.6369      0.0000    762.5605      7.0846
   542.7500     89.6757      0.0000    763.0618      7.1245
   543.0000     91.3479      0.0000    763.2750      7.1667
   543.2500     94.8122      0.0000    763.3364      7.2209
   543.5000     99.0030      0.0000    763.4033      7.2843
   543.7500    101.7728      0.0000    763.5560      7.3413
   544.0000    100.9694      0.0000    763.7568      7.3754
   544.2500     95.5897      0.0000    763.9348      7.3884
   544.5000     86.2128      0.0000    764.0482      7.4087
   544.7500     74.6740      0.0000    764.0439      7.4731
   545.0000     63.3302      0.0000    763.8541      7.5982
   545.2500     54.3021      0.0000    763.4982      7.7687
   545.5000     48.9148      0.0000    763.1345      7.9451
   545.7500     47.2571      0.0000    762.9526      8.0790
   546.0000     48.0064      0.0000    763.0352      8.1277
   546.2500     49.1585      0.0000    763.3223      8.0701
   546.5000     49.4951      0.0000    763.6518      7.9220
   546.7500     49.4171      0.0000    763.8409      7.7370
   547.0000     50.1718      0.0000    763.8176      7.5745
   547.2500     52.3962      0.0000    763.7112      7.4573
   547.5000     55.7129      0.0000    763.7512      7.3650
   547.7500     59.6047      0.0000    764.0326      7.2740
   548.0000     64.0294      0.0000    764.4113      7.1926
   548.2500     68.9527      0.0000    764.6531      7.1495
   548.5000     73.9099      0.0000    764.6315      7.1556
   548.7500     78.2525      0.0000    764.3505      7.1907
   549.0000     81.2238      0.0000    763.8589      7.2246
   549.2500     81.7489      0.0000    763.2397      7.2413
   549.5000     79.0301      0.0000    762.6467      7.2406
   549.7500     73.7302      0.0000    762.2514      7.2229
   550.0000     68.0007      0.0000    762.1248      7.1818
   550.2500     63.7924      0.0000    762.1946      7.1141
   550.5000     61.3373      0.0000    762.3223      7.0353
   550.7500     59.6199      0.0000    762.4125      6.9774
   551.0000     58.0054      0.0000    762.4731      6.9662
   551.2500     56.7739      0.0000    762.6002      7.0015
   551.5000     56.2025      0.0000    762.9031      7.0617
   551.7500     55.9784      0.0000    763.4153      7.1240
   552.0000     55.7666      0.0000    764.0688      7.1793
   552.2500     55.8497      0.0000    764.7560      7.2361
   552.5000     57.1027      0.0000    765.3951      7.3158
   552.7500     60.7595      0.0000    765.9250      7.4394
   553.0000     68.0720      0.0000    766.2734      7.6070
   553.2500     79.4071      0.0000    766.3738      7.7871
   553.5000     93.1362      0.0000    766.2147      7.9260
   553.7500    105.6004      0.0000    765.8554      7.9755
   554.0000    112.8831      0.0000    765.3841      7.9209
   554.2500    113.4481      0.0000    764.8225      7.7883
   554.5000    109.4860      0.0000    763.9968      7.6272
   554.7500    105.5183      0.0000    762.4299      7.4827
   555.0000    105.2547      0.0000    759.4246      7.3809
   555.2500    109.2878      0.0000    754.5571      7.3275
   555.5000    115.4530      0.0000    748.4825      7.3105
   555.7500    121.2944      0.0000    743.2534      7.3040
   556.0000    126.0449      0.0000    741.3021      7.2825
   556.2500    130.1939      0.0000    743.5988      7.2384
   556.5000    133.8840      0.0000    748.8026      7.1879
   556.7500    136.7590      0.0000    754.3616      7.1577
   557.0000    139.2408      0.0000    758.3740      7.1625
   557.2500    142.7639      0.0000    760.4172      7.1876
   557.5000    148.1716      0.0000    761.0521      7.1955
   557.7500    154.5656      0.0000    761.0418      7.1587
   558.0000    160.1416      0.0000    761.0862      7.0898
   558.2500    163.5226      0.0000    761.9886      7.0338
   558.5000    164.0280      0.0000    764.7401      7.0275
   558.7500    161.5117      0.0000    770.1066      7.0706
   559.0000    156.5443      0.0000    777.8389      7.1346
   559.2500    150.3443      0.0000    786.3008      7.1862
   559.5000    144.1588      0.0000    793.2016      7.1909
   559.7500    138.8446      0.0000    796.9811      7.1059
   560.0000    134.9832      0.0000    797.6866      6.8887
   560.2500    133.0378      0.0000    796.7202      6.5251
   560.5000    133.2186      0.0000    795.7534      6.0572
   560.7500    135.1396      0.0000    795.7314      5.5813
   561.0000    137.5542      0.0000    797.2673      5.2064
   561.2500    138.7438      0.0000    802.1827      4.9978
   561.5000    137.6641      0.0000    813.4817      4.9526
   561.7500    134.6862      0.0000    832.0233      5.0189
   562.0000    130.9500      0.0000    853.5229      5.1312
   562.2500    127.1941      0.0000    871.1318      5.2350
   562.5000    123.6055      0.0000    881.8042      5.2987
   562.7500    120.6745      2.0000    888.4992      5.3158
   563.0000    119.6392      0.0000    895.3649      5.2999
   563.2500    121.7476      0.0000    902.3585      5.2867
   563.5000    127.0989      0.0000    905.0920      5.3341
   563.7500    134.3108      0.0000    898.2715      5.4832
   564.0000    141.3304      0.0000    879.0861      5.6967
   564.2500    146.6390      0.0000    849.6533      5.8725
   564.5000    149.8563      0.0000    817.2938      5.9659
   564.7500    151.4432      0.0000    790.8107      6.0617
   565.0000    152.0023      0.0000    775.2708      6.2720
   565.2500    151.7854      0.0000    770.3682      6.5933
   565.5000    150.6193      0.0000    772.9304      6.9085
