~Version Information
 VERS.                      2.0: CWLS Log ASCII Standard - VERSION 2.0
 WRAP.                       NO: One line per depth step
 ~Well Information Block
 STRT.FT               887.5000: 
 STOP.FT              2605.5000: 
 STEP.FT                 0.2500: 
 NULL.                -999.2500: 
 COMP.          Petrogulf Corporation: COMPANY
 WELL.               YWAM 7-23V: WELL
 FLD.           Purgatorie River: FIELD
 LOC.           230' FSL & 225' FWL: LOCATION
 CNTY.               Las Animas: COUNTY
 SRVC.                         : SERVICE COMPANY
 DATE.          Sat Oct 30 08:34:45 2004: LOG DATE
 UWI.           05 071 08227 00: UNIQUE WELL ID
 STAT.                 Colorado: STATE
 PROV.                         :Province
 ~Curve Information Block
 DEPT.FT            0 000 00 00: Depth
 SP.mV                         : DIL Spontaneous Potential
 RILD.Ohm-m                    : DIL Deep Resistivity
 RILM.Ohm-m                    : DIL Medium Resistivity
 RLL3.Ohm-m                    : DIL Shallow Resistivity
 GR.GAPI                       : Gamma Ray
 ~Parameter Information Block
 ~A  Depth        SP         RILD        RILM        RLL3         GR     
# ...
  1699.5000   -124.1326      8.6377      9.4067      8.9044    154.2213
  1699.7500   -123.9882      8.5708      9.3320      9.0489    153.3868
  1700.0000   -123.8080      8.5178      9.2596      9.1545    152.5908
  1700.2500   -123.6138      8.4786      9.1912      9.1988    152.7256
  1700.5000   -123.4153      8.4515      9.1290      9.1781    154.5840
  1700.7500   -123.2076      8.4338      9.0749      9.1057    156.8396
  1701.0000   -122.9821      8.4216      9.0306      9.0058    160.7318
  1701.2500   -122.7328      8.4103      8.9972      8.9041    162.8855
  1701.5000   -122.4656      8.3956      8.9751      8.8212    164.4244
  1701.7500   -122.1954      8.3740      8.9638      8.7695    164.1894
  1702.0000   -121.9347      8.3439      8.9619      8.7538    162.6538
  1702.2500   -121.6845      8.3055      8.9675      8.7735    161.4045
  1702.5000   -121.4365      8.2613      8.9788      8.8242    159.5313
  1702.7500   -121.1845      8.2154      8.9944      8.8972    158.2010
  1703.0000   -120.9420      8.1725      9.0139      8.9799    156.2657
  1703.2500   -120.7560      8.1375      9.0377      9.0573    155.3527
  1703.5000   -120.7111      8.1147      9.0672      9.1163    154.9165
  1703.7500   -120.9115      8.1067      9.1035      9.1510    155.1625
  1704.0000   -121.4486      8.1150      9.1476      9.1671    155.7477
  1704.2500   -122.3651      8.1390      9.1996      9.1821    155.8079
  1704.5000   -123.6265      8.1772      9.2590      9.2208    155.0156
  1704.7500   -125.1151      8.2271      9.3244      9.3071    154.2114
  1705.0000   -126.6453      8.2856      9.3940      9.4534    153.4992
  1705.2500   -128.0025      8.3499      9.4660      9.6538    153.4659
  1705.5000   -128.9872      8.4175      9.5388      9.8834    153.2372
  1705.7500   -129.4617      8.4871      9.6110     10.1038    152.2950
  1706.0000   -129.3701      8.5581      9.6819     10.2755    148.9796
  1706.2500   -128.7419      8.6311      9.7511     10.3695    145.4589
  1706.5000   -127.6721      8.7071      9.8190     10.3760    138.8756
  1706.7500   -126.2941      8.7878      9.8867     10.3054    134.4091
  1707.0000   -124.7528      8.8744      9.9561     10.1837    128.9715
  1707.2500   -123.1868      8.9676     10.0297     10.0446    126.4768
  1707.5000   -121.7276      9.0673     10.1101      9.9215    123.8195
  1707.7500   -120.4979      9.1721     10.2001      9.8431    122.2540
  1708.0000   -119.6104      9.2794     10.3016      9.8317    120.0678
  1708.2500   -119.1500      9.3857     10.4159      9.9044    119.0570
  1708.5000   -119.1569      9.4865     10.5428     10.0736    118.6252
  1708.7500   -119.6005      9.5774     10.6811     10.3457    118.8790
  1709.0000   -120.3699      9.6544     10.8279     10.7174    119.3581
  1709.2500   -121.2835      9.7145     10.9791     11.1699    119.4118
  1709.5000   -122.1257      9.7563     11.1285     11.6662    118.8863
  1709.7500   -122.6931      9.7801     11.2685     12.1520    118.2213
  1710.0000   -122.8514      9.7874     11.3897     12.5644    117.4304
  1710.2500   -122.5668      9.7807     11.4820     12.8438    117.7930
  1710.5000   -121.9129      9.7626     11.5352     12.9478    121.0103
  1710.7500   -121.0354      9.7350     11.5412     12.8596    125.0955
  1711.0000   -120.1071      9.6993     11.4955     12.5907    132.7143
  1711.2500   -119.2715      9.6557     11.3984     12.1757    137.4546
  1711.5000   -118.6171      9.6039     11.2561     11.6633    142.5470
  1711.7500   -118.1721      9.5431     11.0791     11.1067    144.5621
  1712.0000   -117.9325      9.4727     10.8807     10.5555    146.3223
  1712.2500   -117.8932      9.3922     10.6753     10.0514    147.1456
  1712.5000   -118.0719      9.3017     10.4750      9.6251    148.3583
  1712.7500   -118.5107      9.2018     10.2891      9.2954    149.3049
  1713.0000   -119.2558      9.0935     10.1222      9.0687    151.1320
  1713.2500   -120.3303      8.9786      9.9747      8.9385    152.6365
  1713.5000   -121.7098      8.8593      9.8429      8.8860    154.8483
  1713.7500   -123.3157      8.7384      9.7197      8.8829    155.8375
  1714.0000   -125.0215      8.6187      9.5969      8.8964    156.2817
  1714.2500   -126.6809      8.5032      9.4666      8.8954    156.0574
  1714.5000   -128.1561      8.3943      9.3229      8.8561    154.9745
  1714.7500   -129.3426      8.2940      9.1637      8.7660    153.4752
  1715.0000   -130.1841      8.2032      8.9906      8.6225    150.2394
  1715.2500   -130.6799      8.1222      8.8089      8.4317    148.3198
  1715.5000   -130.8742      8.0506      8.6259      8.2042    147.2930
  1715.7500   -130.8386      7.9879      8.4497      7.9537    147.6525
  1716.0000   -130.6541      7.9333      8.2876      7.6966    147.9373
  1716.2500   -130.3928      7.8865      8.1457      7.4518    147.2460
  1716.5000   -130.1144      7.8476      8.0281      7.2387    145.4737
  1716.7500   -129.8574      7.8171      7.9372      7.0743    144.5821
  1717.0000   -129.6411      7.7955      7.8741      6.9692    144.1404
  1717.2500   -129.4625      7.7836      7.8388      6.9268    144.1339
  1717.5000   -129.2925      7.7818      7.8303      6.9437    143.9430
  1717.7500   -129.0762      7.7906      7.8477      7.0142    143.4965
  1718.0000   -128.7391      7.8101      7.8894      7.1328    142.0771
  1718.2500   -128.2018      7.8405      7.9539      7.2958    140.6001
  1718.5000   -127.4034      7.8823      8.0397      7.4987    138.2513
  1718.7500   -126.3219      7.9361      8.1453      7.7350    137.2934
  1719.0000   -124.9892      8.0033      8.2690      7.9957    137.3628
  1719.2500   -123.4892      8.0851      8.4089      8.2721    137.9918
  1719.5000   -121.9473      8.1828      8.5632      8.5598    138.4544
  1719.7500   -120.5065      8.2974      8.7300      8.8605    137.9456
  1720.0000   -119.3060      8.4291      8.9074      9.1808    136.0027
  1720.2500   -118.4574      8.5770      9.0935      9.5272    134.3571
  1720.5000   -118.0342      8.7392      9.2871      9.9031    132.6396
  1720.7500   -118.0524      8.9131      9.4872     10.3070    132.6619
  1721.0000   -118.4679      9.0952      9.6931     10.7345    134.1938
  1721.2500   -119.1794      9.2823      9.9044     11.1802    135.1067
  1721.5000   -120.0386      9.4716     10.1205     11.6376    134.2129
  1721.7500   -120.8831      9.6611     10.3408     12.0950    131.6821
  1722.0000   -121.5701      9.8501     10.5643     12.5320    126.0778
  1722.2500   -122.0054     10.0390     10.7897     12.9204    122.3894
  1722.5000   -122.1657     10.2292     11.0160     13.2299    118.7765
  1722.7500   -122.0910     10.4225     11.2423     13.4407    118.0259
  1723.0000   -121.8764     10.6215     11.4691     13.5530    119.0232
  1723.2500   -121.6408     10.8291     11.6980     13.5916    120.8112
  1723.5000   -121.5000     11.0490     11.9322     13.6007    124.9656
  1723.7500   -121.5440     11.2857     12.1761     13.6314    128.4241
  1724.0000   -121.8241     11.5443     12.4353     13.7294    133.1758
  1724.2500   -122.3445     11.8305     12.7160     13.9264    134.9198
  1724.5000   -123.0638     12.1498     13.0247     14.2389    134.4944
  1724.7500   -123.9010     12.5067     13.3682     14.6748    132.7100
  1725.0000   -124.7483     12.9042     13.7530     15.2388    129.6661
  1725.2500   -125.4884     13.3428     14.1856     15.9377    128.2468
  1725.5000   -126.0137     13.8206     14.6716     16.7821    127.2052
  1725.7500   -126.2402     14.3335     15.2159     17.7862    126.6952
  1726.0000   -126.1228     14.8752     15.8216     18.9677    125.0827
  1726.2500   -125.6665     15.4394     16.4908     20.3492    123.1737
  1726.5000   -124.9295     16.0205     17.2238     21.9564    119.4580
  1726.7500   -124.0252     16.6155     18.0198     23.8122    116.7899
  1727.0000   -123.1094     17.2243     18.8777     25.9288    112.6370
  1727.2500   -122.3591     17.8502     19.7968     28.2994    109.5132
