~Version Information
VERS.                      2.0: CWLS Log ASCII Standard - VERSION 2.0
WRAP.                       NO: One line per depth step
~Well Information Block
STRT.FT               860.0000: 
STOP.FT              2733.7500: 
STEP.FT                 0.2500: 
NULL.                -999.2500: 
COMP.          Pioneer Natural Resources: COMPANY
WELL.          Beacon 11-18 Tr: WELL
FLD.           Purgatoire River: FIELD
LOC.           409' FNL & 203' FWL: LOCATION
PROV.                 Colorado: PROVINCE
CNTY.               Las Animas: COUNTRY
SRVC.                Patterson: SERVICE COMPANY
DATE.          Sun Jan 16 19:36:19 2005: LOG DATE
UWI.           05 071 08251 00: UNIQUE WELL ID
~Curve Information Block
DEPT.FT            0 000 00 00: Depth
SN.Ohm-m                      : IEL Short Normal
SP.mV                         : IEL Spontaneous Potential
DIR.Ohm-m                     : IEL Induction Resistivity
GR.GAPI                       : Gamma Ray
~Parameter Information Block
~A  Depth        SN          SP         DIR          GR     
# ...
  2702.5000     10.7407     -8.9545     10.0044      3.9835
  2702.7500     10.7429     -9.1924      9.9222      1.4815
  2703.0000     10.7543     -9.4316      9.8695      0.2543
  2703.2500     10.7709     -9.6799      9.8368      0.0634
  2703.5000     10.7915     -9.9353      9.8194      0.0038
  2703.7500     10.8197    -10.1883      9.8169   -999.2500
  2704.0000     10.8633    -10.4254      9.8313   -999.2500
  2704.2500     10.9300    -10.6317      9.8653   -999.2500
  2704.5000     11.0209    -10.7928      9.9216   -999.2500
  2704.7500     11.1306    -10.8943     10.0042   -999.2500
  2705.0000     11.2556    -10.9224     10.1186   -999.2500
  2705.2500     11.4003    -10.8653     10.2703   -999.2500
  2705.5000     11.5718    -10.7165     10.4622   -999.2500
  2705.7500     11.7704    -10.4804     10.6956   -999.2500
  2706.0000     11.9901    -10.1750     10.9740   -999.2500
  2706.2500     12.2272     -9.8323     11.3072   -999.2500
  2706.5000     12.4926     -9.4933     11.7086   -999.2500
  2706.7500     12.8163     -9.1993     12.1883   -999.2500
  2707.0000     13.2418     -8.9836     12.7474   -999.2500
  2707.2500     13.8107     -8.8656     13.3794   -999.2500
  2707.5000     14.5448     -8.8504     14.0772   -999.2500
  2707.7500     15.4353     -8.9316     14.8397   -999.2500
  2708.0000     16.4434     -9.0970     15.6735   -999.2500
  2708.2500     17.5150     -9.3322     16.5870   -999.2500
  2708.5000     18.6035     -9.6221     17.5788   -999.2500
  2708.7500     19.6855     -9.9508     18.6260   -999.2500
  2709.0000     20.7519    -10.3005     19.6839   -999.2500
  2709.2500     21.7796    -10.6530     20.6948   -999.2500
  2709.5000     22.7053    -10.9926     21.5994   -999.2500
  2709.7500     23.4255    -11.3102     22.3353   -999.2500
  2710.0000     23.8297    -11.6052     22.8298   -999.2500
  2710.2500     23.8493    -11.8847     23.0083   -999.2500
  2710.5000     23.4936    -12.1603     22.8339   -999.2500
  2710.7500     22.8474    -12.4437     22.3511   -999.2500
  2711.0000     22.0342    -12.7429     21.6824   -999.2500
  2711.2500     21.1697    -13.0607     20.9690   -999.2500
  2711.5000     20.3317    -13.3961     20.3018   -999.2500
  2711.7500     19.5514    -13.7458     19.6975   -999.2500
  2712.0000     18.8208    -14.1070     19.1217   -999.2500
  2712.2500     18.1130    -14.4775     18.5329   -999.2500
  2712.5000     17.4058    -14.8545     17.9146   -999.2500
  2712.7500     16.7001    -15.2323     17.2817   -999.2500
  2713.0000     16.0218    -15.6010     16.6675   -999.2500
  2713.2500     15.4087    -15.9480     16.1066   -999.2500
  2713.5000     14.8920    -16.2611     15.6237   -999.2500
  2713.7500     14.4839    -16.5330     15.2288   -999.2500
  2714.0000     14.1783    -16.7633     14.9176   -999.2500
  2714.2500     13.9587    -16.9585     14.6737   -999.2500
  2714.5000     13.8023    -17.1294     14.4719   -999.2500
  2714.7500     13.6780    -17.2866     14.2826   -999.2500
  2715.0000     13.5512    -17.4376     14.0772   -999.2500
  2715.2500     13.3981    -17.5855     13.8351   -999.2500
  2715.5000     13.2142    -17.7295     13.5502   -999.2500
  2715.7500     13.0070    -17.8679     13.2324   -999.2500
  2716.0000     12.7862    -18.0007     12.9036   -999.2500
  2716.2500     12.5620    -18.1307     12.5894   -999.2500
  2716.5000     12.3455    -18.2631     12.3107   -999.2500
  2716.7500     12.1466    -18.4037     12.0770   -999.2500
  2717.0000     11.9690    -18.5569     11.8830   -999.2500
  2717.2500     11.8096    -18.7241     11.7104   -999.2500
  2717.5000     11.6622    -18.9040     11.5331   -999.2500
  2717.7500     11.5224    -19.0929     11.3299   -999.2500
  2718.0000     11.3892    -19.2855     11.0960   -999.2500
  2718.2500     11.2659    -19.4748     10.8490   -999.2500
  2718.5000     11.1606    -19.6528     10.6209   -999.2500
  2718.7500     11.0854    -19.8112     10.4433   -999.2500
  2719.0000     11.0523    -19.9424     10.3339   -999.2500
  2719.2500     11.0647    -20.0403     10.2935   -999.2500
  2719.5000     11.1127    -20.1010     10.3090   -999.2500
  2719.7500     11.1751    -20.1222     10.3613   -999.2500
  2720.0000     11.2265    -20.1027     10.4328   -999.2500
  2720.2500     11.2496    -20.0420     10.5134   -999.2500
  2720.5000     11.2456    -19.9401     10.6039   -999.2500
  2720.7500     11.2336    -19.7976     10.8155   -999.2500
  2721.0000     11.2369    -19.6171     10.9597   -999.2500
  2721.2500     11.2706    -19.4038     11.1436   -999.2500
  2721.5000     11.3397    -19.1657     11.3634   -999.2500
  2721.7500     11.4408    -18.9128     11.6040   -999.2500
  2722.0000     11.5613    -18.6553     11.8436   -999.2500
  2722.2500     11.6800    -18.4008     12.0614   -999.2500
  2722.5000     11.7718    -18.1535     12.2421   -999.2500
  2722.7500     11.8146    -17.9137     12.3816   -999.2500
  2723.0000     11.7978    -17.6802     12.4984   -999.2500
  2723.2500     11.7276    -17.4529     12.6544   -999.2500
  2723.5000     11.6226    -17.2347     12.9835   -999.2500
  2723.7500     11.5025    -17.0327     13.7291   -999.2500
  2724.0000     11.3790    -16.8568     15.3171   -999.2500
  2724.2500     11.2565    -16.7177     18.2289   -999.2500
  2724.5000     11.1385    -16.6245     24.8202   -999.2500
  2724.7500     11.0368    -16.5827     40.5141   -999.2500
  2725.0000     10.9718    -16.5930     94.8293   -999.2500
  2725.2500     10.9573    -16.6503 100000.0000   -999.2500
  2725.5000     10.9824    -16.7443 100000.0000   -999.2500
  2725.7500     11.0181    -16.8606 100000.0000   -999.2500
  2726.0000     11.0445    -16.9837 100000.0000   -999.2500
  2726.2500     11.0692    -17.1004 100000.0000   -999.2500
  2726.5000     11.1159    -17.2008 100000.0000   -999.2500
  2726.7500     11.2028    -17.2749 100000.0000   -999.2500
  2727.0000     11.3365    -17.3030 100000.0000   -999.2500
  2727.2500     11.5165    -17.2422 100000.0000   -999.2500
  2727.5000     11.7374    -17.0152 100000.0000   -999.2500
  2727.7500     11.9866    -16.5108 100000.0000   -999.2500
  2728.0000     12.2334    -15.6077 100000.0000   -999.2500
  2728.2500     12.3986    -14.2200 100000.0000   -999.2500
  2728.5000     12.3018    -12.3494 100000.0000   -999.2500
  2728.7500     11.6462    -10.1164 100000.0000   -999.2500
  2729.0000     10.1482     -7.7444 100000.0000   -999.2500
  2729.2500      7.8105     -5.4962 100000.0000   -999.2500
  2729.5000      5.0819     -3.5925 100000.0000   -999.2500
  2729.7500      2.6399     -2.1511 100000.0000   -999.2500
  2730.0000      0.9495     -1.1748 100000.0000   -999.2500
  2730.2500      0.0412     -0.5832 100000.0000   -999.2500
  2730.5000     -0.3383     -0.2624 100000.0000   -999.2500
  2730.7500     -0.4617     -0.1067 100000.0000   -999.2500
  2731.0000     -0.4929     -0.0391 100000.0000   -999.2500
  2731.2500     -0.4991     -0.0128 100000.0000   -999.2500
  2731.5000   -999.2500     -0.0036 100000.0000   -999.2500
  2731.7500   -999.2500     -0.0008  26813.9492   -999.2500
  2732.0000   -999.2500   -999.2500   2506.6450   -999.2500
  2732.2500   -999.2500   -999.2500   1650.7971   -999.2500
  2732.5000   -999.2500   -999.2500   1415.5935   -999.2500
  2732.7500   -999.2500   -999.2500   1336.6724   -999.2500
  2733.0000   -999.2500   -999.2500   1310.8691   -999.2500
  2733.2500   -999.2500   -999.2500   1303.2991   -999.2500
  2733.5000   -999.2500   -999.2500   1301.3711   -999.2500
  2733.7500   -999.2500   -999.2500 100000.0000   -999.2500
