~Version Information
VERS.                      2.0: CWLS Log ASCII Standard - VERSION 2.0
WRAP.                       NO: One line per depth step
~Well Information Block
STRT.FT                -2.2500: 
STOP.FT              1676.7500: 
STEP.FT                 0.2500: 
NULL.                -999.2500: 
COMP.          Pioneer Natural Resources: COMPANY
WELL.              Patten 22-2: WELL
FLD.           Purgatoire River: FIELD
LOC.           2157' FNL & 1528' FWL: LOCATION
PROV.                 Colorado: PROVINCE
CNTY.               Las Animas: COUNTRY
SRVC.                Patterson: SERVICE COMPANY
DATE.          Tue Dec 14 11:45:47 2004: LOG DATE
UWI.           05 071 08168 00: UNIQUE WELL ID
~Curve Information Block
DEPT.FT            0 000 00 00: Depth
GR.GAPI                       : Gamma Ray
CCL.                          : Casing Collar Locator
TT3.usec                      : CBL 3' Travel Time
AMP3.mV                       : CBL 3' Amplitude
~Parameter Information Block
~A  Depth        GR         CCL         TT3         AMP3    
# ...
  1404.7500     64.2069      0.0000    649.6318      3.2258
  1405.0000     65.3305      0.0000    653.4847      3.2333
  1405.2500     66.2171      0.0000    656.7457      3.2355
  1405.5000     66.2879      0.0000    658.8208      3.2344
  1405.7500     64.9149      0.0000    659.9183      3.2356
  1406.0000     62.2170      0.0000    660.4845      3.2466
  1406.2500     59.2441      0.0000    660.8271      3.2726
  1406.5000     57.3107      0.0000    661.0829      3.3109
  1406.7500     57.2245      0.0000    661.3333      3.3495
  1407.0000     59.0224      0.0000    661.7247      3.3727
  1407.2500     62.1380      0.0000    662.5400      3.3713
  1407.5000     65.6384      0.0000    664.2114      3.3465
  1407.7500     68.3799      0.0000    667.1552      3.3055
  1408.0000     69.2785      0.0000    671.2288      3.2542
  1408.2500     67.8840      0.0000    675.1357      3.1951
  1408.5000     64.9624      0.0000    676.7838      3.1308
  1408.7500     62.3187      0.0000    674.8856      3.0686
  1409.0000     61.6918      0.0000    670.2521      3.0190
  1409.2500     63.5609      0.0000    665.2332      2.9920
  1409.5000     66.7568      0.0000    661.9111      2.9960
  1409.7500     69.1088      0.0000    660.8475      3.0355
  1410.0000     68.8230      0.0000    661.2542      3.1064
  1410.2500     65.7738      0.0000    662.0753      3.1943
  1410.5000     61.6877      0.0000    662.9044      3.2803
  1410.7500     58.9506      0.0000    664.1866      3.3496
  1411.0000     58.9337      0.0000    666.9174      3.3966
  1411.2500     61.2066      0.0000    672.0339      3.4257
  1411.5000     64.1681      0.0000    679.5355      3.4478
  1411.7500     66.3171      0.0000    687.9524      3.4729
  1412.0000     67.0242      0.0000    695.0226      3.5033
  1412.2500     66.5112      0.0000    699.1417      3.5339
  1412.5000     65.4789      0.0000    700.0411      3.5607
  1412.7500     64.6995      0.0000    698.5340      3.5896
  1413.0000     64.6660      0.0000    696.5307      3.6389
  1413.2500     65.5404      0.0000    697.0388      3.7321
  1413.5000     67.4467      0.0000    702.6716      3.8873
  1413.7500     70.6796      0.0000    713.3698      4.1044
  1414.0000     75.3930      0.0000    726.0154      4.3639
  1414.2500     81.1304      0.0000    736.4653      4.6394
  1414.5000     86.8430      0.0000    741.6268      4.9161
  1414.7500     91.2955      0.0000    739.8979      5.1963
  1415.0000     93.5089      0.0000    731.1088      5.4957
  1415.2500     93.2363      0.0000    717.5062      5.8344
  1415.5000     91.1885      0.0000    704.7144      6.2125
  1415.7500     88.4976      0.0000    699.6691      6.5788
  1416.0000     85.8313      0.0000    705.7589      6.8438
  1416.2500     83.2438      0.0000    720.1080      6.9498
  1416.5000     80.9416      0.0000    735.8866      6.9196
  1416.7500     79.9428     -2.0000    746.6145      6.8203
  1417.0000     81.5409      2.0000    748.1174      6.7000
  1417.2500     85.7723      2.0000    738.8039      6.5735
  1417.5000     90.6682     -2.0000    721.2085      6.4447
  1417.7500     93.6157      0.0000    703.5457      6.3228
  1418.0000     93.5352      0.0000    696.2239      6.2290
  1418.2500     91.5551      0.0000    703.3400      6.1881
  1418.5000     89.7767      0.0000    718.1487      6.1896
  1418.7500     89.6926      0.0000    729.2912      6.1660
  1419.0000     91.4160      0.0000    731.2770      6.0475
  1419.2500     93.7648      0.0000    727.3521      5.8425
  1419.5000     95.0849      0.0000    723.2972      5.6338
  1419.7500     94.3834      0.0000    721.0714      5.4972
  1420.0000     91.7482      0.0000    718.9927      5.4430
  1420.2500     87.9136      0.0000    715.9050      5.4296
  1420.5000     83.9252      0.0000    713.0953      5.4088
  1420.7500     81.0387      0.0000    712.2726      5.3551
  1421.0000     80.1720      0.0000    713.0018      5.2697
  1421.2500     81.3681      0.0000    712.9208      5.1667
  1421.5000     84.0893      0.0000    710.0422      5.0530
  1421.7500     87.6177      0.0000    704.7200      4.9201
  1422.0000     90.8770      0.0000    699.7827      4.7535
  1422.2500     92.6886      0.0000    699.0001      4.5486
  1422.5000     92.8933      0.0000    704.9245      4.3164
  1422.7500     92.7353      0.0000    717.7567      4.0790
  1423.0000     93.5974      0.0000    735.7000      3.8596
  1423.2500     95.4257      0.0000    755.0915      3.6716
  1423.5000     96.4376      0.0000    769.7437      3.5169
  1423.7500     94.2626      0.0000    772.4192      3.3927
  1424.0000     87.5783      0.0000    759.8270      3.3013
  1424.2500     77.1515      0.0000    736.4336      3.2525
  1424.5000     65.5829      0.0000    712.0592      3.2573
  1424.7500     56.0818      0.0000    695.4103      3.3224
  1425.0000     51.2129      0.0000    689.7756      3.4494
  1425.2500     52.1040      0.0000    693.2228      3.6394
  1425.5000     58.0683      0.0000    700.9116      3.8935
  1425.7500     66.8925      0.0000    707.2652      4.2079
  1426.0000     75.9504      0.0000    707.9917      4.5715
  1426.2500     83.4017      0.0000    701.8633      4.9716
  1426.5000     88.5337      0.0000    691.0038      5.4006
  1426.7500     91.3192      0.0000    679.7855      5.8482
  1427.0000     92.0259      0.0000    673.5991      6.2900
  1427.2500     91.1844      0.0000    676.9763      6.6898
  1427.5000     89.4671      0.0000    690.0769      7.0146
  1427.7500     87.2907      0.0000    706.5518      7.2471
  1428.0000     84.7134      0.0000    716.7491      7.3914
  1428.2500     81.7803      0.0000    714.6528      7.4706
  1428.5000     78.6933      0.0000    702.1897      7.5151
  1428.7500     75.6703      0.0000    686.9267      7.5444
  1429.0000     72.8895      0.0000    675.8344      7.5607
  1429.2500     70.4363      0.0000    671.1350      7.5587
  1429.5000     68.1635      0.0000    670.9350      7.5374
  1429.7500     66.0182      0.0000    672.3183      7.5059
  1430.0000     64.6221      0.0000    673.5372      7.4833
  1430.2500     64.8713      0.0000    674.2321      7.4958
  1430.5000     66.6879      0.0000    674.6869      7.5670
  1430.7500     68.7527      0.0000    675.1992      7.7051
  1431.0000     69.7633      0.0000    675.9097      7.8997
  1431.2500     69.4030      0.0000    676.9297      8.1305
  1431.5000     68.0085      0.0000    678.4559      8.3804
  1431.7500     66.0689      0.0000    680.6843      8.6397
  1432.0000     64.2270      0.0000    683.4568      8.9000
  1432.2500     63.0041      0.0000    686.0266      9.1478
  1432.5000     62.3388      0.0000    687.5540      9.3644
  1432.7500     61.8871      0.0000    688.2862      9.5322
  1433.0000     61.6208      0.0000    690.1522      9.6361
  1433.2500     61.5464      0.0000    695.6432      9.6585
  1433.5000     61.1181      0.0000    705.7669      9.5749
  1433.7500     59.6367      0.0000    719.1272      9.3660
  1434.0000     57.1414      0.0000    732.9368      9.0398
  1434.2500     54.5591      0.0000    744.6000      8.6412
  1434.5000     53.1726      0.0000    752.2439      8.2344
  1434.7500     53.9463      0.0000    754.5590      7.8732
  1435.0000     56.8784      0.0000    751.3181      7.5807
  1435.2500     60.8449      0.0000    744.3516      7.3514
  1435.5000     64.2850      0.0000    737.2045      7.1695
  1435.7500     66.0349      0.0000    732.9625      7.0267
  1436.0000     65.6572      0.0000    732.4618      6.9248
  1436.2500     63.4937      0.0000    734.8467      6.8649
  1436.5000     60.5580      0.0000    739.2253      6.8415
  1436.7500     58.0005      0.0000    745.0591      6.8469
  1437.0000     56.4690      0.0000    751.3536      6.8718
  1437.2500     55.9963      0.0000    756.4415      6.9007
  1437.5000     56.3019      0.0000    758.9095      6.9120
  1437.7500     56.9852      0.0000    758.5458      6.8865
  1438.0000     57.5517      0.0000    756.2676      6.8196
