~Version Information
VERS.                      2.0: CWLS Log ASCII Standard - VERSION 2.0
WRAP.                       NO: One line per depth step
~Well Information Block
STRT.FT               418.4000: 
STOP.FT              1170.0000: 
STEP.FT                 0.1000: 
NULL.                -999.2500: 
COMP.          Evergreen Operating Corporation: COMPANY
WELL.             Bernice 21-3: WELL
FLD.           Purgatoire River: FIELD
LOC.           201' FNL & 2575' FWL: LOCATION
PROV.                 Colorado: PROVINCE
CNTY.               Las Animas: COUNTRY
SRVC.                Patterson: SERVICE COMPANY
DATE.          Mon Jan 26 14:55:16 2004: LOG DATE
UWI.             05 071 07912 : UNIQUE WELL ID
~Curve Information Block
DEPT.FT            0 000 00 00: Depth
DCAL.in                       : CDL Caliper
RHOB.g/cc                     : CDL Bulk Density
RHOC.g/cc                     : CDL Density Correction
DPOR.pu                       : CDL Density Porosity
NPOR.pu                       : Neutron Porosity
GR.GAPI                       : Gamma Ray
~Parameter Information Block
~A  Depth       DCAL        RHOB        RHOC        DPOR        NPOR         GR     
# ...
   764.0000      8.0060      2.4808      0.0360     10.2535     22.9606     85.6262
   764.1000      8.0060      2.4660      0.0131     11.1537     27.0038     83.8892
   764.2000      8.0060      2.4670      0.0264     11.0923     26.9087     84.6215
   764.3000      7.9874      2.4805      0.0316     10.2739     27.5341     88.1276
   764.4000      7.9874      2.4947      0.0568      9.4118     32.0547     89.5866
   764.5000      7.9680      2.4983      0.0453      9.1969     34.1431     88.5642
   764.6000      7.9680      2.4896      0.0508      9.7238     31.8024     87.6778
   764.7000      7.9680      2.4772      0.0246     10.4725     30.7890     84.9480
   764.8000      7.9474      2.4683      0.0469     11.0118     31.9140     79.1801
   764.9000      7.9474      2.4567      0.0576     11.7163     30.9969     75.1503
   765.0000      7.9439      2.4383      0.0212     12.8328     25.3143     76.2019
   765.1000      7.9439      2.4266     -0.0178     13.5365     17.1721     78.4874
   765.2000      7.9439      2.4264      0.0357     13.5503     14.5548     78.9694
   765.3000      7.9476      2.4233      0.0207     13.7407     20.7271     79.2229
   765.4000      7.9476      2.4121     -0.0116     14.4157     28.2658     80.8541
   765.5000      7.9461      2.3992     -0.0004     15.1979     28.5840     79.9495
   765.6000      7.9461      2.3966     -0.0338     15.3598     26.3280     72.4646
   765.7000      7.9461      2.4146      0.0193     14.2651     26.0253     64.1256
   765.8000      7.8916      2.4441      0.0641     12.4806     26.5574     63.7185
   765.9000      7.8916      2.4705      0.0574     10.8779     27.5207     68.0513
   766.0000      7.9708      2.4912      0.0811      9.6216     28.6469     67.6199
   766.1000      7.9708      2.5054      0.0858      8.7662     28.5211     62.8958
   766.2000      7.9708      2.5139      0.0817      8.2503     28.2052     59.6593
   766.3000      7.9487      2.5222      0.1182      7.7430     29.0741     60.8223
   766.4000      7.9487      2.5355      0.0835      6.9373     30.1717     64.3800
   766.5000      7.9905      2.5520      0.0744      5.9377     30.0664     67.0424
   766.6000      7.9905      2.5601      0.0886      5.4478     27.5274     67.5290
   766.7000      7.9905      2.5573      0.0630      5.6163     23.6006     64.9132
   766.8000      8.0509      2.5588      0.0452      5.5285     23.0022     63.5485
   766.9000      8.0509      2.5724      0.0701      4.7025     26.1043     69.0418
   767.0000      8.1213      2.5886      0.0672      3.7192     28.2004     78.1505
   767.1000      8.1213      2.5993      0.0481      3.0747     27.4455     87.5555
   767.2000      8.1213      2.6138      0.0150      2.1961     24.7610     96.1973
   767.3000      8.0921      2.6383      0.0560      0.7073     23.7210     96.6917
   767.4000      8.0921      2.6555      0.0690     -0.3319     26.9293     90.8335
   767.5000      8.0928      2.6495      0.0541      0.0319     30.2487     90.1411
   767.6000      8.0928      2.6261      0.0246      1.4506     31.1714     94.7140
   767.7000      8.0928      2.6052      0.0106      2.7127     32.8440     95.7227
   767.8000      8.0912      2.6019      0.0395      2.9143     34.0435     92.0222
   767.9000      8.0912      2.6118      0.0187      2.3143      7.4712     91.9500
   768.0000      8.1030      2.6192      0.0430      1.8674      6.4696    100.3101
   768.1000      8.1030      2.6127      0.0047      2.2604      7.2017    112.1472
   768.2000      8.1030      2.6018     -0.0149      2.9199      7.7350    119.8350
   768.3000      8.0901      2.6020      0.0047      2.9077      8.7371    120.2485
   768.4000      8.0901      2.6109      0.0168      2.3684     10.8404    116.5392
   768.5000      8.1006      2.6210     -0.0046      1.7582     11.0827    116.6218
   768.6000      8.1006      2.6296      0.0237      1.2335      9.6894    121.5781
   768.7000      8.1006      2.6273      0.0091      1.3776      8.2073    124.7197
   768.8000      8.0894      2.6041      0.0009      2.7815      6.9499    124.3763
   768.9000      8.0894      2.5716     -0.0409      4.7534      7.5057    123.1426
   769.0000      8.0920      2.5553     -0.0389      5.7367     10.0711    121.0912
   769.1000      8.0920      2.5657     -0.0285      5.1079     11.7297    117.6393
   769.2000      8.0920      2.5927     -0.0063      3.4730     10.3032    111.9687
   769.3000      8.0866      2.6203      0.0020      1.8009      7.7116    105.2248
   769.4000      8.0866      2.6327      0.0297      1.0504      6.6800    102.9318
   769.5000      8.0729      2.6263     -0.0037      1.4359      7.2913    106.6705
   769.6000      8.0729      2.6153     -0.0158      2.1050      7.4335    109.3842
   769.7000      8.0729      2.6104     -0.0148      2.3985      6.7326    107.0556
   769.8000      8.0655      2.6127     -0.0082      2.2577      6.1502    106.1708
   769.9000      8.0655      2.6224      0.0086      1.6738      6.4083    111.4824
   770.0000      8.0595      2.6313      0.0248      1.1338      8.1844    117.0869
   770.1000      8.0595      2.6260      0.0076      1.4522     10.6789    115.8237
   770.2000      8.0595      2.6049      0.0221      2.7359     12.5376    109.5760
   770.3000      8.0528      2.5823     -0.0171      4.1055     12.8997    105.5716
   770.4000      8.0528      2.5765     -0.0237      4.4570     12.2167    104.3628
   770.5000      8.0551      2.5841      0.0534      3.9926     11.2431    101.3042
   770.6000      8.0551      2.5873      0.0162      3.7996      9.2228     95.0926
   770.7000      8.0551      2.5851     -0.0251      3.9304      6.4747     86.7207
   770.8000      8.0528      2.5875     -0.0373      3.7865      5.4242     81.5860
   770.9000      8.0528      2.5885      0.0071      3.7262      7.1726     86.8861
   771.0000      8.0521      2.5809     -0.0372      4.1876      9.9682     98.3393
   771.1000      8.0521      2.5794     -0.0201      4.2809     10.3127    102.8704
   771.2000      8.0521      2.5890      0.0401      3.6967     10.1314     98.2650
   771.3000      8.0438      2.5942      0.0454      3.3833     11.3438     96.3322
   771.4000      8.0438      2.5903      0.0034      3.6186     12.6142    102.1016
   771.5000      8.0359      2.5766      0.0439      4.4494     12.0822    105.1270
   771.6000      8.0359      2.5477      0.0315      6.1995     10.0256     98.0982
   771.7000      8.0359      2.5094      0.0257      8.5230      9.2905     90.5777
   771.8000      8.0456      2.4715      0.0177     10.8159     11.1104     91.4528
   771.9000      8.0456      2.4443     -0.0083     12.4662     12.4174     95.9315
   772.0000      8.0790      2.4359      0.0263     12.9750     12.0249    102.0311
   772.1000      8.0790      2.4400      0.0509     12.7243     12.8283    115.2380
   772.2000      8.0790      2.4485      0.0410     12.2092     13.7248    130.4815
   772.3000      8.1710      2.4663      0.0636     11.1332     12.4900    134.1610
   772.4000      8.1710      2.5009      0.0626      9.0342     12.2042    124.4662
   772.5000      8.2097      2.5470      0.1505      6.2396     14.2448    113.9264
   772.6000      8.2097      2.5839      0.1949      4.0087     15.7441    107.8640
   772.7000      8.2097      2.5924      0.2016      3.4897     15.3649    103.7338
   772.8000      8.2645      2.5731      0.1606      4.6602     14.4820    105.0824
   772.9000      8.2645      2.5443      0.1175      6.4032     13.6967    113.0382
   773.0000      8.2905      2.5157      0.1096      8.1422     12.7922    119.0393
   773.1000      8.2905      2.4886     -0.0142      9.7840     12.0895    115.0104
   773.2000      8.2905      2.4794     -0.0219     10.3370     12.2440    103.4922
   773.3000      8.2068      2.4984     -0.0072      9.1868     12.9189     93.1053
   773.4000      8.2068      2.5307      0.0008      7.2288     12.3995     88.7341
   773.5000      8.2325      2.5504      0.0585      6.0345     10.2220     89.6933
