~Version Information
VERS.                      2.0: CWLS Log ASCII Standard - VERSION 2.0
WRAP.                       NO: One line per depth step
~Well Information Block
STRT.FT               -11.0000: 
STOP.FT              1523.2500: 
STEP.FT                 0.2500: 
NULL.                -999.2500: 
COMP.          Petrogulf Corporation: COMPANY
WELL.             State 16-43R: WELL
FLD.           Purgatorie River: FIELD
LOC.           2538' FSL & 716' FEL--: LOCATION
PROV.                       CO: PROVINCE
CNTY.               Las Animas: COUNTRY
SRVC.          Patterson Wireline: SERVICE COMPANY
DATE.          Fri Sep 09 13:13:52 2005: LOG DATE
UWI.           05 071 08338 00: UNIQUE WELL ID
~Curve Information Block
DEPT.FT            0 000 00 00: Depth
CCL.                          : Casing Collar Locator
TT3.usec                      : CBL 3' Travel Time
AMP3.mV                       : CBL 3' Amplitude
GR.GAPI                       : Gamma Ray
~Parameter Information Block
~A  Depth       CCL         TT3         AMP3         GR     
# ...
    89.5000      0.0000    407.5851     13.1229     88.4512
    89.7500      0.0000    415.1458     13.0994     89.3635
    90.0000      0.0000    419.5675     13.0641     85.7178
    90.2500      0.0000    419.7412     13.0185     79.1907
    90.5000      0.0000    417.1616     12.9706     73.4342
    90.7500      0.0000    414.0450     12.9298     71.6991
    91.0000      0.0000    411.7881     12.9017     75.2332
    91.2500      0.0000    410.7709     12.8867     82.7260
    91.5000      0.0000    411.1057     12.8810     90.8023
    91.7500      0.0000    413.2181     12.8816     95.9610
    92.0000      0.0000    417.6577     12.8881     97.0347
    92.2500      0.0000    424.3236     12.9004     95.8783
    92.5000      0.0000    431.9673     12.9138     95.4261
    92.7500      0.0000    438.6869     12.9190     97.0714
    93.0000      0.0000    443.0027     12.9067     99.9043
    93.2500      0.0000    444.3171     12.8714    102.2115
    93.5000      0.0000    442.4891     12.8142    103.2240
    93.7500      0.0000    437.5025     12.7464    103.1486
    94.0000      0.0000    429.8962     12.6876    102.0421
    94.2500      0.0000    421.2457     12.6557     99.6025
    94.5000      0.0000    413.6647     12.6570     96.1093
    94.7500      0.0000    408.6076     12.6830     92.6240
    95.0000      0.0000    406.2312     12.7176     89.7747
    95.2500      0.0000    405.7857     12.7473     87.0073
    95.5000      0.0000    406.3525     12.7703     83.6785
    95.7500      0.0000    407.2553     12.7981     80.4724
    96.0000      0.0000    408.1140     12.8480     78.9863
    96.2500      0.0000    408.7627     12.9292     79.9350
    96.5000      0.0000    409.1216     13.0361     82.3600
    96.7500      0.0000    409.0287     13.1534     84.7834
    97.0000      0.0000    408.0700     13.2677     86.6282
    97.2500      0.0000    405.5617     13.3739     88.3434
    97.5000      0.0000    400.9146     13.4699     90.5792
    97.7500      0.0000    394.3123     13.5498     93.3966
    98.0000      0.0000    387.0799     13.6052     96.0080
    98.2500      0.0000    381.1544     13.6345     97.1992
    98.5000      0.0000    378.0653     13.6488     96.2699
    98.7500      0.0000    378.3884     13.6643     93.8002
    99.0000      0.0000    381.7960     13.6889     91.4147
    99.2500      0.0000    387.0470     13.7178     90.5511
    99.5000      0.0000    391.9449     13.7405     91.2614
    99.7500      0.0000    394.0803     13.7514     91.9540
   100.0000      0.0000    392.3212     13.7509     90.4687
   100.2500      0.0000    387.6359     13.7405     86.1354
   100.5000      0.0000    382.2533     13.7213     81.1352
   100.7500      0.0000    378.0129     13.6968     79.3709
   101.0000      0.0000    375.4886     13.6759     83.3969
   101.2500      0.0000    374.3140     13.6673     92.1734
   101.5000      0.0000    373.9055     13.6719    101.8373
   101.7500      0.0000    373.8555     13.6803    108.7257
   102.0000      0.0000    373.9534     13.6799    111.4801
   102.2500      0.0000    374.0922     13.6623    110.6169
   102.5000      0.0000    374.2158     13.6275    107.3025
   102.7500      0.0000    374.3110     13.5811    103.0348
   103.0000      0.0000    374.4110     13.5302     99.5293
   103.2500      0.0000    374.5760     13.4802     97.8528
   103.5000      0.0000    374.8596     13.4335     97.5503
   103.7500      0.0000    375.2769     13.3897     96.8513
   104.0000      0.0000    375.7879     13.3446     93.8904
   104.2500      0.0000    376.2964     13.2953     88.0528
   104.5000      0.0000    376.6825     13.2463     80.6286
   104.7500      0.0000    376.8669     13.2087     74.3054
   105.0000      0.0000    376.8696     13.1911     71.4973
   105.2500      0.0000    376.8065     13.1924     72.6746
   105.5000      0.0000    376.8230     13.2044     76.3955
   105.7500      0.0000    377.0192     13.2193     80.9062
   106.0000      0.0000    377.4174     13.2331     85.2392
   106.2500      0.0000    377.9725     13.2426     89.0277
   106.5000      0.0000    378.6194     13.2446     92.2507
   106.7500      0.0000    379.3422     13.2378     95.4036
   107.0000      0.0000    380.4720     13.2235     99.0584
   107.2500      0.0000    383.2657     13.2050    102.8620
   107.5000      0.0000    390.6689     13.1920    105.4660
   107.7500      0.0000    406.9620     13.2076    105.7698
   108.0000      0.0000    434.8014     13.2842    104.0631
   108.2500      0.0000    470.9996     13.4347    101.7566
   108.5000      0.0000    506.6007     13.6261    100.0789
   108.7500      0.0000    534.0764     13.7859     99.3101
   109.0000      0.0000    554.7081     13.8347     99.2557
   109.2500      0.0000    576.1595     13.7115     99.8981
   109.5000      0.0000    602.2369     13.4019    101.1532
   109.7500      0.0000    627.6859     12.9776    102.4272
   110.0000      0.0000    643.9229     12.5868    102.9999
   110.2500      0.0000    646.8704     12.3579    102.6877
   110.5000      0.0000    638.1151     12.3013    101.7906
   110.7500     -2.0000    621.8467     12.3137    100.6264
   111.0000      0.0000    602.4461     12.2620     99.2780
   111.2500      0.0000    582.8140     12.0783     97.6624
   111.5000      0.0000    563.0018     11.8172     95.8705
   111.7500      0.0000    539.8641     11.6348     94.4234
   112.0000      0.0000    509.1551     11.6761     93.7460
   112.2500      0.0000    470.0324     11.9668     93.2448
   112.5000      0.0000    428.0019     12.4190     91.5499
   112.7500      0.0000    392.1335     12.9119     88.1324
   113.0000      0.0000    369.0373     13.3451     84.3383
   113.2500      0.0000    359.5637     13.6576     82.3430
   113.5000      0.0000    360.0877     13.8407     83.0556
   113.7500      0.0000    365.5330     13.9275     85.2326
   114.0000      0.0000    371.7314     13.9574     86.6839
   114.2500      0.0000    376.6158     13.9544     86.2674
   114.5000      0.0000    380.3523     13.9327     84.6855
   114.7500      0.0000    384.7336     13.9091     83.5973
   115.0000      0.0000    391.8643     13.9013     84.1313
   115.2500      0.0000    401.9977     13.9182     86.0784
   115.5000      0.0000    411.7887     13.9545     88.2758
   115.7500      0.0000    415.8143     13.9970     89.9232
   116.0000      0.0000    411.3520     14.0364     91.6111
   116.2500      0.0000    401.2075     14.0717     94.7850
   116.5000      0.0000    390.9427     14.1058    100.0029
   116.7500      0.0000    384.1646     14.1400    105.9478
   117.0000      0.0000    381.1057     14.1719    110.3553
   117.2500      0.0000    380.4825     14.1968    111.7916
   117.5000      0.0000    381.4862     14.2111    110.4031
   117.7500      0.0000    384.4289     14.2145    107.2567
   118.0000      0.0000    390.1410     14.2064    103.4651
   118.2500      0.0000    398.3768     14.1812    100.0365
   118.5000      0.0000    406.3549     14.1314     97.8922
   118.7500      0.0000    409.8061     14.0601     97.1766
   119.0000      0.0000    406.5745     13.9870     96.3723
   119.2500      0.0000    398.7823     13.9363     92.8266
   119.5000      0.0000    390.6693     13.9198     84.8618
   119.7500      0.0000    384.8608     13.9319     73.4872
   120.0000      0.0000    381.0948     13.9591     61.8742
   120.2500      0.0000    377.5029     13.9921     53.1608
   120.5000      0.0000    372.3418     14.0335     48.6612
   120.7500      0.0000    365.1208     14.0926     47.7901
   121.0000      0.0000    356.8862     14.1700     49.0948
   121.2500      0.0000    349.4609     14.2475     51.0850
   121.5000      0.0000    344.1328     14.2973     52.5411
   121.7500      0.0000    341.0080     14.3036     52.9795
   122.0000      0.0000    339.4104     14.2735     53.1819
   122.2500      0.0000    338.6204     14.2250     54.8107
   122.5000      0.0000    338.2164     14.1714     59.1546
   122.7500      0.0000    338.0115     14.1184     66.4152
