~Version Information
VERS.                      2.0: CWLS Log ASCII Standard - VERSION 2.0
WRAP.                       NO: One line per depth step
~Well Information Block
STRT.FT                -9.0000: 
STOP.FT              2518.0000: 
STEP.FT                 0.2500: 
NULL.                -999.2500: 
COMP.          Petrogulf Corporation: COMPANY
WELL.            Montoya 7-12V: WELL
FLD.           Purgatorie River: FIELD
LOC.           1764' FNL & 728' FWL: LOCATION
CNTY.               Las Animas: COUNTY
SRVC.                         : SERVICE COMPANY
DATE.          Mon Mar 08 16:11:04 2004: LOG DATE
UWI.           05-071-07887-00: UNIQUE WELL ID
STAT.                 Colorado: STATE
~Curve Information Block
DEPT.FT            0 000 00 00: Depth
GR.GAPI                       : Gamma Ray
CCL.                          : Casing Collar Locator
TT3.usec                      : CBL 3' Travel Time
AMP3.mV                       : CBL 3' Amplitude
~Parameter Information Block
~A  Depth        GR         CCL         TT3         AMP3    
# ...
  1465.0000    112.4328      0.0000    625.4089      2.3646
  1465.2500    119.6726      0.0000    644.2845      2.5382
  1465.5000    128.9141      0.0000    648.3837      2.8213
  1465.7500    138.0183      0.0000    648.5789      3.1253
  1466.0000    144.0613      0.0000    650.5212      3.3739
  1466.2500    144.8110      0.0000    652.6416      3.5699
  1466.5000    140.6581      0.0000    651.9082      3.7771
  1466.7500    134.8375      0.0000    647.1816      4.0370
  1467.0000    131.1408      0.0000    638.6109      4.3161
  1467.2500    131.2208      0.0000    630.6401      4.5369
  1467.5000    134.1591      0.0000    630.5461      4.6625
  1467.7500    138.1735      0.0000    636.9642      4.7321
  1468.0000    141.9908      0.0000    639.3161      4.7873
  1468.2500    144.6360      0.0000    630.6199      4.7862
  1468.5000    144.9583      0.0000    611.6016      4.6442
  1468.7500    142.1994      0.0000    584.6534      4.3921
  1469.0000    136.7931      0.0000    552.9999      4.2166
  1469.2500    130.1613      0.0000    528.0358      4.2576
  1469.5000    124.0198      0.0000    527.9055      4.4528
  1469.7500    120.2452     -5.0000    561.6623      4.6420
  1470.0000    120.7206      0.0000    618.5407      4.7366
  1470.2500    126.1666      0.0000    673.1052      4.7530
  1470.5000    134.8179      0.0000    701.5322      4.7406
  1470.7500    142.8645      0.0000    698.6733      4.7080
  1471.0000    146.9084      0.0000    679.6842      4.6165
  1471.2500    146.4877      0.0000    662.7620      4.4479
  1471.5000    144.2910      0.0000    651.1606      4.2495
  1471.7500    143.8087      0.0000    631.0161      4.1133
  1472.0000    146.7469      0.0000    590.2903      4.0955
  1472.2500    152.3462      0.0000    539.6181      4.1412
  1472.5000    158.4980      0.0000    502.1727      4.1692
  1472.7500    163.3412      0.0000    486.0819      4.1810
  1473.0000    166.3872      0.0000    482.5497      4.2165
  1473.2500    168.4533      0.0000    482.7580      4.2902
  1473.5000    170.3889      0.0000    484.6435      4.3973
  1473.7500    171.9520      0.0000    491.3131      4.5092
  1474.0000    172.2250      0.0000    509.4420      4.5735
  1474.2500    170.9539      0.0000    541.8539      4.5735
  1474.5000    169.0057      0.0000    576.8949      4.5481
  1474.7500    167.5101      0.0000    598.9926      4.5275
  1475.0000    166.9161      0.0000    612.2209      4.5031
  1475.2500    166.8353      0.0000    630.2949      4.4561
  1475.5000    166.5402      0.0000    650.7877      4.3755
  1475.7500    165.6748      0.0000    662.4723      4.2774
  1476.0000    164.5931      0.0000    661.8245      4.2155
  1476.2500    163.9691      0.0000    651.1128      4.2279
  1476.5000    164.1654      0.0000    633.3825      4.2823
  1476.7500    165.1193      0.0000    610.9210      4.3166
  1477.0000    166.6219      0.0000    586.3666      4.3142
  1477.2500    168.2467      0.0000    566.5024      4.3046
  1477.5000    169.1224      0.0000    558.9584      4.3165
  1477.7500    168.5475      0.0000    566.1392      4.3474
  1478.0000    167.1208      0.0000    584.1628      4.3783
  1478.2500    166.5215      0.0000    603.8418      4.4184
  1478.5000    167.4324      0.0000    618.9711      4.4817
  1478.7500    167.9464      0.0000    631.8085      4.5374
  1479.0000    164.8255      0.0000    645.4191      4.5647
  1479.2500    156.5014      0.0000    657.3036      4.5931
  1479.5000    144.5031      0.0000    662.9147      4.6353
  1479.7500    132.0278      0.0000    661.2849      4.6609
  1480.0000    121.6241      0.0000    656.0093      4.6452
  1480.2500    114.2178      0.0000    651.5015      4.5925
  1480.5000    109.6314      0.0000    648.6766      4.5247
  1480.7500    107.3967      0.0000    646.5672      4.4654
  1481.0000    107.0501      0.0000    647.2659      4.4220
  1481.2500    108.0559      0.0000    652.2606      4.3826
  1481.5000    109.8075      0.0000    656.1628      4.3265
  1481.7500    111.7937      0.0000    653.3491      4.2383
  1482.0000    113.7045      0.0000    645.7368      4.1251
  1482.2500    115.3895      0.0000    635.7399      4.0187
  1482.5000    116.8192      0.0000    616.8779      3.9579
  1482.7500    118.1209      0.0000    581.0071      3.9604
  1483.0000    119.4930      0.0000    533.9804      3.9976
  1483.2500    120.9080      0.0000    492.7969      4.0298
  1483.5000    122.0977      0.0000    465.4034      4.0557
  1483.7500    123.3677      0.0000    445.6948      4.0807
  1484.0000    126.3859      0.0000    427.1888      4.0856
  1484.2500    133.1276      0.0000    410.4299      4.0610
  1484.5000    143.3819      0.0000    398.9545      4.0196
  1484.7500    153.9143      0.0000    393.9418      3.9876
  1485.0000    160.9134      0.0000    393.6219      4.0069
  1485.2500    163.1943      0.0000    396.1905      4.0939
  1485.5000    162.6865      0.0000    402.0480      4.2104
  1485.7500    161.9883      0.0000    413.2428      4.3235
  1486.0000    161.8823      0.0000    431.5719      4.4414
  1486.2500    161.2784      0.0000    459.6558      4.5598
  1486.5000    159.0186      0.0000    500.7653      4.6483
  1486.7500    155.2302      0.0000    551.5331      4.7206
  1487.0000    151.2204      0.0000    600.0704      4.8389
  1487.2500    148.5224      0.0000    634.9008      5.0264
  1487.5000    147.8073      0.0000    651.8135      5.2399
  1487.7500    148.4930      0.0000    655.4676      5.4283
  1488.0000    149.5879      0.0000    655.6819      5.5497
  1488.2500    150.6237      0.0000    659.1467      5.5688
  1488.5000    151.3147      0.0000    665.3627      5.4891
  1488.7500    150.7745      0.0000    670.3886      5.3467
  1489.0000    147.8983      0.0000    672.3250      5.1619
  1489.2500    142.5252      0.0000    672.2245      4.9458
  1489.5000    135.7238      0.0000    671.6564      4.7277
  1489.7500    128.7991      0.0000    671.2917      4.5354
  1490.0000    122.3578      0.0000    670.9802      4.3785
  1490.2500    116.5388      0.0000    669.6730      4.2609
  1490.5000    111.8668      0.0000    664.6741      4.1795
  1490.7500    109.4697      0.0000    652.0570      4.1159
  1491.0000    110.4713      0.0000    631.2291      4.0520
  1491.2500    115.2668      0.0000    607.0539      3.9894
  1491.5000    123.0833      0.0000    580.7623      3.9379
  1491.7500    131.9646      0.0000    546.7375      3.8931
  1492.0000    139.5937      0.0000    504.9714      3.8548
  1492.2500    144.7585      0.0000    466.3954      3.8460
  1492.5000    148.1324      0.0000    445.0719      3.8680
  1492.7500    151.3784      0.0000    449.2666      3.8837
  1493.0000    155.4415      0.0000    479.8155      3.8752
  1493.2500    159.8472      0.0000    531.6072      3.8586
  1493.5000    163.5659      0.0000    590.0339      3.8322
  1493.7500    166.2003      0.0000    635.4515      3.7793
  1494.0000    168.0936      0.0000    658.1790      3.7077
  1494.2500    169.4290      0.0000    661.5695      3.6329
  1494.5000    169.5073      0.0000    653.5551      3.5557
  1494.7500    167.1295      0.0000    643.4394      3.4903
  1495.0000    161.9244      0.0000    640.1415      3.4679
  1495.2500    155.2072      0.0000    645.4636      3.4831
  1495.5000    149.1148      0.0000    652.4738      3.4890
  1495.7500    144.9430      0.0000    653.6826      3.4713
  1496.0000    142.7821      0.0000    648.0006      3.4605
  1496.2500    142.4546      0.0000    638.7658      3.4658
  1496.5000    143.8011      0.0000    629.4158      3.4768
  1496.7500    145.9642      0.0000    621.8997      3.5368
  1497.0000    147.3193      0.0000    613.1274      3.7321
  1497.2500    146.5586      0.0000    595.9628      4.0766
  1497.5000    143.5743      0.0000    571.3157      4.4657
  1497.7500    139.2714      0.0000    552.2352      4.8080
  1498.0000    134.9529      0.0000    549.9581      5.1549
  1498.2500    132.0722      0.0000    558.4406      5.6329
