~Version Information
VERS.                      2.0: CWLS Log ASCII Standard - VERSION 2.0
WRAP.                       NO: One line per depth step
~Well Information Block
STRT.FT               920.0000: 
STOP.FT              3300.2000: 
STEP.FT                 0.1000: 
NULL.                -999.2500: 
COMP.          Pioneer Natural Resources: COMPANY
WELL.              Vespar 43-7: WELL
FLD.           Purgatoire River: FIELD
LOC.           2338' FSL & 1141' FEL: LOCATION
PROV.                 Colorado: PROVINCE
CNTY.               Las Animas: COUNTRY
SRVC.                Patterson: SERVICE COMPANY
DATE.          Wed Jan 26 13:38:02 2005: LOG DATE
UWI.           05 071 07955 00: UNIQUE WELL ID
~Curve Information Block
DEPT.FT            0 000 00 00: Depth
DCAL.in                       : CDL Caliper
RHOB.g/cc                     : CDL Bulk Density
RHOC.g/cc                     : CDL Density Correction
DPOR.pu                       : CDL Density Porosity
NPOR.pu                       : Neutron Porosity
GR.GAPI                       : Gamma Ray
~Parameter Information Block
~A  Depth       DCAL        RHOB        RHOC        DPOR        NPOR         GR     
# ...
  2955.2000      7.8388      2.5592      0.1127      5.5025     18.3755     47.2245
  2955.3000      7.8536      2.5706      0.0937      4.8148     19.2399     47.9775
  2955.4000      7.8536      2.5791      0.0891      4.2951     19.3242     50.7395
  2955.5000      7.8696      2.5817      0.1213      4.1419     19.6127     52.1658
  2955.6000      7.8696      2.5715      0.1396      4.7546     20.4759     51.2725
  2955.7000      7.8696      2.5419      0.1074      6.5533     21.4084     52.2539
  2955.8000      7.8814      2.4996      0.0413      9.1132     22.3309     58.6466
  2955.9000      7.8814      2.4630      0.0424     11.3354     23.3603     68.9254
  2956.0000      7.8933      2.4395      0.0089     12.7559     23.9926     78.7642
  2956.1000      7.8933      2.4252      0.0345     13.6229     24.3099     85.1115
  2956.2000      7.8933      2.4048      0.0360     14.8600     25.0461     87.8812
  2956.3000      7.9098      2.3623      0.0131     17.4334     26.2805     91.7006
  2956.4000      7.9098      2.2944      0.0100     21.5530     27.6303     99.1391
  2956.5000      7.9235      2.2072      0.0033     26.8366     29.1156    105.0513
  2956.6000      7.9235      2.1170     -0.0387     32.3012     30.4913    106.4746
  2956.7000      7.9235      2.0360     -0.0240     37.2126     31.3617    103.0436
  2956.8000      7.9296      1.9639     -0.0786     41.5818     31.8362     96.2439
  2956.9000      7.9296      1.9100     -0.1161     44.8481     31.8873     89.7893
  2957.0000      7.9304      1.8917     -0.1061     45.9562     31.5291     87.3230
  2957.1000      7.9304      1.9128     -0.0335     44.6816     31.2994     90.6942
  2957.2000      7.9304      1.9629      0.0214     41.6409     31.3274     96.5592
  2957.3000      7.9302      2.0312      0.1026     37.5041     31.2454     97.6132
  2957.4000      7.9302      2.1112      0.1672     32.6547     30.6640     92.3211
  2957.5000      7.9304      2.1967      0.2388     27.4755     30.0164     89.2852
  2957.6000      7.9304      2.2770      0.2216     22.6075     29.9793     96.8320
  2957.7000      7.9304      2.3416      0.1673     18.6908     29.7657    109.5214
  2957.8000      7.9306      2.3875      0.1257     15.9069     28.7854    114.5185
  2957.9000      7.9306      2.4233      0.0978     13.7390     27.9423    110.6461
  2958.0000      7.9323      2.4519      0.1421     12.0054     27.9016    106.5363
  2958.1000      7.9323      2.4631      0.0955     11.3289     28.3786    108.8242
  2958.2000      7.9323      2.4614      0.0284     11.4273     28.5408    119.4637
  2958.3000      7.9336      2.4663      0.0461     11.1353     28.0173    126.7409
  2958.4000      7.9336      2.4835      0.0449     10.0935     27.1581    119.9960
  2958.5000      7.9324      2.5048      0.0660      8.7983     26.1009    110.8309
  2958.6000      7.9324      2.5137      0.0911      8.2622     25.1274    112.3505
  2958.7000      7.9324      2.5000      0.0257      9.0881     24.8207    119.8391
  2958.8000      7.9307      2.4792      0.0339     10.3531     25.2075    123.8167
  2958.9000      7.9307      2.4689      0.0386     10.9755     25.6886    122.9562
  2959.0000      7.9323      2.4695      0.0520     10.9369     26.0747    123.7639
  2959.1000      7.9323      2.4740      0.0554     10.6680     26.6250    128.1163
  2959.2000      7.9323      2.4787      0.0469     10.3848     26.8297    129.5899
  2959.3000      7.9332      2.4758      0.0509     10.5593     26.5403    124.6076
  2959.4000      7.9332      2.4479      0.0298     12.2512     26.8122    117.4041
  2959.5000      7.9280      2.3801      0.0597     16.3598     28.0477    113.1736
  2959.6000      7.9280      2.2777     -0.0199     22.5641     29.2158    111.8286
  2959.7000      7.9280      2.1706     -0.0603     29.0554     29.8120    110.8814
  2959.8000      7.9226      2.0773     -0.0657     34.7092     30.3726    111.3980
  2959.9000      7.9226      1.9884     -0.0706     40.0995     31.1472    110.3929
  2960.0000      7.9264      1.8916     -0.0715     45.9641     31.8320    103.5414
  2960.1000      7.9264      1.7902     -0.1225     52.1111     32.0564     95.4997
  2960.2000      7.9264      1.7041     -0.1112     57.3252     32.0770     91.3880
  2960.3000      7.9309      1.6588     -0.1284     60.0736     32.4547     88.1674
  2960.4000      7.9309      1.6663     -0.0459     59.6164     32.9821     82.9087
  2960.5000      7.9312      1.7165      0.0327     56.5767     33.0591     78.2564
  2960.6000      7.9312      1.7861      0.1283     52.3546     32.7373     73.0910
  2960.7000      7.9312      1.8495      0.2072     48.5168     32.4176     68.2542
  2960.8000      7.9299      1.8837      0.2413     46.4400     32.1044     69.6287
  2960.9000      7.9299      1.8783      0.2213     46.7703     31.7273     74.8362
  2961.0000      7.9279      1.8411      0.1685     49.0248     31.5035     79.0605
  2961.1000      7.9279      1.7920      0.0822     51.9999     31.6578     80.7320
  2961.2000      7.9279      1.7362      0.0548     55.3806     32.1763     76.8232
  2961.3000      7.9270      1.6573     -0.0055     60.1617     32.8208     68.3361
  2961.4000      7.9270      1.5593     -0.0970     66.1030     33.3369     60.0097
  2961.5000      7.9316      1.4833     -0.1317     70.7104     33.6632     54.1623
  2961.6000      7.9316      1.4599     -0.0852     72.1266     33.6926     50.7817
  2961.7000      7.9316      1.4912     -0.0690     70.2275     33.4850     51.9650
  2961.8000      7.9537      1.5730      0.0300     65.2699     33.1617     59.6520
  2961.9000      7.9537      1.6951      0.1421     57.8706     32.4792     67.5507
  2962.0000      7.9957      1.8401      0.2124     49.0826     31.4800     68.8640
  2962.1000      7.9957      1.9893      0.2390     40.0401     30.6583     68.3000
  2962.2000      7.9957      2.1252      0.2506     31.8035     30.3893     75.3726
  2962.3000      8.0215      2.2353      0.2759     25.1348     30.3999     92.7133
  2962.4000      8.0215      2.3127      0.2877     20.4427     30.1149    111.8314
  2962.5000      8.0109      2.3583      0.2612     17.6770     29.6656    122.6055
  2962.6000      8.0109      2.3838      0.1858     16.1352     29.5937    125.7939
  2962.7000      8.0109      2.4056      0.1116     14.8123     29.7371    130.0857
  2962.8000      7.9951      2.4262      0.1349     13.5613     29.7210    142.1579
  2962.9000      7.9951      2.4374      0.1402     12.8867     29.7452    157.2486
  2963.0000      7.9928      2.4419      0.1118     12.6131     29.9602    164.6693
  2963.1000      7.9928      2.4430      0.1529     12.5438     30.1619    160.9011
  2963.2000      7.9928      2.4348      0.1114     13.0420     30.2088    151.4976
  2963.3000      8.0005      2.4216      0.0689     13.8395     30.3975    142.8626
  2963.4000      8.0005      2.4202      0.0753     13.9286     30.5052    138.5610
  2963.5000      8.0052      2.4359      0.1098     12.9782     29.9180    140.7438
  2963.6000      8.0052      2.4556      0.1561     11.7839     29.0474    147.7268
  2963.7000      8.0052      2.4655      0.0789     11.1816     28.6080    151.1182
  2963.8000      7.9931      2.4648      0.0683     11.2228     28.8646    147.8489
  2963.9000      7.9931      2.4585      0.0781     11.6034     29.4879    144.5306
  2964.0000      7.9751      2.4575      0.0011     11.6688     29.7920    137.4834
  2964.1000      7.9751      2.4675      0.0780     11.0585     29.7188    123.7454
  2964.2000      7.9751      2.4732      0.0872     10.7155     29.5835    117.6828
  2964.3000      7.9714      2.4670      0.0888     11.0911     29.4775    125.5335
  2964.4000      7.9714      2.4647      0.0397     11.2301     29.1269    135.5137
  2964.5000      7.9863      2.4773      0.0819     10.4660     28.5512    136.3140
  2964.6000      7.9863      2.4956      0.0989      9.3550     28.1031    126.4108
  2964.7000      7.9863      2.5052      0.0971      8.7750     27.6908    116.9631
