~Version Information
VERS.                      2.0: CWLS Log ASCII Standard - VERSION 2.0
WRAP.                       NO: One line per depth step
~Well Information Block
STRT.FT               245.0000: 
STOP.FT              2464.2000: 
STEP.FT                 0.1000: 
NULL.                -999.2500: 
COMP.          Pioneer Natural Resources: COMPANY
WELL.          Oink Oink 14-36: WELL
FLD.           Purgatoire River: FIELD
LOC.           216' FSL & 263' FWL--: LOCATION
PROV.                 Colorado: PROVINCE
CNTY.               Las Animas: COUNTRY
SRVC.                Patterson: SERVICE COMPANY
DATE.          Wed Jun 08 16:53:09 2005: LOG DATE
UWI.           05 071 08394 00: UNIQUE WELL ID
~Curve Information Block
DEPT.FT            0 000 00 00: Depth
DCAL.in                       : CDL Caliper
RHOB.g/cc                     : CDL Bulk Density
RHOC.g/cc                     : CDL Density Correction
DPOR.pu                       : CDL Density Porosity
NPOR.pu                       : Neutron Porosity
GR.GAPI                       : Gamma Ray
~Parameter Information Block
~A  Depth       DCAL        RHOB        RHOC        DPOR        NPOR         GR     
# ...
   974.6000      8.0561      2.5640      0.0977      5.2137     27.2471     91.1078
   974.7000      8.0561      2.5855      0.1757      3.9082     27.3404     99.6541
   974.8000      8.0566      2.6063      0.2218      2.6510     27.4920    105.7965
   974.9000      8.0566      2.5939      0.1557      3.3998     27.5807    106.2877
   975.0000      8.0568      2.5684      0.0757      4.9456     27.5385    104.4380
   975.1000      8.0568      2.5599      0.0851      5.4616     27.2392    104.2318
   975.2000      8.0568      2.5605      0.1128      5.4258     26.6793    103.9747
   975.3000      8.0640      2.5500      0.0871      6.0589     26.2720    101.9438
   975.4000      8.0640      2.5379      0.0627      6.7967     26.4626     99.1806
   975.5000      8.0781      2.5417      0.0836      6.5607     27.0600     94.4876
   975.6000      8.0781      2.5539      0.1273      5.8270     27.7801     89.0011
   975.7000      8.0781      2.5668      0.0986      5.0407     28.5927     89.3552
   975.8000      8.0816      2.5958      0.0981      3.2876     29.4246     94.8336
   975.9000      8.0816      2.6372      0.1897      0.7746     29.9366     96.3139
   976.0000      8.0694      2.6465      0.2010      0.2099     29.6392     95.7742
   976.1000      8.0694      2.5984      0.0786      3.1276     28.7202    100.2349
   976.2000      8.0694      2.5254      0.0077      7.5502     28.1031    106.4299
   976.3000      8.0492      2.4697     -0.0151     10.9276     27.9596    109.2983
   976.4000      8.0492      2.4473      0.0395     12.2845     27.9425    108.9578
   976.5000      8.0332      2.4493      0.0924     12.1664     28.1753    107.2501
   976.6000      8.0332      2.4555      0.0874     11.7854     28.4882    106.1403
   976.7000      8.0332      2.4567      0.1045     11.7132     28.4069    104.8237
   976.8000      8.0256      2.4504      0.0981     12.0955     27.8916    102.5714
   976.9000      8.0256      2.4344      0.0675     13.0638     27.0554    101.9550
   977.0000      8.0250      2.4147      0.0739     14.2604     25.9553    102.3343
   977.1000      8.0250      2.4089      0.0767     14.6099     25.1480    100.3446
   977.2000      8.0250      2.4387      0.0471     12.8083     25.1302     96.5931
   977.3000      8.0346      2.5085      0.1256      8.5753     25.3880     94.8174
   977.4000      8.0346      2.5861      0.1875      3.8755     25.0795     96.4607
   977.5000      8.0751      2.6248      0.2143      1.5263     24.2828    100.5582
   977.6000      8.0751      2.6158      0.1612      2.0705     23.9166    104.5156
   977.7000      8.0751      2.5917      0.1225      3.5328     24.1751    102.5738
   977.8000      8.1518      2.5860      0.0814      3.8795     24.3036     95.8154
   977.9000      8.1518      2.6120      0.1214      2.3047     24.1722     91.4051
   978.0000      8.2002      2.6556      0.1117     -0.3372     24.6651     92.6092
   978.1000      8.2002      2.6899      0.1440     -2.4202     26.0879     96.6000
   978.2000      8.2002      2.7091      0.0906     -3.5803     27.5871     97.4771
   978.3000      8.1690      2.7201      0.1309     -4.2493     28.3987     92.6832
   978.4000      8.1690      2.7160      0.0787     -4.0010     28.5306     86.3568
   978.5000      8.1128      2.6883      0.0891     -2.3226     28.5176     81.8355
   978.6000      8.1128      2.6343      0.1248      0.9494     28.5646     78.2904
   978.7000      8.1128      2.5575      0.0624      5.6034     28.3704     73.9683
   978.8000      8.0865      2.4752     -0.0555     10.5920     27.7012     70.6252
   978.9000      8.0865      2.4015     -0.0576     15.0633     26.4086     73.4615
   979.0000      8.0812      2.3231     -0.0655     19.8146     24.3893     79.4228
   979.1000      8.0812      2.2168     -0.1595     26.2530     22.0477     79.8101
   979.2000      8.0812      2.0651     -0.1179     35.4473     20.0778     74.2959
   979.3000      8.0668      1.8445     -0.1086     48.8206     18.5647     68.4119
   979.4000      8.0668      1.5781     -0.2093     64.9627     17.5145     66.2978
   979.5000      8.0299      1.3812     -0.2841     76.8991     17.1804     69.1617
   979.6000      8.0299      1.3641     -0.1829     77.9359     17.5572     73.7245
   979.7000      8.0299      1.5249      0.0274     68.1849     18.5566     73.5724
   979.8000      7.9957      1.7822      0.2465     52.5951     20.1133     68.1127
   979.9000      7.9957      2.0615      0.4398     35.6645     21.9040     63.5917
   980.0000      7.9843      2.3168      0.6524     20.1964     23.2052     62.5905
   980.1000      7.9843      2.5104      0.7252      8.4587     23.6398     62.9446
   980.2000      7.9843      2.6267      0.6934      1.4100     23.4756     64.3824
   980.3000      7.9901      2.6781      0.5977     -1.7054     22.9851     67.8404
   980.4000      7.9901      2.6798      0.4518     -1.8051     22.4336     72.3486
   980.5000      8.0037      2.6472      0.2954      0.1720     21.8954     76.3551
   980.6000      8.0037      2.6032      0.2234      2.8337     21.3343     77.6086
   980.7000      8.0037      2.5599      0.1404      5.4611     20.9403     74.9070
   980.8000      8.0237      2.5221      0.0751      7.7540     20.7789     71.7033
   980.9000      8.0237      2.5092      0.0251      8.5324     20.5629     70.6946
   981.0000      8.0419      2.5337      0.0513      7.0508     20.2388     70.9716
   981.1000      8.0419      2.5694      0.0840      4.8859     20.3185     71.2231
   981.2000      8.0419      2.5857      0.0677      3.8975     20.9109     71.1216
   981.3000      8.0515      2.5863      0.0710      3.8619     21.6125     70.0877
   981.4000      8.0515      2.5864      0.0752      3.8535     22.3172     68.3803
   981.5000      8.0545      2.5952      0.0290      3.3226     23.1086     68.8237
   981.6000      8.0545      2.6136      0.0457      2.2088     23.7529     72.3278
   981.7000      8.0545      2.6243      0.0686      1.5583     24.1716     76.9418
   981.8000      8.0545      2.6131      0.0588      2.2367     24.7347     78.9231
   981.9000      8.0545      2.5907     -0.0059      3.5926     25.4491     76.9563
   982.0000      8.0531      2.5735      0.0198      4.6355     26.0051     77.0981
   982.1000      8.0531      2.5598      0.0214      5.4689     26.2710     82.0687
   982.2000      8.0531      2.5417      0.0517      6.5640     26.3418     85.7036
   982.3000      8.0515      2.5255      0.0399      7.5440     26.4947     86.3149
   982.4000      8.0515      2.5138      0.0536      8.2522     26.8505     87.0102
   982.5000      8.0538      2.4949      0.0784      9.4014     27.5336     87.6146
   982.6000      8.0538      2.4788     -0.0215     10.3768     28.5087     87.7394
   982.7000      8.0538      2.4925      0.0407      9.5479     29.0447     89.6115
   982.8000      8.0602      2.5243      0.1081      7.6199     28.6930     94.7222
   982.9000      8.0602      2.5406      0.1160      6.6273     28.1436    102.4112
   983.0000      8.0661      2.5357      0.1036      6.9290     27.9047    110.5091
   983.1000      8.0661      2.5279      0.1219      7.4012     27.8590    116.7283
   983.2000      8.0661      2.5387      0.1022      6.7455     27.9618    121.5873
   983.3000      8.0717      2.5708      0.1696      4.8030     28.3292    126.2877
   983.4000      8.0717      2.6016      0.1822      2.9310     28.8421    130.7796
   983.5000      8.0759      2.6195      0.1340      1.8474     28.9311    134.1329
   983.6000      8.0759      2.6284      0.1722      1.3091     28.5031    134.5713
   983.7000      8.0759      2.6291      0.1199      1.2645     27.7955    130.9675
   983.8000      8.0776      2.6302      0.0682      1.1980     26.9922    127.1418
   983.9000      8.0776      2.6381      0.0996      0.7242     26.6973    129.3344
   984.0000      8.0776      2.6383      0.1060      0.7108     27.2220    136.2119
   984.1000      8.0776      2.6178      0.0937      1.9489     27.9735    141.6892
