~Version Information
VERS.                      2.0: CWLS Log ASCII Standard - VERSION 2.0
WRAP.                       NO: One line per depth step
~Well Information Block
STRT.FT               875.6000: 
STOP.FT              2510.0000: 
STEP.FT                 0.1000: 
NULL.                -999.2500: 
COMP.          Petrogulf Corporation: COMPANY
WELL.          Collister 17-31 V: WELL
FLD.           Purgatoire River: FIELD
LOC.           910' FNL & 1594' FEL: LOCATION
PROV.                 Colorado: PROVINCE
CNTY.               Las Animas: COUNTRY
SRVC.                Patterson: SERVICE COMPANY
DATE.          Fri Dec 12 13:49:30 2003: LOG DATE
UWI.                          : UNIQUE WELL ID
~Curve Information Block
DEPT.FT            0 000 00 00: Depth
DCAL.in                       : CDL Caliper
DPOR.pu                       : CDL Density Porosity
NPOR.pu                       : Neutron Porosity
RHOB.g/cc                     : CDL Bulk Density
RHOC.g/cc                     : CDL Density Correction
GR.GAPI                       : Gamma Ray
~Parameter Information Block
~A  Depth       DCAL        DPOR        NPOR        RHOB        RHOC         GR     
# ...
  2181.2000      8.1243     16.3244     23.6080      2.3806      0.1217    127.3753
  2181.3000      8.1597     11.0353     23.0273      2.4679      0.1337    126.2697
  2181.4000      8.1597      7.9955     22.3590      2.5181      0.1976    121.4239
  2181.5000      8.1634      7.5845     21.9112      2.5249      0.1046    112.5690
  2181.6000      8.1634      7.8855     22.0286      2.5199      0.0655    106.7223
  2181.7000      8.1634      7.3800     22.3363      2.5282     -0.0035    109.1737
  2181.8000      8.1504      6.4270     22.1773      2.5440      0.1033    114.9500
  2181.9000      8.1504      6.6807     21.5729      2.5398      0.0753    116.3935
  2182.0000      8.1740      8.3908     21.2545      2.5116      0.0159    115.2593
  2182.1000      8.1740      9.7126     21.4397      2.4897      0.0036    117.2930
  2182.2000      8.1740      9.6429     21.6439      2.4909      0.0541    119.9139
  2182.3000      8.1749      9.2136     21.6500      2.4980      0.0392    117.0902
  2182.4000      8.1749      9.3455     21.5101      2.4958      0.0138    109.9455
  2182.5000      8.1730      9.7791     21.3002      2.4886     -0.0120    108.0254
  2182.6000      8.1730      9.6731     21.3768      2.4904     -0.0013    117.4674
  2182.7000      8.1730      8.8312     21.9530      2.5043      0.0377    131.6670
  2182.8000      8.1615      8.3200     22.7606      2.5127      0.0858    138.5238
  2182.9000      8.1615      8.6799     23.4261      2.5068      0.0823    135.2592
  2183.0000      8.1585      8.8917     23.6962      2.5033      0.0358    131.2291
  2183.1000      8.1585      8.6956     23.6831      2.5065      0.1010    132.0178
  2183.2000      8.1585      8.8293     23.5695      2.5043      0.0284    135.3001
  2183.3000      8.1602      8.7448     23.4541      2.5057      0.0320    135.6158
  2183.4000      8.1602      7.8881     23.4267      2.5198      0.0962    128.4577
  2183.5000      8.1549      7.3704     23.5655      2.5284      0.1047    119.0829
  2183.6000      8.1549      8.5067     23.6951      2.5096      0.0432    116.7020
  2183.7000      8.1549     10.2441     23.5744      2.4810     -0.0115    123.6417
  2183.8000      8.1508      9.9322     23.2848      2.4861     -0.0192    140.0626
  2183.9000      8.1508      7.3729     22.9156      2.5283      0.1255    156.7848
  2184.0000      8.1436      5.0804     22.5725      2.5662      0.1263    159.2369
  2184.1000      8.1436      4.5454     22.6423      2.5750      0.1036    149.1056
  2184.2000      8.1436      5.0538     23.0832      2.5666      0.0537    135.8770
  2184.3000      8.1381      5.5276     23.3176      2.5588      0.0928    126.6785
  2184.4000      8.1381      5.9840     23.1341      2.5513      0.0576    126.4697
  2184.5000      8.1415      7.3985     22.6111      2.5279      0.0662    129.7680
  2184.6000      8.1415     10.3562     21.8403      2.4791     -0.0277    128.4453
  2184.7000      8.1415     13.2088     21.1097      2.4321     -0.0399    123.1440
  2184.8000      8.1398     14.1114     20.3624      2.4172     -0.0720    120.0662
  2184.9000      8.1398     13.7956     19.4114      2.4224      0.0701    121.9053
  2185.0000      8.1357     13.6236     18.6907      2.4252      0.0165    125.4470
  2185.1000      8.1357     13.4174     18.8486      2.4286     -0.0030    128.6176
  2185.2000      8.1357     13.0702     19.7032      2.4343      0.0601    132.3826
  2185.3000      8.1393     13.3325     20.1763      2.4300      0.0256    136.0269
  2185.4000      8.1393     13.8982     19.9627      2.4207      0.0389    137.6949
  2185.5000      8.1470     12.8060     19.8964      2.4387      0.0240    136.8331
  2185.6000      8.1470      9.5765     20.6813      2.4920      0.1462    136.7419
  2185.7000      8.1470      6.9950     22.1023      2.5346      0.2001    140.2297
  2185.8000      8.1607      7.1209     23.3860      2.5325      0.1422    141.7674
  2185.9000      8.1607      8.5491     23.8104      2.5089      0.1101    136.7697
  2186.0000      8.1488      9.3713     23.4323      2.4954      0.1699    130.3665
  2186.1000      8.1488      9.8128     22.9548      2.4881      0.1694    125.2064
  2186.2000      8.1488     10.7342     22.8034      2.4729      0.0979    120.2024
  2186.3000      8.1519     11.7375     23.2100      2.4563      0.0747    118.7205
  2186.4000      8.1519     12.0483     23.8225      2.4512      0.0611    123.6806
  2186.5000      8.1908     11.7001     24.0140      2.4569      0.0929    131.3214
  2186.6000      8.1908     11.5413     23.7919      2.4596      0.0865    138.0196
  2186.7000      8.1908     12.1135     23.0516      2.4501      0.0186    141.7446
  2186.8000      8.2546     12.7478     21.9284      2.4397      0.0196    141.9427
  2186.9000      8.2546     12.7467     21.1385      2.4397      0.0519    144.6933
  2187.0000      8.2085     12.3093     20.7503      2.4469      0.0681    150.5143
  2187.1000      8.2085     11.5199     20.3126      2.4599      0.0675    153.0450
  2187.2000      8.2085     10.7146     19.6214      2.4732      0.1431    153.6453
  2187.3000      8.1969     11.2157    -98.7635      2.4649      0.1682    156.0580
  2187.4000      8.1969     12.9800    -97.5751      2.4358      0.1283    159.6604
  2187.5000      8.1766     14.1836    -92.7552      2.4160      0.0586    162.4155
  2187.6000      8.1766     13.7288    -90.6681      2.4235      0.0874    164.0713
  2187.7000      8.1766     12.6041    -93.6111      2.4420      0.1952    165.7534
  2187.8000      8.1570     12.8487    -97.9077      2.4380      0.1747    162.3919
  2187.9000      8.1570     14.6387   -102.2247      2.4085      0.1292    152.3813
  2188.0000      8.1716     15.8467   -106.2734      2.3885      0.0939    143.3063
  2188.1000      8.1716     15.0983   -107.4303      2.4009      0.1519    140.1963
  2188.2000      8.1716     13.5137   -105.6191      2.4270      0.1730    143.2986
  2188.3000      8.1894     12.6058   -101.3701      2.4420      0.1705    146.7827
  2188.4000      8.1894     11.6802    -96.0487      2.4573      0.1642    146.0400
  2188.5000      8.1786      9.4063    -93.7620      2.4948      0.2379    145.5005
  2188.6000      8.1786      6.6147    -94.7538      2.5409      0.2976    147.1557
  2188.7000      8.1786      5.2417    -96.8278      2.5635      0.2771    145.2153
  2188.8000      8.1681      5.4921   -100.6706      2.5594      0.2192    138.4227
  2188.9000      8.1681      6.0730   -105.4247      2.5498      0.1468    134.2199
  2189.0000      8.1484      6.3733   -108.3431      2.5448      0.1047    133.9727
  2189.1000      8.1484      6.2657   -107.5021      2.5466      0.1456    132.3595
  2189.2000      8.1484      5.3360   -102.6061      2.5620      0.1377    127.8983
  2189.3000      8.1196      4.4821    -99.7335      2.5760      0.2041    123.8771
  2189.4000      8.1196      5.3114   -106.9195      2.5624      0.1562    125.8799
  2189.5000      8.1782      7.3209   -127.8867      2.5292      0.1008    133.2328
  2189.6000      8.1782      8.9161   -161.0113      2.5029      0.0737    138.4692
  2189.7000      8.1782      9.3566   -193.9241      2.4956      0.0937    136.1326
  2189.8000      8.2099      9.2334   -212.6281      2.4976      0.1317    129.4091
  2189.9000      8.2099      9.6353   -211.1312      2.4910      0.0403    127.4804
  2190.0000      8.1733     10.5243   -177.8519      2.4763      0.0342    131.8762
  2190.1000      8.1733     10.9059   -110.1267      2.4701      0.0758    133.8265
  2190.2000      8.1733     10.0428    -43.0828      2.4843      0.0403    128.1551
  2190.3000      8.1514      8.7806     -9.9229      2.5051      0.1276    120.3101
  2190.4000      8.1514      8.8308      1.5868      2.5043      0.0977    118.4242
  2190.5000      8.1351     10.3661      6.3227      2.4790      0.0880    120.8418
  2190.6000      8.1351     12.3524      9.2871      2.4462      0.1187    120.1665
  2190.7000      8.1351     13.4855     13.5137      2.4275      0.0536    114.3633
