~Version Information
VERS.                      2.0: CWLS Log ASCII Standard - VERSION 2.0
WRAP.                       NO: One line per depth step
~Well Information Block
STRT.FT               930.0000: 
STOP.FT              2783.2500: 
STEP.FT                 0.2500: 
NULL.                -999.2500: 
COMP.          Pioneer Natural Resources: COMPANY
WELL.           Desoto 13-7TR: WELL
FLD.           Purgatoire River: FIELD
LOC.           1404' FSL & 1115' FWL: LOCATION
PROV.                 Colorado: PROVINCE
CNTY.               Las Animas: COUNTRY
SRVC.                Patterson: SERVICE COMPANY
DATE.          Fri Jan 14 11:02:13 2005: LOG DATE
UWI.           05 071 08216 00: UNIQUE WELL ID
~Curve Information Block
DEPT.FT            0 000 00 00: Depth
SN.Ohm-m                      : IEL Short Normal
SP.mV                         : IEL Spontaneous Potential
DIR.Ohm-m                     : IEL Induction Resistivity
GR.GAPI                       : Gamma Ray
~Parameter Information Block
~A  Depth        SN          SP         DIR          GR     
# ...
  1767.5000     42.4701     18.2645     27.5088     72.8997
  1767.7500     48.6224     17.5409     30.3678     68.0261
  1768.0000     54.7339     16.8684     33.4540     60.7567
  1768.2500     60.3414     16.2681     36.5654     56.5537
  1768.5000     65.2051     15.7521     39.4579     51.9089
  1768.7500     69.2660     15.3245     41.9083     49.9598
  1769.0000     72.5332     14.9829     43.7960     48.6345
  1769.2500     75.0162     14.7218     45.1554     48.8628
  1769.5000     76.7239     14.5355     46.1571     51.0558
  1769.7500     77.6782     14.4200     47.0183     53.6880
  1770.0000     77.9105     14.3729     47.8925     58.6059
  1770.2500     77.4598     14.3917     48.8108     61.6647
  1770.5000     76.3917     14.4723     49.6998     64.3923
  1770.7500     74.8248     14.6080     50.4555     64.6173
  1771.0000     72.9366     14.7897     51.0113     63.2497
  1771.2500     70.9411     15.0075     51.3590     61.8820
  1771.5000     69.0459     15.2524     51.5280     59.7309
  1771.7500     67.4078     15.5170     51.5695     58.2034
  1772.0000     66.1082     15.7951     51.5599     55.7533
  1772.2500     65.1575     16.0809     51.5925     54.1963
  1772.5000     64.5168     16.3676     51.7185     52.3029
  1772.7500     64.1143     16.6458     51.8620     51.2620
  1773.0000     63.8549     16.9038     51.7870     49.3990
  1773.2500     63.6416     17.1279     51.1961     47.6732
  1773.5000     63.4052     17.3034     49.9414     44.8547
  1773.7500     63.1172     17.4168     48.1695     43.5661
  1774.0000     62.7747     17.4566     46.2441     43.2407
  1774.2500     62.3824     17.4147     44.5186     43.7025
  1774.5000     61.9549     17.2862     43.1682     44.0369
  1774.7500     61.5244     17.0695     42.1636     43.5641
  1775.0000     61.1342     16.7682     41.3597     42.0759
  1775.2500     60.8176     16.3939     40.6234     40.9987
  1775.5000     60.5761     15.9713     39.9162     39.8782
  1775.7500     60.3541     15.5432     39.2749     39.6617
  1776.0000     60.0186     15.1725     38.7202     40.1435
  1776.2500     59.3642     14.9390     38.1842     40.8113
  1776.5000     58.1476     14.9285     37.5116     41.9954
  1776.7500     56.1382     15.2159     36.5284     42.9811
  1777.0000     53.1786     15.8468     35.1230     45.4162
  1777.2500     49.2551     16.8231     33.2855     48.0647
  1777.5000     44.5552     18.0995     31.0956     53.8737
  1777.7500     39.4560     19.5915     28.6896     59.1227
  1778.0000     34.4220     21.1937     26.2299     69.4670
  1778.2500     29.8613     22.8015     23.8739     77.9536
  1778.5000     26.0197     24.3285     21.7397     91.7679
  1778.7500     22.9596     25.7162     19.8841    100.4134
  1779.0000     20.6200     26.9339     18.3041    110.5136
  1779.2500     18.8999     27.9735     16.9591    114.8453
  1779.5000     17.7009     28.8421     15.8005    118.5931
  1779.7500     16.9161     29.5550     14.7944    120.4800
  1780.0000     16.4167     30.1308     13.9297    124.2522
  1780.2500     16.0742     30.5875     13.2132    127.6005
  1780.5000     15.8024     30.9399     12.6583    132.7411
  1780.7500     15.5745     31.1975     12.2755    135.4082
  1781.0000     15.4000     31.3655     12.0663    137.5297
  1781.2500     15.2903     31.4466     12.0218    137.6232
  1781.5000     15.2473     31.4444     12.1240    135.7827
  1781.7500     15.2784     31.3672     12.3502    133.1616
  1782.0000     15.4080     31.2296     12.6786    126.8458
  1782.2500     15.6714     31.0531     13.0930    120.9550
  1782.5000     16.1011     30.8645     13.5843    110.3618
  1782.7500     16.7154     30.6935     14.1487    103.3182
  1783.0000     17.5075     30.5683     14.7840     95.2495
  1783.2500     18.4313     30.5123     15.4815     92.4135
  1783.5000     19.3924     30.5409     16.2171     91.6882
  1783.7500     20.2589     30.6597     16.9441     92.7100
  1784.0000     20.8965     30.8642     17.5942     95.4189
  1784.2500     21.2149     31.1411     18.0925     97.9911
  1784.5000     21.2014     31.4711     18.3791    103.2514
  1784.7500     20.9214     31.8316     18.4285    107.5096
  1785.0000     20.4822     32.1990     18.2532    114.3559
  1785.2500     19.9836     32.5513     17.8926    118.9551
  1785.5000     19.4891     32.8688     17.3988    125.5152
  1785.7500     19.0264     33.1358     16.8286    129.1753
  1786.0000     18.6000     33.3407     16.2411    132.2644
  1786.2500     18.2013     33.4756     15.6897    131.9906
  1786.5000     17.8140     33.5363     15.2104    127.6135
  1786.7500     17.4211     33.5204     14.8144    122.4301
  1787.0000     17.0152     33.4271     14.4917    113.0521
  1787.2500     16.6096     33.2579     14.2251    107.3103
  1787.5000     16.2397     33.0173     14.0028    102.3791
  1787.7500     15.9470     32.7155     13.8221    102.6693
  1788.0000     15.7549     32.3697     13.6821    108.2657
  1788.2500     15.6512     32.0032     13.5739    114.1310
  1788.5000     15.5870     31.6427     13.4779    123.3678
  1788.7500     15.4932     31.3126     13.3692    128.8503
  1789.0000     15.3095     31.0304     13.2274    135.8511
  1789.2500     15.0099     30.8024     13.0433    139.7794
  1789.5000     14.6085     30.6242     12.8210    143.8531
  1789.7500     14.1421     30.4833     12.5758    144.6634
  1790.0000     13.6436     30.3650     12.3284    142.8421
  1790.2500     13.1319     30.2575     12.1006    140.5448
  1790.5000     12.6263     30.1557     11.9106    138.0497
  1790.7500     12.1688     30.0611     11.7707    138.1002
  1791.0000     11.8338     29.9787     11.6869    140.6659
  1791.2500     11.7075     29.9127     11.6609    143.0676
  1791.5000     11.8471     29.8622     11.6921    145.8855
  1791.7500     12.2430     29.8184     11.7804    146.6491
  1792.0000     12.8145     29.7650     11.9259    145.9258
  1792.2500     13.4479     29.6803     12.1253    144.3647
  1792.5000     14.0569     29.5419     12.3709    141.2247
  1792.7500     14.6185     29.3310     12.6512    139.4086
  1793.0000     15.1625     29.0357     12.9559    138.3909
  1793.2500     15.7354     28.6521     13.2820    138.9972
  1793.5000     16.3723     28.1836     13.6360    140.7068
  1793.7500     17.0894     27.6401     14.0311    141.2195
  1794.0000     17.8849     27.0370     14.4800    139.2086
  1794.2500     18.7432     26.3953     14.9920    135.5773
  1794.5000     19.6441     25.7418     15.5774    127.5219
  1794.7500     20.5718     25.1071     16.2529    121.6166
  1795.0000     21.5166     24.5223     17.0351    114.0471
  1795.2500     22.4639     24.0127     17.9213    110.4287
  1795.5000     23.3812     23.5925     18.8709    106.7984
  1795.7500     24.2227     23.2614     19.8114    105.1531
  1796.0000     24.9517     23.0050     20.6719    103.8275
  1796.2500     25.5727     22.8000     21.4183    104.2007
  1796.5000     26.1441     22.6206     22.0587    107.5567
  1796.7500     26.7519     22.4458     22.6194    111.6143
  1797.0000     27.4498     22.2641     23.1171    118.9089
  1797.2500     28.2139     22.0758     23.5512    123.2124
  1797.5000     28.9509     21.8914     23.9140    126.6985
  1797.7500     29.5513     21.7280     24.2063    126.2627
  1798.0000     29.9423     21.6029     24.4466    121.5636
  1798.2500     30.1146     21.5263     24.6650    116.9258
  1798.5000     30.1221     21.4952     24.8882    110.9202
  1798.7500     30.0689     21.4915     25.1252    108.9563
  1799.0000     30.0890     21.4837     25.3698    109.3776
  1799.2500     30.3128     21.4334     25.6203    111.1790
  1799.5000     30.8271     21.3011     25.8982    114.6615
  1799.7500     31.6518     21.0506     26.2463    116.8095
  1800.0000     32.7491     20.6508     26.7017    118.9226
  1800.2500     34.0508     20.0754     27.2674    119.2949
  1800.5000     35.4925     19.3059     27.9066    118.2696
  1800.7500     37.0622     18.3383     28.5626    116.8575
