~Version Information
VERS.                      2.0: CWLS Log ASCII Standard - VERSION 2.0
WRAP.                       NO: One line per depth step
~Well Information Block
STRT.FT               265.0000: 
STOP.FT              1214.0000: 
STEP.FT                 0.2500: 
NULL.                -999.2500: 
COMP.          Pioneer Natural Resources: COMPANY
WELL.          Pacheco 33-27 Tr: WELL
FLD.           Purgatoire River: FIELD
LOC.           2251' FSL & 2342' FEL: LOCATION
PROV.                 Colorado: PROVINCE
CNTY.               Las Animas: COUNTRY
SRVC.                Patterson: SERVICE COMPANY
DATE.          Fri Jun 10 13:29:04 2005: LOG DATE
UWI.           05 071 08384 00: UNIQUE WELL ID
~Curve Information Block
DEPT.FT            0 000 00 00: Depth
SN.Ohm-m                      : IEL Short Normal
SP.mV                         : IEL Spontaneous Potential
DIR.Ohm-m                     : IEL Induction Resistivity
GR.GAPI                       : Gamma Ray
~Parameter Information Block
~A  Depth        SN          SP         DIR          GR     
# ...
   935.0000     15.2366    -10.8516     12.9683    117.2545
   935.2500     14.1559    -10.9350     12.5035    122.7162
   935.5000     13.2845    -11.0685     12.0850    129.0724
   935.7500     12.6312    -11.2296     11.7146    132.3236
   936.0000     12.1064    -11.3900     11.3905    136.5399
   936.2500     11.6741    -11.5275     11.1104    139.1581
   936.5000     11.3174    -11.6383     10.8739    142.5458
   936.7500     11.0160    -11.7330     10.6820    144.0694
   937.0000     10.7621    -11.8232     10.5353    144.5680
   937.2500     10.5631    -11.9142     10.4318    143.4121
   937.5000     10.4470    -12.0075     10.3660    139.3211
   937.7500     10.4550    -12.1043     10.3290    135.2515
   938.0000     10.6124    -12.2058     10.3082    127.8908
   938.2500     10.8805    -12.3105     10.2885    122.5879
   938.5000     11.1439    -12.4081     10.2547    114.7278
   938.7500     11.2977    -12.4759     10.1976    110.1804
   939.0000     11.3312    -12.4830     10.1184    106.1715
   939.2500     11.3266    -12.4027     10.0287    106.3853
   939.5000     11.3632    -12.2270      9.9425    111.2635
   939.7500     11.4129    -11.9705      9.8667    116.5239
   940.0000     11.3812    -11.6631      9.7969    124.7797
   940.2500     11.2095    -11.3346      9.7207    129.3587
   940.5000     10.9069    -11.0019      9.6265    134.1007
   940.7500     10.5233    -10.6639      9.5115    135.9334
   941.0000     10.1070    -10.3124      9.3827    137.3509
   941.2500      9.7102     -9.9508      9.2546    138.0442
   941.5000      9.4218     -9.6073      9.1434    139.8545
   941.7500      9.3036     -9.3265      9.0621    141.8486
   942.0000      9.3108     -9.1440      9.0169    145.2624
   942.2500      9.3333     -9.0647      9.0066    146.8579
   942.5000      9.3173     -9.0670      9.0256    146.7834
   942.7500      9.3048     -9.1230      9.0676    144.8673
   943.0000      9.3563     -9.2127      9.1289    139.8609
   943.2500      9.4975     -9.3231      9.2089    135.7157
   943.5000      9.7265     -9.4456      9.3099    129.1794
   943.7500     10.0197     -9.5757      9.4352    124.9913
   944.0000     10.3408     -9.7123      9.5884    119.4517
   944.2500     10.6795     -9.8543      9.7719    116.4821
   944.5000     11.0533     -9.9981      9.9852    113.5157
   944.7500     11.4528    -10.1386     10.2227    112.7272
   945.0000     11.8111    -10.2699     10.4720    113.3037
   945.2500     12.0126    -10.3863     10.7160    114.5185
   945.5000     11.9863    -10.4800     10.9374    116.7141
   945.7500     11.8216    -10.5365     11.1239    118.0924
   946.0000     11.6610    -10.5334     11.2709    120.0876
   946.2500     11.5277    -10.4491     11.3809    121.6026
   946.5000     11.3982    -10.2786     11.4597    124.2178
   946.7500     11.3249    -10.0417     11.5136    125.8181
   947.0000     11.3722     -9.7753     11.5497    127.0699
   947.2500     11.5212     -9.5189     11.5787    126.9352
   947.5000     11.7050     -9.2995     11.6167    125.9620
   947.7500     11.8829     -9.1222     11.6816    125.4208
   948.0000     12.0404     -8.9738     11.7873    125.1106
   948.2500     12.1582     -8.8414     11.9423    124.8717
   948.5000     12.2406     -8.7322     12.1518    123.6241
   948.7500     12.3393     -8.6764     12.4195    122.0970
   949.0000     12.4948     -8.7113     12.7448    119.5069
   949.2500     12.7162     -8.8639     13.1208    118.2543
   949.5000     13.0269     -9.1413     13.5358    117.7080
   949.7500     13.4333     -9.5288     13.9799    117.9043
   950.0000     13.8866     -9.9951     14.4503    117.5205
   950.2500     14.3415    -10.5026     14.9503    116.0684
   950.5000     14.7975    -11.0185     15.4818    112.2923
   950.7500     15.2869    -11.5220     16.0378    109.4888
   951.0000     15.8811    -12.0043     16.6038    105.7214
   951.2500     16.6540    -12.4643     17.1716    103.2905
   951.5000     17.6063    -12.9026     17.7578     98.9751
   951.7500     18.6728    -13.3145     18.4093     95.5425
   952.0000     19.7961    -13.6877     19.1852     90.1067
   952.2500     20.9575    -14.0072     20.1219     86.6829
   952.5000     22.1352    -14.2609     21.2001     82.1026
   952.7500     23.2570    -14.4410     22.3374     79.3999
   953.0000     24.2550    -14.5399     23.4175     76.1043
   953.2500     25.1276    -14.5477     24.3462     74.7760
   953.5000     25.8738    -14.4594     25.0933     74.4633
   953.7500     26.4504    -14.2886     25.6905     75.0573
   954.0000     26.8271    -14.0734     26.1940     75.7896
   954.2500     27.0317    -13.8630     26.6460     75.4604
   954.5000     27.1310    -13.6957     27.0513     73.7172
   954.7500     27.1615    -13.5851     27.3764     72.4251
   955.0000     27.1242    -13.5238     27.5672     71.7325
   955.2500     27.0321    -13.4941     27.5760     72.5051
   955.5000     26.8671    -13.4771     27.3764     75.0771
   955.7500     26.5907    -13.4587     26.9576     76.9656
   956.0000     26.2637    -13.4312     26.3138     78.5379
   956.2500     26.0008    -13.3936     25.4570     78.2428
   956.5000     25.7835    -13.3467     24.4419     76.3754
   956.7500     25.4244    -13.2848     23.3661     75.3784
   957.0000     24.7510    -13.1891     22.3344     76.7240
   957.2500     23.7712    -13.0332     21.4161     80.3484
   957.5000     22.6442    -12.7983     20.6275     89.2181
   957.7500     21.5468    -12.4896     19.9384     95.9898
   958.0000     20.5783    -12.1368     19.2908    104.8409
   958.2500     19.7054    -11.7769     18.6200    109.2122
   958.5000     18.8000    -11.4330     17.8777    114.0292
   958.7500     17.8350    -11.1087     17.0558    116.7025
   959.0000     16.9659    -10.7967     16.1969    120.4449
   959.2500     16.3397    -10.4931     15.3796    122.8507
   959.5000     15.9435    -10.2049     14.6847    126.4033
   959.7500     15.6544     -9.9441     14.1643    128.5387
   960.0000     15.3465     -9.7122     13.8281    130.3825
   960.2500     14.9818     -9.4916     13.6484    130.1394
   960.5000     14.5982     -9.2542     13.5775    127.7218
   960.7500     14.2229     -8.9801     13.5683    125.4907
   961.0000     13.9125     -8.6711     13.5923    122.4040
   961.2500     13.7938     -8.3517     13.6479    120.5265
   961.5000     13.9015     -8.0568     13.7537    116.9057
   961.7500     14.1104     -7.8125     13.9309    113.2922
   962.0000     14.3209     -7.6208     14.1869    105.7924
   962.2500     14.5381     -7.4581     14.5068     99.7810
   962.5000     14.7994     -7.2906     14.8593     90.4841
   962.7500     15.1727     -7.0928     15.2100     84.9662
   963.0000     15.7460     -6.8563     15.5363     78.8143
   963.2500     16.5658     -6.5877     15.8326     76.2065
   963.5000     17.6118     -6.3001     16.1078     73.8562
   963.7500     18.7922     -6.0042     16.3787     72.9361
   964.0000     19.9581     -5.7009     16.6666     72.3556
   964.2500     20.9365     -5.3817     16.9980     72.6034
   964.5000     21.5845     -5.0395     17.4049     74.3560
   964.7500     21.8210     -4.6797     17.9181     76.9935
   965.0000     21.6543     -4.3162     18.5535     84.3630
   965.2500     21.2378     -3.9572     19.2993     91.7257
   965.5000     20.7850     -3.6010     20.1176    104.5509
   965.7500     20.4209     -3.2451     20.9582    112.0165
   966.0000     20.1894     -2.8934     21.7733    117.5692
   966.2500     20.1173     -2.5524     22.5139    116.3280
   966.5000     20.2199     -2.2220     23.1223    108.1570
   966.7500     20.4859     -1.8966     23.5519    100.4715
   967.0000     20.9272     -1.5755     23.8174     88.9635
   967.2500     21.6491     -1.2692     24.0206     82.3866
   967.5000     22.7888     -0.9885     24.3119     74.6763
   967.7500     24.3484     -0.7300     24.8141     71.0450
   968.0000     26.1255     -0.4797     25.5643     67.9853
   968.2500     27.8242     -0.2303     26.4970     67.3926
