~Version Information
VERS.                      2.0: CWLS Log ASCII Standard - VERSION 2.0
WRAP.                       NO: One line per depth step
~Well Information Block
STRT.FT               845.0000: 
STOP.FT              2308.2000: 
STEP.FT                 0.1000: 
NULL.                -999.2500: 
COMP.          Pioneer Natural Resources: COMPANY
WELL.             Vector 33-23: WELL
FLD.           Purgatoire River: FIELD
LOC.           1560' FEL & 1988' FSL----: LOCATION
PROV.                 Colorado: PROVINCE
CNTY.               Las Animas: COUNTRY
SRVC.                Patterson: SERVICE COMPANY
DATE.          Mon Mar 28 08:17:25 2005: LOG DATE
UWI.           05 071 08336 00: UNIQUE WELL ID
~Curve Information Block
DEPT.FT            0 000 00 00: Depth
DCAL.in                       : CDL Caliper
RHOB.g/cc                     : CDL Bulk Density
RHOC.g/cc                     : CDL Density Correction
DPOR.pu                       : CDL Density Porosity
NPOR.pu                       : Neutron Porosity
GR.GAPI                       : Gamma Ray
~Parameter Information Block
~A  Depth       DCAL        RHOB        RHOC        DPOR        NPOR         GR     
# ...
   941.0000      8.1677      2.5561      0.1333      5.6892     24.7689    115.1727
   941.1000      8.1677      2.5521      0.0872      5.9350     24.8355    112.0753
   941.2000      8.1677      2.5502      0.1104      6.0488     25.2182    113.4437
   941.3000      8.1685      2.5455      0.0959      6.3315     25.9487    119.3564
   941.4000      8.1685      2.5302      0.1022      7.2589     26.3603    121.9375
   941.5000      8.1692      2.5051      0.0675      8.7798     25.9840    119.9768
   941.6000      8.1692      2.4754      0.0700     10.5813     25.3726    119.3793
   941.7000      8.1692      2.4486      0.0042     12.2063     25.0110    122.2074
   941.8000      8.1684      2.4345      0.0396     13.0607     24.7165    126.0202
   941.9000      8.1684      2.4349      0.0381     13.0342     24.2065    129.8045
   942.0000      8.1674      2.4424      0.0448     12.5812     23.3761    133.4149
   942.1000      8.1674      2.4500      0.0635     12.1194     22.4216    134.4646
   942.2000      8.1674      2.4578      0.0977     11.6470     21.5987    133.7918
   942.3000      8.1688      2.4699      0.0963     10.9171     21.2250    133.1785
   942.4000      8.1688      2.4904      0.1321      9.6728     21.3789    130.1946
   942.5000      8.1707      2.5158      0.1479      8.1314     21.4531    125.0285
   942.6000      8.1707      2.5355      0.1670      6.9380     21.0672    121.0431
   942.7000      8.1707      2.5458      0.1597      6.3146     20.7628    117.8595
   942.8000      8.1689      2.5525      0.1347      5.9083     20.8788    115.9169
   942.9000      8.1689      2.5601      0.1294      5.4492     20.9426    119.1564
   943.0000      8.1663      2.5686      0.0826      4.9352     20.8787    123.7325
   943.1000      8.1663      2.5757      0.0829      4.5048     21.2010    123.1182
   943.2000      8.1663      2.5808      0.0535      4.1951     21.8168    119.1651
   943.3000      8.1650      2.5912      0.0351      3.5626     22.3829    114.1407
   943.4000      8.1650      2.6059      0.0970      2.6738     22.9848    107.2231
   943.5000      8.1636      2.6117      0.0834      2.3185     23.6264    100.3083
   943.6000      8.1636      2.6095      0.0716      2.4552     24.0721     97.9332
   943.7000      8.1636      2.6087      0.0574      2.5055     24.2281     98.9759
   943.8000      8.1625      2.6102      0.0496      2.4145     24.2610     97.7958
   943.9000      8.1625      2.6071      0.0744      2.6025     24.4120     94.6138
   944.0000      8.1619      2.5967      0.0439      3.2324     24.7298     94.0005
   944.1000      8.1619      2.5903      0.0461      3.6200     25.1987     95.7427
   944.2000      8.1619      2.5954      0.0726      3.3112     25.7956     96.3014
   944.3000      8.1621      2.6044      0.0362      2.7666     26.3240     96.2238
   944.4000      8.1621      2.6073      0.0713      2.5853     26.7056     96.9413
   944.5000      8.1634      2.6023      0.0519      2.8924     26.7523     97.3095
   944.6000      8.1634      2.5982      0.0717      3.1399     26.3371     98.7975
   944.7000      8.1634      2.6004      0.0662      3.0036     25.8745    101.1498
   944.8000      8.1647      2.6003      0.0941      3.0137     25.7832     99.8403
   944.9000      8.1647      2.5891      0.0691      3.6914     25.9338     96.2006
   945.0000      8.1661      2.5739      0.0286      4.6149     25.8288     94.6008
   945.1000      8.1661      2.5635      0.0663      5.2429     25.4809     94.5454
   945.2000      8.1661      2.5562      0.0791      5.6848     25.4162     96.2686
   945.3000      8.1678      2.5495      0.0860      6.0885     25.6102     99.7873
   945.4000      8.1678      2.5447      0.0844      6.3813     25.5342    100.8574
   945.5000      8.1679      2.5410      0.0738      6.6059     24.9738     98.9047
   945.6000      8.1679      2.5324      0.1108      7.1290     24.2672     97.9515
   945.7000      8.1679      2.5230      0.0145      7.6951     23.8681     99.5246
   945.8000      8.1677      2.5318      0.0764      7.1609     24.0395    102.0431
   945.9000      8.1677      2.5539      0.1325      5.8265     24.6281    104.0605
   946.0000      8.1671      2.5663      0.0927      5.0714     25.2198    107.0832
   946.1000      8.1671      2.5625      0.0887      5.3047     25.7249    112.7707
   946.2000      8.1671      2.5490      0.0781      6.1189     26.0829    118.1921
   946.3000      8.1661      2.5355      0.0689      6.9372     26.1492    117.8662
   946.4000      8.1661      2.5212      0.0832      7.8035     26.1240    110.6431
   946.5000      8.1668      2.4974      0.0405      9.2490     26.1584    102.5478
   946.6000      8.1668      2.4717      0.0218     10.8050     26.0398    100.7005
   946.7000      8.1668      2.4603      0.0599     11.4945     25.7901    105.8747
   946.8000      8.1673      2.4578      0.0784     11.6487     25.6404    114.4705
   946.9000      8.1673      2.4562      0.0457     11.7448     25.4112    121.5463
   947.0000      8.1651      2.4678      0.0594     11.0397     24.8229    122.7596
   947.1000      8.1651      2.4992      0.0968      9.1395     24.1879    118.9969
   947.2000      8.1651      2.5380      0.0825      6.7862     24.0336    114.5504
   947.3000      8.1629      2.5623      0.1668      5.3155     24.3455    112.7510
   947.4000      8.1629      2.5679      0.1231      4.9753     24.7177    114.0988
   947.5000      8.1640      2.5806      0.1613      4.2073     24.8292    117.8264
   947.6000      8.1640      2.6060      0.1888      2.6697     24.6670    122.5809
   947.7000      8.1640      2.6294      0.1342      1.2481     24.5008    125.9099
   947.8000      8.1678      2.6535      0.1512     -0.2141     24.2931    126.0257
   947.9000      8.1678      2.6828      0.1373     -1.9894     23.9292    124.3552
   948.0000      8.1696      2.7073      0.2077     -3.4733     23.8436    123.3489
   948.1000      8.1696      2.7109      0.2075     -3.6888     24.1974    121.5290
   948.2000      8.1696      2.6898      0.1191     -2.4144     24.6865    118.9378
   948.3000      8.1707      2.6598      0.0800     -0.5940     25.2286    115.3541
   948.4000      8.1707      2.6427      0.0412      0.4438     25.6975    109.6979
   948.5000      8.1771      2.6478      0.0343      0.1339     25.8939    105.5726
   948.6000      8.1771      2.6441      0.0719      0.3588     25.7205    104.8665
   948.7000      8.1771      2.5957     -0.0125      3.2924     25.3241    105.1512
   948.8000      8.1872      2.5309     -0.0487      7.2186     24.9047    104.4946
   948.9000      8.1872      2.4971     -0.0480      9.2648     24.5129    103.5435
   949.0000      8.1916      2.4993      0.0284      9.1352     24.3273    103.3642
   949.1000      8.1916      2.5210      0.0395      7.8195     24.5127    104.7944
   949.2000      8.1916      2.5472      0.0626      6.2305     24.9383    108.2586
   949.3000      8.1903      2.5628      0.0870      5.2820     25.3202    110.7463
   949.4000      8.1903      2.5676      0.0278      4.9920     25.6950    109.7069
   949.5000      8.1894      2.5814      0.0556      4.1559     26.3621    108.1416
   949.6000      8.1894      2.6151      0.0867      2.1162     27.3144    109.5930
   949.7000      8.1894      2.6536      0.1305     -0.2184     28.1390    111.9599
   949.8000      8.1909      2.6754      0.1265     -1.5375     28.4004    113.6575
   949.9000      8.1909      2.6790      0.0953     -1.7595     28.1498    115.2363
   950.0000      8.1924      2.6817      0.0474     -1.9193     27.7988    116.3640
   950.1000      8.1924      2.7000      0.0398     -3.0320     27.5475    119.3529
   950.2000      8.1924      2.7302      0.1033     -4.8635     27.2239    123.7229
   950.3000      8.1930      2.7497      0.1007     -6.0417     26.7378    126.2764
   950.4000      8.1930      2.7441      0.1089     -5.7007     26.4866    127.0585
   950.5000      8.1948      2.7194      0.0979     -4.2066     26.6381    127.4095
