~Version Information
VERS.                      2.0: CWLS Log ASCII Standard - VERSION 2.0
WRAP.                       NO: One line per depth step
~Well Information Block
STRT.FT               -17.7500: 
STOP.FT              1590.5000: 
STEP.FT                 0.2500: 
NULL.                -999.2500: 
COMP.          Petrogulf Corporation: COMPANY
WELL.          Great Plains 22-21V: WELL
FLD.           Purgatorie River: FIELD
LOC.           63' FNL & 1895' FWL--: LOCATION
CNTY.               Las Animas: COUNTY
SRVC.          Superior Well Services: SERVICE COMPANY
DATE.          Fri Dec 08 14:45:19 2006: LOG DATE
UWI.           05 071 08346 00: UNIQUE WELL ID
STAT.                       CO: STATE
~Curve Information Block
DEPT.FT            0 000 00 00: Depth
CCL.                          : Casing Collar Locator
TT3.usec                      : CBL 3' Travel Time
AMP3.mV                       : CBL 3' Amplitude
GR.GAPI                       : Gamma Ray
~Parameter Information Block
~A  Depth       CCL         TT3         AMP3         GR     
# ...
    82.7500      0.0000    260.7098     72.5139     92.4069
    83.0000      0.0000    260.7190     72.4492     88.5919
    83.2500      0.0000    260.7292     72.4344     85.3817
    83.5000      0.0000    260.7398     72.4783     83.7204
    83.7500      0.0000    260.7475     72.5581     83.2292
    84.0000      0.0000    260.7501     72.6409     82.6091
    84.2500      0.0000    260.7498     72.7141     80.7781
    84.5000      0.0000    260.7534     72.7879     77.7356
    84.7500      0.0000    260.7651     72.8696     74.5048
    85.0000      0.0000    260.7831     72.9465     72.4419
    85.2500      0.0000    260.8022     72.9971     72.4811
    85.5000      0.0000    260.8180     73.0100     74.7395
    85.7500      0.0000    260.8252     72.9843     78.5872
    86.0000      0.0000    260.8188     72.9243     82.9790
    86.2500      0.0000    260.7995     72.8448     86.7000
    86.5000      0.0000    260.7759     72.7669     88.4668
    86.7500      0.0000    260.7540     72.6976     87.3307
    87.0000      0.0000    260.7307     72.6265     83.5944
    87.2500      0.0000    260.7042     72.5582     79.2049
    87.5000      0.0000    260.6857     72.5310     76.5296
    87.7500      0.0000    260.6908     72.5823     76.5189
    88.0000      0.0000    260.7188     72.7024     78.3893
    88.2500      0.0000    260.7502     72.8371     80.8818
    88.5000      0.0000    260.7637     72.9330     83.2002
    88.7500      0.0000    260.7520     72.9680     84.9171
    89.0000      0.0000    260.7227     72.9513     85.8932
    89.2500      0.0000    260.6910     72.9108     86.6276
    89.5000      0.0000    260.6702     72.8785     88.0742
    89.7500      0.0000    260.6649     72.8722     90.5874
    90.0000      0.0000    260.6678     72.8771     93.2576
    90.2500      0.0000    260.6656     72.8484     94.5392
    90.5000      0.0000    260.6510     72.7432     93.4879
    90.7500      0.0000    260.6300     72.5610     90.3680
    91.0000      0.0000    260.6162     72.3525     86.3257
    91.2500      0.0000    260.6181     72.1893     82.8226
    91.5000      0.0000    260.6357     72.1269     81.3092
    91.7500      0.0000    260.6656     72.1845     82.8074
    92.0000      0.0000    260.7036     72.3416     87.1234
    92.2500      0.0000    260.7413     72.5437     92.4566
    92.5000      0.0000    260.7632     72.7235     96.2730
    92.7500      0.0000    260.7572     72.8326     96.8409
    93.0000      0.0000    260.7284     72.8676     94.0238
    93.2500      0.0000    260.6996     72.8682     89.0972
    93.5000      0.0000    260.6911     72.8813     84.1347
    93.7500      0.0000    260.7044     72.9211     80.9900
    94.0000      0.0000    260.7249     72.9623     80.1842
    94.2500      0.0000    260.7378     72.9719     80.8263
    94.5000      0.0000    260.7397     72.9437     81.6392
    94.7500      0.0000    260.7356     72.8993     81.8300
    95.0000      0.0000    260.7283     72.8607     81.3020
    95.2500      0.0000    260.7147     72.8329     80.6166
    95.5000      0.0000    260.6924     72.8134     80.7330
    95.7500      0.0000    260.6674     72.8100     82.4085
    96.0000      0.0000    260.6524     72.8374     85.7719
    96.2500      0.0000    260.6559     72.8966     90.4888
    96.5000      0.0000    260.6737     72.9669     95.9300
    96.7500      0.0000    260.6929     73.0219    100.7210
    97.0000      0.0000    260.7036     73.0509    102.5169
    97.2500      0.0000    260.7047     73.0630     99.3182
    97.5000      0.0000    260.7000     73.0716     91.5451
    97.7500      0.0000    260.6925     73.0850     82.3505
    98.0000      0.0000    260.6858     73.1077     75.3819
    98.2500      0.0000    260.6843     73.1423     72.3824
    98.5000      0.0000    260.6892     73.1826     72.8964
    98.7500      0.0000    260.6955     73.2106     75.4783
    99.0000      0.0000    260.6962     73.2032     78.6495
    99.2500      0.0000    260.6871     73.1428     81.2577
    99.5000      0.0000    260.6689     73.0302     82.7561
    99.7500      0.0000    260.6476     72.8940     83.3142
   100.0000      0.0000    260.6328     72.7798     83.4243
   100.2500      0.0000    260.6295     72.7176     83.2538
   100.5000      0.0000    260.6325     72.6953     82.4529
   100.7500      0.0000    260.6293     72.6715     80.7061
   101.0000      0.0000    260.6118     72.6139     78.3316
   101.2500      0.0000    260.5841     72.5290     76.1135
   101.5000      0.0000    260.5611     72.4621     74.7315
   101.7500      0.0000    260.5598     72.4694     74.6318
   102.0000      0.0000    260.5844     72.5657     76.1098
   102.2500      0.0000    260.6190     72.6858     78.9069
   102.5000      0.0000    260.6392     72.7123     81.8061
   102.7500      0.0000    260.6346     72.5360     83.3948
   103.0000      0.0000    260.6220     72.0569     83.5725
   103.2500      0.0000    260.6466     71.1036     83.8102
   103.5000      0.0000    260.7912     69.4149     85.5156
   103.7500      0.0000    261.1779     66.8196     88.5015
   104.0000      0.0000    261.9191     63.4842     91.4651
   104.2500      0.0000    263.0172     59.9129     93.5601
   104.5000      0.0000    264.3056     56.6464     94.7813
   104.7500      0.0000    265.5156     53.9973     94.9326
   105.0000      0.0000    266.4294     52.0438     93.2621
   105.2500      0.0000    266.9863     50.7351     89.7298
   105.5000      0.0000    267.2636     49.9444     85.9365
   105.7500      0.0000    267.3851     49.4973     83.9592
   106.0000     -2.0000    267.4502     49.1977     84.4553
   106.2500      0.0000    267.5009     48.8754     86.3031
   106.5000      0.0000    267.4873     48.4951     87.6727
   106.7500      0.0000    267.2435     48.2889     87.0311
   107.0000      0.0000    266.5633     48.7686     83.7202
   107.2500      0.0000    265.3874     50.5240     78.3725
   107.5000      0.0000    263.9186     53.8670     72.7701
   107.7500      0.0000    262.5049     58.4639     68.8773
   108.0000      0.0000    261.4102     63.2980     67.7002
   108.2500      0.0000    260.7045     67.2208     68.8962
   108.5000      0.0000    260.3146     69.6745     71.4015
   108.7500      0.0000    260.1223     70.8578     74.4619
   109.0000      0.0000    260.0324     71.2977     77.9436
   109.2500      0.0000    259.9931     71.4130     81.6008
   109.5000      0.0000    259.9825     71.4092     84.4306
   109.7500      0.0000    259.9867     71.3710     85.1739
   110.0000      0.0000    259.9948     71.3360     83.3428
   110.2500      0.0000    260.0020     71.3197     79.5660
   110.5000      0.0000    260.0089     71.3233     75.0427
   110.7500      0.0000    260.0154     71.3464     70.8557
   111.0000      0.0000    260.0182     71.3877     67.9376
   111.2500      0.0000    260.0167     71.4348     67.4106
   111.5000      0.0000    260.0164     71.4628     70.0530
   111.7500      0.0000    260.0247     71.4546     75.0224
   112.0000      0.0000    260.0412     71.4193     79.7863
   112.2500      0.0000    260.0562     71.3826     81.9066
   112.5000      0.0000    260.0587     71.3633     80.6188
   112.7500      0.0000    260.0445     71.3666     76.6189
   113.0000      0.0000    260.0164     71.3933     71.0305
   113.2500      0.0000    259.9807     71.4401     64.8963
   113.5000      0.0000    259.9473     71.4894     58.9778
   113.7500      0.0000    259.9292     71.5111     53.5652
   114.0000      0.0000    259.9347     71.4856     48.7458
   114.2500      0.0000    259.9586     71.4279     44.9866
   114.5000      0.0000    259.9838     71.3810     43.1632
   114.7500      0.0000    259.9959     71.3776     43.8287
   115.0000      0.0000    259.9948     71.4053     46.4204
   115.2500      0.0000    259.9915     71.4118     49.1984
   115.5000      0.0000    259.9967     71.3500     50.2135
   115.7500      0.0000    260.0109     71.2208     48.5927
   116.0000      0.0000    260.0255     71.0727     44.9491
