~Version Information
VERS.                      2.0: CWLS Log ASCII Standard - VERSION 2.0
WRAP.                       NO: One line per depth step
~Well Information Block
STRT.FT               400.0000: 
STOP.FT              2201.0000: 
STEP.FT                 0.1000: 
NULL.                -999.2500: 
COMP.          Evergreen Operating Corporation: COMPANY
WELL.            Triumph 13-10: WELL
FLD.           Purgatorie River: FIELD
LOC.           1551' FSL & 522' FWL: LOCATION
PROV.                 Colorado: PROVINCE
CNTY.               Las Animas: COUNTRY
SRVC.                Patterson: SERVICE COMPANY
DATE.          Mon Jul 26 07:55:18 2004: LOG DATE
UWI.           05 071 08108 00: UNIQUE WELL ID
~Curve Information Block
DEPT.FT            0 000 00 00: Depth
DCAL.in                       : CDL Caliper
RHOB.g/cc                     : CDL Bulk Density
RHOC.g/cc                     : CDL Density Correction
DPOR.pu                       : CDL Density Porosity
NPOR.pu                       : Neutron Porosity
GR.GAPI                       : Gamma Ray
~Parameter Information Block
~A  Depth       DCAL        RHOB        RHOC        DPOR        NPOR         GR     
# ...
  2051.2000      7.9312      2.5915      0.0401      3.5476     19.9817     81.9047
  2051.3000      7.9253      2.5808      0.0439      4.1941     20.7242     81.1678
  2051.4000      7.9253      2.5731      0.0437      4.6633     21.5644     78.9285
  2051.5000      7.9211      2.5679      0.0455      4.9785     21.5159     73.4666
  2051.6000      7.9211      2.5620      0.0785      5.3325     21.1564     69.4788
  2051.7000      7.9211      2.5539      0.0344      5.8238     21.3884     71.6373
  2051.8000      7.9228      2.5470      0.0135      6.2396     22.0685     75.7503
  2051.9000      7.9228      2.5419      0.0461      6.5506     22.3488     76.4852
  2052.0000      7.9197      2.5362     -0.0183      6.8988     22.0444     75.7708
  2052.1000      7.9197      2.5353      0.0075      6.9486     21.7214     77.6599
  2052.2000      7.9197      2.5393      0.0338      6.7085     21.7195     80.5325
  2052.3000      7.9289      2.5394      0.0343      6.7058     21.7459     78.9891
  2052.4000      7.9289      2.5361      0.0002      6.9015     21.2371     72.3348
  2052.5000      7.9356      2.5360      0.0135      6.9120     20.4732     68.3512
  2052.6000      7.9356      2.5356      0.0340      6.9306     20.2208     73.1091
  2052.7000      7.9356      2.5324     -0.0050      7.1263     20.4928     80.3850
  2052.8000      7.9559      2.5305      0.0387      7.2451     20.8144     83.6161
  2052.9000      7.9559      2.5312      0.0227      7.2003     20.9153     87.4956
  2053.0000      7.9640      2.5410     -0.0001      6.6075     20.8887     92.1917
  2053.1000      7.9640      2.5612      0.0731      5.3810     20.7483     93.2688
  2053.2000      7.9640      2.5750      0.0800      4.5430     20.5028     92.9748
  2053.3000      7.9579      2.5778      0.0222      4.3766     20.5192     94.3624
  2053.4000      7.9579      2.5822      0.0257      4.1068     20.7797     93.8695
  2053.5000      7.9610      2.5869      0.0332      3.8219     20.7662     87.8679
  2053.6000      7.9610      2.5788      0.0847      4.3149     20.4378     79.7602
  2053.7000      7.9610      2.5552      0.0744      5.7425     20.1073     72.0513
  2053.8000      7.9637      2.5336      0.0111      7.0531     19.8478     64.9572
  2053.9000      7.9637      2.5341      0.0460      7.0258     19.8393     61.0090
  2054.0000      7.9600      2.5471      0.0630      6.2353     20.2774     59.2531
  2054.1000      7.9600      2.5504      0.0368      6.0342     20.7142     56.0561
  2054.2000      7.9600      2.5467      0.0119      6.2621     20.6654     52.8716
  2054.3000      7.9637      2.5492      0.0274      6.1067     20.2281     54.5721
  2054.4000      7.9637      2.5574      0.0458      5.6124     20.0448     61.8855
  2054.5000      7.9619      2.5692      0.0451      4.8963     20.0767     66.7643
  2054.6000      7.9619      2.5819      0.0382      4.1299     19.5685     65.3517
  2054.7000      7.9619      2.5804      0.0719      4.2153     19.0037     64.4025
  2054.8000      7.9635      2.5587      0.0342      5.5341     19.1855     65.6425
  2054.9000      7.9635      2.5330      0.0255      7.0904     19.6198     65.3397
  2055.0000      7.9576      2.5224     -0.0400      7.7335     19.8498     61.8743
  2055.1000      7.9576      2.5275      0.0291      7.4238     20.2169     56.1901
  2055.2000      7.9576      2.5332      0.0155      7.0763     20.9275     52.9187
  2055.3000      7.9570      2.5387     -0.0100      6.7472     21.6722     51.6230
  2055.4000      7.9570      2.5537      0.0271      5.8345     21.9320     49.1730
  2055.5000      7.9371      2.5716      0.0408      4.7506     21.7013     47.5435
  2055.6000      7.9371      2.5785      0.0688      4.3309     21.5489     47.4485
  2055.7000      7.9371      2.5735      0.0332      4.6370     21.9023     47.8250
  2055.8000      7.9261      2.5637      0.0446      5.2274     22.4564     48.8745
  2055.9000      7.9261      2.5543      0.0194      5.7976     22.5032     52.6102
  2056.0000      7.9329      2.5450      0.0370      6.3639     21.7608     59.8786
  2056.1000      7.9329      2.5332      0.0387      7.0802     20.7339     66.8989
  2056.2000      7.9329      2.5264      0.0260      7.4899     20.2062     66.0822
  2056.3000      7.9375      2.5267      0.0879      7.4745     20.3153     56.7421
  2056.4000      7.9375      2.5232      0.0572      7.6832     20.7993     47.3202
  2056.5000      7.9358      2.5171      0.0780      8.0524     21.4827     43.0151
  2056.6000      7.9358      2.5135      0.0650      8.2705     22.2005     42.6618
  2056.7000      7.9358      2.5129      0.0479      8.3110     22.6515     44.7970
  2056.8000      7.9341      2.5170      0.0536      8.0626     22.7835     48.3754
  2056.9000      7.9341      2.5192      0.0848      7.9277     22.7599     50.9223
  2057.0000      7.9417      2.5124      0.0475      8.3403     22.5802     49.7513
  2057.1000      7.9417      2.5044      0.0273      8.8233     22.3829     45.2157
  2057.2000      7.9417      2.4995      0.0249      9.1240     22.4237     42.6657
  2057.3000      7.9805      2.5022      0.0001      8.9586     22.6055     43.6368
  2057.4000      7.9805      2.5224      0.0131      7.7321     22.8498     43.7788
  2057.5000      7.9899      2.5382      0.0909      6.7751     23.4117     40.6307
  2057.6000      7.9899      2.5076      0.0671      8.6322     24.1841     37.3808
  2057.7000      7.9899      2.4329      0.0246     13.1582     24.7728     40.6347
  2057.8000      7.9393      2.3554     -0.0355     17.8553     25.4258     48.3796
  2057.9000      7.9393      2.2947     -0.0613     21.5359     26.3681     53.8879
  2058.0000      7.9319      2.2469     -0.0476     24.4308     27.2298     58.7984
  2058.1000      7.9319      2.2216     -0.0456     25.9629     27.8602     66.2100
  2058.2000      7.9319      2.2246      0.0376     25.7831     28.3779     73.5805
  2058.3000      7.9357      2.2319      0.0682     25.3397     28.6199     76.3736
  2058.4000      7.9357      2.2257      0.0618     25.7156     28.2968     75.3556
  2058.5000      7.9978      2.2177      0.0740     26.1974     28.0135     75.7864
  2058.6000      7.9978      2.2205      0.1546     26.0319     28.4047     79.7501
  2058.7000      7.9978      2.2324      0.1449     25.3066     28.8247     83.8598
  2058.8000      8.0854      2.2607      0.0305     23.5948     28.5204     84.0745
  2058.9000      8.0854      2.3129      0.0497     20.4310     27.7239     85.8956
  2059.0000      7.9721      2.3698      0.0726     16.9799     27.2411     91.1534
  2059.1000      7.9721      2.4055      0.0725     14.8157     27.3024     91.7417
  2059.2000      7.9721      2.4199      0.0372     13.9462     27.5866     91.2896
  2059.3000      7.9314      2.4312      0.0481     13.2631     27.8980     97.2869
  2059.4000      7.9314      2.4481      0.0871     12.2384     28.0033    104.4997
  2059.5000      7.9324      2.4679      0.0583     11.0344     27.9193    109.1235
  2059.6000      7.9324      2.4882      0.0437      9.8039     27.8262    115.2859
  2059.7000      7.9324      2.5011      0.0463      9.0240     27.7158    125.1966
  2059.8000      7.9292      2.4994      0.0802      9.1282     27.5230    131.8613
  2059.9000      7.9292      2.4922      0.0047      9.5608     27.3572    128.2230
  2060.0000      7.9198      2.4906      0.0178      9.6629     27.3247    120.3533
  2060.1000      7.9198      2.4889      0.0361      9.7616     27.4286    115.6970
  2060.2000      7.9198      2.4853      0.0064      9.9807     27.4994    109.1862
  2060.3000      7.9080      2.4896      0.0088      9.7188     27.2597     98.4846
  2060.4000      7.9080      2.5043      0.0820      8.8314     26.8473     91.4591
  2060.5000      7.9031      2.5209      0.0367      7.8272     26.6295     94.0819
  2060.6000      7.9031      2.5298      0.0783      7.2847     26.9750    102.8486
  2060.7000      7.9031      2.5282      0.0346      7.3828     27.8705    109.9177
