~Version Information
VERS.                      2.0: CWLS Log ASCII Standard - VERSION 2.0
WRAP.                       NO: One line per depth step
~Well Information Block
STRT.FT               -16.5000: 
STOP.FT              1244.7500: 
STEP.FT                 0.2500: 
NULL.                -999.2500: 
COMP.          Pioneer Natural Resources: COMPANY
WELL.          Bouncer41-27 Tr: WELL
FLD.           Purgatorie River: FIELD
LOC.           292' FNL & 222' FEL--------: LOCATION
PROV.                       CO: PROVINCE
CNTY.               Las Animas: COUNTRY
SRVC.                         : SERVICE COMPANY
DATE.          Fri Feb 11 15:34:51 2005: LOG DATE
UWI.                071-08291 : UNIQUE WELL ID
~Curve Information Block
DEPT.FT            0 000 00 00: Depth
CCL.                          : Casing Collar Locator
TT3.usec                      : CBL 3' Travel Time
AMP3.mV                       : CBL 3' Amplitude
GR.GAPI                       : Gamma Ray
~Parameter Information Block
~A  Depth       CCL         TT3         AMP3         GR     
# ...
   318.5000      0.0000    766.3245      5.5414    102.1127
   318.7500      0.0000    776.2629      5.3698     99.2756
   319.0000      0.0000    783.5416      5.2361     98.4790
   319.2500      0.0000    787.2169      5.1264    101.8854
   319.5000      0.0000    786.3527      5.0395    110.1592
   319.7500      0.0000    780.8875      4.9816    121.0745
   320.0000      0.0000    772.0810      4.9605    130.4548
   320.2500      0.0000    762.2565      4.9868    134.9551
   320.5000      0.0000    753.7875      5.0720    134.1262
   320.7500      0.0000    747.9703      5.2246    130.1348
   321.0000      0.0000    744.7000      5.4460    125.6883
   321.2500      0.0000    743.1044      5.7190    121.9440
   321.5000      0.0000    742.4052      5.9907    118.2113
   321.7500      0.0000    742.3781      6.1816    113.6425
   322.0000      0.0000    743.4085      6.2285    108.9077
   322.2500      0.0000    746.2769      6.1276    105.9051
   322.5000      0.0000    751.5687      5.9345    106.0034
   322.7500      0.0000    758.7617      5.7241    108.8632
   323.0000      0.0000    765.8217      5.5499    112.9394
   323.2500      0.0000    770.3167      5.4387    116.8157
   323.5000      0.0000    771.5389      5.4057    119.6981
   323.7500      0.0000    771.3101      5.4568    120.8325
   324.0000      0.0000    772.0856      5.5718    119.4083
   324.2500      0.0000    774.1844      5.6945    115.5848
   324.5000      0.0000    775.3224      5.7508    110.9197
   324.7500      0.0000    773.0583      5.6903    107.2485
   325.0000      0.0000    767.4435      5.5266    105.5049
   325.2500      0.0000    760.8917      5.3389    105.6455
   325.5000      0.0000    755.4820      5.2257    106.9763
   325.7500      0.0000    751.2625      5.2485    108.3321
   326.0000      0.0000    747.7612      5.4098    108.4827
   326.2500      0.0000    746.0305      5.6677    106.7568
   326.5000      0.0000    747.9246      5.9623    103.3346
   326.7500      0.0000    753.8472      6.2331     99.0700
   327.0000      0.0000    762.0276      6.4278     95.1877
   327.2500      0.0000    769.5338      6.5066     93.0281
   327.5000      0.0000    773.5663      6.4548     93.6213
   327.7500      0.0000    772.5749      6.3005     97.0210
   328.0000      0.0000    767.2665      6.1121    101.8637
   328.2500      0.0000    760.5430      5.9593    105.8841
   328.5000      0.0000    755.7099      5.8663    107.4048
   328.7500      0.0000    754.5892      5.8068    106.5613
   329.0000      0.0000    757.5104      5.7454    105.0822
   329.2500      0.0000    764.0824      5.6719    105.0312
   329.5000      0.0000    772.8127      5.5910    107.6250
   329.7500      0.0000    780.5923      5.4977    112.6555
   330.0000      0.0000    784.0411      5.3860    118.6604
   330.2500      0.0000    781.9410      5.2744    123.9078
   330.5000      0.0000    776.3575      5.2010    127.5789
   330.7500      0.0000    771.2998      5.1868    130.1173
   331.0000      0.0000    769.8274      5.2173    132.4387
   331.2500      0.0000    771.9893      5.2603    134.9204
   331.5000      0.0000    775.4221      5.2864    137.2309
   331.7500      0.0000    777.6440      5.2744    138.9156
   332.0000      0.0000    777.6442      5.2184    139.8699
   332.2500      0.0000    775.8271      5.1351    140.2798
   332.5000      0.0000    773.2827      5.0511    140.2459
   332.7500      0.0000    770.8593      4.9709    139.5805
   333.0000      0.0000    768.1637      4.8692    138.1499
   333.2500      0.0000    763.8884      4.7299    136.3074
   333.5000      0.0000    757.9976      4.5873    134.6043
   333.7500      0.0000    752.6794      4.5081    132.9649
   334.0000      0.0000    750.0285      4.5259    130.6468
   334.2500      0.0000    749.6378      4.6091    127.2684
   334.5000      0.0000    749.6487      4.6997    123.4145
   334.7500      2.0000    749.2914      4.7663    120.0692
   335.0000      0.0000    749.0406      4.8150    117.9325
   335.2500      0.0000    748.8137      4.8674    117.2390
   335.5000      0.0000    747.5423      4.9391    117.5040
   335.7500      0.0000    744.9340      5.0227    117.3434
   336.0000      0.0000    743.0482      5.0824    115.2976
   336.2500      0.0000    745.1682      5.0876    111.3163
   336.5000      0.0000    752.4548      5.0571    107.2510
   336.7500      0.0000    762.2583      5.0452    105.6464
   337.0000      0.0000    770.6996      5.0829    107.8984
   337.2500      0.0000    776.3936      5.1566    113.1245
   337.5000      0.0000    780.6498      5.2400    118.5647
   337.7500      0.0000    784.6561      5.3226    121.5448
   338.0000      0.0000    787.8077      5.4073    121.6687
   338.2500      0.0000    788.6453      5.4922    120.9304
   338.5000      0.0000    786.3717      5.5636    121.3530
   338.7500      0.0000    781.3547      5.6065    122.7886
   339.0000      0.0000    774.8950      5.6212    123.3687
   339.2500      0.0000    768.6198      5.6207    121.7719
   339.5000      0.0000    763.5138      5.6108    118.6577
   339.7500      0.0000    759.3187      5.5831    116.0215
   340.0000      0.0000    755.1264      5.5324    115.5528
   340.2500      0.0000    750.3320      5.4716    117.6935
   340.5000      0.0000    744.6522      5.4217    121.8077
   340.7500      0.0000    737.7113      5.3919    126.5671
   341.0000      0.0000    729.4253      5.3752    130.0740
   341.2500      0.0000    720.8072      5.3590    130.3451
   341.5000      0.0000    713.8807      5.3358    126.5065
   341.7500      0.0000    710.5979      5.3069    119.5973
   342.0000      0.0000    711.4695      5.2809    111.7908
   342.2500      0.0000    714.1766      5.2666    104.8753
   342.5000      0.0000    712.3279      5.2702     99.6352
   342.7500      0.0000    696.3209      5.2976     96.0957
   343.0000      0.0000    658.9310      5.3549     93.8501
   343.2500      0.0000    604.3786      5.4352     92.4314
   343.5000      0.0000    552.3657      5.5089     91.5957
   343.7500      0.0000    528.2859      5.5371     91.1985
   344.0000      0.0000    544.3666      5.5010     90.9917
   344.2500      0.0000    589.7723      5.4157     90.6454
   344.5000      0.0000    640.3640      5.3161     89.7032
   344.7500      0.0000    677.5281      5.2337     87.4925
   345.0000      0.0000    697.7338      5.1846     83.4417
   345.2500      0.0000    708.0732      5.1726     77.6015
   345.5000      0.0000    717.0137      5.1957     70.6705
   345.7500      0.0000    728.6591      5.2467     63.5923
   346.0000      0.0000    741.5599      5.3120     57.2516
   346.2500      0.0000    750.9221      5.3724     52.4279
   346.5000      0.0000    753.0113      5.4079     49.9334
   346.7500      0.0000    748.7782      5.4033     50.9225
   347.0000      0.0000    743.1673      5.3521     56.8207
   347.2500      0.0000    740.7809      5.2594     68.3020
   347.5000      0.0000    742.2905      5.1448     84.1137
   347.7500      0.0000    744.7708      5.0346    101.3566
   348.0000      0.0000    745.0749      4.9483    117.0870
   348.2500      0.0000    742.7542      4.8926    129.4499
   348.5000      0.0000    739.7891      4.8669    137.6294
   348.7500      0.0000    737.8818      4.8691    141.4556
   349.0000      0.0000    736.7135      4.8972    141.1722
   349.2500      0.0000    734.9296      4.9479    137.2878
   349.5000      0.0000    732.1475      5.0086    130.7051
   349.7500      0.0000    729.5651      5.0498    123.1921
   350.0000      0.0000    728.8710      5.0348    117.3234
   350.2500      0.0000    730.8487      4.9464    115.1393
   350.5000      0.0000    734.8082      4.8036    116.5955
   350.7500      0.0000    739.1278      4.6478    119.7915
   351.0000      0.0000    742.3871      4.5155    122.7112
   351.2500      0.0000    744.1495      4.4252    124.1936
   351.5000      0.0000    744.8116      4.3790    123.4690
   351.7500      0.0000    744.9548      4.3705    119.8685
