~Version Information
VERS.                      2.0: CWLS Log ASCII Standard - VERSION 2.0
WRAP.                       NO: One line per depth step
~Well Information Block
STRT.FT                -5.5000: 
STOP.FT              1979.7500: 
STEP.FT                 0.2500: 
NULL.                -999.2500: 
COMP.          Pioneer Natural Resources: COMPANY
WELL.          Bucksnort 41-35: WELL
FLD.           Purgatorie River: FIELD
LOC.           117' FNL & 463' FEL: LOCATION
PROV.                 Colorado: PROVINCE
CNTY.               Las Animas: COUNTRY
SRVC.                Patterson: SERVICE COMPANY
DATE.          Fri Jul 29 10:31:46 2005: LOG DATE
UWI.                          : UNIQUE WELL ID
~Curve Information Block
DEPT.FT            0 000 00 00: Depth
GR.GAPI                       : Gamma Ray
CCL.                          : Casing Collar Locator
TT3.usec                      : CBL 3' Travel Time
AMP3.mV                       : CBL 3' Amplitude
~Parameter Information Block
~A  Depth        GR         CCL         TT3         AMP3    
# ...
   899.0000     97.9513      0.0000    651.5276      9.8398
   899.2500    101.9530      0.0000    620.6948     10.0494
   899.5000    106.7901      0.0000    591.6830     10.2554
   899.7500    110.2992      0.0000    589.3583     10.3308
   900.0000    111.3545      0.0000    616.2942     10.2090
   900.2500    110.5407      0.0000    648.7314      9.9604
   900.5000    109.7061      0.0000    668.0115      9.7426
   900.7500    110.5014      0.0000    674.8192      9.6943
   901.0000    112.9451      0.0000    676.4711      9.8188
   901.2500    115.2003      0.0000    677.0024      9.9873
   901.5000    114.9184      0.0000    677.3799     10.0967
   901.7500    111.3854      0.0000    677.7520     10.1317
   902.0000    106.6563      0.0000    678.7562     10.0751
   902.2500    104.0964      0.0000    682.9774      9.8950
   902.5000    105.2726      0.0000    695.7159      9.6422
   902.7500    108.5315      0.0000    719.9760      9.4483
   903.0000    110.8996      0.0000    747.1975      9.3982
   903.2500    111.0127      0.0000    759.4596      9.4843
   903.5000    109.9856      0.0000    747.2086      9.6625
   903.7500    109.9668      0.0000    720.6406      9.8507
   904.0000    112.0986      0.0000    699.7121      9.9525
   904.2500    115.4983      0.0000    696.1907      9.9614
   904.5000    118.0250      0.0000    707.0213      9.9290
   904.7500    118.1219      0.0000    720.7451      9.8624
   905.0000    115.8406      0.0000    730.4453      9.7718
   905.2500    112.2846      0.0000    737.7985      9.7494
   905.5000    108.6501      0.0000    742.7356      9.9018
   905.7500    106.0208      0.0000    739.9044     10.2193
   906.0000    105.5125      0.0000    726.7935     10.5769
   906.2500    107.7660      0.0000    709.5482     10.8516
   906.5000    112.0171      0.0000    698.4321     10.9855
   906.7500    116.2225      0.0000    695.5220     10.9875
   907.0000    118.6720      0.0000    692.1985     10.9370
   907.2500    119.3852      0.0000    685.5083     10.9327
   907.5000    119.6977      0.0000    686.2938     10.9920
   907.7500    120.8160      0.0000    697.9741     11.0537
   908.0000    122.9837      0.0000    705.6356     11.0686
   908.2500    125.6654      0.0000    699.7071     11.0123
   908.5000    128.0348      0.0000    688.1925     10.8869
   908.7500    129.2805      0.0000    680.5793     10.7610
   909.0000    128.7808      0.0000    677.7697     10.7139
   909.2500    126.3640      0.0000    677.0737     10.7390
   909.5000    122.5393      0.0000    677.2237     10.7556
   909.7500    118.4115      0.0000    679.1132     10.7060
   910.0000    115.1826      0.0000    684.4863     10.6076
   910.2500    113.5632      0.0000    691.7680     10.5144
   910.5000    113.6027      0.0000    693.1867     10.4602
   910.7500    115.0388      0.0000    682.3025     10.4651
   911.0000    117.5207      0.0000    664.5938     10.5397
   911.2500    120.3885      0.0000    653.2337     10.6493
   911.5000    122.6404      0.0000    652.5590     10.7464
   911.7500    123.4718      0.0000    651.5974     10.8291
   912.0000    122.6689      0.0000    638.8076     10.9127
   912.2500    120.3758      0.0000    617.1144     11.0024
   912.5000    116.9645      0.0000    598.3607     11.0963
   912.7500    113.5082      0.0000    589.0544     11.1712
   913.0000    111.8007      0.0000    588.7697     11.2015
   913.2500    112.9955      0.0000    597.3493     11.1990
   913.5000    116.1629      0.0000    614.3135     11.2076
   913.7500    118.8698      0.0000    632.2441     11.2819
   914.0000    119.5262      0.0000    642.1971     11.4595
   914.2500    118.9577      0.0000    646.4369     11.6919
   914.5000    119.4735      0.0000    651.7296     11.8495
   914.7500    122.3515      0.0000    655.1279     11.8736
   915.0000    126.3488      0.0000    651.8681     11.8453
   915.2500    128.9435      0.0000    646.2001     11.8423
   915.5000    128.9811      0.0000    640.3019     11.8477
   915.7500    127.6102      0.0000    625.9670     11.8347
   916.0000    126.4787      0.0000    600.5469     11.8123
   916.2500    125.7499      0.0000    577.1115     11.8023
   916.5000    124.5135      0.0000    569.5326     11.8384
   916.7500    122.5400      0.0000    578.3105     11.8968
   917.0000    120.5223      0.0000    592.4250     11.7269
   917.2500    118.5066      0.0000    596.7187     10.9498
   917.5000    114.9565      0.0000    580.3045      9.6674
   917.7500    107.8898      0.0000    544.1227      8.5787
   918.0000     96.9188      0.0000    502.2502      8.0914
   918.2500     84.2006      0.0000    477.6737      7.9616
   918.5000     73.3366     -2.0000    489.6340      7.8715
   918.7500     66.8767     -2.0000    531.7158      7.7510
   919.0000     64.4848      0.0000    566.6938      7.6306
   919.2500     63.5296      0.0000    567.5786      7.5258
   919.5000     61.5176      0.0000    553.8055      7.4857
   919.7500     57.8460      0.0000    555.5474      7.6001
   920.0000     53.4794      0.0000    566.0829      7.8754
   920.2500     49.6698      0.0000    561.5198      8.2909
   920.5000     47.1849      0.0000    550.8375      8.9279
   920.7500     46.0974      0.0000    565.6115      9.7314
   921.0000     45.7953      0.0000    596.3762     10.4086
   921.2500     45.3473      0.0000    600.5404     10.7833
   921.5000     44.1188      0.0000    584.3714     10.9328
   921.7500     42.1045      0.0000    601.2503     10.9843
   922.0000     39.7799      0.0000    662.0886     10.9992
   922.2500     37.7589      0.0000    720.3566     10.9973
   922.5000     36.5412      0.0000    742.8398     10.9963
   922.7500     36.4872      0.0000    738.8808     11.0150
   923.0000     37.9263      0.0000    729.8848     11.0499
   923.2500     41.0022      0.0000    725.0935     11.0792
   923.5000     45.1074      0.0000    721.8478     11.0789
   923.7500     48.6359      0.0000    714.1285     11.0191
   924.0000     49.8602      0.0000    701.2191     10.8973
   924.2500     48.3594      0.0000    689.1179     10.7691
   924.5000     45.4559      0.0000    682.5408     10.6919
   924.7500     43.2001      0.0000    680.8804     10.6601
   925.0000     42.9857      0.0000    682.9418     10.6331
   925.2500     44.9057      0.0000    690.6846     10.5986
   925.5000     48.0239      0.0000    706.0926     10.5816
   925.7500     51.1835      0.0000    725.4372     10.6126
   926.0000     53.8342      0.0000    740.9755     10.6945
   926.2500     56.3417      0.0000    749.0201     10.7871
   926.5000     59.5018      0.0000    751.7508     10.8251
   926.7500     63.5767      0.0000    752.3709     10.7535
   927.0000     67.7398      0.0000    752.2543     10.5730
   927.2500     70.7174      0.0000    751.2722     10.3563
   927.5000     72.0721      0.0000    748.0901     10.1803
   927.7500     72.4720      0.0000    740.1231     10.0663
   928.0000     72.5789      0.0000    726.6196     10.0269
   928.2500     72.2086      0.0000    713.3121     10.0973
   928.5000     70.7714      0.0000    708.1618     10.2707
   928.7500     68.1049      0.0000    712.0518     10.4743
   929.0000     64.7119      0.0000    721.0339     10.6368
   929.2500     61.4784      0.0000    732.1923     10.7076
   929.5000     59.1809      0.0000    741.9830     10.6192
   929.7500     58.0063      0.0000    747.2771     10.3324
   930.0000     57.6079      0.0000    747.9902      9.9363
   930.2500     57.8548      0.0000    744.7009      9.6054
   930.5000     59.3214      0.0000    736.4258      9.4414
   930.7500     62.8936      0.0000    719.5687      9.4314
   931.0000     69.2303      0.0000    688.4888      9.5239
   931.2500     78.6409      0.0000    648.0881      9.6608
   931.5000     90.8488      0.0000    622.7232      9.7555
   931.7500    104.5497      0.0000    629.5463      9.7216
   932.0000    117.6148      0.0000    655.2451      9.5540
   932.2500    128.1771      0.0000    680.0165      9.3526
