~Version Information
VERS.                      2.0: CWLS Log ASCII Standard - VERSION 2.0
WRAP.                       NO: One line per depth step
~Well Information Block
STRT.FT                 0.5000: 
STOP.FT              1575.0000: 
STEP.FT                 0.2500: 
NULL.                -999.2500: 
COMP.          Evergreen Operating Corporation: COMPANY
WELL.                Eric 42-9: WELL
FLD.           Purgatorie River: FIELD
LOC.           2050' FNL & 850' FEL: LOCATION
PROV.                 Colorado: PROVINCE
CNTY.               Las Animas: COUNTRY
SRVC.                         : SERVICE COMPANY
DATE.          Tue Nov 09 16:28:59 2004: LOG DATE
UWI.           05 071 07999 00: UNIQUE WELL ID
~Curve Information Block
DEPT.FT            0 000 00 00: Depth
LTEN.lb                       : Surface Line Tension
TT3.usec                      : CBL 3' Travel Time
AMP3.mV                       : CBL 3' Amplitude
ATT3.db/ft                    : CBL 3' Attenuation
GR.GAPI                       : Gamma Ray
CCL.                          : Casing Collar Locator
~Parameter Information Block
~A  Depth       LTEN        TT3         AMP3        ATT3         GR         CCL     
# ...
  1032.5000    686.6224    739.8230      6.4345     -7.7890    116.8554      0.0000
  1032.7500    687.5560    733.9595      6.4048     -7.8023    108.6076      0.0000
  1033.0000    689.7687    710.5203      6.3382     -7.8326    102.2675      0.0000
  1033.2500    692.6132    678.1017      6.2136     -7.8901     98.5455      0.0000
  1033.5000    695.2742    643.0851      6.0440     -7.9702     98.7199      0.0000
  1033.7500    697.3677    608.8982      5.8649     -8.0573    103.5788      0.0000
  1034.0000    698.8772    578.6519      5.7165     -8.1315    112.0821      0.0000
  1034.2500    699.7470    556.3502      5.6256     -8.1779    121.1354      0.0000
  1034.5000    699.8871    545.5706      5.5979     -8.1922    127.1096      0.0000
  1034.7500    699.3807    548.7708      5.6234     -8.1790    127.8724      0.0000
  1035.0000    698.3113    567.8346      5.6861     -8.1469    123.6096      0.0000
  1035.2500    696.6036    603.0811      5.7698     -8.1046    116.3770      0.0000
  1035.5000    694.3709    650.3767      5.8537     -8.0628    109.1427      0.0000
  1035.7500    692.0630    700.6740      5.9065     -8.0368    104.5494      0.0000
  1036.0000    689.9816    744.8027      5.8921     -8.0439    103.7627      0.0000
  1036.2500    688.1503    778.5309      5.7928     -8.0931    106.3585      0.0000
  1036.5000    686.9751    802.2911      5.6287     -8.1763    111.3216      0.0000
  1036.7500    687.4210    818.1100      5.4501     -8.2697    117.7880      0.0000
  1037.0000    689.9933    828.5551      5.3080     -8.3462    124.6555      0.0000
  1037.2500    693.7713    836.2361      5.2259     -8.3913    130.0631      0.0000
  1037.5000    697.0128    842.1707      5.1974     -8.4071    131.9363      0.0000
  1037.7500    698.8445    845.7927      5.2052     -8.4028    129.2764      0.0000
  1038.0000    700.0476    847.0129      5.2371     -8.3851    123.1146      0.0000
  1038.2500    701.9374    846.6103      5.2891     -8.3565    116.4937      0.0000
  1038.5000    704.7333    844.5980      5.3614     -8.3172    113.2000      0.0000
  1038.7500    707.2650    840.3707      5.4542     -8.2675    115.5246      0.0000
  1039.0000    707.9847    834.6594      5.5619     -8.2109    122.5881      0.0000
  1039.2500    705.9688    829.5715      5.6652     -8.1576    130.9481      0.0000
  1039.5000    701.4022    826.1517      5.7321     -8.1236    137.1815      0.0000
  1039.7500    695.7209    823.3224      5.7413     -8.1190    139.9671      0.0000
  1040.0000    691.1738    820.1115      5.7068     -8.1364    139.8709      0.0000
  1040.2500    689.5886    817.7230      5.6710     -8.1546    137.7995      0.0000
  1040.5000    691.1754    818.1326      5.6686     -8.1559    134.2282      0.0000
  1040.7500    694.4991    821.2454      5.7108     -8.1344    129.8189      0.0000
  1041.0000    697.6530    824.3901      5.8013     -8.0889    126.1251      0.0000
  1041.2500    699.6104    824.3544      5.9396     -8.0207    124.9168      0.0000
  1041.5000    700.5977    819.8831      6.1016     -7.9427    126.6934      0.0000
  1041.7500    701.2158    813.0172      6.2450     -7.8755    130.3967      0.0000
  1042.0000    701.5671    807.8205      6.3538     -7.8255    134.6235      0.0000
  1042.2500    701.6160    806.6088      6.4585     -7.7782    138.6053      0.0000
  1042.5000    701.9949    807.6116      6.5854     -7.7218    142.0122      0.0000
  1042.7500    703.4868    807.3077      6.6983     -7.6726    144.4808      0.0000
  1043.0000    705.5407    804.2877      6.7246     -7.6613    145.7462      0.0000
  1043.2500    706.1285    799.6357      6.6397     -7.6981    146.0591      0.0000
  1043.5000    703.6329    794.5689      6.4960     -7.7614    146.2244      0.0000
  1043.7500    698.6558    789.7423      6.3634     -7.8211    147.1508      0.0000
  1044.0000    693.7300    786.4806      6.2710     -7.8635    149.3120      0.0000
  1044.2500    691.2147    786.3560      6.2213     -7.8865    152.5050      0.0000
  1044.5000    691.3824    788.7252      6.2210     -7.8866    155.9581      0.0000
  1044.7500    692.4030    790.0563      6.2742     -7.8620    158.6753      0.0000
  1045.0000    692.0921    787.2036      6.3619     -7.8218    159.8187      0.0000
  1045.2500    689.6703    781.3781      6.4507     -7.7817    158.9428      0.0000
  1045.5000    686.0250    777.7423      6.5124     -7.7541    156.1629      0.0000
  1045.7500    682.7202    780.6321      6.5370     -7.7432    152.3528      0.0000
  1046.0000    680.9545    789.8187      6.5419     -7.7410    148.9234      0.0000
  1046.2500    681.0594    801.6467      6.5598     -7.7331    146.8843      0.0000
  1046.5000    682.4897    812.8618      6.5953     -7.7175    145.9592      0.0000
  1046.7500    684.2869    822.1088      6.6083     -7.7118    144.9621      0.0000
  1047.0000    685.8892    827.5661      6.5601     -7.7329    143.2183      0.0000
  1047.2500    687.6339    824.4540      6.4612     -7.7769    141.4225      0.0000
  1047.5000    690.3092    807.0087      6.3597     -7.8228    141.0299      0.0000
  1047.7500    694.0503    774.9255      6.2980     -7.8510    142.8825      0.0000
  1048.0000    697.7226    738.4502      6.2912     -7.8541    146.4487      0.0000
  1048.2500    699.6478    715.0799      6.3349     -7.8341    150.4665      0.0000
  1048.5000    698.9912    717.6790      6.4107     -7.7997    154.2299      0.0000
  1048.7500    696.2678    744.3909      6.4812     -7.7680    157.8351      0.0000
  1049.0000    692.7089    781.3529      6.4970     -7.7610    161.1241      0.0000
  1049.2500    689.5307    814.7775      6.4356     -7.7884    163.0178      0.0000
  1049.5000    687.6931    838.6943      6.3313     -7.8357    162.2587      0.0000
  1049.7500    687.7780    853.1746      6.2448     -7.8756    158.7414      0.0000
  1050.0000    689.6114    859.7062      6.2032     -7.8949    153.9754      0.0000
  1050.2500    692.0990    859.6679      6.1868     -7.9026    150.1947      0.0000
  1050.5000    693.9521    854.9931      6.1679     -7.9115    148.9203      0.0000
  1050.7500    694.6973    847.7454      6.1433     -7.9230    150.1382      0.0000
  1051.0000    694.6342    838.1720      6.1266     -7.9309    152.6212      0.0000
  1051.2500    694.0002    823.2784      6.1239     -7.9322    155.0424      0.0000
  1051.5000    692.7689    798.1026      6.1300     -7.9293    156.8404      0.0000
  1051.7500    691.0833    760.0421      6.1449     -7.9223    158.0164      0.0000
  1052.0000    689.3019    714.0436      6.1858     -7.9031    158.3518      0.0000
  1052.2500    687.7201    673.3152      6.2730     -7.8625    157.3742      0.0000
  1052.5000    686.4628    652.0276      6.4052     -7.8022    155.2027      0.0000
  1052.7500    685.5375    655.5046      6.5506     -7.7371    152.8434      0.0000
  1053.0000    685.0132    678.2690      6.6702     -7.6848    151.3607      0.0000
  1053.2500    685.2593    710.8777      6.7537     -7.6487    150.9882      0.0000
  1053.5000    686.7859    746.0997      6.8269     -7.6175    151.0372      0.0000
  1053.7500    689.5952    779.5176      6.9176     -7.5793    150.5779      0.0000
  1054.0000    692.7803    808.2740      7.0326     -7.5316    149.3820      0.0000
  1054.2500    695.1503    830.6288      7.1756     -7.4733    148.1325      0.0000
  1054.5000    696.4692    845.6070      7.3633     -7.3986    147.3369      0.0000
  1054.7500    697.7355    853.5712      7.6108     -7.3029    146.1961      0.0000
  1055.0000    699.8793    857.5700      7.9216     -7.1870    143.1136      0.0000
  1055.2500    702.4604    862.0023      8.2979     -7.0526    137.2685      0.0000
  1055.5000    704.0760    868.2510      8.7476     -6.8998    129.3442      0.0000
  1055.7500    703.8795    873.0010      9.2839     -6.7275    121.1024      0.0000
  1056.0000    702.3367    872.7135      9.9116     -6.5381    114.8617      0.0000
  1056.2500    700.6173    868.2838     10.5885     -6.3468    112.7963      3.0000
