~Version Information
VERS.                      2.0: CWLS Log ASCII Standard - VERSION 2.0
WRAP.                       NO: One line per depth step
~Well Information Block
STRT.FT               340.0000: 
STOP.FT              1542.5000: 
STEP.FT                 0.2500: 
NULL.                -999.2500: 
COMP.          Petrogulf Corporation: COMPANY
WELL.            Montoya 7-21R: WELL
FLD.           Purgatorie River: FIELD
LOC.           445' FNL & 1942' FWL: LOCATION
PROV.                 Colorado: PROVINCE
CNTY.               Las Animas: COUNTRY
SRVC.                Patterson: SERVICE COMPANY
DATE.          Thu Sep 15 10:37:42 2005: LOG DATE
UWI.                          : UNIQUE WELL ID
~Curve Information Block
DEPT.FT            0 000 00 00: Depth
SP.mV                         : DIL Spontaneous Potential
RILD.Ohm-m                    : DIL Deep Resistivity
RILM.Ohm-m                    : DIL Medium Resistivity
RLL3.Ohm-m                    : DIL Shallow Resistivity
GR.GAPI                       : Gamma Ray
~Parameter Information Block
~A  Depth        SP         RILD        RILM        RLL3         GR     
# ...
  1040.0000    199.8359     14.9734     14.0678     17.4392    113.3304
  1040.2500    199.3918     14.8419     13.0650     14.2292    119.7476
  1040.5000    198.9259     14.9074     12.6185     12.1285    141.1332
  1040.7500    198.4698     14.9527     12.6337     11.2325    132.3088
  1041.0000    198.0938     14.9409     12.9283     11.6461    154.6358
  1041.2500    197.7533     14.8932     13.3835     13.0112    170.1205
  1041.5000    197.5347     14.7308     14.0119     14.9127    168.6083
  1041.7500    197.2736     14.4418     14.8608     17.6128    156.2987
  1042.0000    197.0183     14.0094     15.5658     21.8996    158.3920
  1042.2500    196.5870     13.7923     15.7027     25.9089    148.1699
  1042.5000    195.9471     13.8259     15.7663     27.6049    115.3528
  1042.7500    195.1146     13.7011     15.3240     24.6920    112.3376
  1043.0000    194.1507     13.7362     14.9559     19.3304    133.2443
  1043.2500    192.9632     13.7407     14.5698     16.6017    132.8663
  1043.5000    191.4721     13.8745     14.3874     15.7887    106.6650
  1043.7500    190.0103     13.7728     14.1949     15.3215    107.3567
  1044.0000    188.6433     13.6517     13.9185     14.1729    145.3414
  1044.2500    187.3631     13.7459     13.5878     13.7745    142.9180
  1044.5000    186.2345     13.6657     13.1513     13.7302    144.2695
  1044.7500    185.1718     13.5334     12.8840     13.6141    139.6042
  1045.0000    184.1110     13.4801     12.7252     13.2318    122.9343
  1045.2500    183.1629     13.3141     12.7111     12.8913    128.7863
  1045.5000    182.1878     13.1967     12.6224     13.3592    135.7644
  1045.7500    181.2660     13.1732     12.4658     13.7533    141.2187
  1046.0000    180.4192     13.0568     12.6715     13.6107    128.5119
  1046.2500    179.5455     13.0686     12.8714     13.8544    119.9752
  1046.5000    178.6025     13.1233     13.0546     14.6458    142.1062
  1046.7500    177.6009     13.1834     13.4940     15.4093    121.6038
  1047.0000    176.6214     13.3442     13.7860     16.0171    140.6589
  1047.2500    175.4956     13.6615     14.1892     16.7841    154.0190
  1047.5000    174.3652     14.0913     14.3495     16.9934    107.4920
  1047.7500    173.4785     14.5061     14.6105     16.4964    102.8251
  1048.0000    172.7935     14.9331     15.1385     16.0662    151.3487
  1048.2500    172.1762     15.8559     15.7171     16.2140    137.4598
  1048.5000    171.5890     16.6156     16.5204     16.1796    117.6785
  1048.7500    171.0972     16.8726     17.7809     16.7442    109.9259
  1049.0000    170.8088     17.2288     19.6443     19.3807    113.9254
  1049.2500    170.8305     17.3201     20.3948     26.5546    127.1813
  1049.5000    171.1394     17.2769     22.2669     41.1731    140.2094
  1049.7500    171.7842     17.1234     23.2494     57.4204    136.3157
  1050.0000    172.7886     16.6003     23.6010     61.7712    123.4852
  1050.2500    174.0400     16.3744     22.3956     50.7453    121.8061
  1050.5000    175.3023     16.3933     20.3037     35.9956     96.8890
  1050.7500    176.5196     15.8234     18.6156     23.8792    115.4867
  1051.0000    177.5492     15.5532     17.0373     16.4778    111.6518
  1051.2500    178.3307     15.3494     15.8239     13.7739    120.7064
  1051.5000    178.8228     15.0815     14.8761     13.2548    117.9870
  1051.7500    179.0789     14.6592     14.1228     13.3904    127.8472
  1052.0000    179.1920     14.0625     13.6173     13.4127    135.4687
  1052.2500    179.3294     13.4477     12.9628     13.6257    134.0265
  1052.5000    179.5096     12.9533     12.2102     13.3393    153.2943
  1052.7500    179.7090     12.5339     11.6107     12.7133    157.0572
  1053.0000    179.9045     12.4026     11.1719     11.9333    129.3587
  1053.2500    180.0451     12.2617     10.8384     11.2848    137.9756
  1053.5000    180.0798     12.0757     10.9354     10.5425    142.6556
  1053.7500    179.9951     11.9969     11.0029     10.6909    127.5042
  1054.0000    179.8669     11.9275     11.3244     12.4181    143.6403
  1054.2500    179.8938     11.8516     11.7852     14.4588    150.3673
  1054.5000    180.0321     11.9043     12.0289     16.9194    146.8823
  1054.7500    180.2871     11.9397     12.1594     17.9235    128.9968
  1055.0000    180.7125     12.1303     12.1477     16.0892    139.7281
  1055.2500    181.2477     12.2190     12.1630     13.2529    134.6984
  1055.5000    181.6437     12.2629     12.3952     12.4160    144.2738
  1055.7500    181.8293     12.3262     12.8482     14.2672    142.8750
  1056.0000    181.8569     12.4403     13.1482     16.9684    134.9448
  1056.2500    181.5569     12.3980     13.6567     19.6695    128.7257
  1056.5000    181.0378     12.3195     13.4232     20.3251    118.7793
  1056.7500    180.2458     12.2104     12.9791     19.0231    108.1169
  1057.0000    179.4756     12.1053     12.5510     17.5379    118.0214
  1057.2500    178.8265     12.3025     12.0011     15.3294    132.5957
  1057.5000    178.2863     12.3797     11.7594     12.7918    126.2195
  1057.7500    177.6546     12.4669     11.6359     11.8159    133.0167
  1058.0000    176.9235     12.6794     11.5437     12.3475    143.9280
  1058.2500    176.2339     12.9047     11.7488     12.8816    154.8782
  1058.5000    175.5721     13.3120     11.9741     13.1012    152.2210
  1058.7500    174.8557     13.4970     12.1125     13.1528    159.8332
  1059.0000    174.1273     13.9142     12.6686     14.6135    157.4504
  1059.2500    173.4478     14.4516     13.5435     16.6633    155.0317
  1059.5000    172.9976     15.1423     14.5491     19.0992    153.2337
  1059.7500    172.7288     15.7010     15.8565     21.9450    144.2293
  1060.0000    172.6621     16.7896     17.5135     25.3711     92.1822
  1060.2500    172.7160     17.8678     19.2482     32.7256     99.4544
  1060.5000    172.8511     18.5702     21.5505     45.5830    108.9812
  1060.7500    172.9229     20.4421     24.3306     66.9868    100.8475
  1061.0000    172.9511     22.3633     27.7082     85.9083     90.4310
  1061.2500    172.8324     24.5264     29.5620     90.9819     80.9663
  1061.5000    172.7026     27.1320     32.4705     84.2834     57.1688
  1061.7500    172.6869     30.0022     37.5808     76.2707     51.8055
  1062.0000    172.6800     33.5699     44.0324     79.2225     54.7028
  1062.2500    172.6227     35.4561     51.2369     91.1356     53.0102
  1062.5000    172.5411     39.5478     57.7533    101.7362     48.9759
  1062.7500    172.3327     39.7769     60.1637    109.9568     72.1289
  1063.0000    172.1177     40.2210     63.6416    115.9205     65.7851
  1063.2500    171.8400     41.8413     68.6645    116.5968     55.5466
  1063.5000    171.6780     40.7076     73.6938    113.8178     44.8710
  1063.7500    171.7666     41.5567     78.5659    113.8579     46.4316
  1064.0000    172.2926     38.8891     76.4437    106.3560     47.0080
  1064.2500    173.2105     36.0052     70.5843     86.8802     41.8405
  1064.5000    174.2742     35.1826     69.3952     81.4184     49.1981
  1064.7500    175.5714     33.6572     67.5049     85.5974     71.7335
  1065.0000    177.3781     32.7292     58.1769     71.1878     58.7513
  1065.2500    179.3379     29.6177     51.0999     48.3993     50.1580
  1065.5000    181.2578     26.9502     46.7938     39.7000     62.1868
  1065.7500    183.0125     25.4321     41.0119     40.5829     71.1824
  1066.0000    184.4951     23.5518     36.2749     46.3089     81.1603
  1066.2500    186.1298     21.7125     31.8951     46.7150    101.9204
  1066.5000    187.8074     19.8003     25.6150     35.8285    114.1333
  1066.7500    189.4357     18.3306     21.8461     21.7710    107.6335
  1067.0000    190.8297     16.6486     19.4999     15.8003    123.7657
  1067.2500    191.7569     15.7410     17.2027     15.3548    143.5586
  1067.5000    192.4858     14.7550     15.6241     16.2134    157.0201
  1067.7500    193.1761     14.3132     14.2050     16.6566    148.1794
