~Version Information
 VERS.                                  2.0 : CWLS LAS VERSION
 WRAP.                                   NO : WRAPING MODE
 SWARE .                 MController 2.5.0J : SOFTWARE VERSION
~Well Information
 WELL.                      Peregrine 12-20 : WELL
 COMP.    Pioneer Natural Resources USA Inc : COMPANY
 FLD.                      Purgatoire River : FIELD
 LOC.               SW/NW Sec 20 T34S R65W  : LOCATION
 DATE.                             07/14/05 : DATE(S) LOGGED
 SRVC.       BLANCO Geological Services LLC : SERVICE COMPANY
 STAT.                                   CO : STATE
 CNTY.                           Las Animas : COUNTY
 CTRY.                                  USA : COUNTRY
 API.                       05-071-08428-00 : API NUMBER
 STRT.FT                             226.00 : START DEPTH
 STOP.FT                            1645.00 : STOP DEPTH
 STEP.FT                               1.00 : DEPTH INCREMENT
 NULL.                                -9999 : NULL VALUE
~Curve information
 DEPTH.FT                                   :
 ROP.MIN/FT                                 :
 GAS.UNITS                                  :
~ASCII Log data
# ...
      1426.0         0.27         47.0 
      1427.0         0.30         44.8 
      1428.0         0.27         43.2 
      1429.0         0.35         42.3 
      1430.0         0.23         39.1 
      1431.0         0.27         34.1 
      1432.0         0.23         27.4 
      1433.0         0.30         22.8 
      1434.0         0.27         22.2 
      1435.0         0.27         24.7 
      1436.0         3.02        223.3 
      1437.0         0.50        139.1 
      1438.0         0.47        112.5 
      1439.0         0.33         89.2 
      1440.0         0.35         83.6 
      1441.0         0.33         83.4 
      1442.0         0.27         82.1 
      1443.0         0.27         79.5 
      1444.0         0.30         76.3 
      1445.0         0.27         71.5 
      1446.0         0.30         66.4 
      1447.0         0.30         62.6 
      1448.0         0.13         59.6 
      1449.0         0.20         58.4 
      1450.0         0.23         56.2 
      1451.0         0.23         54.1 
      1452.0         0.17         52.1 
      1453.0         0.28         51.1 
      1454.0         0.23         49.3 
      1455.0         0.23         48.0 
      1456.0         0.23         47.7 
      1457.0         0.27         47.4 
      1458.0         0.27         45.9 
      1459.0         0.23         46.0 
      1460.0         0.23         57.2 
      1461.0         0.23         68.8 
      1462.0         0.20         78.4 
      1463.0         0.17         86.1 
      1464.0         0.13         92.5 
      1465.0         0.23        104.3 
      1466.0         2.72        413.5 
      1467.0         0.20        345.1 
      1468.0         0.30        343.9 
      1469.0         0.20        325.2 
      1470.0         0.25        304.5 
      1471.0         0.27        273.4 
      1472.0         0.23        249.5 
      1473.0         0.23        232.8 
      1474.0         0.27        224.6 
      1475.0         0.27        221.4 
      1476.0         0.30        216.6 
      1477.0         0.20        209.4 
      1478.0         0.20        203.5 
      1479.0         0.23        213.0 
      1480.0         0.23        223.3 
      1481.0         0.17        227.6 
      1482.0         0.17        227.7 
      1483.0         0.13        224.0 
      1484.0         0.17        214.2 
      1485.0         0.22        202.9 
      1486.0         0.17        203.2 
      1487.0         1.90        203.2 
      1488.0         0.20        223.6 
      1489.0         0.30        230.6 
      1490.0         0.27        223.3 
      1491.0         0.23        184.1 
      1492.0         0.25        148.0 
      1493.0         0.47        125.2 
      1494.0         0.33        130.2 
      1495.0         0.30        138.7 
      1496.0         3.08       1125.6 
      1497.0         0.30        846.6 
      1498.0         0.30        797.1 
      1499.0         0.20        739.0 
      1500.0         0.23        706.0 
      1501.0         0.20        682.2 
      1502.0         0.13        666.0 
      1503.0         0.23        660.3 
      1504.0         0.17        664.1 
      1505.0         0.17        669.8 
      1506.0         0.20        678.4 
      1507.0         0.22        684.1 
      1508.0         0.13        688.9 
      1509.0         0.20        691.1 
      1510.0         0.23        690.5 
      1511.0         0.20        688.9 
      1512.0         0.20        688.2 
      1513.0         0.20        683.5 
      1514.0         0.20        678.4 
      1515.0         0.23        674.0 
      1516.0         0.20        666.7 
      1517.0         0.20        663.2 
      1518.0         0.20        656.5 
      1519.0         0.20        648.9 
      1520.0         0.23        642.2 
      1521.0         0.20        622.5 
      1522.0         0.20        587.6 
      1523.0         0.25        553.4 
      1524.0         0.23        521.9 
      1525.0         0.23        534.9 
      1526.0         2.95       1053.5 
      1527.0         0.37        877.1 
      1528.0         0.43        777.7 
      1529.0         0.57        721.2 
      1530.0         0.33        725.4 
      1531.0         0.27        721.9 
      1532.0         0.27        711.7 
      1533.0         0.27        698.4 
      1534.0         0.27        683.8 
      1535.0         0.28        669.2 
      1536.0         0.23        655.5 
      1537.0         0.27        643.2 
      1538.0         0.23        634.9 
      1539.0         0.23        628.9 
      1540.0         0.23        623.5 
      1541.0         0.23        620.3 
      1542.0         0.23        614.3 
      1543.0         0.20        608.9 
      1544.0         0.23        607.3 
      1545.0         0.23        601.9 
      1546.0         0.23        601.6 
      1547.0         0.23        600.0 
      1548.0         0.27        600.0 
      1549.0         0.28        596.8 
      1550.0         0.23        578.7 
      1551.0         0.23        545.4 
      1552.0         0.27        505.7 
      1553.0         0.23        475.3 
      1554.0         0.23        471.1 
      1555.0         0.17        478.8 
      1556.0         3.02        996.1 
      1557.0         0.57        845.3 
      1558.0         0.40        769.2 
      1559.0         0.37        708.9 
      1560.0         0.35        671.1 
      1561.0         0.30        658.7 
      1562.0         0.30        647.0 
      1563.0         0.30        634.9 
      1564.0         0.23        624.4 
      1565.0         0.27        621.3 
      1566.0         0.23        613.3 
      1567.0         0.27        608.9 
      1568.0         0.27        606.4 
      1569.0         0.23        605.7 
      1570.0         0.23        600.0 
      1571.0         0.20        587.6 
      1572.0         0.23        572.4 
      1573.0         0.20        552.4 
      1574.0         0.25        524.5 
      1575.0         0.20        482.9 
      1576.0         0.27        465.8 
      1577.0         0.30        449.6 
      1578.0         0.30        440.0 
      1579.0         0.30         64.9 
      1580.0         0.37         51.5 
      1581.0         0.37         37.6 
      1582.0         0.40         34.5 
      1583.0         0.43         33.2 
      1584.0         0.42         17.9 
      1585.0         0.37         13.1 
      1586.0         3.18       1223.3 
      1587.0         0.33        733.6 
      1588.0         1.93        550.8 
      1589.0         0.52         90.0 
      1590.0         0.47         68.1 
      1591.0         0.47         53.7 
      1592.0         0.43         44.3 
      1593.0         0.43         38.5 
      1594.0         0.37         37.3 
      1595.0         0.37         36.7 
      1596.0         0.37         37.0 
      1597.0         0.27         37.0 
      1598.0         0.32         36.4 
      1599.0         0.33         35.2 
      1600.0         0.37         34.6 
      1601.0         0.33         34.6 
      1602.0         0.27         34.5 
      1603.0         0.27         34.6 
      1604.0         0.23         34.8 
      1605.0         0.23         34.6 
      1606.0         0.20         35.9 
      1607.0         0.43         50.8 
      1608.0         0.27         59.7 
      1609.0         0.22         63.9 
      1610.0         0.30         65.0 
      1611.0         0.27         65.0 
      1612.0         0.23         63.5 
      1613.0         0.23         60.8 
      1614.0         0.20         45.7 
      1615.0         0.30         29.4 
      1616.0         8.48        468.3 
      1617.0         0.37        107.9 
      1618.0         0.40        141.5 
      1619.0         0.37        138.6 
      1620.0         0.40        106.4 
      1621.0         0.47         66.8 
      1622.0         0.37         32.1 
      1623.0         0.37         66.3 
      1624.0         0.45        107.9 
      1625.0         0.40        112.9 
