~Version Information
 VERS.                                  2.0 : CWLS LAS VERSION
 WRAP.                                   NO : WRAPING MODE
 SWARE .                 MController 2.5.0E : SOFTWARE VERSION
~Well Information
 WELL.                         STATE 16-32R : WELL
 COMP.                      Petrogulf Corp. : COMPANY
 FLD.                      Purgatorie River : FIELD
 LOC.                SW/NE Sec 16 T33S R67W : LOCATION
 DATE.                      5/12/04-5/13/04 : DATE(S) LOGGED
 SRVC.       Blanco Geological Services LLC : SERVICE COMPANY
 STAT.                                   CO : STATE
 CNTY.                           Las Animas : COUNTY
 CTRY.                                  USA : COUNTRY
 API.                       05-071-08033-00 : API NUMBER
 STRT.FT                             167.00 : START DEPTH
 STOP.FT                            1918.00 : STOP DEPTH
 STEP.FT                               1.00 : DEPTH INCREMENT
 NULL.                                -9999 : NULL VALUE
~Curve information
 DEPTH.FT                                   :
 ROP.MIN/FT                                 :
 GAS.UNITS                                  :
~ASCII Log data
# ...
     1367.00        0.267         70.2 
     1368.00        0.267         67.3 
     1369.00        0.267         53.8 
     1370.00        0.200         43.1 
     1371.00        0.167         37.6 
     1372.00        0.283         40.3 
     1373.00        0.300         43.2 
     1374.00        0.300         43.5 
     1375.00        0.267         43.8 
     1376.00        6.100         42.3 
     1377.00        0.500         24.9 
     1378.00        0.400         25.0 
     1379.00        0.333         25.1 
     1380.00        0.167         25.1 
     1381.00        0.333         25.1 
     1382.00        0.267         23.3 
     1383.00        0.167         22.9 
     1384.00        0.367         24.0 
     1385.00        0.167         23.8 
     1386.00        0.283         24.0 
     1387.00        0.167         23.3 
     1388.00        0.333         23.6 
     1389.00        0.400         23.6 
     1390.00        0.333         24.0 
     1391.00        0.467         21.0 
     1392.00        0.367         20.6 
     1393.00        0.300         23.0 
     1394.00        0.300         29.2 
     1395.00        0.267         39.0 
     1396.00        0.233         52.4 
     1397.00        0.317         66.1 
     1398.00        0.267         84.0 
     1399.00        0.267        104.3 
     1400.00        0.300        108.1 
     1401.00        0.300        105.4 
     1402.00        0.267         68.9 
     1403.00        0.333         57.6 
     1404.00        0.333         44.9 
     1405.00        0.300         42.9 
     1406.00        5.233         41.1 
     1407.00        0.100         24.2 
     1408.00        0.267         25.1 
     1409.00        0.200         25.7 
     1410.00        0.233         25.5 
     1411.00        0.267         25.9 
     1412.00        0.233         25.5 
     1413.00        0.367         25.0 
     1414.00        0.400         25.1 
     1415.00        0.350         25.6 
     1416.00        0.300         24.4 
     1417.00        0.400         24.4 
     1418.00        0.367         24.6 
     1419.00        0.400         24.7 
     1420.00        0.267         23.1 
     1421.00        0.233         22.0 
     1422.00        0.233         20.7 
     1423.00        0.167         19.6 
     1424.00        0.300         21.3 
     1425.00        0.300         23.5 
     1426.00        0.383         37.8 
     1427.00        0.400         50.2 
     1428.00        0.300         63.9 
     1429.00        0.233         78.5 
     1430.00        0.333        114.6 
     1431.00        0.433        101.3 
     1432.00        0.300         86.7 
     1433.00        0.300         59.7 
     1434.00        0.300         45.2 
     1435.00        0.300         43.1 
     1436.00        4.333         43.4 
     1437.00        0.267         25.7 
     1438.00        0.433         25.7 
     1439.00        0.333         25.5 
     1440.00        0.367         25.3 
     1441.00        0.333         24.7 
     1442.00        0.267         24.6 
     1443.00        0.200         24.2 
     1444.00        0.367         25.1 
     1445.00        0.417         24.8 
     1446.00        0.467         24.8 
     1447.00        0.367         23.6 
     1448.00        0.367         24.1 
     1449.00        0.367         24.3 
     1450.00        0.367         24.2 
     1451.00        0.267         22.1 
     1452.00        0.233         21.3 
     1453.00        0.267         21.7 
     1454.00        0.317         31.4 
     1455.00        0.367         41.9 
     1456.00        0.300         54.9 
     1457.00        0.300         68.2 
     1458.00        0.267         80.7 
     1459.00        0.267         94.6 
     1460.00        0.267        118.9 
     1461.00        0.267        124.5 
     1462.00        0.400        106.8 
     1463.00        0.367         73.9 
     1464.00        0.267         50.6 
     1465.00        0.283         47.3 
     1466.00        4.217         43.5 
     1467.00        0.400         26.2 
     1468.00        0.433         28.7 
     1469.00        0.333         28.7 
     1470.00        0.367         28.6 
     1471.00        0.333         26.8 
     1472.00        0.367         25.9 
     1473.00        0.350         24.4 
     1474.00        0.333         24.1 
     1475.00        0.267         24.3 
     1476.00        0.200         24.7 
     1477.00        0.233         23.5 
     1478.00        0.267         24.0 
     1479.00        0.300         25.8 
     1480.00        0.233         26.5 
     1481.00        0.300         26.4 
     1482.00        0.233         24.2 
     1483.00        0.167         23.3 
     1484.00        0.200         21.6 
     1485.00        0.167         21.5 
     1486.00        0.317         23.1 
     1487.00        0.367         32.6 
     1488.00        0.367         42.0 
     1489.00        0.467         68.5 
     1490.00        0.400         87.4 
     1491.00        0.467         79.3 
     1492.00        0.367         62.5 
     1493.00        0.267         47.5 
     1494.00        0.267         39.8 
     1495.00        0.233         40.3 
     1496.00        4.000         42.5 
     1497.00        0.200         24.5 
     1498.00        0.233         24.5 
     1499.00        0.467         27.9 
     1500.00        0.400         28.8 
     1501.00        0.400         28.6 
     1502.00        0.367         28.0 
     1503.00        0.400         26.9 
     1504.00        0.350         32.1 
     1505.00        0.300         89.7 
     1506.00        0.300        172.0 
     1507.00        0.300        234.2 
     1508.00        0.267        269.4 
     1509.00        0.433        282.3 
     1510.00        0.333        274.5 
     1511.00        0.400        264.6 
     1512.00        0.400        245.4 
     1513.00        0.300        179.9 
     1514.00        0.317        166.3 
     1515.00        0.333        161.5 
     1516.00        0.333        164.8 
     1517.00        0.367        223.4 
     1518.00        0.300        271.1 
     1519.00        0.300        320.7 
     1520.00        0.233        368.4 
     1521.00        0.233       1374.1 
     1522.00        0.267       1751.8 
     1523.00        0.267       1771.7 
     1524.00        0.233       1725.2 
     1525.00        0.267       1307.4 
     1526.00        5.700       1229.2 
     1527.00        1.717        464.1 
     1528.00        0.367        440.0 
     1529.00        0.333        440.0 
     1530.00        0.267        112.3 
     1531.00        0.300        111.6 
     1532.00        0.333        107.0 
     1533.00        0.300        106.2 
     1534.00        0.333        101.4 
     1535.00        0.300         99.8 
     1536.00        0.267         99.5 
     1537.00        0.250         99.6 
     1538.00        0.267         99.1 
     1539.00        0.300         96.8 
     1540.00        0.300         94.2 
     1541.00        0.233         72.3 
     1542.00        0.267         68.1 
     1543.00        0.300         70.6 
     1544.00        0.300         79.2 
     1545.00        0.267         93.8 
     1546.00        0.300        109.6 
     1547.00        0.267        127.1 
     1548.00        0.267        146.2 
     1549.00        0.317        167.1 
     1550.00        0.433        180.1 
     1551.00        0.333        166.0 
     1552.00        0.267        149.9 
     1553.00        0.333        152.4 
     1554.00        0.267        160.2 
     1555.00        0.233        160.4 
     1556.00        3.750        154.8 
     1557.00        0.433         78.1 
     1558.00        0.417         73.4 
     1559.00        0.400         72.5 
     1560.00        0.633         71.1 
     1561.00        0.433         68.5 
     1562.00        0.367         65.6 
     1563.00        0.367         64.0 
     1564.00        0.367         62.6 
     1565.00        0.333         61.9 
     1566.00        0.333         61.9 
