~Version Information
VERS.                      2.0: CWLS Log ASCII Standard - VERSION 2.0
WRAP.                       NO: One line per depth step
~Well Information Block
STRT.FT               652.0000: 
STOP.FT              1880.5000: 
STEP.FT                 0.2500: 
NULL.                -999.2500: 
COMP.          Pioneer Natural Resources: COMPANY
WELL.          Corkscrew 33-12 Tr: WELL
FLD.           Purgatoire River: FIELD
LOC.           1870' FSL & 1706' FEL: LOCATION
PROV.                 Colorado: PROVINCE
CNTY.               Las Animas: COUNTRY
SRVC.                Patterson: SERVICE COMPANY
DATE.          Mon Mar 28 22:58:28 2005: LOG DATE
UWI.           05 071 08295 00: UNIQUE WELL ID
~Curve Information Block
DEPT.FT            0 000 00 00: Depth
SN.Ohm-m                      : IEL Short Normal
SP.mV                         : IEL Spontaneous Potential
DIR.Ohm-m                     : IEL Induction Resistivity
GR.GAPI                       : Gamma Ray
~Parameter Information Block
~A  Depth        SN          SP         DIR          GR     
# ...
  1221.5000     46.6003    -19.8066     15.6341     67.0347
  1221.7500     41.6956    -19.4800     16.5244     76.4629
  1222.0000     35.9627    -19.2285     17.2141     90.8523
  1222.2500     30.4870    -19.0503     17.5834     99.5008
  1222.5000     25.9081    -18.9204     17.5873    110.1620
  1222.7500     22.6409    -18.8084     17.2991    115.6234
  1223.0000     20.9620    -18.6988     16.8967    121.2743
  1223.2500     20.8669    -18.5991     16.5889    123.2794
  1223.5000     21.9942    -18.5298     16.5324    123.6934
  1223.7500     23.7800    -18.5064     16.7862    122.3282
  1224.0000     25.7096    -18.5273     17.3097    117.7665
  1224.2500     27.4739    -18.5768     17.9967    112.9947
  1224.5000     28.9508    -18.6379     18.7366    103.7721
  1224.7500     30.1047    -18.7031     19.4733     97.0980
  1225.0000     30.9654    -18.7763     20.2169     88.0888
  1225.2500     31.6602    -18.8676     21.0026     83.5310
  1225.5000     32.3660    -18.9821     21.8381     79.4386
  1225.7500     33.1759    -19.1109     22.6779     78.4091
  1226.0000     33.9772    -19.2277     23.4309     78.2753
  1226.2500     34.5027    -19.2971     23.9818     78.0774
  1226.5000     34.5682    -19.2902     24.2118     76.2214
  1226.7500     34.2425    -19.1999     24.0250     73.8746
  1227.0000     33.7846    -19.0472     23.3973     69.7627
  1227.2500     33.4548    -18.8739     22.4207     67.5218
  1227.5000     33.3739    -18.7226     21.2819     66.0231
  1227.7500     33.5075    -18.6187     20.1765     66.3217
  1228.0000     33.7242    -18.5631     19.2334     67.7710
  1228.2500     33.8753    -18.5397     18.4993     68.6407
  1228.5000     33.8775    -18.5315     17.9668     69.0751
  1228.7500     33.7506    -18.5341     17.6092     68.9188
  1229.0000     33.5882    -18.5597     17.3995     68.7703
  1229.2500     33.4976    -18.6279     17.3110     68.9723
  1229.5000     33.5460    -18.7548     17.3070     69.2676
  1229.7500     33.7353    -18.9466     17.3324     68.9432
  1230.0000     34.0138    -19.1999     17.3241     67.3082
  1230.2500     34.3138    -19.5011     17.2424     65.7031
  1230.5000     34.5988    -19.8251     17.0989     63.1973
  1230.7500     34.8858    -20.1378     16.9520     61.6888
  1231.0000     35.2169    -20.4051     16.8734     59.7306
  1231.2500     35.6202    -20.6054     16.9169     58.5850
  1231.5000     36.1167    -20.7355     17.1111     56.9228
  1231.7500     36.7338    -20.8075     17.4742     55.6305
  1232.0000     37.4651    -20.8405     18.0346     53.0504
  1232.2500     38.2479    -20.8529     18.8395     50.9695
  1232.5000     39.0291    -20.8599     19.9318     48.0150
  1232.7500     39.8321    -20.8732     21.2934     46.6320
  1233.0000     40.7140    -20.9042     22.7808     45.8240
  1233.2500     41.6632    -20.9655     24.1236     46.0522
  1233.5000     42.5790    -21.0693     25.0490     46.9812
  1233.7500     43.3704    -21.2191     25.4535     47.4644
  1234.0000     44.0445    -21.4045     25.4308     47.1090
  1234.2500     44.6974    -21.6045     25.1355     46.0037
  1234.5000     45.4294    -21.7996     24.6613     43.7891
  1234.7500     46.2701    -21.9828     24.0420     42.7162
  1235.0000     47.1657    -22.1611     23.3171     42.5188
  1235.2500     48.0246    -22.3500     22.5619     43.0928
  1235.5000     48.8043    -22.5660     21.8555     43.8534
  1235.7500     49.5380    -22.8193     21.2383     43.8185
  1236.0000     50.2378    -23.1075     20.7106     43.2979
  1236.2500     50.7985    -23.4122     20.2648     43.3839
  1236.5000     51.0114    -23.7002     19.9105     45.4136
  1236.7500     50.6654    -23.9296     19.6633     48.3914
  1237.0000     49.6409    -24.0611     19.5117     55.5456
  1237.2500     47.8806    -24.0711     19.4003     62.3355
  1237.5000     45.3097    -23.9594     19.2519     75.9199
  1237.7500     41.9421    -23.7500     19.0163     86.9654
  1238.0000     38.1007    -23.4870     18.7094    104.6210
  1238.2500     34.3829    -23.2237     18.4093    115.4537
  1238.5000     31.3083    -23.0023     18.2187    127.9249
  1238.7500     29.0106    -22.8339     18.2271    133.3195
  1239.0000     27.2909    -22.6986     18.4904    138.1900
  1239.2500     25.9406    -22.5667     19.0224    140.5298
  1239.5000     24.9254    -22.4218     19.7916    144.5470
  1239.7500     24.2598    -22.2685     20.7276    148.1278
  1240.0000     23.8706    -22.1241     21.7410    154.9015
  1240.2500     23.6507    -22.0055     22.7415    159.8558
  1240.5000     23.5300    -21.9197     23.6303    166.1776
  1240.7500     23.4918    -21.8640     24.2735    168.4024
  1241.0000     23.5757    -21.8335     24.5145    167.4556
  1241.2500     23.7774    -21.8291     24.2616    164.1323
  1241.5000     23.9558    -21.8568     23.5748    156.6387
  1241.7500     23.9098    -21.9209     22.6400    151.0914
  1242.0000     23.4629    -22.0164     21.6502    143.3972
  1242.2500     22.4923    -22.1251     20.7177    138.9722
  1242.5000     20.9934    -22.2167     19.8717    133.1253
  1242.7500     19.1167    -22.2554     19.1015    129.7357
  1243.0000     17.1396    -22.2095     18.3940    126.4188
  1243.2500     15.4130    -22.0610     17.7429    126.2018
  1243.5000     14.2441    -21.8160     17.1394    129.2562
  1243.7500     13.7167    -21.5131     16.5651    132.9854
  1244.0000     13.6438    -21.2139     15.9960    139.4400
  1244.2500     13.7372    -20.9715     15.4139    143.2361
  1244.5000     13.7867    -20.8006     14.8130    146.6168
  1244.7500     13.7052    -20.6748     14.1976    146.9784
  1245.0000     13.4881    -20.5512     13.5760    145.4140
  1245.2500     13.1624    -20.3992     12.9575    143.9376
  1245.5000     12.7531    -20.2153     12.3537    142.9481
  1245.7500     12.2815    -20.0208     11.7806    143.8873
  1246.0000     11.7742    -19.8466     11.2549    147.5736
  1246.2500     11.2646    -19.7137     10.7878    150.5517
  1246.5000     10.7931    -19.6210     10.3798    153.9483
  1246.7500     10.4035    -19.5467     10.0225    155.2924
  1247.0000     10.1229    -19.4640      9.7036    157.0422
  1247.2500      9.9513    -19.3544      9.4116    158.7120
  1247.5000      9.8673    -19.2116      9.1364    162.1851
  1247.7500      9.8268    -19.0404      8.8701    164.7760
  1248.0000      9.7595    -18.8568      8.6096    167.9032
  1248.2500      9.5909    -18.6835      8.3595    168.6739
  1248.5000      9.2957    -18.5353      8.1313    167.0934
  1248.7500      8.9434    -18.4091      7.9378    164.4799
  1249.0000      8.6637    -18.2934      7.7885    159.5397
  1249.2500      8.5112    -18.1907      7.6870    156.4017
  1249.5000      8.4004    -18.1275      7.6285    153.1807
  1249.7500      8.2391    -18.1408      7.5989    152.7623
  1250.0000      8.0545    -18.2487      7.5750    155.7994
  1250.2500      7.9381    -18.4334      7.5329    160.1940
  1250.5000      7.9482    -18.6557      7.4591    168.1730
  1250.7500      8.0815    -18.8806      7.3568    172.3893
  1251.0000      8.2658    -19.0896      7.2431    174.4712
  1251.2500      8.3732    -19.2770      7.1380    172.9845
  1251.5000      8.3080    -19.4454      7.0536    168.7183
  1251.7500      8.1123    -19.6062      6.9888    166.1591
  1252.0000      7.9369    -19.7769      6.9336    164.0145
  1252.2500      7.8871    -19.9665      6.8770    163.3507
  1252.5000      7.9377    -20.1581      6.8167    162.3253
  1252.7500      7.9750    -20.3119      6.7605    161.3841
  1253.0000      7.8512    -20.3892      6.7226    160.1808
  1253.2500      7.4568    -20.3718      6.7158    159.9841
  1253.5000      6.8253    -20.2585      6.7457    160.4240
  1253.7500      6.1432    -20.0556      6.8101    160.2758
  1254.0000      5.6415    -19.7800      6.9027    157.1826
  1254.2500      5.4918    -19.4668      7.0180    152.4560
  1254.5000      5.7770    -19.1663      7.1551    142.0789
  1254.7500      6.4823    -18.9293      7.3160    134.2666
