~Version Information
VERS.                      2.0: CWLS Log ASCII Standard - VERSION 2.0
WRAP.                       NO: One line per depth step
~Well Information Block
STRT.FT               472.0000: 
STOP.FT              2641.5000: 
STEP.FT                 0.1000: 
NULL.                -999.2500: 
COMP.          Pioneer Natural Resources: COMPANY
WELL.              Wagner 13-9: WELL
FLD.           Purgatoire River: FIELD
LOC.           1819' FSL & 1111' FWL: LOCATION
PROV.                 Colorado: PROVINCE
CNTY.               Las Animas: COUNTRY
SRVC.                Patterson: SERVICE COMPANY
DATE.          Tue Apr 19 08:56:38 2005: LOG DATE
UWI.           05 071 08302 00: UNIQUE WELL ID
~Curve Information Block
DEPT.FT            0 000 00 00: Depth
DCAL.in                       : CDL Caliper
RHOB.g/cc                     : CDL Bulk Density
RHOC.g/cc                     : CDL Density Correction
DPOR.pu                       : CDL Density Porosity
GR.GAPI                       : Gamma Ray
NPOR.pu                       : Neutron Porosity
~Parameter Information Block
~A  Depth       DCAL        RHOB        RHOC        DPOR         GR         NPOR    
# ...
  2632.0000      7.8468      2.5379      0.0740      6.7934   -999.2500   -999.2500
  2632.1000      7.8468      2.5394      0.0542      6.7058   -999.2500   -999.2500
  2632.2000      7.8468      2.5545      0.0819      5.7861   -999.2500   -999.2500
  2632.3000      7.8518      2.5791      0.0822      4.2973   -999.2500   -999.2500
  2632.4000      7.8518      2.5996      0.0946      3.0562   -999.2500   -999.2500
  2632.5000      7.8565      2.6048      0.0502      2.7375   -999.2500   -999.2500
  2632.6000      7.8565      2.5981      0.0695      3.1460   -999.2500   -999.2500
  2632.7000      7.8565      2.5867      0.0401      3.8347   -999.2500   -999.2500
  2632.8000      7.8572      2.5750      0.0555      4.5459   -999.2500   -999.2500
  2632.9000      7.8572      2.5639      0.0691      5.2201   -999.2500   -999.2500
  2633.0000      7.8597      2.5527      0.0367      5.8998   -999.2500   -999.2500
  2633.1000      7.8597      2.5494      0.0016      6.0978   -999.2500   -999.2500
  2633.2000      7.8597      2.5618      0.0333      5.3460   -999.2500   -999.2500
  2633.3000      7.8648      2.5784      0.0380      4.3409   -999.2500   -999.2500
  2633.4000      7.8648      2.5847      0.0603      3.9575   -999.2500   -999.2500
  2633.5000      7.8704      2.5795      0.0968      4.2743   -999.2500   -999.2500
  2633.6000      7.8704      2.5718      0.0871      4.7392   -999.2500   -999.2500
  2633.7000      7.8704      2.5751      0.0767      4.5395   -999.2500   -999.2500
  2633.8000      7.8956      2.5875      0.1049      3.7868   -999.2500   -999.2500
  2633.9000      7.8956      2.5873      0.1499      3.7999   -999.2500   -999.2500
  2634.0000      7.9349      2.5662      0.0642      5.0814   -999.2500   -999.2500
  2634.1000      7.9349      2.5436      0.0412      6.4491   -999.2500   -999.2500
  2634.2000      7.9349      2.5355      0.0646      6.9401   -999.2500   -999.2500
  2634.3000      7.9512      2.5452      0.0557      6.3536   -999.2500   -999.2500
  2634.4000      7.9512      2.5735      0.0593      4.6353   -999.2500   -999.2500
  2634.5000      7.9500      2.6062      0.1205      2.6575   -999.2500   -999.2500
  2634.6000      7.9500      2.6229      0.1027      1.6419   -999.2500   -999.2500
  2634.7000      7.9500      2.6286      0.0966      1.2972   -999.2500   -999.2500
  2634.8000      7.9178      2.6399      0.1044      0.6122   -999.2500   -999.2500
  2634.9000      7.9178      2.6549      0.1561     -0.2974   -999.2500   -999.2500
  2635.0000      7.8642      2.6580      0.1276     -0.4865   -999.2500   -999.2500
  2635.1000      7.8642      2.6460      0.1099      0.2420   -999.2500   -999.2500
  2635.2000      7.8642      2.6289      0.0699      1.2770   -999.2500   -999.2500
  2635.3000      7.8469      2.6110      0.0894      2.3629   -999.2500   -999.2500
  2635.4000      7.8469      2.5899      0.0626      3.6417   -999.2500   -999.2500
  2635.5000      7.8497      2.5716      0.0244      4.7522   -999.2500   -999.2500
  2635.6000      7.8497      2.5682      0.0059      4.9562   -999.2500   -999.2500
  2635.7000      7.8497      2.5798      0.0413      4.2550   -999.2500   -999.2500
  2635.8000      7.8463      2.5916      0.0321      3.5401   -999.2500   -999.2500
  2635.9000      7.8463      2.5971      0.0267      3.2059   -999.2500   -999.2500
  2636.0000      7.8532      2.5986      0.0625      3.1125   -999.2500   -999.2500
  2636.1000      7.8532      2.5992      0.0419      3.0785   -999.2500   -999.2500
  2636.2000      7.8532      2.5999      0.0883      3.0340   -999.2500   -999.2500
  2636.3000      7.8711      2.5892      0.0820      3.6872   -999.2500   -999.2500
  2636.4000      7.8711      2.5613      0.0459      5.3764   -999.2500   -999.2500
  2636.5000      7.8710      2.5353      0.0010      6.9513   -999.2500   -999.2500
  2636.6000      7.8710      2.5327      0.0218      7.1072   -999.2500   -999.2500
  2636.7000      7.8710      2.5546      0.0408      5.7837   -999.2500   -999.2500
  2636.8000      7.8485      2.5858      0.0643      3.8911   -999.2500   -999.2500
  2636.9000      7.8485      2.6118      0.0908      2.3178   -999.2500   -999.2500
  2637.0000      7.8240      2.6278      0.1209      1.3471   -999.2500   -999.2500
  2637.1000      7.8240      2.6371      0.1075      0.7836   -999.2500   -999.2500
  2637.2000      7.8240      2.6411      0.1234      0.5366   -999.2500   -999.2500
  2637.3000      7.8059      2.6340      0.1323      0.9691   -999.2500   -999.2500
  2637.4000      7.8059      2.6169      0.0824      2.0062   -999.2500   -999.2500
  2637.5000      7.8036      2.6052      0.0280      2.7161   -999.2500   -999.2500
  2637.6000      7.8036      2.6064      0.0622      2.6417   -999.2500   -999.2500
  2637.7000      7.8036      2.6071      0.0841      2.6019   -999.2500   -999.2500
  2637.8000      7.8131      2.5957      0.0808      3.2922   -999.2500   -999.2500
  2637.9000      7.8131      2.5775      0.0988      4.3920   -999.2500   -999.2500
  2638.0000      7.8181      2.5598      0.0763      5.4646   -999.2500   -999.2500
  2638.1000      7.8181      2.5439      0.0432      6.4308   -999.2500   -999.2500
  2638.2000      7.8181      2.5266      0.0693      7.4787   -999.2500   -999.2500
  2638.3000      7.7935      2.5020      0.0704      8.9723   -999.2500   -999.2500
  2638.4000      7.7935      2.4734      0.0600     10.7040   -999.2500   -999.2500
  2638.5000      7.7139      2.4542      0.0522     11.8693   -999.2500   -999.2500
  2638.6000      7.7139      2.4678      0.0523     11.0419   -999.2500   -999.2500
  2638.7000      7.7139      2.5547      0.0571      5.7784   -999.2500   -999.2500
  2638.8000      7.5391      2.6055      0.1043      2.6998   -999.2500   -999.2500
  2638.9000      7.5391      2.1984      0.5923     27.3719   -999.2500   -999.2500
  2639.0000      7.0634      1.2551      0.0000     84.5414   -999.2500   -999.2500
  2639.1000      7.0634      0.4268      0.0000    134.7389   -999.2500   -999.2500
  2639.2000      7.0634      0.0812   -999.2500    155.6869   -999.2500   -999.2500
  2639.3000      5.7800      0.0084   -999.2500    160.0986   -999.2500   -999.2500
  2639.4000      5.7800      0.0005   -999.2500    160.5785   -999.2500   -999.2500
  2639.5000      3.9266      0.0000   -999.2500    160.6061   -999.2500   -999.2500
  2639.6000      3.9266      0.0000   -999.2500    160.6061   -999.2500   -999.2500
  2639.7000      3.9266   -999.2500   -999.2500   -999.2500   -999.2500   -999.2500
  2639.8000      2.8435   -999.2500   -999.2500   -999.2500   -999.2500   -999.2500
  2639.9000      2.8435   -999.2500   -999.2500   -999.2500   -999.2500   -999.2500
  2640.0000      2.6047   -999.2500   -999.2500   -999.2500   -999.2500   -999.2500
  2640.1000      2.6047   -999.2500   -999.2500   -999.2500   -999.2500   -999.2500
  2640.2000      2.6047   -999.2500   -999.2500   -999.2500   -999.2500   -999.2500
  2640.3000      2.5852   -999.2500   -999.2500   -999.2500   -999.2500   -999.2500
  2640.4000      2.5852   -999.2500   -999.2500   -999.2500   -999.2500   -999.2500
  2640.5000   -999.2500   -999.2500   -999.2500   -999.2500   -999.2500   -999.2500
  2640.6000   -999.2500   -999.2500   -999.2500   -999.2500   -999.2500   -999.2500
  2640.7000   -999.2500   -999.2500   -999.2500   -999.2500   -999.2500   -999.2500
  2640.8000   -999.2500   -999.2500   -999.2500   -999.2500   -999.2500   -999.2500
  2640.9000   -999.2500   -999.2500   -999.2500   -999.2500   -999.2500   -999.2500
  2641.0000   -999.2500   -999.2500   -999.2500   -999.2500   -999.2500   -999.2500
  2641.1000   -999.2500   -999.2500   -999.2500   -999.2500   -999.2500   -999.2500
  2641.2000   -999.2500   -999.2500   -999.2500   -999.2500   -999.2500   -999.2500
  2641.3000   -999.2500   -999.2500   -999.2500   -999.2500   -999.2500   -999.2500
  2641.4000   -999.2500   -999.2500   -999.2500   -999.2500   -999.2500   -999.2500
  2641.5000   -999.2500   -999.2500   -999.2500   -999.2500   -999.2500   -999.2500
