~Version Information
VERS.                      2.0: CWLS Log ASCII Standard - VERSION 2.0
WRAP.                       NO: One line per depth step
~Well Information Block
STRT.FT               482.2000: 
STOP.FT              2349.0000: 
STEP.FT                 0.1000: 
NULL.                -999.2500: 
COMP.          Pioneer Natural Resources: COMPANY
WELL.          Hill Climb 22-2: WELL
FLD.           Purgatoire River: FIELD
LOC.           1820' FNL & 2193' FWL: LOCATION
PROV.                 Colorado: PROVINCE
CNTY.               Las Animas: COUNTRY
SRVC.                Patterson: SERVICE COMPANY
DATE.          Wed Oct 20 09:25:25 2004: LOG DATE
UWI.           05 071 08175 00: UNIQUE WELL ID
~Curve Information Block
DEPT.FT            0 000 00 00: Depth
DCAL.in                       : CDL Caliper
DPOR.pu                       : CDL Density Porosity
NPOR.pu                       : Neutron Porosity
RHOB.g/cc                     : CDL Bulk Density
RHOC.g/cc                     : CDL Density Correction
GR.GAPI                       : Gamma Ray
~Parameter Information Block
~A  Depth       DCAL        DPOR        NPOR        RHOB        RHOC         GR     
# ...
   895.0000     12.7564     88.9948     35.3367      1.1816      0.0397     30.1614
   895.1000     12.7564     88.9532     35.7249      1.1823      0.0552     20.8027
   895.2000     12.7564     89.3090     36.0288      1.1764      0.0967     16.5603
   895.3000     14.9528     90.9418     36.1362      1.1495      0.0741     13.9374
   895.4000     14.9528     93.5434     36.2421      1.1065      0.0141     11.4689
   895.5000     16.8034     96.0182     36.4525      1.0657     -0.0012     11.7526
   895.6000     16.8034     97.6587     36.5684      1.0386     -0.0210     16.5253
   895.7000     16.8034     98.4011     36.4972      1.0264     -0.0295     22.1587
   895.8000     17.6246     98.5714     36.3282      1.0236     -0.0240     25.0787
   895.9000     17.6246     98.5805     36.1456      1.0234     -0.0187     26.3049
   896.0000     17.7853     98.5567     36.0428      1.0238     -0.0357     28.4463
   896.1000     17.7853     98.4320     36.0332      1.0259     -0.0234     31.2902
   896.2000     17.7853     98.2579     36.0383      1.0287     -0.0339     32.1791
   896.3000     17.7974     98.2391     36.0575      1.0291     -0.0146     29.0581
   896.4000     17.7974     98.4879     36.0652      1.0250     -0.0272     22.9639
   896.5000     17.7985     98.7326     35.9540      1.0209     -0.0439     17.3454
   896.6000     17.7985     98.7426     35.8075      1.0207     -0.0240     15.1097
   896.7000     17.7985     98.6737     35.8525      1.0219     -0.0325     16.0160
   896.8000     17.7994     98.6856     36.1050      1.0217     -0.0226     16.4435
   896.9000     17.7994     98.6990     36.3450      1.0215     -0.0340     13.8612
   897.0000     17.7985     98.6630     36.4307      1.0221     -0.0187     11.8100
   897.1000     17.7985     98.6996     36.4362      1.0215     -0.0310     14.6662
   897.2000     17.7985     98.7866     36.4866      1.0200     -0.0213     22.7111
   897.3000     17.7972     98.9299     36.5095      1.0177     -0.0232     35.2559
   897.4000     17.7972     99.2209     36.2943      1.0129     -0.0386     48.8313
   897.5000     17.7983     99.4739     35.8736      1.0087     -0.0439     56.7622
   897.6000     17.7983     99.4305     35.4495      1.0094     -0.0319     60.0684
   897.7000     17.7983     99.0517     35.0514      1.0156     -0.0379     62.4556
   897.8000     17.7975     98.3175     34.5940      1.0278     -0.0278     62.2767
   897.9000     17.7975     97.0452     34.1812      1.0488     -0.0236     62.0849
   898.0000     17.7669     94.9291     34.0483      1.0837      0.0018     66.3640
   898.1000     17.7669     91.5116     34.0993      1.1401      0.0089     75.7403
   898.2000     17.7669     85.8176     33.9288      1.2340      0.0263     86.4373
   898.3000     17.4623     76.5592     33.4347      1.3868      0.0748     96.4716
   898.4000     17.4623     63.5530     32.8623      1.6014      0.1494    108.6929
   898.5000     16.1644     49.0906     32.3668      1.8400      0.2846    116.6331
   898.6000     16.1644     36.6790     31.9790      2.0448      0.3415    114.1419
   898.7000     16.1644     28.4456     31.6945      2.1806      0.3910    110.9634
   898.8000     13.9327     25.3415     31.3967      2.2319      0.4288    114.1487
   898.9000     13.9327     27.4462     31.0318      2.1971      0.3512    119.2469
   899.0000     11.9437     32.2218     30.5546      2.1183      0.1867    122.4145
   899.1000     11.9437     35.7405     29.8674      2.0603      0.1236    122.0184
   899.2000     11.9437     36.4474     29.1425      2.0486      0.0812    122.1575
   899.3000     10.2815     35.2952     28.6047      2.0676      0.0750    131.6589
   899.4000     10.2815     33.5346     28.3443      2.0967      0.0799    146.3428
   899.5000      9.1450     31.9169     28.3509      2.1234      0.0945    154.0538
   899.6000      9.1450     30.9845     28.2250      2.1388      0.0891    153.5527
   899.7000      9.1450     31.0030     27.6849      2.1385      0.0540    147.7519
   899.8000      8.7769     31.3117     27.0079      2.1334     -0.0074    141.7668
   899.9000      8.7769     30.8011     26.4574      2.1418      0.0201    136.5049
   900.0000      8.8599     29.7262     26.2285      2.1595      0.0674    126.1632
   900.1000      8.8599     29.9034     26.4487      2.1566      0.1526    115.5677
   900.2000      8.8599     32.7172     26.8697      2.1102      0.1714    114.6456
   900.3000      8.9393     37.5099     27.0920      2.0311      0.1865    124.5820
   900.4000      8.9393     42.1903     26.9009      1.9539      0.1490    139.5292
   900.5000      8.8250     44.7056     26.4063      1.9124      0.0914    152.3533
   900.6000      8.8250     44.3597     25.9079      1.9181      0.0691    154.8635
   900.7000      8.8250     41.7600     25.5616      1.9610      0.0604    142.3825
   900.8000      8.6806     37.6237     25.0854      2.0292      0.0617    123.1105
   900.9000      8.6806     32.4557     24.1321      2.1145      0.1212    104.2867
   901.0000      8.5544     27.0995     23.0064      2.2029      0.1947     87.3651
   901.1000      8.5544     22.5757     22.3397      2.2775      0.2663     77.0145
   901.2000      8.5544     19.2590     22.3871      2.3322      0.3319     73.8281
   901.3000      8.4192     16.9310     22.8284      2.3706      0.2433     72.7708
   901.4000      8.4192     15.3986     22.9719      2.3959      0.1538     79.0902
   901.5000      8.3289     14.5367     22.4719      2.4101      0.0363     96.2712
   901.6000      8.3289     13.6836     21.7813      2.4242     -0.0347    113.7440
   901.7000      8.3289     12.3775     21.6596      2.4458      0.0215    125.6891
   901.8000      8.2997     11.3243     22.3183      2.4631      0.0178    134.8292
   901.9000      8.2997     11.0245     23.2476      2.4681     -0.0067    137.0126
   902.0000      8.2956     10.9797     23.8287      2.4688     -0.0024    127.9908
   902.1000      8.2956     10.9642     23.7964      2.4691      0.0209    118.3491
   902.2000      8.2956     11.1644     23.4147      2.4658      0.0465    117.2438
   902.3000      8.2939     11.1356     23.1298      2.4663     -0.0160    121.6086
   902.4000      8.2939     10.2998     22.8166      2.4801     -0.0011    131.5130
   902.5000      8.2898      9.1945     22.1965      2.4983      0.0174    145.3835
   902.6000      8.2898      8.5821     21.5612      2.5084      0.0123    149.9468
   902.7000      8.2898      8.6340     21.2849      2.5075      0.0522    137.1298
   902.8000      8.2865      9.0550     21.3539      2.5006     -0.0040    120.9340
   902.9000      8.2865      9.0270     21.5546      2.5011      0.0061    122.2546
   903.0000      8.2851      8.4222     21.6551      2.5110      0.0226    134.3726
   903.1000      8.2851      8.2134     21.5505      2.5145      0.0413    137.8866
   903.2000      8.2851      8.7888     21.2968      2.5050      0.0304    135.3849
   903.3000      8.2855      9.2028     21.2100      2.4982     -0.0190    136.3039
   903.4000      8.2855      8.5977     21.5274      2.5081     -0.0190    134.4982
   903.5000      8.2902      7.2932     21.9036      2.5297      0.0154    124.0879
   903.6000      8.2902      6.0182     21.8753      2.5507      0.0288    117.8100
   903.7000      8.2902      5.1804     21.6397      2.5645      0.0458    123.4886
   903.8000      8.2932      4.8754     21.3768      2.5696      0.0071    129.9754
   903.9000      8.2932      5.1626     20.7568      2.5648      0.0586    127.4173
   904.0000      8.2697      6.3028     19.9740      2.5460      0.0208    117.4313
   904.1000      8.2697      7.9456     19.6091      2.5189     -0.0292    106.7734
   904.2000      8.2697      9.1163     19.6228      2.4996     -0.0453     99.0074
   904.3000      8.2092      9.2612     19.3935      2.4972     -0.0556     95.5694
   904.4000      8.2092      8.6198     18.7530      2.5078     -0.0020     95.8307
   904.5000      8.1512      7.4525     18.3884      2.5270      0.0107     90.7813
