~Version Information
VERS.                      2.0: CWLS Log ASCII Standard - VERSION 2.0
WRAP.                       NO: One line per depth step
~Well Information Block
STRT.FT                -8.2500: 
STOP.FT              2725.7500: 
STEP.FT                 0.2500: 
NULL.                -999.2500: 
COMP.          Pioneer Natural Resources: COMPANY
WELL.          Rabbit Bush Federal 44-19: WELL
FLD.           Purgatoire River: FIELD
LOC.           826' FSL & 1127' FEL: LOCATION
CNTY.               Las Animas: COUNTY
SRVC.                Patterson: SERVICE COMPANY
DATE.          Thu Sep 14 10:51:19 2006: LOG DATE
UWI.           05 071 08149 00: UNIQUE WELL ID
STAT.                       CO: STATE
~Curve Information Block
DEPT.FT            0 000 00 00: Depth
GR.GAPI                       : Gamma Ray
CCL.                          : Casing Collar Locator
TT3.usec                      : CBL 3' Travel Time
AMP3.mV                       : CBL 3' Amplitude
~Parameter Information Block
~A  Depth        GR         CCL         TT3         AMP3    
# ...
  1968.2500    159.5500      0.0000    687.0298      5.1509
  1968.5000    159.3208      0.0000    690.9042      5.1530
  1968.7500    157.8746      0.0000    694.0593      5.1481
  1969.0000    155.2693      0.0000    696.5710      5.1484
  1969.2500    153.1323      0.0000    700.2714      5.1521
  1969.5000    153.4126      0.0000    707.1552      5.1448
  1969.7500    156.8794      0.0000    716.6753      5.1026
  1970.0000    162.7183      0.0000    725.6356      5.0252
  1970.2500    168.8188      0.0000    731.2885      4.9523
  1970.5000    172.3269      0.0000    733.6749      4.9238
  1970.7500    171.0116      0.0000    734.4273      4.9359
  1971.0000    165.1553      0.0000    734.4023      4.9534
  1971.2500    157.9656      0.0000    733.4606      4.9518
  1971.5000    153.4129      0.0000    731.8320      4.9375
  1971.7500    153.5476      0.0000    730.4159      4.9299
  1972.0000    157.8842      0.0000    729.6614      4.9336
  1972.2500    164.7758      0.0000    728.9365      4.9324
  1972.5000    172.8914      0.0000    727.4340      4.9085
  1972.7500    181.4674      0.0000    725.2267      4.8615
  1973.0000    189.5114      0.0000    723.0565      4.8083
  1973.2500    195.3876      0.0000    721.3752      4.7700
  1973.5000    197.4735      0.0000    719.8950      4.7598
  1973.7500    194.8633      0.0000    717.9096      4.7781
  1974.0000    187.7297      0.0000    714.9182      4.8088
  1974.2500    177.9077      0.0000    711.1277      4.8223
  1974.5000    168.7960      0.0000    707.4637      4.7914
  1974.7500    163.1304      0.0000    705.0156      4.7137
  1975.0000    160.4650      0.0000    704.3546      4.6149
  1975.2500    157.7436      0.0000    705.0966      4.5252
  1975.5000    152.6170      0.0000    705.6266      4.4526
  1975.7500    145.5823      0.0000    703.0034      4.3828
  1976.0000    138.6805      0.0000    693.1203      4.3025
  1976.2500    132.7705      0.0000    671.5322      4.2171
  1976.5000    126.8792      0.0000    636.2212      4.1457
  1976.7500    120.0965      0.0000    592.4191      4.1011
  1977.0000    113.0902      0.0000    554.7344      4.0770
  1977.2500    107.5471      0.0000    540.4982      4.0573
  1977.5000    105.2344      0.0000    557.1142      4.0332
  1977.7500    107.8186      0.0000    595.6160      4.0117
  1978.0000    116.1682      0.0000    637.7875      4.0067
  1978.2500    128.9461      0.0000    669.4272      4.0222
  1978.5000    142.7132      0.0000    686.9539      4.0461
  1978.7500    154.1772      0.0000    694.2535      4.0620
  1979.0000    162.1724      0.0000    696.5218      4.0654
  1979.2500    167.4807      0.0000    697.0531      4.0644
  1979.5000    171.3676      0.0000    697.1964      4.0646
  1979.7500    174.6612      0.0000    697.3142      4.0604
  1980.0000    177.7951      0.0000    697.4512      4.0407
  1980.2500    180.8810      0.0000    697.6041      4.0012
  1980.5000    183.3471      0.0000    697.7557      3.9496
  1980.7500    184.2532      0.0000    697.8832      3.9049
  1981.0000    183.8185      0.0000    697.9660      3.8864
  1981.2500    183.8726      0.0000    697.9918      3.8955
  1981.5000    185.6863      0.0000    697.9565      3.9112
  1981.7500    187.9819      0.0000    697.8687      3.9112
  1982.0000    188.2027      0.0000    697.7493      3.8945
  1982.2500    185.1970      0.0000    697.6136      3.8780
  1982.5000    179.6784      0.0000    697.4504      3.8725
  1982.7500    172.7418      0.0000    697.2349      3.8718
  1983.0000    165.2642      0.0000    696.9621      3.8642
  1983.2500    158.3507      0.0000    696.6572      3.8468
  1983.5000    153.0485      0.0000    696.3598      3.8251
  1983.7500    149.3172      0.0000    696.1115      3.8061
  1984.0000    145.7470      0.0000    695.9385      3.7981
  1984.2500    140.7181      0.0000    695.8157      3.8070
  1984.5000    134.2055      0.0000    695.6622      3.8294
  1984.7500    128.4949      0.0000    695.4059      3.8548
  1985.0000    126.6741      0.0000    695.0253      3.8783
  1985.2500    129.9858      0.0000    694.4871      3.9005
  1985.5000    136.7208      0.0000    693.6359      3.9132
  1985.7500    143.8817      0.0000    692.2428      3.9042
  1986.0000    149.6526      0.0000    690.3339      3.8861
  1986.2500    153.8458      0.0000    688.4638      3.9060
  1986.5000    156.2606      0.0000    687.3387      4.0078
  1986.7500    155.4303      0.0000    686.8344      4.1845
  1987.0000    149.4707      0.0000    685.7433      4.3778
  1987.2500    138.2729      0.0000    683.2313      4.5244
  1987.5000    124.8016      0.0000    680.6445      4.6005
  1987.7500    113.8540      0.0000    680.8392      4.6274
  1988.0000    109.2919      0.0000    684.5348      4.6369
  1988.2500    112.1870      0.0000    686.8385      4.6364
  1988.5000    120.7111      0.0000    677.8563      4.6081
  1988.7500    130.8557      0.0000    648.4880      4.5361
  1989.0000    138.0448      0.0000    598.2380      4.4277
  1989.2500    140.0792      0.0000    538.2540      4.3100
  1989.5000    138.9826      0.0000    484.9635      4.2129
  1989.7500    138.9684      0.0000    449.3190      4.1549
  1990.0000    142.5066      0.0000    431.9563      4.1384
  1990.2500    148.8648      0.0000    427.2382      4.1539
  1990.5000    155.8499      0.0000    429.9927      4.1910
  1990.7500    161.9776      0.0000    439.3040      4.2436
  1991.0000    166.9631      0.0000    458.5156      4.3064
  1991.2500    170.9500      0.0000    491.8870      4.3724
  1991.5000    173.8018      0.0000    539.0570      4.4347
  1991.7500    175.2279      0.0000    591.8365      4.4877
  1992.0000    175.3715      0.0000    637.7904      4.5251
  1992.2500    174.6833      0.0000    667.7371      4.5407
  1992.5000    173.0591      0.0000    679.1625      4.5319
  1992.7500    169.7463      0.0000    673.7553      4.4997
  1993.0000    164.5098      0.0000    655.0070      4.4445
  1993.2500    158.3973      0.0000    629.5726      4.3639
  1993.5000    152.9005      0.0000    608.3295      4.2598
  1993.7500    148.6132      0.0000    602.2687      4.1508
  1994.0000    145.2265      0.0000    615.3558      4.0698
  1994.2500    142.7970      0.0000    641.3160      4.0417
  1994.5000    142.1968      0.0000    668.1390      4.0607
  1994.7500    143.7292      0.0000    686.6092      4.0960
  1995.0000    145.9095      0.0000    694.9948      4.1170
  1995.2500    146.4566      0.0000    696.7178      4.1122
  1995.5000    144.1733      0.0000    695.3552      4.0897
  1995.7500    139.2193      0.0000    691.8234      4.0630
  1996.0000    132.1307      0.0000    684.2259      4.0390
  1996.2500    123.5984      0.0000    669.0596      4.0144
  1996.5000    114.7898      0.0000    643.5654      3.9871
  1996.7500    106.8242      0.0000    609.2524      3.9696
  1997.0000    100.1249      0.0000    574.1456      3.9870
  1997.2500     95.0501      0.0000    549.6135      4.0540
  1997.5000     92.7201      0.0000    541.4162      4.1573
  1997.7500     94.1857      0.0000    543.2750      4.2657
  1998.0000     98.9020      0.0000    542.0547      4.3534
  1998.2500    104.7423      0.0000    530.3221      4.4139
  1998.5000    109.5280      0.0000    512.0109      4.4573
  1998.7500    112.3160      0.0000    496.2751      4.4977
  1999.0000    113.5307      0.0000    488.9902      4.5417
  1999.2500    114.0622      0.0000    490.9121      4.5861
  1999.5000    114.3115      0.0000    500.5019      4.6231
  1999.7500    114.2327      0.0000    514.8055      4.6434
  2000.0000    113.9004      0.0000    527.8135      4.6376
  2000.2500    113.4542      0.0000    532.0602      4.6020
  2000.5000    112.9282      0.0000    525.5810      4.5485
  2000.7500    112.7366      0.0000    516.7402      4.5026
  2001.0000    113.9122      0.0000    519.3769      4.4884
  2001.2500    117.2865      0.0000    541.7808      4.5134
  2001.5000    122.6184      0.0000    580.1150      4.5694
