~Version Information
VERS.                      2.0: CWLS Log ASCII Standard - VERSION 2.0
WRAP.                       NO: One line per depth step
~Well Information Block
STRT.FT               -13.5000: 
STOP.FT              2474.2500: 
STEP.FT                 0.2500: 
NULL.                -999.2500: 
COMP.          Pioneer Natural Resources: COMPANY
WELL.              Tiaga 23-14: WELL
FLD.           Purgatorie River: FIELD
LOC.           2168' FSL & 2030' FWL--: LOCATION
PROV.                       CO: PROVINCE
CNTY.               Las Animas: COUNTRY
SRVC.                         : SERVICE COMPANY
DATE.          Thu May 12 17:01:37 2005: LOG DATE
UWI.                          : UNIQUE WELL ID
~Curve Information Block
DEPT.FT            0 000 00 00: Depth
TT3.usec                      : CBL 3' Travel Time
AMP3.mV                       : CBL 3' Amplitude
GR.GAPI                       : Gamma Ray
CCL.                          : Casing Collar Locator
~Parameter Information Block
~A  Depth       TT3         AMP3         GR         CCL     
# ...
  2097.0000    706.9750      4.6588     32.8248      0.0000
  2097.2500    719.0054      4.3955     31.3850      0.0000
  2097.5000    735.4126      4.1693     32.0451      0.0000
  2097.7500    742.4209      4.0405     34.5814      0.0000
  2098.0000    732.2507      4.0195     37.7740      0.0000
  2098.2500    710.0375      4.0460     39.9639      0.0000
  2098.5000    686.7966      4.0632     40.0779      0.0000
  2098.7500    672.0984      4.0777     38.3892      0.0000
  2099.0000    671.8568      4.1330     36.4048      0.0000
  2099.2500    683.2104      4.2607     35.9523      0.0000
  2099.5000    691.5403      4.4515     38.0728      0.0000
  2099.7500    684.9247      4.6416     42.5605      0.0000
  2100.0000    669.7123      4.7516     48.5179      0.0000
  2100.2500    662.3575      4.7611     55.1867      0.0000
  2100.5000    669.0786      4.7298     62.0537      0.0000
  2100.7500    679.8130      4.7628     68.4072      0.0000
  2101.0000    682.4646      4.9567     73.3617      0.0000
  2101.2500    676.8536      5.3081     76.4993      0.0000
  2101.5000    671.9562      5.6689     78.1763      0.0000
  2101.7500    670.7913      5.8640     78.9546      0.0000
  2102.0000    664.8691      5.8459     78.8737      0.0000
  2102.2500    650.0186      5.6966     77.5092      0.0000
  2102.5000    634.4242      5.5401     74.6675      0.0000
  2102.7500    625.6053      5.4720     70.8712      0.0000
  2103.0000    622.8751      5.5108     67.2894      0.0000
  2103.2500    622.9853      5.6034     65.1543      0.0000
  2103.5000    625.7189      5.6889     64.8798      0.0000
  2103.7500    635.1620      5.7433     65.6650      0.0000
  2104.0000    655.9871      5.7641     66.2018      0.0000
  2104.2500    683.6396      5.7531     65.7781      0.0000
  2104.5000    700.4563      5.7241     64.5588      0.0000
  2104.7500    692.4492      5.6907     62.9474      0.0000
  2105.0000    668.2286      5.6393     61.0658      0.0000
  2105.2500    648.5745      5.5420     59.0324      0.0000
  2105.5000    642.6163      5.4083     57.4734      0.0000
  2105.7500    645.8008      5.2843     57.3989      0.0000
  2106.0000    651.0771      5.1792     59.4966      0.0000
  2106.2500    653.3295      5.0590     63.5693      0.0000
  2106.5000    651.6924      4.9352     68.5620      0.0000
  2106.7500    649.7467      4.8820     73.1488      0.0000
  2107.0000    649.0137      4.9545     76.5699      0.0000
  2107.2500    646.3785      5.1435     79.0907      0.0000
  2107.5000    640.4874      5.4013     81.5581      0.0000
  2107.7500    636.1082      5.6805     84.5331      0.0000
  2108.0000    641.2370      5.9476     87.9050      0.0000
  2108.2500    658.7793      6.1841     91.0842      0.0000
  2108.5000    679.3242      6.3925     93.4002      0.0000
  2108.7500    687.8138      6.5756     94.5894      0.0000
  2109.0000    679.4584      6.6980     95.0464      0.0000
  2109.2500    662.6694      6.7073     95.1749      0.0000
  2109.5000    646.9710      6.6028     94.3908      0.0000
  2109.7500    635.4138      6.4819     91.5201      0.0000
  2110.0000    629.0142      6.5006     86.6313      0.0000
  2110.2500    631.4781      6.6885     81.7566      0.0000
  2110.5000    645.4161      6.8537     79.0544      0.0000
  2110.7500    663.1660      6.8373     78.6111      0.0000
  2111.0000    670.1100      6.7167     78.7267      0.0000
  2111.2500    664.3327      6.6168     78.1328      0.0000
  2111.5000    658.8150      6.5351     77.1347      0.0000
  2111.7500    661.4897      6.4346     76.5225      0.0000
  2112.0000    669.8176      6.3337     76.1881     -2.0000
  2112.2500    677.1067      6.2593     75.3130      0.0000
  2112.5000    672.3121      6.2022     73.5239      2.0000
  2112.7500    648.7557      6.1498     71.4484      0.0000
  2113.0000    617.6785      6.0784     70.2397      0.0000
  2113.2500    597.5200      5.9102     70.6563      0.0000
  2113.5000    589.1304      5.6467     72.4483      0.0000
  2113.7500    578.0261      5.4466     74.6229      0.0000
  2114.0000    558.9899      5.3876     76.4582      0.0000
  2114.2500    540.9402      5.3750     78.1993      0.0000
  2114.5000    531.5403      5.3389     80.5803      0.0000
  2114.7500    533.1998      5.2949     83.5973      0.0000
  2115.0000    549.5736      5.2535     86.0436      0.0000
  2115.2500    581.2999      5.1867     86.7812      0.0000
  2115.5000    617.0059      5.0701     86.5066      0.0000
  2115.7500    639.9453      4.9300     87.5573      0.0000
  2116.0000    645.3478      4.8329     91.5778      0.0000
  2116.2500    643.2363      4.8239     97.7858      0.0000
  2116.5000    641.7670      4.8970    103.8891      0.0000
  2116.7500    639.1226      5.0278    108.2462      0.0000
  2117.0000    632.9290      5.2068    110.5135      0.0000
  2117.2500    621.8063      5.4309    110.6738      0.0000
  2117.5000    605.2466      5.6852    108.5790      0.0000
  2117.7500    595.4449      5.9340    104.6047      0.0000
  2118.0000    607.8283      6.1389     99.8032      0.0000
  2118.2500    638.6581      6.2979     95.1177      0.0000
  2118.5000    670.8558      6.4386     91.0848      0.0000
  2118.7500    692.4434      6.5797     88.3213      0.0000
  2119.0000    701.8925      6.7238     87.3770      0.0000
  2119.2500    702.6371      6.8601     87.8758      0.0000
  2119.5000    697.1044      6.9734     88.4909      0.0000
  2119.7500    688.0550      7.0469     88.0728      0.0000
  2120.0000    681.3452      7.0576     86.6058      0.0000
  2120.2500    679.7307      7.0244     85.0810      0.0000
  2120.5000    680.0993      7.0214     84.5992      0.0000
  2120.7500    683.3157      7.0698     85.5374      0.0000
  2121.0000    693.6053      7.1149     87.4141      0.0000
  2121.2500    706.4432      7.1305     89.3887      0.0000
  2121.5000    709.6157      7.1385     90.7529      0.0000
  2121.7500    694.9874      7.1449     91.2132      0.0000
  2122.0000    664.4395      7.1255     91.0977      0.0000
  2122.2500    625.0597      7.0519     91.1841      0.0000
  2122.5000    585.1934      6.9164     91.9961      0.0000
  2122.7500    554.8008      6.7344     93.3309      0.0000
  2123.0000    538.8001      6.5268     94.5018      0.0000
  2123.2500    533.1665      6.3217     94.8273      0.0000
  2123.5000    531.3447      6.1643     93.9383      0.0000
  2123.7500    529.1268      6.0838     91.9863      0.0000
  2124.0000    526.1351      6.0454     89.6782      0.0000
  2124.2500    529.5161      5.9665     87.9656      0.0000
  2124.5000    550.3104      5.7889     87.4252      0.0000
  2124.7500    584.7803      5.5446     87.6039      0.0000
  2125.0000    610.2186      5.3634     87.0863      0.0000
  2125.2500    610.5894      5.3717     84.6812      0.0000
  2125.5000    590.4858      5.5312     80.5489      0.0000
  2125.7500    559.9554      5.6887     75.9009      0.0000
  2126.0000    523.3639      5.8161     71.9063      0.0000
  2126.2500    486.0100      6.0060     69.1467      0.0000
  2126.5000    458.3716      6.2464     67.6782      0.0000
  2126.7500    450.2135      6.4005     67.2225      0.0000
  2127.0000    460.5549      6.3755     67.4381     -2.0000
  2127.2500    476.1184      6.2079     68.1508      2.0000
  2127.5000    488.2512      6.0152     69.2939      0.0000
  2127.7500    505.4812      5.8970     70.8401      0.0000
  2128.0000    539.0885      5.8343     72.9795      0.0000
  2128.2500    580.2883      5.7068     76.0816      0.0000
  2128.5000    598.9678      5.4805     80.2667      0.0000
  2128.7500    571.6776      5.2663     85.1848      0.0000
  2129.0000    509.3998      5.1478     90.1669      0.0000
  2129.2500    448.0691      5.1020     94.3053      0.0000
  2129.5000    411.5349      5.0809     96.4499      0.0000
  2129.7500    397.0647      5.0681     95.5899      0.0000
  2130.0000    392.4851      5.0780     91.7103      0.0000
  2130.2500    391.7253      5.1524     86.2250      0.0000
