~Version Information
VERS.                      2.0: CWLS Log ASCII Standard - VERSION 2.0
WRAP.                       NO: One line per depth step
~Well Information Block
STRT.FT                -4.0000: 
STOP.FT              2464.0000: 
STEP.FT                 0.2500: 
NULL.                -999.2500: 
COMP.          Pioneer Natural Resources: COMPANY
WELL.            Rancher 12-35: WELL
FLD.           Purgatorie River: FIELD
LOC.           2131' FNL & 297' FWL--: LOCATION
PROV.                       CO: PROVINCE
CNTY.               Las Animas: COUNTRY
SRVC.                         : SERVICE COMPANY
DATE.          Wed Oct 20 13:17:53 2004: LOG DATE
UWI.                          : UNIQUE WELL ID
~Curve Information Block
DEPT.FT            0 000 00 00: Depth
GR.GAPI                       : Gamma Ray
CCL.                          : Casing Collar Locator
TT3.usec                      : CBL 3' Travel Time
AMP3.mV                       : CBL 3' Amplitude
~Parameter Information Block
~A  Depth        GR         CCL         TT3         AMP3    
# ...
   632.5000    144.5150      0.0000    763.3698      7.5463
   632.7500    146.1716      0.0000    763.4582      7.4378
   633.0000    147.4920      0.0000    763.4459      7.3770
   633.2500    148.0440      0.0000    763.4383      7.3974
   633.5000    148.3140      0.0000    763.4387      7.5189
   633.7500    149.1821      0.0000    763.3942      7.7434
   634.0000    150.7758      0.0000    763.2473      8.0563
   634.2500    151.8299      0.0000    762.9469      8.4317
   634.5000    150.5956      0.0000    762.3909      8.8464
   634.7500    146.5122      0.0000    761.3453      9.2910
   635.0000    140.8387      0.0000    759.5245      9.7641
   635.2500    135.6613      0.0000    756.9975     10.2563
   635.5000    132.4072      0.0000    754.5794     10.7423
   635.7500    131.2630      0.0000    753.4630     11.1814
   636.0000    131.7547      0.0000    754.0690     11.5253
   636.2500    133.4779      0.0000    755.4655     11.7338
   636.5000    136.1850      0.0000    756.2683     11.7999
   636.7500    139.4470      0.0000    755.8896     11.7555
   637.0000    142.5675      0.0000    754.6909     11.6492
   637.2500    145.0188      0.0000    753.4180     11.5168
   637.5000    146.8062      0.0000    752.7907     11.3741
   637.7500    147.9187      0.0000    752.9393     11.2301
   638.0000    147.5203      0.0000    752.8264     11.0985
   638.2500    144.5235      0.0000    750.9979     10.9934
   638.5000    139.3944      0.0000    747.3272     10.9197
   638.7500    134.6642      0.0000    743.5367     10.8719
   639.0000    132.7938      0.0000    741.9465     10.8444
   639.2500    133.7513      0.0000    743.8857     10.8327
   639.5000    135.2755      0.0000    748.9528     10.8260
   639.7500    135.2259      0.0000    755.4246     10.8061
   640.0000    133.0811      0.0000    761.2115     10.7657
   640.2500    129.6129      0.0000    764.5367     10.7270
   640.5000    126.1923      0.0000    764.4620     10.7346
   640.7500    124.3212      0.0000    761.5594     10.8250
   641.0000    124.5692      0.0000    757.6947     11.0005
   641.2500    125.5352      0.0000    754.3578     11.2285
   641.5000    124.6935      0.0000    751.5251     11.4553
   641.7500    120.4604      0.0000    748.4975     11.6261
   642.0000    113.0371      0.0000    744.7544     11.7091
   642.2500    103.8460      0.0000    738.9230     11.7081
   642.5000     94.7928      0.0000    728.0334     11.6489
   642.7500     87.3549      0.0000    710.2751     11.5467
   643.0000     81.9219      0.0000    689.4988     11.3902
   643.2500     78.3002      0.0000    675.4844     11.1558
   643.5000     76.2848      0.0000    677.4482     10.8378
   643.7500     75.1883      0.0000    696.3828     10.4685
   644.0000     73.8175      0.0000    724.2010     10.1062
   644.2500     71.9191      0.0000    750.2450      9.7876
   644.5000     71.0864      0.0000    768.1248      9.4903
   644.7500     73.5215      0.0000    777.7987      9.1553
   645.0000     80.2252      0.0000    783.3748      8.7495
   645.2500     90.4456      0.0000    788.8466      8.2981
   645.5000    102.2244      0.0000    794.5638      7.8636
   645.7500    113.3677      0.0000    797.9287      7.5025
   646.0000    122.5846      0.0000    798.2387      7.2395
   646.2500    130.0820      0.0000    799.4338      7.0684
   646.5000    137.0327      0.0000    806.3124      6.9683
   646.7500    144.4573      0.0000    818.5352      6.9170
   647.0000    152.2836      0.0000    829.7096      6.8949
   647.2500    158.9671      0.0000    832.4013      6.8876
   647.5000    162.1547      0.0000    823.7986      6.8873
   647.7500    160.1659      0.0000    807.4911      6.8909
   648.0000    153.0492      0.0000    790.9287      6.8947
   648.2500    142.5547      0.0000    781.3662      6.8890
   648.5000    131.5995      0.0000    783.3127      6.8504
   648.7500    123.6048      0.0000    797.6813      6.7458
   649.0000    121.3204      0.0000    820.7356      6.5576
   649.2500    125.2922      0.0000    843.9714      6.3168
   649.5000    133.2861      0.0000    858.3329      6.0993
   649.7500    141.5421      0.0000    861.0952      5.9744
   650.0000    147.0755      0.0000    857.6595      5.9588
   650.2500    149.2660      0.0000    855.1486      6.0148
   650.5000    149.5184      0.0000    855.6387      6.0806
   650.7500    149.4786      0.0000    856.7183      6.0966
   651.0000    149.5716      0.0000    855.6154      6.0204
   651.2500    149.0861      0.0000    849.7525      5.8535
   651.5000    147.1921      0.0000    836.0536      5.6791
   651.7500    143.7378      0.0000    814.0479      5.6492
   652.0000    139.6325      0.0000    789.0352      5.8749
   652.2500    136.6911      0.0000    769.3660      6.3108
   652.5000    136.2786      0.0000    760.0884      6.7770
   652.7500    137.6373      0.0000    759.7567      7.1109
   653.0000    138.3040      0.0000    762.8790      7.2858
   653.2500    136.3788      0.0000    764.7759      7.3815
   653.5000    131.4246      0.0000    764.2225      7.4651
   653.7500    123.3755      0.0000    762.4968      7.5218
   654.0000    112.4252      0.0000    761.0730      7.4928
   654.2500    100.5227      0.0000    760.4679      7.3600
   654.5000     91.6314      0.0000    760.4151      7.1780
   654.7500     89.6440      0.0000    760.3253      7.0262
   655.0000     95.9297      0.0000    759.4833      6.9418
   655.2500    108.3084      0.0000    757.1854      6.9047
   655.5000    122.1495      0.0000    753.2122      6.8749
   655.7500    133.2050      0.0000    748.5044      6.8356
   656.0000    139.9464      0.0000    745.1744      6.8056
   656.2500    143.3220      0.0000    745.2261      6.8171
   656.5000    144.4684      0.0000    749.0486      6.8783
   656.7500    142.8123      0.0000    755.4016      6.9597
   657.0000    136.5315      0.0000    762.7472      7.0195
   657.2500    125.2262      0.0000    770.1750      7.0387
   657.5000    111.6904      0.0000    777.2751      7.0257
   657.7500     99.8835      0.0000    783.7018      6.9924
   658.0000     91.3025      0.0000    788.8397      6.9337
   658.2500     84.4109      0.0000    791.5633      6.8377
   658.5000     77.3692      0.0000    790.5154      6.7107
   658.7500     70.3017      0.0000    785.1920      6.5863
   659.0000     64.9340      0.0000    777.0652      6.5003
   659.2500     62.7011      0.0000    769.3685      6.4659
   659.5000     63.5525      0.0000    765.1038      6.4777
   659.7500     66.5091      0.0000    764.8759      6.5301
   660.0000     71.1136      0.0000    766.6862      6.6221
   660.2500     77.8777      0.0000    767.8086      6.7498
   660.5000     87.0649      0.0000    766.8702      6.9007
   660.7500     97.4229      0.0000    764.3292      7.0529
   661.0000    106.7485      0.0000    761.3036      7.1830
   661.2500    113.7710      0.0000    758.3459      7.2818
   661.5000    119.0005      0.0000    755.4944      7.3648
   661.7500    123.5506      0.0000    753.1115      7.4607
   662.0000    127.5090      0.0000    752.0555      7.5852
   662.2500    129.8615      0.0000    752.8067      7.7307
   662.5000    130.0857      0.0000    754.7911      7.8840
   662.7500    129.1952      0.0000    756.8563      8.0416
   663.0000    128.7379      0.0000    758.2120      8.2031
   663.2500    129.3732      0.0000    758.7259      8.3594
   663.5000    130.8473      0.0000    758.5497      8.5013
   663.7500    132.5081      0.0000    757.7189      8.6359
   664.0000    133.3832      0.0000    756.1311      8.7821
   664.2500    132.6230      0.0000    753.9127      8.9440
   664.5000    130.4281      0.0000    751.7986      9.0969
   664.7500    128.1127      0.0000    750.8477      9.2010
   665.0000    127.1365      0.0000    751.4473      9.2224
   665.2500    128.2313      0.0000    752.6821      9.1397
   665.5000    131.0916      0.0000    752.9251      8.9424
   665.7500    134.4323      0.0000    751.0419      8.6338
