~Version Information
VERS.                      2.0: CWLS Log ASCII Standard - VERSION 2.0
WRAP.                       NO: One line per depth step
~Well Information Block
STRT.FT               780.0000: 
STOP.FT              1557.5000: 
STEP.FT                 0.1000: 
NULL.                -999.2500: 
COMP.          Pioneer Natural Resources: COMPANY
WELL.          Bunner's 13-26 Tr: WELL
FLD.           Purgatoire River: FIELD
LOC.           1843' FSL & 456' FWL----: LOCATION
PROV.                 Colorado: PROVINCE
CNTY.               Las Animas: COUNTRY
SRVC.                Patterson: SERVICE COMPANY
DATE.          Tue Mar 29 07:41:16 2005: LOG DATE
UWI.           05 071 08331 00: UNIQUE WELL ID
~Curve Information Block
DEPT.FT            0 000 00 00: Depth
DCAL.in                       : CDL Caliper
RHOB.g/cc                     : CDL Bulk Density
RHOC.g/cc                     : CDL Density Correction
DPOR.pu                       : CDL Density Porosity
NPOR.pu                       : Neutron Porosity
GR.GAPI                       : Gamma Ray
~Parameter Information Block
~A  Depth       DCAL        RHOB        RHOC        DPOR        NPOR         GR     
# ...
  1231.2000      7.8510      2.6060      0.0206      2.6671     20.1943     63.7411
  1231.3000      7.8539      2.5885      0.0400      3.7253     19.9318     66.3231
  1231.4000      7.8539      2.5656      0.0148      5.1160     19.6969     72.5859
  1231.5000      7.8573      2.5428     -0.0003      6.4949     19.2899     77.4616
  1231.6000      7.8573      2.5321      0.0489      7.1450     18.7985     75.8383
  1231.7000      7.8573      2.5333      0.0673      7.0718     18.2511     69.4507
  1231.8000      7.8618      2.5337      0.0402      7.0493     17.7224     63.5179
  1231.9000      7.8618      2.5259      0.0312      7.5211     17.0993     61.5378
  1232.0000      7.8683      2.5135      0.0185      8.2747     16.3869     63.1735
  1232.1000      7.8683      2.5021      0.0811      8.9649     16.0364     65.7632
  1232.2000      7.8683      2.4968      0.0321      9.2835     16.3167     67.3610
  1232.3000      7.8766      2.5012      0.0867      9.0206     16.7122     68.3540
  1232.4000      7.8766      2.5111      0.0409      8.4210     16.6070     68.0256
  1232.5000      7.8825      2.5220      0.0649      7.7583     16.1580     64.5615
  1232.6000      7.8825      2.5316      0.0731      7.1778     15.9017     59.4450
  1232.7000      7.8825      2.5416      0.0589      6.5677     16.1406     55.9297
  1232.8000      7.8810      2.5511      0.0577      5.9932     16.6138     53.8451
  1232.9000      7.8810      2.5518      0.0909      5.9511     16.7900     51.0194
  1233.0000      7.8752      2.5422      0.0607      6.5338     16.6736     48.2511
  1233.1000      7.8752      2.5318      0.0238      7.1656     16.5867     46.8163
  1233.2000      7.8752      2.5309      0.0176      7.2165     16.6108     46.4481
  1233.3000      7.8676      2.5390      0.0377      6.7275     16.5924     48.2733
  1233.4000      7.8676      2.5483      0.0524      6.1619     16.3436     53.6513
  1233.5000      7.8599      2.5487      0.0494      6.1421     16.1204     59.0296
  1233.6000      7.8599      2.5412      0.0158      6.5943     16.0928     59.9323
  1233.7000      7.8599      2.5412      0.0450      6.5933     15.8630     57.7834
  1233.8000      7.8569      2.5452      0.0827      6.3542     15.3353     56.0521
  1233.9000      7.8569      2.5347      0.0455      6.9850     14.9304     54.3980
  1234.0000      7.8595      2.5119      0.0092      8.3683     14.9451     51.2481
  1234.1000      7.8595      2.4968     -0.0058      9.2851     15.2308     48.5719
  1234.2000      7.8595      2.5043      0.0137      8.8327     15.4185     48.7068
  1234.3000      7.8631      2.5266      0.0745      7.4792     15.3393     51.7739
  1234.4000      7.8631      2.5397      0.0925      6.6878     15.2419     57.2109
  1234.5000      7.8655      2.5336      0.0623      7.0562     15.4299     61.3874
  1234.6000      7.8655      2.5246      0.0255      7.6029     15.9411     58.8441
  1234.7000      7.8655      2.5301      0.0445      7.2677     16.6145     51.1810
  1234.8000      7.8650      2.5473      0.0729      6.2212     17.0236     47.1483
  1234.9000      7.8650      2.5623      0.0644      5.3144     16.9571     50.6469
  1235.0000      7.8624      2.5667      0.0540      5.0514     16.5107     56.6880
  1235.1000      7.8624      2.5588      0.0342      5.5286     15.7093     58.8745
  1235.2000      7.8624      2.5439      0.0052      6.4327     15.0099     56.4013
  1235.3000      7.8588      2.5411     -0.0119      6.6019     14.8443     52.6843
  1235.4000      7.8588      2.5636      0.0313      5.2352     14.9355     51.4192
  1235.5000      7.8558      2.5922      0.0405      3.5004     15.0086     53.8604
  1235.6000      7.8558      2.6015      0.0552      2.9409     15.1113     56.1599
  1235.7000      7.8558      2.5941      0.0220      3.3875     15.3939     55.5753
  1235.8000      7.8534      2.5881      0.0231      3.7503     16.0337     56.5927
  1235.9000      7.8534      2.5854      0.0232      3.9155     16.7403     61.0518
  1236.0000      7.8489      2.5767      0.0239      4.4451     17.0525     64.9290
  1236.1000      7.8489      2.5626      0.0219      5.2998     17.2588     66.0857
  1236.2000      7.8489      2.5458      0.0082      6.3178     17.8919     66.5352
  1236.3000      7.8457      2.5228      0.0222      7.7116     18.8095     68.6821
  1236.4000      7.8457      2.4963     -0.0090      9.3150     19.6598     72.3612
  1236.5000      7.8461      2.4783     -0.0394     10.4074     20.3956     75.6517
  1236.6000      7.8461      2.4731     -0.0255     10.7225     21.0738     78.2949
  1236.7000      7.8461      2.4738     -0.0081     10.6776     21.7235     83.1339
  1236.8000      7.8469      2.4741      0.0033     10.6588     22.3146     89.6416
  1236.9000      7.8469      2.4721      0.0196     10.7846     22.8420     93.9249
  1237.0000      7.8482      2.4716      0.0088     10.8127     23.6031     96.7940
  1237.1000      7.8482      2.4910     -0.0166      9.6368     24.7486    101.4947
  1237.2000      7.8482      2.5392      0.0503      6.7148     25.7540    106.9454
  1237.3000      7.8506      2.6025      0.0525      2.8796     26.3299    109.8207
  1237.4000      7.8506      2.6794      0.0660     -1.7820     26.8904    110.3653
  1237.5000      7.8537      2.7654      0.1392     -6.9945     27.9211    109.8540
  1237.6000      7.8537      2.8178      0.1943    -10.1706     29.4006    106.5932
  1237.7000      7.8537      2.7984      0.1539     -8.9917     30.7559    100.2556
  1237.8000      7.8614      2.7255      0.0655     -4.5730     31.2792     94.1180
  1237.9000      7.8614      2.6451      0.0168      0.2987     30.7024     93.5777
  1238.0000      7.8786      2.5899     -0.1284      3.6396     29.4714    101.8793
  1238.1000      7.8786      2.5756     -0.1301      4.5068     28.4398    113.3575
  1238.2000      7.8786      2.5831     -0.0938      4.0550     28.0898    120.4515
  1238.3000      7.9025      2.5751     -0.1349      4.5402     28.0580    123.4678
  1238.4000      7.9025      2.5498     -0.1099      6.0707     27.7504    125.1715
  1238.5000      7.9151      2.5351     -0.0955      6.9620     27.1503    126.1851
  1238.6000      7.9151      2.5352      0.0337      6.9559     26.6013    128.5958
  1238.7000      7.9151      2.5285      0.0658      7.3647     26.3111    133.2181
  1238.8000      7.9123      2.5093      0.0638      8.5272     26.0906    133.9654
  1238.9000      7.9123      2.4910      0.0368      9.6371     25.7309    127.2048
  1239.0000      7.9037      2.4838      0.0027     10.0755     25.3427    121.3738
  1239.1000      7.9037      2.4903      0.0206      9.6772     25.3734    122.3038
  1239.2000      7.9037      2.5082     -0.0051      8.5933     26.0919    124.7786
  1239.3000      7.8989      2.5256      0.0554      7.5381     27.1614    124.3149
  1239.4000      7.8989      2.5216      0.0188      7.7846     28.0778    122.1141
  1239.5000      7.9082      2.4795      0.0136     10.3316     28.4440    119.3398
  1239.6000      7.9082      2.3901      0.0182     15.7530     28.1540    115.8277
  1239.7000      7.9082      2.2654     -0.0730     23.3083     27.3596    111.6943
  1239.8000      7.9347      2.1454     -0.1285     30.5811     26.2847    107.8314
  1239.9000      7.9347      2.0577     -0.0994     35.8981     25.0982    106.6520
  1240.0000      7.9727      2.0006     -0.1029     39.3579     23.7461    108.3261
  1240.1000      7.9727      1.9661     -0.1055     41.4507     22.2343    110.0035
  1240.2000      7.9727      1.9509     -0.0660     42.3701     20.5137    109.7867
  1240.3000      8.0093      1.9570     -0.0346     41.9979     18.5744    107.7329
  1240.4000      8.0093      1.9889      0.0216     40.0663     16.9519    105.6293
  1240.5000      8.0406      2.0465      0.1662     36.5733     16.0517    104.1058
  1240.6000      8.0406      2.1211      0.2801     32.0519     15.6922    104.3270
  1240.7000      8.0406      2.1998      0.2729     27.2827     15.7193    108.4408
