~Version Information
VERS.                      2.0: CWLS Log ASCII Standard - VERSION 2.0
WRAP.                       NO: One line per depth step
~Well Information Block
STRT.FT               583.0000: 
STOP.FT              1701.5000: 
STEP.FT                 0.2500: 
NULL.                -999.2500: 
COMP.          Pioneer Natural Resources: COMPANY
WELL.          Scott Canyon 11-18 Tr: WELL
FLD.           Purgatoire River: FIELD
LOC.           411' FNL & 580' FWL: LOCATION
PROV.                 Colorado: PROVINCE
CNTY.               Las Animas: COUNTRY
SRVC.                Patterson: SERVICE COMPANY
DATE.          Thu Feb 17 02:07:21 2005: LOG DATE
UWI.           05 071 08286 00: UNIQUE WELL ID
~Curve Information Block
DEPT.FT            0 000 00 00: Depth
SN.Ohm-m                      : IEL Short Normal
SP.mV                         : IEL Spontaneous Potential
DIR.Ohm-m                     : IEL Induction Resistivity
GR.GAPI                       : Gamma Ray
~Parameter Information Block
~A  Depth        SN          SP         DIR          GR     
# ...
  1353.5000     18.1540     -0.4924     13.2668     96.8070
  1353.7500     18.1529     -0.3310     12.9748    101.4516
  1354.0000     18.0755     -0.1560     12.6693    108.1369
  1354.2500     17.8248     -0.0040     12.3464    112.2367
  1354.5000     17.4431      0.1029     11.9993    117.9841
  1354.7500     16.9879      0.1515     11.6231    121.6641
  1355.0000     16.4553      0.1369     11.2173    126.9346
  1355.2500     15.8224      0.0662     10.7887    130.1109
  1355.5000     15.0859     -0.0417     10.3517    134.1273
  1355.7500     14.2554     -0.1673      9.9247    136.4163
  1356.0000     13.3579     -0.2987      9.5251    139.7505
  1356.2500     12.4584     -0.4282      9.1656    141.9893
  1356.5000     11.6589     -0.5442      8.8549    144.8146
  1356.7500     11.0557     -0.6287      8.6000    145.9255
  1357.0000     10.6926     -0.6655      8.4072    146.3686
  1357.2500     10.5723     -0.6519      8.2800    146.1837
  1357.5000     10.6833     -0.6048      8.2143    145.6863
  1357.7500     10.9504     -0.5565      8.1950    145.2621
  1358.0000     11.2101     -0.5421      8.1974    144.4757
  1358.2500     11.3148     -0.5825      8.1950    143.8974
  1358.5000     11.1960     -0.6711      8.1697    142.8226
  1358.7500     10.8306     -0.7748      8.1191    141.5714
  1359.0000     10.2495     -0.8512      8.0542    137.8287
  1359.2500      9.5788     -0.8690      7.9913    133.6595
  1359.5000      9.0312     -0.8201      7.9443    125.3354
  1359.7500      8.8625     -0.7228      7.9221    119.4543
  1360.0000      9.2689     -0.6156      7.9315    112.5841
  1360.2500     10.2260     -0.5416      7.9803    110.4887
  1360.5000     11.4328     -0.5277      8.0756    111.7975
  1360.7500     12.4838     -0.5746      8.2181    115.2460
  1361.0000     13.1065     -0.6661      8.3976    123.0177
  1361.2500     13.2289     -0.7859      8.5946    129.3715
  1361.5000     12.8984     -0.9232      8.7871    140.0135
  1361.7500     12.2284     -1.0626      8.9589    147.1341
  1362.0000     11.4185     -1.1779      9.1036    155.5177
  1362.2500     10.7312     -1.2440      9.2232    158.0399
  1362.5000     10.3992     -1.2586      9.3258    156.0342
  1362.7500     10.5568     -1.2473      9.4245    151.4968
  1363.0000     11.2170     -1.2456      9.5368    142.6258
  1363.2500     12.2528     -1.2804      9.6839    137.0543
  1363.5000     13.4152     -1.3667      9.8870    131.3941
  1363.7500     14.4347     -1.5109     10.1641    130.0143
  1364.0000     15.1610     -1.7069     10.5273    131.0452
  1364.2500     15.6197     -1.9299     10.9841    132.6999
  1364.5000     15.9460     -2.1416     11.5371    134.4979
  1364.7500     16.2803     -2.3059     12.1825    134.5333
  1365.0000     16.7048     -2.4032     12.9074    132.6081
  1365.2500     17.2503     -2.4323     13.6901    130.0100
  1365.5000     17.9522     -2.4059     14.5053    124.1625
  1365.7500     18.8890     -2.3438     15.3290    119.2648
  1366.0000     20.1848     -2.2673     16.1373    111.5125
  1366.2500     21.9858     -2.1946     16.9022    106.6167
  1366.5000     24.3444     -2.1380     17.5939     99.7846
  1366.7500     27.0558     -2.1025     18.1916     95.3558
  1367.0000     29.6853     -2.0903     18.6952     88.9964
  1367.2500     31.8085     -2.1072     19.1212     85.5102
  1367.5000     33.1950     -2.1668     19.4815     82.7089
  1367.7500     33.8039     -2.2831     19.7586     82.9138
  1368.0000     33.6577     -2.4569     19.9013     86.1734
  1368.2500     32.7229     -2.6698     19.8490     89.8567
  1368.5000     30.9846     -2.8954     19.5697     96.7056
  1368.7500     28.6512     -3.1157     19.0774    101.6302
  1369.0000     26.1244     -3.3251     18.4179    108.8005
  1369.2500     23.7298     -3.5205     17.6431    113.2023
  1369.5000     21.6057     -3.6930     16.8006    119.3467
  1369.7500     19.8043     -3.8321     15.9387    123.3297
  1370.0000     18.3304     -3.9324     15.1090    129.0449
  1370.2500     17.1337     -3.9963     14.3584    132.3035
  1370.5000     16.1743     -4.0339     13.7183    135.7255
  1370.7500     15.4376     -4.0635     13.1997    136.9541
  1371.0000     14.8932     -4.1077     12.7990    137.5645
  1371.2500     14.5114     -4.1813     12.5083    137.4767
  1371.5000     14.2891     -4.2820     12.3225    137.0359
  1371.7500     14.2066     -4.3964     12.2394    136.5654
  1372.0000     14.1868     -4.5150     12.2558    135.4373
  1372.2500     14.1843     -4.6391     12.3627    134.3960
  1372.5000     14.2659     -4.7758     12.5459    132.4588
  1372.7500     14.5079     -4.9261     12.7899    130.8062
  1373.0000     14.9022     -5.0775     13.0815    127.4116
  1373.2500     15.4037     -5.2049     13.4098    124.3868
  1373.5000     15.9839     -5.2804     13.7634    118.6955
  1373.7500     16.6435     -5.2870     14.1272    114.3432
  1374.0000     17.4066     -5.2276     14.4818    108.0412
  1374.2500     18.2850     -5.1216     14.8031    104.9837
  1374.5000     19.2301     -4.9940     15.0631    103.4516
  1374.7500     20.1155     -4.8659     15.2311    104.3471
  1375.0000     20.7894     -4.7478     15.2780    106.7399
  1375.2500     21.1294     -4.6376     15.1816    107.8241
  1375.5000     21.0264     -4.5226     14.9356    107.9400
  1375.7500     20.4162     -4.3869     14.5572    107.5260
  1376.0000     19.3770     -4.2229     14.0875    107.8557
  1376.2500     18.1049     -4.0424     13.5791    109.6021
  1376.5000     16.7925     -3.8766     13.0761    115.2601
  1376.7500     15.5726     -3.7563     12.5992    120.9609
  1377.0000     14.5119     -3.6860     12.1446    131.3709
  1377.2500     13.6195     -3.6362     11.6952    138.4372
  1377.5000     12.8804     -3.5637     11.2375    146.8329
  1377.7500     12.2805     -3.4407     10.7723    149.8634
  1378.0000     11.8018     -3.2699     10.3145    150.2687
  1378.2500     11.4102     -3.0756      9.8843    148.6173
  1378.5000     11.0481     -2.8840      9.4972    145.4330
  1378.7500     10.6874     -2.7076      9.1614    143.7802
  1379.0000     10.3892     -2.5435      8.8808    142.3416
  1379.2500     10.2213     -2.3813      8.6607    141.8007
  1379.5000     10.1590     -2.2133      8.5085    141.3435
  1379.7500     10.1180     -2.0425      8.4303    141.4629
  1380.0000     10.0347     -1.8826      8.4250    142.7876
  1380.2500      9.9092     -1.7485      8.4815    144.4888
  1380.5000      9.8094     -1.6443      8.5817    147.6479
  1380.7500      9.8235     -1.5612      8.7082    149.4769
  1381.0000      9.9864     -1.4842      8.8512    150.4978
  1381.2500     10.2665     -1.4011      9.0108    149.3688
  1381.5000     10.6180     -1.3058      9.1927    144.3762
  1381.7500     11.0219     -1.1992      9.4024    139.1143
  1382.0000     11.4838     -1.0910      9.6423    130.1411
  1382.2500     12.0159     -1.0025      9.9151    125.0319
  1382.5000     12.6122     -0.9587     10.2303    121.0603
  1382.7500     13.2235     -0.9721     10.6063    121.3468
  1383.0000     13.7830     -1.0330     11.0632    124.8373
  1383.2500     14.2901     -1.1158     11.6094    127.4497
  1383.5000     14.8248     -1.1950     12.2320    128.6023
  1383.7500     15.4384     -1.2531     12.8960    126.4345
  1384.0000     16.0803     -1.2817     13.5530    119.0713
  1384.2500     16.6845     -1.2817     14.1581    112.7379
  1384.5000     17.3055     -1.2659     14.6897    104.2698
  1384.7500     18.1281     -1.2565     15.1670    100.8899
  1385.0000     19.3332     -1.2740     15.6490    100.0309
  1385.2500     20.9486     -1.3265     16.2100    101.3934
  1385.5000     22.7996     -1.4058     16.9006    103.5428
  1385.7500     24.5874     -1.4912     17.7184    103.6881
  1386.0000     26.0569     -1.5583     18.6074    101.5425
  1386.2500     27.1265     -1.5884     19.4830     99.3113
  1386.5000     27.8576     -1.5749     20.2629     96.4415
  1386.7500     28.3270     -1.5237     20.8765     95.3449
