~Version Information
VERS.                      2.0: CWLS Log ASCII Standard - VERSION 2.0
WRAP.                       NO: One line per depth step
~Well Information Block
STRT.FT                -5.7500: 
STOP.FT              1965.7500: 
STEP.FT                 0.2500: 
NULL.                -999.2500: 
COMP.          Pioneer Natural Resources: COMPANY
WELL.          Easton 12-30 Tr: WELL
FLD.           Purgatorie River: FIELD
LOC.           549' FWL & 2416' FNL--: LOCATION
PROV.                       CO: PROVINCE
CNTY.               Las Animas: COUNTRY
SRVC.          Patterson Wireline: SERVICE COMPANY
DATE.          Mon Jun 06 16:13:03 2005: LOG DATE
UWI.           05 071 08379 00: UNIQUE WELL ID
~Curve Information Block
DEPT.FT            0 000 00 00: Depth
CCL.                          : Casing Collar Locator
TT3.usec                      : CBL 3' Travel Time
AMP3.mV                       : CBL 3' Amplitude
GR.GAPI                       : Gamma Ray
~Parameter Information Block
~A  Depth       CCL         TT3         AMP3         GR     
# ...
  1434.7500     -2.0000    683.7540      6.3018    132.3106
  1435.0000      0.0000    665.5688      6.1160    130.1736
  1435.2500      0.0000    645.0729      5.9491    128.2555
  1435.5000      0.0000    623.1183      5.9478    126.8762
  1435.7500      0.0000    602.3651      6.1691    126.9204
  1436.0000      0.0000    586.2991      6.5435    128.4920
  1436.2500      0.0000    576.0349      6.9344    130.9068
  1436.5000      0.0000    570.2629      7.2349    133.5498
  1436.7500      0.0000    568.3561      7.4122    135.8316
  1437.0000      0.0000    571.7753      7.4640    136.6103
  1437.2500      0.0000    581.5385      7.3594    134.7696
  1437.5000      0.0000    594.5222      7.0659    130.5642
  1437.7500      0.0000    603.2469      6.6392    125.6261
  1438.0000      0.0000    601.0878      6.2344    121.2877
  1438.2500      0.0000    588.4556      5.9852    117.4220
  1438.5000      0.0000    572.9674      5.8910    113.3061
  1438.7500      0.0000    563.6546      5.8520    109.1551
  1439.0000      0.0000    565.4264      5.7883    106.2909
  1439.2500      0.0000    576.8839      5.6832    105.9669
  1439.5000      0.0000    590.6121      5.5497    108.6161
  1439.7500      0.0000    596.8340      5.4224    114.1680
  1440.0000      0.0000    590.2454      5.3654    122.1838
  1440.2500      0.0000    573.9784      5.4160    131.2481
  1440.5000      0.0000    556.0231      5.5185    138.8580
  1440.7500      0.0000    542.5231      5.5702    142.7251
  1441.0000      0.0000    534.7797      5.5361    142.3363
  1441.2500      0.0000    530.8682      5.4676    139.0408
  1441.5000      0.0000    528.7306      5.4134    134.6178
  1441.7500      0.0000    527.8552      5.3746    130.0473
  1442.0000      0.0000    528.6268      5.3502    125.8746
  1442.2500      0.0000    530.9493      5.3587    123.2916
  1442.5000      0.0000    534.4905      5.3928    123.8519
  1442.7500      0.0000    540.6824      5.4158    127.8753
  1443.0000      0.0000    553.6365      5.4319    133.7808
  1443.2500      0.0000    577.6226      5.5046    139.1632
  1443.5000      0.0000    612.7844      5.6761    142.0608
  1443.7500      0.0000    653.6046      5.9061    141.1433
  1444.0000      0.0000    692.1439      6.1179    135.6244
  1444.2500      0.0000    722.7626      6.2782    126.0076
  1444.5000      0.0000    744.0346      6.4023    114.8615
  1444.7500      0.0000    757.5755      6.5005    105.8503
  1445.0000      0.0000    766.2203      6.5459    101.0932
  1445.2500      0.0000    772.9120      6.4957     99.3240
  1445.5000      0.0000    779.7466      6.3381     97.0309
  1445.7500      0.0000    786.6683      6.1278     91.5155
  1446.0000      0.0000    791.1058      5.9675     82.5962
  1446.2500      0.0000    789.8972      5.9290     71.7030
  1446.5000      0.0000    781.9692      5.9964     60.3791
  1446.7500      0.0000    769.1509      6.1077     49.9566
  1447.0000      0.0000    754.9505      6.2288     41.7421
  1447.2500      0.0000    742.7600      6.3527     36.6872
  1447.5000      0.0000    734.4719      6.4541     34.8526
  1447.7500      0.0000    730.0504      6.4912     35.3176
  1448.0000      0.0000    728.2513      6.4459     36.6114
  1448.2500      0.0000    727.6957      6.3450     37.4731
  1448.5000      0.0000    727.4599      6.2386     37.5582
  1448.7500      0.0000    727.1158      6.1619     37.4829
  1449.0000      0.0000    726.5756      6.1153     38.2637
  1449.2500      0.0000    725.9349      6.0828     40.7144
  1449.5000      0.0000    725.3555      6.0547     44.9669
  1449.7500      0.0000    725.0651      6.0355     50.1604
  1450.0000      0.0000    725.4111      6.0436     54.8786
  1450.2500      0.0000    726.8798      6.0967     58.3982
  1450.5000      0.0000    729.8043      6.1890     61.4724
  1450.7500      0.0000    733.6746      6.2984     65.6954
  1451.0000      0.0000    736.7750      6.4168     72.2152
  1451.2500      0.0000    737.2236      6.5503     81.0773
  1451.5000      0.0000    734.7920      6.6925     91.3364
  1451.7500      0.0000    731.2128      6.8142    101.4330
  1452.0000      0.0000    728.3372      6.8797    109.6511
  1452.2500      0.0000    726.4543      6.8722    114.7054
  1452.5000      0.0000    724.0750      6.8088    116.0767
  1452.7500      0.0000    718.4274      6.7231    113.7935
  1453.0000      0.0000    706.1444      6.6327    108.3040
  1453.2500      0.0000    684.5650      6.5360    101.0756
  1453.5000      0.0000    653.1190      6.4367     94.9851
  1453.7500      0.0000    613.9127      6.3585     93.2271
  1454.0000      0.0000    571.4930      6.3296     97.4564
  1454.2500      0.0000    531.6569      6.3592    106.9579
  1454.5000      0.0000    499.0644      6.4291    119.3599
  1454.7500      0.0000    475.2170      6.5035    131.9199
  1455.0000      0.0000    458.6173      6.5486    142.3738
  1455.2500      0.0000    446.9994      6.5492    149.0686
  1455.5000      0.0000    439.5436      6.5114    150.8799
  1455.7500      0.0000    436.9854      6.4525    147.6986
  1456.0000      0.0000    439.9197      6.3943    140.8651
  1456.2500      0.0000    448.5277      6.3602    132.1510
  1456.5000      0.0000    464.5856      6.3678    122.3174
  1456.7500      0.0000    491.3969      6.4202    111.7206
  1457.0000      0.0000    528.2847      6.5126    101.8835
  1457.2500      0.0000    565.9832      6.6489     94.7839
  1457.5000      0.0000    591.5881      6.8374     90.5332
  1457.7500      0.0000    598.7451      7.0619     87.2788
  1458.0000      0.0000    589.7009      7.2678     83.6920
  1458.2500      0.0000    568.3282      7.3907     80.3649
  1458.5000      0.0000    538.1115      7.4014     78.4425
  1458.7500      0.0000    508.6876      7.3210     77.9129
  1459.0000      0.0000    495.5493      7.1947     77.9112
  1459.2500      0.0000    506.9859      7.0664     78.0748
  1459.5000      0.0000    535.7385      6.9752     78.8960
  1459.7500      0.0000    568.2759      6.9447     81.1190
  1460.0000      0.0000    598.3757      6.9577     85.4173
  1460.2500      0.0000    627.4501      6.9594     92.1220
  1460.5000      0.0000    655.9399      6.9129    100.4010
  1460.7500      0.0000    680.4398      6.8493    108.0863
  1461.0000      0.0000    697.8701      6.8369    113.1739
  1461.2500      0.0000    708.4519      6.9025    115.2930
  1461.5000      0.0000    714.8823      7.0093    115.3009
  1461.7500      0.0000    720.7839      7.1036    114.1755
  1462.0000      0.0000    729.2769      7.1517    113.0388
  1462.2500      0.0000    740.0089      7.1404    113.6352
  1462.5000      0.0000    746.0316      7.0734    117.7207
  1462.7500      0.0000    735.3303      6.9740    125.6985
  1463.0000      0.0000    698.7370      6.8751    135.8670
  1463.2500      0.0000    638.7794      6.7985    144.8603
  1463.5000      0.0000    570.5513      6.7469    149.1630
  1463.7500      0.0000    511.9060      6.7169    147.1834
  1464.0000      0.0000    471.5829      6.7095    140.4423
  1464.2500      0.0000    446.5776      6.7288    132.5300
  1464.5000      0.0000    429.3123      6.7707    126.6384
  1464.7500      0.0000    415.2274      6.8117    124.0662
  1465.0000      0.0000    404.2168      6.8229    124.6288
  1465.2500      0.0000    397.8700      6.8042    127.6155
  1465.5000      0.0000    397.2054      6.7815    132.1309
  1465.7500      0.0000    402.1655      6.7651    137.0826
  1466.0000      0.0000    411.5043      6.7388    141.3384
  1466.2500      0.0000    422.6810      6.6972    144.1600
  1466.5000      0.0000    432.5925      6.6581    145.4728
  1466.7500      0.0000    438.9743      6.6271    145.4363
  1467.0000      0.0000    440.9928      6.5810    143.8071
  1467.2500      0.0000    438.6081      6.5021    140.2174
  1467.5000      0.0000    431.9831      6.4073    134.9558
  1467.7500      0.0000    421.8725      6.3394    128.9020
  1468.0000      0.0000    410.1971      6.3380    122.7709
