~Version Information
VERS.                      2.0: CWLS Log ASCII Standard - VERSION 2.0
WRAP.                       NO: One line per depth step
~Well Information Block
STRT.FT                15.0000: 
STOP.FT              2265.2500: 
STEP.FT                 0.2500: 
NULL.                -999.2500: 
COMP.          Pioneer Natural Resources: COMPANY
WELL.             Vector 33-23: WELL
FLD.           Purgatoire River: FIELD
LOC.           1988' FSL & 1560' FEL: LOCATION
PROV.                 Colorado: PROVINCE
CNTY.               Las Animas: COUNTRY
SRVC.                Patterson: SERVICE COMPANY
DATE.          Fri Apr 01 13:14:24 2005: LOG DATE
UWI.           05 071 08336 00: UNIQUE WELL ID
~Curve Information Block
DEPT.FT            0 000 00 00: Depth
GR.GAPI                       : Gamma Ray
CCL.                          : Casing Collar Locator
TT3.usec                      : CBL 3' Travel Time
AMP3.mV                       : CBL 3' Amplitude
AMP5.mV                       : CBL 5' Amplitude
~Parameter Information Block
~A  Depth        GR         CCL         TT3         AMP3        AMP5    
# ...
  2087.0000     93.1579      0.0000    821.7111      9.3528      1.0941
  2087.2500     92.0677      0.0000    823.5995      9.2828      1.0931
  2087.5000     92.7448      0.0000    826.2650      9.2615      1.0906
  2087.7500     94.7217      0.0000    828.7538      9.2838      1.0831
  2088.0000     96.2496      0.0000    830.4129      9.3269      1.0682
  2088.2500     95.6149      0.0000    831.3170      9.3694      1.0474
  2088.5000     92.5318      0.0000    832.1710      9.4058      1.0263
  2088.7500     88.2582      0.0000    834.6279      9.4433      1.0121
  2089.0000     84.5849      0.0000    842.2865      9.4904      1.0105
  2089.2500     82.7531      0.0000    860.9811      9.5496      1.0239
  2089.5000     82.8578      0.0000    896.0391      9.6194      1.0502
  2089.7500     83.8732      0.0000    946.8044      9.7018      1.0841
  2090.0000     84.4794      0.0000   1003.8542      9.8058      1.1180
  2090.2500     84.0959      0.0000   1053.9581      9.9392      1.1444
  2090.5000     83.0324      0.0000   1088.5793     10.0976      1.1586
  2090.7500     81.8332      0.0000   1106.5253     10.2631      1.1606
  2091.0000     80.8481      0.0000   1109.0094     10.4137      1.1544
  2091.2500     80.3204      0.0000   1094.6239     10.5320      1.1444
  2091.5000     80.4128      0.0000   1060.5308     10.6041      1.1344
  2091.7500     80.9608      0.0000   1008.5469     10.6156      1.1267
  2092.0000     81.5531      0.0000    948.9041     10.5569      1.1230
  2092.2500     82.1265      0.0000    895.9116     10.4351      1.1227
  2092.5000     83.2083      0.0000    858.8895     10.2759      1.1243
  2092.7500     85.1793      0.0000    837.7184     10.1087      1.1268
  2093.0000     87.3044      0.0000    826.3986      9.9502      1.1315
  2093.2500     87.7773      0.0000    819.0374      9.8052      1.1401
  2093.5000     84.9871      0.0000    812.5908      9.6792      1.1523
  2093.7500     78.8111      0.0000    806.2745      9.5876      1.1633
  2094.0000     70.7091      0.0000    800.3162      9.5492      1.1664
  2094.2500     62.6771      0.0000    795.3062      9.5715      1.1578
  2094.5000     56.2441      0.0000    791.7363      9.6400      1.1398
  2094.7500     52.2103      0.0000    789.6190      9.7240      1.1192
  2095.0000     50.7652      0.0000    788.5074      9.7916      1.1012
  2095.2500     51.5294      0.0000    787.8381      9.8187      1.0873
  2095.5000     53.8065      0.0000    786.9920      9.7919      1.0771
  2095.7500     57.1498      0.0000    784.8304      9.7152      1.0708
  2096.0000     61.5245      0.0000    778.9387      9.6112      1.0692
  2096.2500     66.6766      0.0000    765.4689      9.5129      1.0708
  2096.5000     71.6051      0.0000    741.0938      9.4473      1.0724
  2096.7500     75.0122      0.0000    707.1633      9.4269      1.0719
  2097.0000     76.1864      0.0000    672.6191      9.4501      1.0709
  2097.2500     75.3824      0.0000    651.0013      9.5065      1.0721
  2097.5000     73.6759      0.0000    651.8945      9.5784      1.0759
  2097.7500     72.4140      0.0000    673.3098      9.6416      1.0798
  2098.0000     72.2803      0.0000    702.3073      9.6735      1.0804
  2098.2500     72.7345      0.0000    724.9484      9.6679      1.0767
  2098.5000     72.6936      0.0000    737.2841      9.6416      1.0707
  2098.7500     71.8804      0.0000    746.2723      9.6230      1.0672
  2099.0000     71.2573      0.0000    760.0967      9.6304      1.0701
  2099.2500     71.9281      0.0000    779.5347      9.6608      1.0807
  2099.5000     73.9747      0.0000    798.9355      9.7018      1.0971
  2099.7500     76.6777      0.0000    812.6161      9.7477      1.1160
  2100.0000     79.4179      0.0000    818.4888      9.8053      1.1350
  2100.2500     81.8519      0.0000    817.4037      9.8830      1.1524
  2100.5000     83.4644      0.0000    811.5385      9.9804      1.1672
  2100.7500     83.4921      0.0000    803.6161     10.0883      1.1790
  2101.0000     81.5103      0.0000    796.2820     10.2001      1.1888
  2101.2500     78.1750      0.0000    791.1631     10.3201      1.1979
  2101.5000     75.2012      0.0000    788.4518     10.4562      1.2065
  2101.7500     74.1508      0.0000    787.4418     10.6031      1.2137
  2102.0000     75.1308      0.0000    787.4427     10.7386      1.2181
  2102.2500     76.9896      0.0000    788.2740     10.8411      1.2186
  2102.5000     78.6589      0.0000    790.1160     10.9074      1.2158
  2102.7500     79.8285      0.0000    792.8879     10.9492      1.2113
  2103.0000     80.5195      0.0000    795.6949     10.9732      1.2067
  2103.2500     80.7647      0.0000    797.1083     10.9670      1.2022
  2103.5000     80.8309      0.0000    796.2965     10.9082      1.1973
  2103.7500     81.1885      0.0000    793.7823     10.7876      1.1918
  2104.0000     82.0442      0.0000    790.9120     10.6250      1.1865
  2104.2500     83.2545      0.0000    788.7424     10.4607      1.1816
  2104.5000     84.7053      0.0000    787.5110     10.3310      1.1763
  2104.7500     86.3085      0.0000    786.6026     10.2546      1.1692
  2105.0000     87.5362      0.0000    784.2780     10.2401      1.1608
  2105.2500     87.5689      0.0000    776.9435     10.2931      1.1538
  2105.5000     86.3161      0.0000    759.2700     10.4075      1.1501
  2105.7500     84.9629      0.0000    727.3781     10.5529      1.1485
  2106.0000     84.9322      0.0000    684.9924     10.6790      1.1469
  2106.2500     86.2483      0.0000    646.6444     10.7397      1.1455
  2106.5000     87.4123      0.0000    630.8278     10.7140      1.1465
  2106.7500     87.1266      0.0000    646.1722     10.6124      1.1503
  2107.0000     85.6474      0.0000    684.0561     10.4629      1.1552
  2107.2500     84.1102      0.0000    725.7251     10.2946      1.1607
  2107.5000     83.0178      0.0000    755.8273     10.1335      1.1678
  2107.7500     81.9601      0.0000    769.4588     10.0121      1.1769
  2108.0000     80.5396      0.0000    770.5820      9.9701      1.1860
  2108.2500     78.9693      0.0000    767.8458     10.0331      1.1924
  2108.5000     77.7600      0.0000    770.1427     10.1882      1.1954
  2108.7500     77.3280      0.0000    781.2924     10.3821      1.1970
  2109.0000     77.9869      0.0000    797.4863     10.5483      1.1975
  2109.2500     79.8436      0.0000    810.7675     10.6427      1.1915
  2109.5000     82.4716      0.0000    814.3931     10.6613      1.1696
  2109.7500     85.0187      0.0000    804.8391     10.6251      1.1272
  2110.0000     86.9332      0.0000    782.4885     10.5398      1.0705
  2110.2500     88.4100      0.0000    754.0189     10.3630      1.0141
  2110.5000     89.9367      0.0000    732.2861     10.0189      0.9687
  2110.7500     91.5700      0.0000    728.7155      9.4688      0.9319
  2111.0000     92.8246      0.0000    744.0754      8.7814      0.8913
  2111.2500     93.1074      0.0000    768.7505      8.1178      0.8391
  2111.5000     92.0320      0.0000    792.1030      7.6142      0.7832
  2111.7500     89.4527      0.0000    810.2650      7.2699      0.7426
  2112.0000     85.5589      0.0000    826.6634      6.9756      0.7298
  2112.2500     81.1259      0.0000    847.4592      6.6662      0.7407
  2112.5000     77.4557      0.0000    875.5040      6.4196      0.7614
  2112.7500     75.6040      0.0000    907.1723      6.3617      0.7800
  2113.0000     75.5845      0.0000    935.7084      6.4919      0.7902
  2113.2500     76.6564      0.0000    957.1736      6.6575      0.7911
  2113.5000     78.3564      3.0000    971.4679      6.6966      0.7842
  2113.7500     80.8058      0.0000    979.1703      6.5808      0.7722
  2114.0000     83.8448      0.0000    980.1252      6.4256      0.7568
  2114.2500     86.2668      0.0000    973.7418      6.3827      0.7383
  2114.5000     86.5439      0.0000    958.5391      6.5215      0.7187
  2114.7500     84.4861      0.0000    933.2972      6.8148      0.7072
