~Version Information
VERS.                      2.0: CWLS Log ASCII Standard - VERSION 2.0
WRAP.                       NO: One line per depth step
~Well Information Block
STRT.FT               510.0000: 
STOP.FT              1845.5000: 
STEP.FT                 0.1000: 
NULL.                -999.2500: 
COMP.          Pioneer Natural Resources: COMPANY
WELL.           Stampede 42-18: WELL
FLD.           Purgatoire River: FIELD
LOC.           2479' FNL & 160' FEL--: LOCATION
CNTY.               Las Animas: COUNTY
SRVC.          Superior Well Services: SERVICE COMPANY
DATE.          Sat Jun 09 02:39:23 2007: LOG DATE
UWI.           05 071 08237 00: UNIQUE WELL ID
STAT.                 Colorado: STATE
~Curve Information Block
DEPT.FT            0 000 00 00: Depth
DCAL.in                       : CDL Caliper
RHOB.g/cc                     : CDL Bulk Density
RHOC.g/cc                     : CDL Density Correction
DPOR.pu                       : CDL Density Porosity
GR.GAPI                       : Gamma Ray
~Parameter Information Block
~A  Depth       DCAL        RHOB        RHOC        DPOR         GR     
# ...
   778.8000      7.9613      2.5284      0.0269      7.3716    138.3918
   778.9000      7.9613      2.5120      0.0157      8.3652    144.2784
   779.0000      7.9685      2.5118      0.0578      8.3734    147.5691
   779.1000      7.9685      2.5316      0.0621      7.1728    144.1031
   779.2000      7.9685      2.5775      0.0350      4.3937    135.1219
   779.3000      7.9838      2.6400      0.1438      0.6068    127.9022
   779.4000      7.9838      2.6861      0.1735     -2.1881    124.9969
   779.5000      7.9962      2.6957      0.1109     -2.7719    122.9947
   779.6000      7.9962      2.6723      0.1459     -1.3513    123.6657
   779.7000      7.9962      2.6239      0.1061      1.5823    129.4789
   779.8000      8.0014      2.5586      0.1129      5.5414    135.6026
   779.9000      8.0014      2.4912     -0.0458      9.6234    136.7447
   780.0000      8.0035      2.4419     -0.0266     12.6092    133.4693
   780.1000      8.0035      2.4143     -0.0072     14.2873    129.3860
   780.2000      8.0035      2.4018     -0.0580     15.0440    125.5380
   780.3000      8.0044      2.3978     -0.0136     15.2852    121.1367
   780.4000      8.0044      2.3988      0.0907     15.2270    119.1910
   780.5000      8.0035      2.4102      0.1450     14.5329    121.3875
   780.6000      8.0035      2.4330      0.2032     13.1521    121.6413
   780.7000      8.0035      2.4636      0.2351     11.2957    114.6081
   780.8000      7.9982      2.4983      0.2839      9.1956    105.4468
   780.9000      7.9982      2.5246      0.2150      7.6009    102.9735
   781.0000      7.9876      2.5339      0.1263      7.0376    108.7530
   781.1000      7.9876      2.5329      0.0639      7.0991    117.1966
   781.2000      7.9876      2.5333     -0.0038      7.0724    122.6120
   781.3000      7.9773      2.5423      0.0261      6.5266    123.9956
   781.4000      7.9773      2.5591      0.0421      5.5065    122.9465
   781.5000      7.9721      2.5730      0.0642      4.6643    124.3236
   781.6000      7.9721      2.5736      0.0266      4.6311    129.4218
   781.7000      7.9721      2.5665      0.0257      5.0594    131.8143
   781.8000      7.9715      2.5648      0.0372      5.1628    128.3866
   781.9000      7.9715      2.5715      0.0745      4.7566    123.6195
   782.0000      7.9727      2.5821      0.0597      4.1145    121.5550
   782.1000      7.9727      2.6001      0.0345      3.0226    122.3213
   782.2000      7.9727      2.6257      0.0504      1.4739    124.3161
   782.3000      7.9724      2.6440      0.1095      0.3645    123.9719
   782.4000      7.9724      2.6524      0.0903     -0.1453    120.1587
   782.5000      7.9677      2.6642      0.0979     -0.8622    115.1862
   782.6000      7.9677      2.6756      0.1645     -1.5503    110.1868
   782.7000      7.9677      2.6696      0.1477     -1.1888    106.2595
   782.8000      7.9551      2.6515      0.0606     -0.0931    106.6047
   782.9000      7.9551      2.6387      0.0535      0.6848    112.3488
   783.0000      7.9395      2.6355      0.0464      0.8778    117.8567
   783.1000      7.9395      2.6297      0.0887      1.2275    116.1865
   783.2000      7.9395      2.6039      0.0746      2.7927    111.7060
   783.3000      7.9331      2.5664      0.0351      5.0650    114.4758
   783.4000      7.9331      2.5456      0.0227      6.3255    120.9819
   783.5000      7.9370      2.5516      0.0146      5.9633    121.6991
   783.6000      7.9370      2.5649      0.0513      5.1579    117.5187
   783.7000      7.9370      2.5649      0.0560      5.1564    114.8114
   783.8000      7.9461      2.5582      0.0260      5.5637    116.9722
   783.9000      7.9461      2.5539      0.0322      5.8248    121.7804
   784.0000      7.9564      2.5463      0.0332      6.2853    127.5667
   784.1000      7.9564      2.5365      0.0123      6.8762    134.9644
   784.2000      7.9564      2.5279      0.0177      7.4029    141.7574
   784.3000      7.9639      2.5145      0.0124      8.2127    144.8560
   784.4000      7.9639      2.4940      0.0248      9.4517    143.4106
   784.5000      7.9672      2.4683     -0.0040     11.0093    138.5101
   784.6000      7.9672      2.4347      0.0152     13.0478    132.7632
   784.7000      7.9672      2.3933     -0.0224     15.5573    130.4043
   784.8000      7.9652      2.3580     -0.0417     17.6942    131.6055
   784.9000      7.9652      2.3381     -0.0275     18.9044    131.2224
   785.0000      8.0547      2.3231      0.0076     19.8109    127.0758
   785.1000      8.0547      2.3066     -0.0216     20.8093    122.9583
   785.2000      8.0547      2.2942      0.0382     21.5617    121.8925
   785.3000      8.0631      2.2807      0.0802     22.3848    125.2575
   785.4000      8.0631      2.2543      0.1027     23.9809    133.6732
   785.5000      8.0836      2.2231      0.1172     25.8739    140.1420
   785.6000      8.0836      2.2066      0.1794     26.8708    137.5118
   785.7000      8.0836      2.2022      0.2461     27.1384    131.5276
   785.8000      8.1112      2.1857      0.2440     28.1406    129.1998
   785.9000      8.1112      2.1618      0.1245     29.5904    127.9005
   786.0000      8.1479      2.1704      0.1513     29.0682    125.3360
   786.1000      8.1479      2.2226      0.2194     25.9034    123.7754
   786.2000      8.1479      2.2884      0.2142     21.9142    123.4532
   786.3000      8.1998      2.3422      0.2156     18.6548    126.0241
   786.4000      8.1998      2.3758      0.2288     16.6183    131.1005
   786.5000      8.2553      2.3886      0.1946     15.8404    134.5964
   786.6000      8.2553      2.3872      0.2167     15.9302    137.8563
   786.7000      8.2553      2.3859      0.1743     16.0036    139.2273
   786.8000      8.2960      2.3959      0.2698     15.4001    133.5253
   786.9000      8.2960      2.4017      0.2981     15.0466    126.0646
   787.0000      8.3291      2.3775      0.2075     16.5174    127.1122
   787.1000      8.3291      2.3194      0.1156     20.0335    136.9003
   787.2000      8.3291      2.2471      0.1023     24.4175    144.5208
   787.3000      8.3571      2.1926      0.0747     27.7204    142.3097
   787.4000      8.3571      2.1838      0.1307     28.2542    136.8726
   787.5000      8.3734      2.2290      0.1591     25.5159    134.1897
   787.6000      8.3734      2.3239      0.2395     19.7661    134.4643
   787.7000      8.3734      2.4531      0.3053     11.9345    138.6436
   787.8000      8.3292      2.5946      0.3759      3.3596    143.0673
   787.9000      8.3292      2.7302      0.4603     -4.8626    141.6330
   788.0000      8.2137      2.8325      0.6051    -11.0616    136.3562
   788.1000      8.2137      2.8641      0.6199    -12.9772    131.8972
   788.2000      8.2137      2.8195      0.4552    -10.2727    129.7358
   788.3000      8.1160      2.7282      0.3664     -4.7384    130.8473
   788.4000      8.1160      2.6237      0.1679      1.5917    134.5737
   788.5000      8.0659      2.5411      0.0442      6.5983    135.9463
   788.6000      8.0659      2.5040     -0.0330      8.8514    134.6411
   788.7000      8.0659      2.5066      0.0053      8.6936    136.1503
   788.8000      8.0449      2.5254      0.0544      7.5517    141.3962
   788.9000      8.0449      2.5434      0.0344      6.4581    143.0181
   789.0000      8.0388      2.5519      0.0905      5.9430    136.1961
   789.1000      8.0388      2.5424      0.0640      6.5193    127.1704
   789.2000      8.0388      2.5205      0.0065      7.8467    122.1441
   789.3000      8.0363      2.5029      0.0007      8.9131    119.9599
   789.4000      8.0363      2.4958      0.0061      9.3464    119.4210
   789.5000      8.0342      2.4971      0.0054      9.2681    121.0744
   789.6000      8.0342      2.5064      0.0462      8.7024    125.1140
   789.7000      8.0342      2.5106      0.0832      8.4459    129.5707
   789.8000      8.0346      2.4815      0.0809     10.2109    130.4208
   789.9000      8.0346      2.4110      0.0154     14.4853    126.8461
