~Version Information
VERS.                      2.0: CWLS Log ASCII Standard - VERSION 2.0
WRAP.                       NO: One line per depth step
~Well Information Block
STRT.FT                -9.5000: 
STOP.FT              2451.0000: 
STEP.FT                 0.2500: 
NULL.                -999.2500: 
COMP.          Petrogulf Corporation: COMPANY
WELL.           Vallejo 19-31V: WELL
FLD.           Purgatorie River: FIELD
LOC.           345' FNL & 2457' FEL: LOCATION
CNTY.               Las Animas: COUNTY
SRVC.                         : SERVICE COMPANY
DATE.          Mon Mar 08 08:24:37 2004: LOG DATE
UWI.           05-071-07919-00: UNIQUE WELL ID
STAT.                 Colorado: STATE
~Curve Information Block
DEPT.FT            0 000 00 00: Depth
MINMK.                        : Surface Line Tension
GR.GAPI                       : Gamma Ray
CCL.                          : Casing Collar Locator
TT3.usec                      : CBL 3' Travel Time
AMP3.mV                       : CBL 3' Amplitude
~Parameter Information Block
~A  Depth      MINMK         GR         CCL         TT3         AMP3    
# ...
  1138.5000      0.0000    128.4527      0.0000    268.5801     73.3493
  1138.7500      0.0000    128.0506      0.0000    268.4211     72.6742
  1139.0000      0.0000    124.8353      0.0000    268.2664     72.0418
  1139.2500      0.0000    117.8501      0.0000    268.1628     71.5059
  1139.5000      0.0000    108.0188      0.0000    268.1912     71.0101
  1139.7500      0.0000     97.1231      0.0000    268.3747     70.5611
  1140.0000      0.0000     86.5001      0.0000    268.6340     70.1778
  1140.2500      0.0000     76.7049      0.0000    268.8461     69.7063
  1140.5000      0.0000     67.9541      0.0000    268.9564     68.8241
  1140.7500      0.0000     60.8292      0.0000    269.0000     67.2982
  1141.0000      0.0000     56.5471      0.0000    269.0436     65.2133
  1141.2500      0.0000     56.2032      0.0000    269.1539     62.9701
  1141.5000      1.0000     59.6804      0.0000    269.3659     60.9859
  1141.7500      0.0000     65.7367      0.0000    269.6243     59.3558
  1142.0000      0.0000     73.3748      0.0000    269.8012     57.9125
  1142.2500      0.0000     82.6798      0.0000    269.8012     56.5859
  1142.5000      0.0000     93.9304      0.0000    269.6242     55.5420
  1142.7500      0.0000    106.1280      0.0000    269.3649     54.9412
  1143.0000      0.0000    116.9422      0.0000    269.1464     54.7909
  1143.2500      0.0000    124.3071      0.0000    269.0087     55.0511
  1143.5000      0.0000    127.8681      0.0000    268.8993     55.5979
  1143.7500      0.0000    128.7336      0.0000    268.7870     56.0978
  1144.0000      0.0000    128.1886      0.0000    268.7254     56.1889
  1144.2500      0.0000    126.9900      0.0000    268.7423     55.8504
  1144.5000      0.0000    125.5196      0.0000    268.7367     55.4731
  1144.7500      0.0000    123.8640      0.0000    268.5981     55.5064
  1145.0000      0.0000    121.7180      0.0000    268.3680     55.9311
  1145.2500      0.0000    118.7926      0.0000    268.1967     56.0936
  1145.5000      0.0000    115.4002      0.0000    268.1911     55.2915
  1145.7500      0.0000    112.1719      0.0000    268.3398     53.4623
  1146.0000      0.0000    109.1208      0.0000    268.5248     51.1791
  1146.2500      0.0000    105.4611      0.0000    268.6342     49.0743
  1146.5000      0.0000    100.5927      0.0000    268.6980     47.3614
  1146.7500      0.0000     94.9365      0.0000    268.8230     45.9896
  1147.0000      0.0000     89.6515      0.0000    269.0436     44.9339
  1147.2500      0.0000     85.9965      0.0000    269.3309     44.0062
  1147.5000      0.0000     85.0786      0.0000    269.6254     42.8610
  1147.7500      0.0000     87.3735      0.0000    269.8450     41.4879
  1148.0000      0.0000     91.9718      0.0000    269.9562     40.2395
  1148.2500      0.0000     96.8284      0.0000    269.9989     39.2962
  1148.5000      0.0000    100.2313      0.0000    270.0349     38.5639
  1148.7500      0.0000    101.9228      0.0000    270.1093     38.0273
  1149.0000      0.0000    102.9997      0.0000    270.2130     37.8261
  1149.2500      0.0000    105.1290      0.0000    270.2659     38.1208
  1149.5000      0.0000    109.4176      0.0000    270.2119     39.0739
  1149.7500      0.0000    115.2376      0.0000    270.1017     40.6228
  1150.0000      0.0000    120.2279      0.0000    269.9999     42.2029
  1150.2500      0.0000    122.0927      0.0000    269.8971     43.1534
  1150.5000      0.0000    120.5851      0.0000    269.7794     43.2990
  1150.7500      0.0000    117.5710      0.0000    269.6895     42.9182
  1151.0000      0.0000    115.1990      0.0000    269.6341     42.4792
  1151.2500      0.0000    114.2767      0.0000    269.5323     42.4153
  1151.5000      0.0000    114.3210      0.0000    269.3757     42.8250
  1151.7500      0.0000    114.5616      0.0000    269.3005     43.3943
  1152.0000      0.0000    114.5102      0.0000    269.4107     43.7131
  1152.2500      0.0000    113.8324      0.0000    269.6416     43.6084
  1152.5000      0.0000    112.1810      0.0000    269.8471     43.1859
  1152.7500      0.0000    109.4437      0.0000    269.9554     42.6618
  1153.0000      0.0000    106.1971      0.0000    269.9913     42.1590
  1153.2500      0.0000    103.7077      0.0000    269.9989     41.6619
  1153.5000      0.0000    103.1236      0.0000    269.9999     41.1994
  1153.7500      0.0000    104.4933      0.0000    270.0000     40.9265
  1154.0000      0.0000    106.6496      0.0000    270.0000     40.9361
  1154.2500      0.0000    108.2662      0.0000    270.0000     41.0999
  1154.5000      0.0000    109.1517      0.0000    270.0000     41.1541
  1154.7500      0.0000    110.4508      0.0000    270.0000     40.9814
  1155.0000      0.0000    113.3373      0.0000    270.0000     40.7674
  1155.2500      0.0000    117.4113      0.0000    270.0034     40.7620
  1155.5000      0.0000    120.5093      0.0000    270.0613     40.9822
  1155.7500      0.0000    120.3450      0.0000    270.5453     41.2475
  1156.0000      0.0000    116.4951      0.0000    273.2696     41.3659
  1156.2500      0.0000    110.7155      0.0000    283.2123     41.1063
  1156.5000      0.0000    105.3396      0.0000    305.9181     39.9714
  1156.7500      0.0000    101.6047      0.0000    335.7578     37.3489
  1157.0000      0.0000     99.4862      0.0000    352.3664     33.3486
  1157.2500      0.0000     98.5697      0.0000    344.8936     28.9955
  1157.5000      0.0000     98.5753      0.0000    327.6222     25.1761
  1157.7500      0.0000     99.1676      0.0000    316.9620     22.2551
  1158.0000      0.0000     99.8030     -5.0000    314.0769     20.4756
  1158.2500      0.0000    100.2061     -5.0000    314.1299     19.6802
  1158.5000      0.0000    100.8832      0.0000    314.7391     19.2070
  1158.7500      0.0000    102.7039      0.0000    315.6452     18.5443
  1159.0000      0.0000    105.8167      0.0000    317.3376     17.6632
  1159.2500      0.0000    109.3502      0.0000    319.9234     16.7650
  1159.5000      0.0000    112.3160      0.0000    321.3284     16.1928
  1159.7500      0.0000    114.4689      0.0000    318.4136     16.6299
  1160.0000      0.0000    116.2705      0.0000    312.2066     18.5658
  1160.2500      0.0000    118.3207      0.0000    307.0271     21.3499
  1160.5000      0.0000    120.6227      0.0000    302.7979     23.9057
  1160.7500      0.0000    122.0358      0.0000    295.7494     26.1908
  1161.0000      0.0000    120.7433      0.0000    285.9199     28.8559
  1161.2500      0.0000    115.8895      0.0000    277.3953     32.1206
  1161.5000      0.0000    108.9411      0.0000    272.6360     35.5299
  1161.7500      0.0000    103.1607      0.0000    270.7908     38.3467
  1162.0000      0.0000    101.3507      0.0000    270.2556     40.0415
  1162.2500      0.0000    103.9266      0.0000    270.3829     40.4785
  1162.5000      0.0000    109.1198      0.0000    271.7999     39.7060
  1162.7500      0.0000    114.8981      0.0000    276.8193     37.7155
  1163.0000      0.0000    120.5571      0.0000    289.9548     34.4909
  1163.2500      0.0000    126.4552      0.0000    319.1642     30.2030
  1163.5000      0.0000    132.3665      0.0000    375.8927     25.2129
  1163.7500      0.0000    136.4002      0.0000    463.8325     20.0418
  1164.0000      0.0000    135.9488      0.0000    563.2999     15.3787
  1164.2500      0.0000    129.9136      0.0000    642.7860     11.8051
  1164.5000      0.0000    119.9821      0.0000    688.0981      9.4532
  1164.7500      0.0000    109.7886      0.0000    705.9764      8.0125
  1165.0000      0.0000    102.8491      0.0000    708.1275      7.0637
  1165.2500      0.0000    100.9187      0.0000    703.2990      6.4173
  1165.5000      0.0000    103.6794      0.0000    696.6367      6.1113
  1165.7500      0.0000    109.5036      0.0000    689.4131      6.1947
  1166.0000      0.0000    116.3914      0.0000    680.5220      6.6713
  1166.2500      0.0000    122.5682      0.0000    665.5250      7.6131
