~Version Information
VERS.                      2.0: CWLS Log ASCII Standard - VERSION 2.0
WRAP.                       NO: One line per depth step
~Well Information Block
STRT.FT               605.6000: 
STOP.FT              1938.0000: 
STEP.FT                 0.1000: 
NULL.                -999.2500: 
COMP.          Petrogulf Corporation: COMPANY
WELL.              Graff 9-31R: WELL
FLD.           Purgatorie River: FIELD
LOC.           707' FNL & 1713' FEL: LOCATION
CNTY.               Las Animas: COUNTY
SRVC.                         : SERVICE COMPANY
DATE.          Mon Oct 25 06:13:30 2004: LOG DATE
UWI.           05 071 08037 00: UNIQUE WELL ID
STAT.                 Colorado: STATE
~Curve Information Block
DEPT.FT            0 000 00 00: Depth
DCAL.in                       : CDL Caliper
RHOB.g/cc                     : CDL Bulk Density
RHOC.g/cc                     : CDL Density Correction
DPOR.pu                       : CDL Density Porosity
GR.GAPI                       : Gamma Ray
NPOR.pu                       : Neutron Porosity
~Parameter Information Block
~A  Depth       DCAL        RHOB        RHOC        DPOR         GR         NPOR    
# ...
   711.2000      8.1615      2.4591     -0.0551     11.5669    145.7322     25.6831
   711.3000      8.1615      2.4877      0.0894      9.8384    150.2754     25.4660
   711.4000      8.1615      2.5144      0.0652      8.2159    156.4958     25.8790
   711.5000      8.1606      2.5213      0.0460      7.8030    156.7200     26.6702
   711.6000      8.1606      2.5224      0.0480      7.7316    145.9649     27.3513
   711.7000      8.1606      2.5300      0.0316      7.2756    130.6471     27.7027
   711.8000      8.1605      2.5362      0.0570      6.8976    122.9722     27.7556
   711.9000      8.1605      2.5268      0.0934      7.4679    123.9455     27.5330
   712.0000      8.1606      2.5061     -0.0131      8.7233    125.5450     27.2513
   712.1000      8.1606      2.4966      0.0053      9.2983    123.4212     27.1745
   712.2000      8.1606      2.5068     -0.0245      8.6768    118.8834     27.0094
   712.3000      8.1612      2.5230      0.0120      7.6960    115.9689     26.6303
   712.4000      8.1612      2.5317      0.0151      7.1700    118.5142     26.2751
   712.5000      8.1588      2.5317      0.0534      7.1726    123.8062     25.6700
   712.6000      8.1588      2.5240     -0.0158      7.6379    124.1787     24.6750
   712.7000      8.1588      2.5085      0.0494      8.5755    118.5895     23.9171
   712.8000      8.1607      2.4943     -0.0159      9.4390    111.8757     23.7935
   712.9000      8.1607      2.5020      0.0096      8.9679    108.8603     23.9519
   713.0000      8.1603      2.5282      0.0651      7.3798    113.5404     24.2365
   713.1000      8.1603      2.5408      0.0773      6.6170    123.8209     24.9333
   713.2000      8.1603      2.5237      0.0713      7.6530    131.7870     25.7914
   713.3000      8.1621      2.4925     -0.0047      9.5461    129.8579     26.1678
   713.4000      8.1621      2.4763     -0.0227     10.5291    120.9060     26.0131
   713.5000      8.1622      2.4861      0.0152      9.9336    116.2997     25.6471
   713.6000      8.1622      2.5067      0.0456      8.6838    119.1737     25.3150
   713.7000      8.1622      2.5233      0.0590      7.6806    122.0348     25.1740
   713.8000      8.1612      2.5290      0.0393      7.3321    121.7290     25.2587
   713.9000      8.1612      2.5235      0.0357      7.6651    122.3279     25.5304
   714.0000      8.1610      2.5132      0.0399      8.2914    122.6023     25.7996
   714.1000      8.1610      2.5048      0.0185      8.7984    120.3198     25.7876
   714.2000      8.1610      2.5071     -0.0175      8.6588    119.9594     25.5653
   714.3000      8.1608      2.5272      0.0149      7.4410    123.1703     25.4301
   714.4000      8.1608      2.5498      0.0978      6.0743    124.5914     25.4172
   714.5000      8.1621      2.5528      0.0224      5.8883    120.5648     25.3677
   714.6000      8.1621      2.5449     -0.0263      6.3695    115.7605     25.1921
   714.7000      8.1621      2.5378      0.0480      6.8026    115.8099     24.9543
   714.8000      8.1623      2.5264      0.0235      7.4936    117.5707     24.7193
   714.9000      8.1623      2.5143      0.0038      8.2214    117.2733     24.8032
   715.0000      8.1618      2.5156     -0.0041      8.1461    117.0937     25.1069
   715.1000      8.1618      2.5352      0.0175      6.9604    118.8046     24.9117
   715.2000      8.1618      2.5580      0.0694      5.5754    121.5254     24.4098
   715.3000      8.1583      2.5696      0.0380      4.8732    125.9045     24.3340
   715.4000      8.1583      2.5773      0.0444      4.4031    130.5535     24.7974
   715.5000      8.1602      2.5854      0.0540      3.9171    131.0896     25.3640
   715.6000      8.1602      2.5784      0.0564      4.3394    126.0734     25.4458
   715.7000      8.1602      2.5504      0.0708      6.0335    117.7682     25.0291
   715.8000      8.1604      2.5248      0.0111      7.5896    111.3224     24.5038
   715.9000      8.1604      2.5247      0.0141      7.5943    110.5204     23.9294
   716.0000      8.1607      2.5361      0.0936      6.9046    112.3052     23.4894
   716.1000      8.1607      2.5328      0.0616      7.1060    112.5574     23.6365
   716.2000      8.1607      2.5248      0.0269      7.5900    111.9944     24.0296
   716.3000      8.1664      2.5303      0.0655      7.2559    111.7410     23.9068
   716.4000      8.1664      2.5378      0.0513      6.7984    112.3693     23.5022
   716.5000      8.1666      2.5377      0.0392      6.8062    115.2515     23.3975
   716.6000      8.1666      2.5384      0.0348      6.7608    119.3932     23.4505
   716.7000      8.1666      2.5456      0.0261      6.3270    121.9713     23.5888
   716.8000      8.1662      2.5571      0.0494      5.6298    124.5506     23.9295
   716.9000      8.1662      2.5684      0.0423      4.9477    128.6989     24.1317
   717.0000      8.1671      2.5728      0.0745      4.6785    129.5558     24.1801
   717.1000      8.1671      2.5668      0.0296      5.0395    127.0691     24.3693
   717.2000      8.1671      2.5588      0.0569      5.5259    126.4656     24.5047
   717.3000      8.1674      2.5542      0.0564      5.8090    127.3042     24.6000
   717.4000      8.1674      2.5543      0.0106      5.7998    128.1718     25.1404
   717.5000      8.1689      2.5642      0.0510      5.1998    126.9087     25.7518
   717.6000      8.1689      2.5777      0.0965      4.3846    118.6603     25.5518
   717.7000      8.1689      2.5815      0.0635      4.1511    105.7322     24.8047
   717.8000      8.1695      2.5791      0.0334      4.2945     99.0394     24.3555
   717.9000      8.1695      2.5920      0.0072      3.5151    103.2651     24.4651
   718.0000      8.1688      2.6151      0.1268      2.1149    108.7463     24.8822
   718.1000      8.1688      2.6122      0.1212      2.2934    107.6708     25.1319
   718.2000      8.1688      2.5833      0.0256      4.0453    102.0439     24.7101
   718.3000      8.1711      2.5600      0.0449      5.4570     97.7750     23.7722
   718.4000      8.1711      2.5512      0.0380      5.9860    100.2698     23.3250
   718.5000      8.1741      2.5563     -0.0078      5.6774    107.4909     23.6864
   718.6000      8.1741      2.5751      0.0586      4.5376    113.0008     24.0650
   718.7000      8.1741      2.5969      0.0632      3.2176    114.5041     24.0901
   718.8000      8.1656      2.6153      0.0612      2.1039    112.6611     23.8369
   718.9000      8.1656      2.6302      0.0934      1.2010    106.2318     23.2858
   719.0000      8.1626      2.6400      0.0858      0.6055     96.3822     22.8537
   719.1000      8.1626      2.6413      0.1214      0.5262     89.2329     22.6467
   719.2000      8.1626      2.6294      0.0566      1.2504     85.3539     22.2498
   719.3000      8.1651      2.6078      0.0262      2.5558     82.8710     21.7508
   719.4000      8.1651      2.5891     -0.0202      3.6929     84.5420     21.3505
   719.5000      8.1549      2.5808      0.0263      4.1913     88.6036     20.9949
   719.6000      8.1549      2.5767      0.0608      4.4429     89.6820     20.6580
   719.7000      8.1549      2.5737      0.0263      4.6255     87.0658     20.3013
   719.8000      8.1589      2.5795      0.0496      4.2723     80.8710     19.8268
   719.9000      8.1589      2.5900      0.0543      3.6379     72.6358     19.4345
   720.0000      8.1590      2.5943      0.0267      3.3770     66.6804     19.2027
   720.1000      8.1590      2.5896      0.0380      3.6611     63.6798     18.6014
   720.2000      8.1590      2.5762     -0.0039      4.4723     61.0670     17.6733
   720.3000      8.1653      2.5561      0.0277      5.6882     59.4023     16.9373
   720.4000      8.1653      2.5307      0.0411      7.2309     60.0412     16.1977
   720.5000      8.1719      2.5030      0.0203      8.9069     63.3004     15.2836
   720.6000      8.1719      2.4846     -0.0259     10.0245     69.8814     14.4520
   720.7000      8.1719      2.4771      0.0319     10.4759     77.3126     13.6719
