~Version Information
VERS.                      2.0: CWLS Log ASCII Standard - VERSION 2.0
WRAP.                       NO: One line per depth step
~Well Information Block
STRT.FT               819.0000: 
STOP.FT              2497.0000: 
STEP.FT                 0.2500: 
NULL.                -999.2500: 
COMP.          Petrogulf Corporation: COMPANY
WELL.             State 16-21V: WELL
FLD.           Purgatorie River: FIELD
LOC.           1738' FWL & 332' FNL: LOCATION
PROV.                 Colorado: PROVINCE
CNTY.               Las Animas: COUNTRY
SRVC.          Patterson Wireline: SERVICE COMPANY
DATE.          Sun Jul 13 13:45:48 2003: LOG DATE
UWI.              05-071-07884: UNIQUE WELL ID 05 071 08829 00
~Curve Information Block
DEPT.FT            0 000 00 00: Depth
DCAL.in                       : CDL Caliper
RHOB.g/cc                     : CDL Bulk Density
RHOC.g/cc                     : CDL Density Correction
DPOR.pu                       : CDL Density Porosity
GR.GAPI                       : Gamma Ray
NPOR.pu                       : Neutron Porosity
~Parameter Information Block
~A  Depth       DCAL        RHOB        RHOC        DPOR         GR         NPOR    
# ...
   867.0000      2.2549      1.8776     -0.5813     46.8121     65.2214     37.3202
   867.2500      2.2583      1.9135     -0.5625     44.6352     68.9164     37.3082
   867.5000      2.2607      1.9615     -0.5333     41.7272     73.6016     37.3364
   867.7500      2.2621      1.9907     -0.5133     39.9567     76.4975     37.3220
   868.0000      2.2622      2.0321     -0.4853     37.4461     80.8360     37.1873
   868.2500      2.2617      2.0582     -0.4701     35.8647     83.7735     37.0190
   868.5000      2.2615      2.0933     -0.4539     33.7393     88.2140     36.6926
   868.7500      2.2614      2.1123     -0.4469     32.5872     91.0251     36.4702
   869.0000      2.2611      2.1318     -0.4405     31.4038     94.2203     36.2111
   869.2500      2.2611      2.1384     -0.4389     31.0062     95.1198     36.1139
   869.5000      2.2610      2.1400     -0.4398     30.9109     94.5045     36.0430
   869.7500      2.2611      2.1374     -0.4415     31.0682     93.4351     35.9911
   870.0000      2.2615      2.1315     -0.4432     31.4223     92.3865     35.8612
   870.2500      2.2627      2.1275     -0.4428     31.6659     92.5433     35.7664
   870.5000      2.2723      2.1201     -0.4410     32.1178     93.8218     35.6739
   870.7500      2.3190      2.1112     -0.4413     32.6547     94.8684     35.6604
   871.0000      2.4311      2.0844     -0.4504     34.2767     95.7931     35.7362
   871.2500      2.5909      2.0533     -0.4667     36.1635     95.5707     35.8706
   871.5000      2.7656      1.9834     -0.5090     40.4023     93.6955     36.1744
   871.7500      2.9475      1.9232     -0.5463     44.0490     91.4343     36.3885
   872.0000      3.1417      1.8226     -0.6042     50.1433     86.6436     36.6423
   872.2500      3.3460      1.7570     -0.6379     54.1230     82.7521     36.7584
   872.5000      3.5588      1.6747     -0.6760     59.1085     76.8388     36.8800
   872.7500      3.7808      1.6371     -0.6924     61.3870     73.5219     36.9471
   873.0000      4.0090      1.6125     -0.7034     62.8816     70.0823     37.0554
   873.2500      4.2399      1.6172     -0.7012     62.5915     68.7865     37.1204
   873.5000      4.4764      1.6508     -0.6836     60.5604     68.2789     37.1202
   873.7500      4.7199      1.6846     -0.6644     58.5095     69.0215     37.0197
   874.0000      4.9676      1.7393     -0.6316     55.1918     71.6325     36.7800
   874.2500      5.2127      1.7709     -0.6127     53.2780     73.7553     36.6437
   874.5000      5.4454      1.8022     -0.5967     51.3805     76.0480     36.5822
   874.7500      5.6175      1.8114     -0.5951     50.8265     76.6056     36.6503
   875.0000      5.6813      1.8125     -0.6005     50.7572     76.6426     36.8524
   875.2500      5.6869      1.8100     -0.6046     50.9088     76.7475     36.9823
   875.5000      5.6862      1.8094     -0.6070     50.9483     77.2045     37.0754
   875.7500      5.6863      1.8136     -0.6065     50.6899     77.2478     37.0661
   876.0000      5.6856      1.8283     -0.6050     49.7983     76.3137     36.9677
   876.2500      5.6846      1.8440     -0.6042     48.8506     75.3277     36.8253
   876.5000      5.6842      1.8783     -0.6016     46.7678     74.6039     36.4249
   876.7500      5.6844      1.9108     -0.5975     44.8016     75.1644     36.0196
   877.0000      5.6852      1.9768     -0.5877     40.8022     77.4668     35.2570
   877.2500      5.6856      2.0318     -0.5789     37.4684     79.5242     34.6953
   877.5000      5.6850      2.1243     -0.5612     31.8616     82.6601     33.8508
   877.7500      5.6841      2.1863     -0.5450     28.1044     84.5499     33.3235
   878.0000      5.6838      2.2683     -0.5141     23.1351     86.9984     32.6420
   878.2500      5.6838      2.3108     -0.4911     20.5575     88.4757     32.2890
   878.5000      5.6838      2.3538     -0.4576     17.9503     90.7557     31.9426
   878.7500      5.6839      2.3702     -0.4379     16.9569     92.3862     31.8351
   879.0000      5.6843      2.3818     -0.4138     16.2539     94.8680     31.8120
   879.2500      5.6847      2.3840     -0.4024     16.1187     96.5823     31.8254
   879.5000      5.6845      2.3826     -0.3945     16.2069     99.8150     31.7727
   879.7500      5.6839      2.3792     -0.3959     16.4144    102.6639     31.6704
   880.0000      5.6838      2.3707     -0.4048     16.9303    107.1721     31.4738
   880.2500      5.6844      2.3634     -0.4110     17.3725    109.1989     31.3391
   880.5000      5.6848      2.3534     -0.4116     17.9735    109.2955     31.0885
   880.7500      5.6845      2.3511     -0.4006     18.1175    107.6358     30.8466
   881.0000      5.6856      2.3608     -0.3542     17.5282    104.6600     30.3501
   881.2500      5.7076      2.3789     -0.2977     16.4324    103.6599     29.9441
   881.5000      5.8966      2.4229     -0.1814     13.7644    104.3811     29.2386
   881.7500      6.6298      2.4599     -0.0984     11.5215    105.7214     28.7030
   882.0000      7.8246      2.5174      0.0041      8.0355    107.2402     27.8071
   882.2500      8.7661      2.5517      0.0479      5.9561    107.2598     27.1634
   882.5000      9.5229      2.5912      0.0759      3.5612    105.8990     26.1726
   882.7500     10.3702      2.6087      0.0760      2.5034    104.5845     25.5343
   883.0000     11.0643      2.6236      0.0619      1.5979    102.7647     24.6942
   883.2500     11.3734      2.6286      0.0502      1.2941    101.7156     24.2624
   883.5000     11.4303      2.6336      0.0376      0.9928     99.8525     23.8706
   883.7500     11.4231      2.6375      0.0355      0.7584     97.9547     23.7728
   884.0000     11.4171      2.6458      0.0420      0.2573     93.7804     23.7259
   884.2500     11.4041      2.6525      0.0496     -0.1505     90.5022     23.6378
   884.5000     11.3576      2.6622      0.0585     -0.7422     86.4310     23.3388
   884.7500     11.2825      2.6673      0.0596     -1.0496     85.2552     23.1175
   885.0000     11.1880      2.6720      0.0542     -1.3329     86.6160     23.0111
   885.2500     10.9197      2.6735      0.0474     -1.4256     89.4424     23.1760
   885.5000     10.1259      2.6745      0.0345     -1.4841     95.6061     23.7103
   885.7500      9.0074      2.6744      0.0242     -1.4788    100.3879     24.1531
   886.0000      8.3704      2.6719      0.0075     -1.3293    107.7816     24.8282
   886.2500      8.2312      2.6674     -0.0030     -1.0526    112.5126     25.2845
   886.5000      8.2178      2.6541     -0.0146     -0.2476    118.8993     26.0282
   886.7500      8.2164      2.6408     -0.0186      0.5600    122.6916     26.5703
   887.0000      8.2177      2.6163     -0.0172      2.0437    128.1966     27.3614
   887.2500      8.2196      2.5994     -0.0104      3.0673    131.9698     27.7683
   887.5000      8.2198      2.5776      0.0068      4.3869    137.3386     28.0435
   887.7500      8.2191      2.5672      0.0203      5.0180    140.2323     28.0114
   888.0000      8.2191      2.5583      0.0390      5.5587    143.3442     27.8548
   888.2500      8.2197      2.5559      0.0484      5.7058    144.8897     27.8424
   888.5000      8.2208      2.5549      0.0566      5.7630    146.7232     28.0970
   888.7500      8.2214      2.5548      0.0580      5.7689    147.5845     28.3875
   889.0000      8.2204      2.5549      0.0554      5.7650    148.6411     28.7818
   889.2500      8.2197      2.5558      0.0523      5.7065    149.5861     28.9383
   889.5000      8.2198      2.5612      0.0500      5.3803    151.2242     29.0477
   889.7500      8.2194      2.5687      0.0521      4.9246    151.5346     29.0992
   890.0000      8.2182      2.5860      0.0611      3.8777    149.0255     29.1994
   890.2500      8.2177      2.5998      0.0681      3.0432    145.2149     29.2644
   890.5000      8.2183      2.6184      0.0726      1.9162    137.9286     29.2821
   890.7500      8.2189      2.6260      0.0678      1.4559    133.3430     29.1991
