~Version Information
VERS.                      2.0: CWLS Log ASCII Standard - VERSION 2.0
WRAP.                       NO: One line per depth step
~Well Information Block
STRT.FT               650.0000: 
STOP.FT              1080.5000: 
STEP.FT                 0.2500: 
NULL.                -999.2500: 
COMP.          Pioneer Natural Resources: COMPANY
WELL.            Galileo 21-11: WELL
FLD.           Purgatoire River: FIELD
LOC.           407' FNL & 2394' FWL: LOCATION
PROV.                 Colorado: PROVINCE
CNTY.               Las Animas: COUNTRY
SRVC.                Patterson: SERVICE COMPANY
DATE.          Mon Apr 11 11:14:18 2005: LOG DATE
UWI.           05 071 08353 00: UNIQUE WELL ID
~Curve Information Block
DEPT.FT            0 000 00 00: Depth
SN.Ohm-m                      : IEL Short Normal
SP.mV                         : IEL Spontaneous Potential
DIR.Ohm-m                     : IEL Induction Resistivity
GR.GAPI                       : Gamma Ray
~Parameter Information Block
~A  Depth        SN          SP         DIR          GR     
# ...
   884.5000    263.6021   -214.4224     21.4291     95.0116
   884.7500    332.6921   -214.6948     21.0549     97.2708
   885.0000    371.2246   -208.5152     20.7504     98.8162
   885.2500    378.3664   -198.8506     20.5287     98.4768
   885.5000    362.3392   -187.3908     20.3893     96.5724
   885.7500    328.1991   -175.0200     20.3270     94.9792
   886.0000    278.2660   -162.2048     20.3405     92.6870
   886.2500    212.8263   -149.0585     20.4296     91.1772
   886.5000    138.6887   -135.2493     20.5871     88.7267
   886.7500     76.3211   -120.0173     20.7946     87.0160
   887.0000     41.5510   -102.4140     21.0305     84.6106
   887.2500     31.0999    -81.6626     21.2850     83.2174
   887.5000     32.8325    -57.4171     21.5679     81.4028
   887.7500     37.2801    -29.7677     21.9004     80.2640
   888.0000     40.3807      0.9126     22.2966     78.4932
   888.2500     43.9687     34.0446     22.7474     77.3741
   888.5000     54.2427     68.7606     23.2195     76.4312
   888.7500     71.9211    103.8114     23.6679     76.6323
   889.0000     83.0992    137.5893     24.0568     78.0750
   889.2500     73.8517    168.2336     24.3754     79.4455
   889.5000     49.9384    193.8053     24.6388     81.5523
   889.7500     27.2200    212.6153     24.8763     82.7410
   890.0000     14.2596    223.6978     25.1136     83.8304
   890.2500     11.6912    227.1784     25.3601     84.0164
   890.5000     16.9933    224.2264     25.6053     83.6642
   890.7500     25.6474    216.5236     25.8264     83.1948
   891.0000     32.6256    205.4808     26.0026     82.5548
   891.2500     35.9090    191.5353     26.1298     82.5231
   891.5000     37.1471    173.8944     26.2272     83.5491
   891.7500     38.0946    151.1199     26.3270     84.8864
   892.0000     38.7116    122.6362     26.4539     87.2222
   892.2500     39.0130     90.4254     26.6079     88.5819
   892.5000     39.8893     59.4991     26.7676     89.7507
   892.7500     42.0059     36.2034     26.9091     89.6997
   893.0000     45.5153     25.1036     27.0218     88.4160
   893.2500     49.7728     26.6385     27.1008     87.1830
   893.5000     52.8011     37.1657     27.1286     85.7044
   893.7500     52.6054     50.8486     27.0756     85.1859
   894.0000     48.5130     61.5679     26.9240     84.7237
   894.2500     40.4154     63.9239     26.6909     84.2450
   894.5000     29.5623     53.8748     26.4184     82.8953
   894.7500     20.4816     29.8370     26.1403     81.6170
   895.0000     18.6024     -5.9311     25.8679     79.7581
   895.2500     25.6517    -46.9477     25.6094     79.2356
   895.5000     38.2833    -84.3276     25.4010     80.6579
   895.7500     50.7444   -110.3121     25.3077     83.2349
   896.0000     58.1640   -121.2180     25.3866     88.7241
   896.2500     58.0354   -117.8125     25.6408     92.6766
   896.5000     51.7588   -103.4013     26.0020     97.8199
   896.7500     44.7939    -81.5679     26.3584    100.2458
   897.0000     42.9045    -54.9744     26.6061    102.0315
   897.2500     49.0824    -25.2379     26.6796    102.1019
   897.5000     64.4704      6.7140     26.5457    101.3439
   897.7500     88.1969     40.2154     26.1849    101.0222
   898.0000    112.6605     74.5243     25.5974    102.0412
   898.2500    122.7856    108.6155     24.8309    103.9839
   898.5000    107.9584    141.0869     23.9933    108.1509
   898.7500     75.2650    170.2112     23.2240    110.9438
   899.0000     43.2958    194.2485     22.6354    113.7657
   899.2500     23.5680    212.0118     22.2693    114.3229
   899.5000     15.6462    223.3703     22.0885    113.4566
   899.7500     15.5667    229.2478     22.0072    112.4133
   900.0000     20.2938    231.0070     21.9360    111.4702
   900.2500     26.5443    229.6839     21.8139    111.5200
   900.5000     31.2458    225.6345     21.6122    111.6282
   900.7500     33.4346    218.6377     21.3194    110.7939
   901.0000     34.0548    208.0607     20.9296    107.5482
   901.2500     34.3684    192.8570     20.4457    104.6093
   901.5000     34.9841    171.5752     19.8866    101.0258
   901.7500     35.7170    142.7424     19.2891    100.3572
   902.0000     35.5970    105.8150     18.6977    102.9180
   902.2500     33.7104     62.3307     18.1500    106.6394
   902.5000     32.0416     16.2744     17.6673    113.2998
   902.7500     37.8884    -27.0974     17.2563    117.1958
   903.0000     61.6843    -63.4012     16.9174    121.0127
   903.2500    109.0642    -90.5844     16.6489    122.2082
   903.5000    172.1564   -108.7081     16.4465    122.5768
   903.7500    228.9646   -118.7763     16.2990    122.2153
   904.0000    251.4482   -121.9686     16.1858    121.2987
   904.2500    222.0588   -119.6149     16.0795    120.8511
   904.5000    154.1670   -113.2111     15.9532    121.1159
   904.7500     85.2598   -104.0018     15.7918    121.9842
   905.0000     41.6164    -92.4784     15.6007    123.7946
   905.2500     23.0711    -78.3402     15.4065    124.9889
   905.5000     18.1948    -60.9827     15.2446    126.4042
   905.7500     19.2802    -40.1265     15.1425    126.8442
   906.0000     24.7302    -16.2125     15.1094    126.1506
   906.2500     35.6219      9.5228     15.1397    124.6278
   906.5000     52.9435     35.1492     15.2269    121.1293
   906.7500     72.3414     58.1149     15.3755    118.4417
   907.0000     80.3570     75.1922     15.5985    114.6453
   907.2500     68.4897     82.4998     15.9029    112.5916
   907.5000     47.9320     76.1529     16.2757    110.5472
   907.7500     36.7621     54.0318     16.6811    110.0019
   908.0000     41.8108     18.1494     17.0731    110.4551
   908.2500     60.3443    -24.3703     17.4136    111.3069
   908.5000     93.0048    -63.5920     17.6858    112.1946
   908.7500    149.5619    -91.4208     17.8959    111.7801
   909.0000    232.2235   -104.9729     18.0661    109.3155
   909.2500    316.7424   -106.1769     18.2221    106.9568
   909.5000    371.4219    -98.8350     18.3847    103.6971
   909.7500    390.5289    -86.0431     18.5666    102.2634
   910.0000    389.3647    -69.3889     18.7723    101.4907
   910.2500    378.6422    -49.4198     18.9979    101.7746
   910.5000    361.2648    -26.3665     19.2314    102.9594
   910.7500    344.8384     -0.5718     19.4561    103.9092
   911.0000    339.3816     27.4045     19.6592    104.9512
   911.2500    341.6129     56.8107     19.8383    105.0813
   911.5000    334.5549     86.7171     20.0026    104.0801
   911.7500    303.9555    115.9778     20.1655    102.5486
   912.0000    250.0000    143.1721     20.3346     99.2395
   912.2500    187.5090    166.6988     20.5053     96.8566
   912.5000    132.3211    185.2593     20.6606     94.2008
   912.7500     87.7897    198.6265     20.7759     93.5103
   913.0000     53.1933    208.0237     20.8241     93.8256
   913.2500     32.1866    215.4791     20.7835     94.2218
   913.5000     24.1164    222.5025     20.6490     93.7968
   913.7500     21.6402    229.3000     20.4430     92.5446
   914.0000     20.1253    235.2201     20.2119     89.8597
   914.2500     20.6076    239.7544     20.0071     88.3790
   914.5000     24.0710    242.9883     19.8614     88.1349
   914.7500     28.5832    245.2981     19.7810     89.8043
   915.0000     31.9849    246.9306     19.7554     94.8369
   915.2500     33.8846    247.9335     19.7702     99.1362
   915.5000     34.7737    248.3458     19.8119    105.2851
   915.7500     35.0042    248.3538     19.8657    108.3384
   916.0000     34.7600    248.2625     19.9174    110.6524
   916.2500     34.1614    248.3219     19.9627    110.7507
   916.5000     33.2302    248.5645     20.0150    109.3904
   916.7500     32.0061    248.7938     20.1005    107.8734
   917.0000     30.7467    248.7004     20.2420    104.8626
   917.2500     29.8649    247.9707     20.4415    102.2504
   917.5000     29.6152    246.3506     20.6750     97.5009
   917.7500     29.9308    243.7258     20.9037     94.1395
