~Version Information
VERS.                      2.0: CWLS Log ASCII Standard - VERSION 2.0
WRAP.                       NO: One line per depth step
~Well Information Block
STRT.FT                -8.0000: 
STOP.FT               973.2500: 
STEP.FT                 0.2500: 
NULL.                -999.2500: 
COMP.          Pioneer Natural Resources: COMPANY
WELL.              Oscar 41-31: WELL
FLD.           Purgatorie River: FIELD
LOC.           412' FNL & 1216' FEL--: LOCATION
PROV.                       CO: PROVINCE
CNTY.               Las Animas: COUNTRY
SRVC.          Patterson Wireline: SERVICE COMPANY
DATE.          Wed Mar 02 12:29:08 2005: LOG DATE
UWI.           05 071 08290 00: UNIQUE WELL ID
~Curve Information Block
DEPT.FT            0 000 00 00: Depth
CCL.                          : Casing Collar Locator
TT5.usec                      : CBL 5' Travel Time
AMP3.mV                       : CBL 3' Amplitude
GR.GAPI                       : Gamma Ray
~Parameter Information Block
~A  Depth       CCL         TT5         AMP3         GR     
# ...
   628.5000      0.0000   1200.0000      2.7220    133.8372
   628.7500      0.0000   1200.0000      2.8133    140.6332
   629.0000      0.0000   1200.0000      2.9434    149.3792
   629.2500      0.0000   1200.0000      3.0576    158.2239
   629.5000      0.0000   1200.0000      3.1235    164.8115
   629.7500      0.0000   1200.0000      3.1624    167.7834
   630.0000      0.0000   1200.0000      3.2046    167.8092
   630.2500      0.0000   1200.0000      3.2399    166.8340
   630.5000      0.0000   1200.0000      3.2386    166.2689
   630.7500      0.0000   1200.0000      3.1969    166.1130
   631.0000      0.0000   1200.0000      3.1405    165.7221
   631.2500      0.0000   1200.0000      3.0983    164.9300
   631.5000      0.0000   1200.0000      3.0855    164.1857
   631.7500      0.0000   1200.0000      3.1009    164.0259
   632.0000      0.0000   1200.0000      3.1357    164.7406
   632.2500      0.0000   1200.0000      3.1849    166.2748
   632.5000      0.0000   1200.0000      3.2463    168.3592
   632.7500      0.0000   1200.0000      3.3087    170.8270
   633.0000      0.0000   1200.0000      3.3555    173.5769
   633.2500      0.0000   1200.0000      3.3791    176.0352
   633.5000      0.0000   1200.0000      3.3831    176.9490
   633.7500      0.0000   1200.0000      3.3748    175.0254
   634.0000      0.0000   1200.0000      3.3613    169.8064
   634.2500      0.0000   1200.0000      3.3454    162.0119
   634.5000      0.0000   1200.0000      3.3221    153.2580
   634.7500      0.0000   1200.0000      3.2893    145.4843
   635.0000      0.0000   1200.0000      3.2583    140.3287
   635.2500      0.0000   1200.0000      3.2447    138.5892
   635.5000      0.0000   1200.0000      3.2497    139.8925
   635.7500      0.0000   1200.0000      3.2589    142.6924
   636.0000      0.0000   1200.0000      3.2556    144.9723
   636.2500      0.0000   1200.0000      3.2345    145.5884
   636.5000      0.0000   1200.0000      3.2079    145.1254
   636.7500      0.0000   1200.0000      3.1938    145.3227
   637.0000      0.0000   1200.0000      3.1969    147.6471
   637.2500      0.0000   1200.0000      3.2070    152.3364
   637.5000      0.0000   1200.0000      3.2142    158.4162
   637.7500      0.0000   1200.0000      3.2184    164.2295
   638.0000      0.0000   1200.0000      3.2260    168.0538
   638.2500      0.0000   1200.0000      3.2412    168.7024
   638.5000      0.0000   1200.0000      3.2615    166.0075
   638.7500      0.0000   1200.0000      3.2844    160.8953
   639.0000      0.0000   1200.0000      3.3125    154.8652
   639.2500      0.0000   1200.0000      3.3473    149.2148
   639.5000      0.0000   1200.0000      3.3855    144.6055
   639.7500      0.0000   1200.0000      3.4223    141.1756
   640.0000      0.0000   1200.0000      3.4504    138.9199
   640.2500      0.0000   1200.0000      3.4596    137.6768
   640.5000      0.0000   1200.0000      3.4470    136.7380
   640.7500      0.0000   1200.0000      3.4247    134.9331
   641.0000      0.0000   1200.0000      3.4187    131.5189
   641.2500      0.0000   1200.0000      3.4558    126.9852
   641.5000      0.0000   1200.0000      3.5376    122.6566
   641.7500      0.0000   1200.0000      3.6223    119.3540
   642.0000      0.0000   1200.0000      3.6481    116.8719
   642.2500      0.0000   1200.0000      3.5835    114.9072
   642.5000      0.0000   1200.0000      3.4503    113.7454
   642.7500      0.0000   1200.0000      3.2954    113.5767
   643.0000      0.0000   1200.0000      3.1514    113.8573
   643.2500      0.0000   1200.0000      3.0296    113.8648
   643.5000      0.0000   1200.0000      2.9379    113.2223
   643.7500      0.0000   1200.0000      2.8897    111.4207
   644.0000      0.0000   1200.0000      2.9000    107.5622
   644.2500      0.0000   1200.0000      2.9734    101.2300
   644.5000      0.0000   1200.0000      3.0894     93.1857
   644.7500      0.0000   1200.0000      3.2093     84.7902
   645.0000      0.0000   1200.0000      3.3007     77.1424
   645.2500      0.0000   1200.0000      3.3500     70.9210
   645.5000      0.0000   1200.0000      3.3596     66.4228
   645.7500      0.0000   1200.0000      3.3483     63.3834
   646.0000      0.0000   1200.0000      3.3409     61.1229
   646.2500      0.0000   1200.0000      3.3465     59.1443
   646.5000      0.0000   1200.0000      3.3527     57.5970
   646.7500      0.0000   1154.4532      3.3390     57.2324
   647.0000      0.0000   1057.5536      3.2905     58.8649
   647.2500      0.0000   1097.8667      3.2002     62.6126
   647.5000      0.0000   1089.6556      3.0703     67.6275
   647.7500      0.0000   1200.0000      2.9212     72.6491
   648.0000      0.0000   1200.0000      2.7932     76.6114
   648.2500      0.0000   1183.2289      2.7273     78.7573
   648.5000      0.0000   1200.0000      2.7423     78.6096
   648.7500      0.0000   1200.0000      2.8248     76.1096
   649.0000      0.0000   1200.0000      2.9339     71.7922
   649.2500      2.0000   1200.0000      3.0231     66.8839
   649.5000      2.0000   1200.0000      3.0641     63.0516
   649.7500      0.0000   1200.0000      3.0462     61.6234
   650.0000      0.0000   1200.0000      2.9687     62.8521
   650.2500      0.0000   1200.0000      2.8538     65.9585
   650.5000      0.0000   1200.0000      2.7531     69.8890
   650.7500      0.0000   1200.0000      2.7193     73.9204
   651.0000      0.0000   1200.0000      2.7723     77.6138
   651.2500      0.0000   1200.0000      2.8944     80.4853
   651.5000      0.0000   1200.0000      3.0446     81.9350
   651.7500      0.0000   1200.0000      3.1795     81.4994
   652.0000      0.0000   1200.0000      3.2721     79.2021
   652.2500      0.0000   1193.0413      3.3127     75.8581
   652.5000      0.0000   1185.9617      3.2934     72.9553
   652.7500      0.0000   1186.5000      3.2003     71.8917
   653.0000      0.0000   1200.0000      3.0309     73.0007
   653.2500      0.0000   1200.0000      2.8156     75.1588
   653.5000      0.0000   1200.0000      2.6025     76.4307
   653.7500      0.0000   1200.0000      2.4222     75.5241
   654.0000      0.0000   1200.0000      2.2765     72.8926
   654.2500      0.0000   1200.0000      2.1577     70.2630
   654.5000      0.0000   1200.0000      2.0652     68.9451
   654.7500      0.0000   1200.0000      2.0027     68.7760
   655.0000      0.0000   1200.0000      1.9695     68.7980
   655.2500      0.0000   1200.0000      1.9579     68.7417
   655.5000      0.0000   1200.0000      1.9606     69.6238
   655.7500      0.0000   1200.0000      1.9755     72.9289
   656.0000      0.0000   1200.0000      2.0072     79.4402
   656.2500      0.0000   1200.0000      2.0664     88.8731
   656.5000      0.0000   1200.0000      2.1672    100.0990
   656.7500      0.0000   1200.0000      2.3166    111.2548
   657.0000      0.0000   1200.0000      2.5061    120.0485
   657.2500      0.0000   1200.0000      2.7137    124.6958
   657.5000      0.0000   1200.0000      2.9124    124.6896
   657.7500      0.0000   1200.0000      3.0745    120.6469
   658.0000      0.0000   1200.0000      3.1807    113.7132
   658.2500      0.0000   1200.0000      3.2378    105.1913
   658.5000      0.0000   1200.0000      3.2752     96.3668
   658.7500      0.0000   1200.0000      3.3155     88.5554
   659.0000      0.0000   1200.0000      3.3554     83.2226
   659.2500      0.0000   1200.0000      3.3818     81.4408
   659.5000      0.0000   1200.0000      3.3965     82.8888
   659.7500      0.0000   1200.0000      3.4099     85.8859
   660.0000      0.0000   1200.0000      3.4211     88.6569
   660.2500      0.0000   1200.0000      3.4208     90.0940
   660.5000      0.0000   1200.0000      3.4068     89.5291
   660.7500      0.0000   1200.0000      3.3798     86.8617
   661.0000      0.0000   1200.0000      3.3293     83.0850
   661.2500      0.0000   1200.0000      3.2437     79.6673
   661.5000      0.0000   1200.0000      3.1406     77.0718
   661.7500      0.0000   1200.0000      3.0725     74.6063
