~Version Information
VERS.                      2.0: CWLS Log ASCII Standard - VERSION 2.0
WRAP.                       NO: One line per depth step
~Well Information Block
STRT.FT               652.0000: 
STOP.FT              1880.5000: 
STEP.FT                 0.2500: 
NULL.                -999.2500: 
COMP.          Pioneer Natural Resources: COMPANY
WELL.          Corkscrew 33-12 Tr: WELL
FLD.           Purgatoire River: FIELD
LOC.           1870' FSL & 1706' FEL: LOCATION
PROV.                 Colorado: PROVINCE
CNTY.               Las Animas: COUNTRY
SRVC.                Patterson: SERVICE COMPANY
DATE.          Mon Mar 28 22:58:28 2005: LOG DATE
UWI.           05 071 08295 00: UNIQUE WELL ID
~Curve Information Block
DEPT.FT            0 000 00 00: Depth
SN.Ohm-m                      : IEL Short Normal
SP.mV                         : IEL Spontaneous Potential
DIR.Ohm-m                     : IEL Induction Resistivity
GR.GAPI                       : Gamma Ray
~Parameter Information Block
~A  Depth        SN          SP         DIR          GR     
# ...
  1791.0000      7.9739     65.1877      6.5702    108.0847
  1791.2500      7.8667     65.0141      6.5207    107.3752
  1791.5000      7.7926     64.8151      6.4814    107.0021
  1791.7500      7.7060     64.6301      6.4576    107.7171
  1792.0000      7.5887     64.4906      6.4525    110.0357
  1792.2500      7.4399     64.4014      6.4680    111.8139
  1792.5000      7.2740     64.3380      6.5023    114.1612
  1792.7500      7.1191     64.2605      6.5487    115.5877
  1793.0000      6.9964     64.1340      6.5966    117.6352
  1793.2500      6.8997     63.9423      6.6355    118.5220
  1793.5000      6.7963     63.6910      6.6598    117.9454
  1793.7500      6.6689     63.4046      6.6716    115.9605
  1794.0000      6.5583     63.1204      6.6780    111.3402
  1794.2500      6.5515     62.8759      6.6882    108.1670
  1794.5000      6.7303     62.6916      6.7109    104.9585
  1794.7500      7.1188     62.5605      6.7536    104.3779
  1795.0000      7.6471     62.4570      6.8226    105.6466
  1795.2500      8.1740     62.3555      6.9225    107.2896
  1795.5000      8.5809     62.2408      7.0548    109.5880
  1795.7500      8.8479     62.1040      7.2174    110.3865
  1796.0000      9.0295     61.9340      7.4058    110.0683
  1796.2500      9.1889     61.7164      7.6144    108.9729
  1796.5000      9.3723     61.4418      7.8378    106.4366
  1796.7500      9.6101     61.1159      8.0724    104.2240
  1797.0000      9.9179     60.7644      8.3188     99.8570
  1797.2500     10.2922     60.4269      8.5836     96.2046
  1797.5000     10.7163     60.1429      8.8798     90.3575
  1797.7500     11.1784     59.9348      9.2234     87.0229
  1798.0000     11.6767     59.7993      9.6271     84.0616
  1798.2500     12.2140     59.7088     10.0957     83.6350
  1798.5000     12.7921     59.6213     10.6242     84.6928
  1798.7500     13.4171     59.4952     11.2026     85.8918
  1799.0000     14.1270     59.3065     11.8217     87.4160
  1799.2500     15.0123     59.0543     12.4774     87.7283
  1799.5000     16.1618     58.7537     13.1737     86.1288
  1799.7500     17.5566     58.4245     13.9237     83.1254
  1800.0000     19.0679     58.0851     14.7465     75.6095
  1800.2500     20.6139     57.7489     15.6575     69.3488
  1800.5000     22.2829     57.4193     16.6564     60.2782
  1800.7500     24.2486     57.0816     17.7237     55.5828
  1801.0000     26.5809     56.7041     18.8299     51.3989
  1801.2500     29.1495     56.2518     19.9447     50.2736
  1801.5000     31.6845     55.7111     21.0323     49.7285
  1801.7500     33.9358     55.1107     22.0313     49.1488
  1802.0000     35.7956     54.5213     22.8362     46.8254
  1802.2500     37.3117     54.0303     23.3113     44.2069
  1802.5000     38.5981     53.7077     23.3456     39.1598
  1802.7500     39.6931     53.5863     22.9159     35.4619
  1803.0000     40.4985     53.6666     22.0911     30.2311
  1803.2500     40.8572     53.9350     20.9752     27.4660
  1803.5000     40.6339     54.3773     19.6612     25.0926
  1803.7500     39.6891     54.9822     18.2393     24.9287
  1804.0000     37.8508     55.7340     16.8211     27.1760
  1804.2500     35.0183     56.6042     15.5259     30.6459
  1804.5000     31.3181     57.5466     14.4349     39.3373
  1804.7500     27.1462     58.5030     13.5598     47.5036
  1805.0000     23.0217     59.4177     12.8466     62.4921
  1805.2500     19.3520     60.2511     12.2089     73.2424
  1805.5000     16.3212     60.9841     11.5706     88.1436
  1805.7500     13.9480     61.6120     10.8978     96.1200
  1806.0000     12.1750     62.1353     10.2035    104.4169
  1806.2500     10.9019     62.5529      9.5274    107.7346
  1806.5000     10.0040     62.8623      8.9124    110.1307
  1806.7500      9.3665     63.0644      8.3889    110.3416
  1807.0000      8.9133     63.1694      7.9705    109.0188
  1807.2500      8.6091     63.1998      7.6558    107.3626
  1807.5000      8.4382     63.1879      7.4329    104.5849
  1807.7500      8.3636     63.1688      7.2829    103.2313
  1808.0000      8.3124     63.1689      7.1834    102.8690
  1808.2500      8.2253     63.1963      7.1107    103.6793
  1808.5000      8.0994     63.2400      7.0449    105.4118
  1808.7500      7.9646     63.2779      6.9749    106.3156
  1809.0000      7.8434     63.2916      6.9007    107.0849
  1809.2500      7.7362     63.2793      6.8308    107.3566
  1809.5000      7.6333     63.2595      6.7739    107.5345
  1809.7500      7.5288     63.2609      6.7339    107.5669
  1810.0000      7.4206     63.3059      6.7077    107.8300
  1810.2500      7.3021     63.3970      6.6873    108.3025
  1810.5000      7.1668     63.5192      6.6643    109.3528
  1810.7500      7.0218     63.6528      6.6339    110.1741
  1811.0000      6.8912     63.7845      6.5976    111.5547
  1811.2500      6.8069     63.9085      6.5622    112.4444
  1811.5000      6.7920     64.0196      6.5355    113.1889
  1811.7500      6.8457     64.1065      6.5203    113.1093
  1812.0000      6.9430     64.1502      6.5127    112.5829
  1812.2500      7.0497     64.1307      6.5040    112.4918
  1812.5000      7.1357     64.0391      6.4856    113.3145
  1812.7500      7.1711     63.8889      6.4527    114.4746
  1813.0000      7.1205     63.7172      6.4051    116.7223
  1813.2500      6.9644     63.5736      6.3452    118.1639
  1813.5000      6.7195     63.5024      6.2777    119.1983
  1813.7500      6.4276     63.5255      6.2083    118.5243
  1814.0000      6.1404     63.6331      6.1433    115.3576
  1814.2500      5.9172     63.7876      6.0892    112.5716
  1814.5000      5.8133     63.9416      6.0512    109.3877
  1814.7500      5.8470     64.0610      6.0319    108.7006
  1815.0000      5.9823     64.1412      6.0309    109.5883
  1815.2500      6.1600     64.2032      6.0444    110.7580
  1815.5000      6.3379     64.2765      6.0661    112.5698
  1815.7500      6.4902     64.3823      6.0892    113.8786
  1816.0000      6.5950     64.5272      6.1095    116.3199
  1816.2500      6.6482     64.7058      6.1278    118.0683
  1816.5000      6.6697     64.9012      6.1494    119.8407
  1816.7500      6.6813     65.0854      6.1807    119.9906
  1817.0000      6.7039     65.2243      6.2257    118.9219
  1817.2500      6.7742     65.2886      6.2837    117.8675
  1817.5000      6.9339     65.2646      6.3511    116.3142
  1817.7500      7.1960     65.1586      6.4243    115.3047
  1818.0000      7.5152     64.9903      6.5007    113.7605
  1818.2500      7.7716     64.7815      6.5788    112.6838
  1818.5000      7.8158     64.5472      6.6547    110.9105
  1818.7500      7.5932     64.2967      6.7220    109.7170
  1819.0000      7.2136     64.0378      6.7729    108.5000
  1819.2500      6.8689     63.7757      6.8021    108.4367
  1819.5000      6.6992     63.5096      6.8084    109.6325
  1819.7500      6.7361     63.2337      6.7939    111.0598
  1820.0000      6.9131     62.9406      6.7607    113.2695
  1820.2500      7.1133     62.6254      6.7094    114.1191
  1820.5000      7.2422     62.2859      6.6403    113.5904
  1820.7500      7.2761     61.9251      6.5550    112.0214
  1821.0000      7.2479     61.5534      6.4574    108.7645
  1821.2500      7.1964     61.1908      6.3530    106.7743
  1821.5000      7.1254     60.8623      6.2480    105.0072
  1821.7500      6.9992     60.5881      6.1488    104.7083
  1822.0000      6.7969     60.3752      6.0612    105.1077
  1822.2500      6.5623     60.2133      5.9909    105.7123
  1822.5000      6.3572     60.0799      5.9424    107.3422
  1822.7500      6.2095     59.9500      5.9192    109.2739
  1823.0000      6.1228     59.8087      5.9230    113.6253
  1823.2500      6.0863     59.6584      5.9538    116.9632
  1823.5000      6.0814     59.5173      6.0090    120.8724
  1823.7500      6.1060     59.4091      6.0826    121.8543
  1824.0000      6.1690     59.3491      6.1631    120.5438
  1824.2500      6.2706     59.3340      6.2350    118.1891
