~Version Information
VERS.                      2.0: CWLS Log ASCII Standard - VERSION 2.0
WRAP.                       NO: One line per depth step
~Well Information Block
STRT.FT               270.0000: 
STOP.FT              1771.7000: 
STEP.FT                 0.1000: 
NULL.                -999.2500: 
COMP.          Pioneer Natural Resources: COMPANY
WELL.           Labrador 34-30: WELL
FLD.           Purgatoire River: FIELD
LOC.           926' FSL & 2080' FEL: LOCATION
PROV.                 Colorado: PROVINCE
CNTY.               Las Animas: COUNTRY
SRVC.                Patterson: SERVICE COMPANY
DATE.          Mon Dec 06 08:24:34 2004: LOG DATE
UWI.           05 071 08202 00: UNIQUE WELL ID
~Curve Information Block
DEPT.FT            0 000 00 00: Depth
DCAL.in                       : CDL Caliper
RHOB.g/cc                     : CDL Bulk Density
RHOC.g/cc                     : CDL Density Correction
DPOR.pu                       : CDL Density Porosity
NPOR.pu                       : Neutron Porosity
GR.GAPI                       : Gamma Ray
~Parameter Information Block
~A  Depth       DCAL        RHOB        RHOC        DPOR        NPOR         GR     
# ...
   855.6000      8.0907      2.4503      0.0387     12.1051     19.1158     57.3332
   855.7000      8.0907      2.4561      0.0788     11.7528     18.6603     61.0309
   855.8000      8.0810      2.4605      0.0566     11.4853     17.9450     64.4336
   855.9000      8.0810      2.4660      0.0687     11.1521     17.3686     65.7291
   856.0000      8.0748      2.4781      0.1053     10.4169     17.0434     66.4772
   856.1000      8.0748      2.4936      0.1282      9.4772     16.6970     68.4463
   856.2000      8.0748      2.5092      0.1138      8.5323     16.2388     69.2192
   856.3000      8.0751      2.5177      0.1411      8.0207     15.8061     67.2459
   856.4000      8.0751      2.5057      0.1166      8.7434     15.5705     63.6247
   856.5000      8.0784      2.4805      0.0638     10.2704     15.5462     61.0060
   856.6000      8.0784      2.4689      0.0532     10.9756     15.7482     60.7706
   856.7000      8.0784      2.4793      0.0781     10.3457     16.0975     60.7258
   856.8000      8.0858      2.4912      0.0988      9.6219     16.2728     61.1448
   856.9000      8.0858      2.4882      0.0268      9.8031     16.1095     63.2475
   857.0000      8.0951      2.4787      0.0387     10.3811     15.8588     64.9020
   857.1000      8.0951      2.4736      0.0464     10.6915     15.6787     65.8371
   857.2000      8.0951      2.4728      0.0650     10.7419     15.2447     65.6950
   857.3000      8.1010      2.4740      0.0473     10.6653     14.5384     61.5634
   857.4000      8.1010      2.4726      0.0591     10.7487     14.2677     55.4951
   857.5000      8.1025      2.4638      0.0414     11.2835     14.6409     53.7628
   857.6000      8.1025      2.4541      0.0436     11.8743     15.1336     55.6469
   857.7000      8.1025      2.4532      0.0120     11.9288     15.3934     55.0562
   857.8000      8.1018      2.4577      0.0819     11.6560     15.4520     51.9708
   857.9000      8.1018      2.4551      0.0420     11.8102     15.3700     49.7917
   858.0000      8.1002      2.4449      0.0294     12.4297     15.0874     49.9283
   858.1000      8.1002      2.4343      0.0645     13.0709     14.7682     53.4342
   858.2000      8.1002      2.4281      0.0218     13.4468     14.6152     58.7784
   858.3000      8.1013      2.4273      0.0428     13.4947     14.5031     60.3852
   858.4000      8.1013      2.4217      0.0458     13.8343     14.3360     56.3848
   858.5000      8.1073      2.4071      0.0075     14.7190     14.1705     50.8624
   858.6000      8.1073      2.3992     -0.0061     15.2020     13.9996     47.2059
   858.7000      8.1073      2.4094      0.0227     14.5844     13.7505     47.5283
   858.8000      8.1106      2.4266      0.0458     13.5404     13.5109     50.8000
   858.9000      8.1106      2.4360      0.0456     12.9682     13.4564     53.0447
   859.0000      8.1042      2.4333      0.0365     13.1339     13.6790     53.6389
   859.1000      8.1042      2.4188      0.0530     14.0129     14.1128     54.7413
   859.2000      8.1042      2.4000      0.0411     15.1517     14.4450     55.9437
   859.3000      8.0928      2.3850      0.0529     16.0592     14.3866     56.5943
   859.4000      8.0928      2.3762      0.0400     16.5964     14.0399     57.0473
   859.5000      8.0804      2.3810     -0.0034     16.3042     13.8495     56.2405
   859.6000      8.0804      2.4032      0.0150     14.9559     13.9572     54.8788
   859.7000      8.0804      2.4245      0.0787     13.6687     13.9747     55.4579
   859.8000      8.0714      2.4259      0.0272     13.5792     13.7025     56.4351
   859.9000      8.0714      2.4166      0.0560     14.1438     13.3774     55.5922
   860.0000      8.0687      2.4119      0.0589     14.4312     13.1686     53.8763
   860.1000      8.0687      2.4164      0.0535     14.1551     13.0850     52.5291
   860.2000      8.0687      2.4297      0.0764     13.3509     13.1479     51.7489
   860.3000      8.0708      2.4491      0.0732     12.1751     13.2971     53.0354
   860.4000      8.0708      2.4650      0.1150     11.2096     13.3214     55.4749
   860.5000      8.0725      2.4610      0.1195     11.4523     13.1636     54.6866
   860.6000      8.0725      2.4424      0.0225     12.5824     13.0880     51.2760
   860.7000      8.0725      2.4336      0.0467     13.1180     13.2948     50.2174
   860.8000      8.0705      2.4417      0.0273     12.6229     13.7196     50.7338
   860.9000      8.0705      2.4535      0.0341     11.9107     14.1142     49.0272
   861.0000      8.0635      2.4580      0.0103     11.6378     14.1858     45.7560
   861.1000      8.0635      2.4537      0.0642     11.8956     14.0038     44.2126
   861.2000      8.0635      2.4401      0.0398     12.7185     13.9537     46.0856
   861.3000      8.0524      2.4263      0.0316     13.5584     14.1051     49.1177
   861.4000      8.0524      2.4179      0.0806     14.0659     14.1575     51.2017
   861.5000      8.0390      2.4085      0.0317     14.6378     14.0493     53.4688
   861.6000      8.0390      2.3965      0.0746     15.3632     13.9511     54.9523
   861.7000      8.0390      2.3920     -0.0031     15.6334     14.0178     53.7386
   861.8000      8.0193      2.4145      0.0069     14.2729     14.2911     52.2797
   861.9000      8.0193      2.4635      0.0861     11.3020     14.5483     51.6241
   862.0000      8.0001      2.5156      0.1155      8.1433     14.5364     48.9335
   862.1000      8.0001      2.5537      0.1786      5.8374     14.4083     43.8677
   862.2000      8.0001      2.5730      0.1451      4.6640     14.5589     40.4321
   862.3000      7.9934      2.5764      0.1846      4.4632     15.0017     41.5702
   862.4000      7.9934      2.5680      0.1424      4.9708     15.3799     45.8056
   862.5000      8.0014      2.5514      0.1656      5.9772     15.5701     50.2669
   862.6000      8.0014      2.5231      0.1112      7.6928     15.6766     52.4990
   862.7000      8.0014      2.4891      0.0205      9.7514     15.6952     52.9638
   862.8000      8.0256      2.4679      0.0420     11.0337     15.4237     55.0213
   862.9000      8.0256      2.4579      0.0394     11.6401     14.8689     59.3201
   863.0000      8.0608      2.4414     -0.0056     12.6436     14.5793     61.8550
   863.1000      8.0608      2.4138      0.0155     14.3153     14.7040     60.6251
   863.2000      8.0608      2.3916     -0.0633     15.6617     14.7285     58.9226
   863.3000      8.0872      2.3929     -0.0260     15.5844     14.5190     58.5194
   863.4000      8.0872      2.4026      0.0737     14.9926     14.4962     58.5683
   863.5000      8.0935      2.3968      0.0242     15.3449     14.8717     59.6087
   863.6000      8.0935      2.3887     -0.0030     15.8338     15.1138     62.2703
   863.7000      8.0935      2.3919      0.0650     15.6451     14.7625     65.0607
   863.8000      8.0898      2.3871      0.0503     15.9351     14.2080     65.3569
   863.9000      8.0898      2.3638      0.0150     17.3474     13.9131     65.2555
   864.0000      8.0920      2.3332     -0.0051     19.2029     14.0761     68.4880
   864.1000      8.0920      2.3027     -0.0169     21.0505     14.5645     71.7644
   864.2000      8.0920      2.2761     -0.0228     22.6599     14.9619     70.4559
   864.3000      8.1000      2.2644     -0.0144     23.3702     15.0942     65.8163
   864.4000      8.1000      2.2742      0.0146     22.7747     14.8783     60.4244
   864.5000      8.1017      2.2969      0.0591     21.4004     14.4121     55.8573
   864.6000      8.1017      2.3253      0.0702     19.6810     14.1294     54.9298
   864.7000      8.1017      2.3645      0.0818     17.3009     14.2174     59.0808
   864.8000      8.0899      2.4116      0.1559     14.4491     14.4262     65.7383
   864.9000      8.0899      2.4458      0.1845     12.3750     14.5223     70.5915
   865.0000      8.0799      2.4589      0.1727     11.5804     14.6298     71.7350
   865.1000      8.0799      2.4679      0.1469     11.0390     14.9297     70.6976
