~Version Information
VERS.                      2.0: CWLS Log ASCII Standard - VERSION 2.0
WRAP.                       NO: One line per depth step
~Well Information Block
STRT.FT               375.0000: 
STOP.FT              2637.0000: 
STEP.FT                 0.1000: 
NULL.                -999.2500: 
COMP.          Pioneer Natural Resources: COMPANY
WELL.            Cortina 23-25: WELL
FLD.           Purgatoire River: FIELD
LOC.           2344' FWL & 2526' FSL----: LOCATION
PROV.                 Colorado: PROVINCE
CNTY.               Las Animas: COUNTRY
SRVC.                Patterson: SERVICE COMPANY
DATE.          Thu Mar 24 07:44:45 2005: LOG DATE
UWI.           05 071 08340 00: UNIQUE WELL ID
~Curve Information Block
DEPT.FT            0 000 00 00: Depth
DCAL.in                       : CDL Caliper
DPOR.pu                       : CDL Density Porosity
NPOR.pu                       : Neutron Porosity
RHOB.g/cc                     : CDL Bulk Density
RHOC.g/cc                     : CDL Density Correction
GR.GAPI                       : Gamma Ray
~Parameter Information Block
~A  Depth       DCAL        DPOR        NPOR        RHOB        RHOC         GR     
# ...
  2323.8000      7.9391      2.6132     23.2953      2.6069      0.0841     96.4945
  2323.9000      7.9391      1.0254     23.5091      2.6331      0.0782     92.9311
  2324.0000      7.9449      0.7886     23.4297      2.6370      0.0759    106.2324
  2324.1000      7.9449      1.2597     22.5837      2.6292      0.0699    123.6526
  2324.2000      7.9449      2.3323     21.3805      2.6115      0.0686    133.3082
  2324.3000      7.9523      3.7419     20.8297      2.5883     -0.0317    132.6908
  2324.4000      7.9523      4.2531     21.2854      2.5798     -0.0005    117.2142
  2324.5000      7.9512      3.5795     22.2420      2.5909      0.0132     99.2219
  2324.6000      7.9512      2.9902     22.6680      2.6007      0.0263    100.3603
  2324.7000      7.9512      3.2748     22.4339      2.5960      0.0159    113.2751
  2324.8000      7.9410      3.7671     22.5078      2.5878      0.0359    120.5561
  2324.9000      7.9410      3.8300     23.1075      2.5868      0.0949    124.1433
  2325.0000      7.9307      3.7375     23.5748      2.5883      0.0754    130.3831
  2325.1000      7.9307      3.9534     23.6503      2.5848      0.1055    137.4854
  2325.2000      7.9307      4.7174     23.4200      2.5722      0.0643    141.1072
  2325.3000      7.9280      5.6142     23.0121      2.5574      0.0606    138.2581
  2325.4000      7.9280      6.0918     22.7798      2.5495      0.0818    127.1789
  2325.5000      7.9314      6.1159     22.7183      2.5491      0.0564    114.1203
  2325.6000      7.9314      6.0612     22.5256      2.5500      0.0742    115.0127
  2325.7000      7.9314      6.4839     22.4501      2.5430      0.0537    137.5178
  2325.8000      7.9347      7.2453     22.7822      2.5305      0.0117    169.9303
  2325.9000      7.9347      7.9570     23.3151      2.5187      0.0570    186.3369
  2326.0000      7.9365      8.4882     23.7754      2.5099     -0.0039    175.5242
  2326.1000      7.9365      8.3801     23.6601      2.5117      0.0066    162.2549
  2326.2000      7.9365      7.8671     22.7700      2.5202      0.0518    160.3091
  2326.3000      7.9370      7.8186     21.8817      2.5210      0.0508    155.1246
  2326.4000      7.9370      8.1579     21.7396      2.5154      0.0152    144.3387
  2326.5000      7.9368      8.5549     21.8582      2.5088      0.0370    142.1378
  2326.6000      7.9368      9.0575     21.5749      2.5006      0.0213    144.6031
  2326.7000      7.9368      8.9598     21.3575      2.5022      0.0139    131.5343
  2326.8000      7.9368      7.5990     21.7730      2.5246      0.0532    113.4138
  2326.9000      7.9368      6.0022     22.2167      2.5510      0.0812    116.0176
  2327.0000      7.9383      5.4089     21.9415      2.5608      0.0385    132.0040
  2327.1000      7.9383      5.2099     21.3362      2.5640      0.0159    140.1689
  2327.2000      7.9383      4.2469     21.2062      2.5799      0.0714    139.9844
  2327.3000      7.9399      3.0236     21.6321      2.6001      0.1084    140.4394
  2327.4000      7.9399      2.6771     22.0783      2.6058      0.0642    140.7756
  2327.5000      7.9402      3.2887     22.0489      2.5957      0.0587    134.8186
  2327.6000      7.9402      4.7413     21.6501      2.5718      0.0528    121.5643
  2327.7000      7.9402      6.6712     21.4593      2.5399      0.0074    116.0380
  2327.8000      7.9385      7.8999     21.5042      2.5197     -0.0142    129.5170
  2327.9000      7.9385      8.0774     21.4761      2.5167      0.0351    147.3966
  2328.0000      7.9365      7.8094     21.6666      2.5211     -0.0083    155.3536
  2328.1000      7.9365      7.0839     21.9095      2.5331     -0.0146    149.6937
  2328.2000      7.9365      6.1117     21.6053      2.5492      0.0543    133.0432
  2328.3000      7.9368      5.6296     21.1561      2.5571      0.0193    124.7718
  2328.4000      7.9368      5.4218     20.9034      2.5605      0.0291    128.1757
  2328.5000      7.9382      5.0741     20.4500      2.5663      0.0567    123.2045
  2328.6000      7.9382      4.8349     19.9846      2.5702      0.0668    113.8988
  2328.7000      7.9382      4.6484     19.8766      2.5733      0.0552    114.6280
  2328.8000      7.9397      4.2520     20.0242      2.5798      0.0598    119.1147
  2328.9000      7.9397      3.7778     20.0841      2.5877      0.0431    117.2040
  2329.0000      7.9413      3.3525     19.9823      2.5947      0.0682    107.2721
  2329.1000      7.9413      2.7620     20.0678      2.6044      0.0507     99.8388
  2329.2000      7.9413      1.8627     20.2005      2.6193      0.0545    107.0658
  2329.3000      7.9428      1.2058     20.1484      2.6301      0.0816    122.8929
  2329.4000      7.9428      1.2796     20.1706      2.6289      0.0418    134.3323
  2329.5000      7.9426      1.9957     20.1391      2.6171      0.0614    143.2672
  2329.6000      7.9426      3.3609     19.8194      2.5945      0.0726    149.0510
  2329.7000      7.9426      4.3426     19.3909      2.5783      0.0057    142.1687
  2329.8000      7.9402      3.5424     19.1166      2.5916      0.0242    128.5151
  2329.9000      7.9402      2.3739     18.7487      2.6108      0.0864    121.8715
  2330.0000      7.9379      3.2586     18.4102      2.5962      0.0496    122.2656
  2330.1000      7.9379      5.2722     18.7194      2.5630     -0.0260    121.2059
  2330.2000      7.9379      5.9701     19.1150      2.5515      0.0153    118.0856
  2330.3000      7.9370      5.5095     18.8942      2.5591      0.0514    117.9717
  2330.4000      7.9370      5.2403     18.8307      2.5635      0.0323    118.9665
  2330.5000      7.9372      4.9500     19.4368      2.5683      0.0032    116.1776
  2330.6000      7.9372      4.2342     19.9270      2.5801      0.0767    114.0356
  2330.7000      7.9372      3.8498     19.7294      2.5865      0.0539    121.0690
  2330.8000      7.9401      4.4366     19.3833      2.5768      0.0184    131.3965
  2330.9000      7.9401      5.5457     19.5061      2.5585      0.0055    135.6458
  2331.0000      7.9432      5.8073     19.9838      2.5542     -0.0228    136.8066
  2331.1000      7.9432      4.4188     20.2515      2.5771      0.0236    136.4415
  2331.2000      7.9432      2.6809     19.8718      2.6058      0.0867    127.7880
  2331.3000      7.9437      2.1540     19.1308      2.6145      0.0531    112.4352
  2331.4000      7.9437      2.7858     18.7262      2.6040      0.0791     99.6666
  2331.5000      7.9435      4.0806     18.8219      2.5827      0.0701     92.4129
  2331.6000      7.9435      5.4807     19.0608      2.5596      0.0532     89.9396
  2331.7000      7.9435      6.3160     18.8928      2.5458      0.0233     93.7160
  2331.8000      7.9435      6.8649     18.1601      2.5367      0.0282     98.6587
  2331.9000      7.9435      7.3913     17.4123      2.5280     -0.0121     99.7560
  2332.0000      7.9425      6.9742     17.2112      2.5349     -0.0039    103.0247
  2332.1000      7.9425      5.5993     17.4295      2.5576      0.0675    109.5415
  2332.2000      7.9425      4.6359     17.6013      2.5735      0.0816    113.0095
  2332.3000      7.9416      4.5292     17.7563      2.5753      0.0704    116.6826
  2332.4000      7.9416      4.6706     18.1703      2.5729      0.0369    121.1692
  2332.5000      7.9410      4.6503     18.6537      2.5733      0.0601    116.9307
  2332.6000      7.9410      4.3791     18.7419      2.5777      0.0643    101.8523
  2332.7000      7.9410      4.0207     18.0278      2.5837      0.0726     89.8999
  2332.8000      7.9394      3.8547     17.1599      2.5864      0.0426     91.1673
  2332.9000      7.9394      3.6676     17.4257      2.5895      0.0609    101.8426
  2333.0000      7.9386      3.3649     18.4340      2.5945      0.0988    109.0097
  2333.1000      7.9386      3.3227     18.8669      2.5952      0.0697    106.9015
  2333.2000      7.9386      3.7674     18.7324      2.5878      0.0745    109.0876
  2333.3000      7.9395      4.5184     18.6622      2.5754      0.0510    118.3260
