~Version Information
 VERS.                                  2.0 : CWLS LAS VERSION
 WRAP.                                   NO : WRAPING MODE
 SWARE .                 MController 2.5.0N : SOFTWARE VERSION
~Well Information
 WELL.                         State 16-41V : WELL
 COMP.                Petrogulf Corporation : COMPANY
 FLD.                      Purgatoire River : FIELD
 LOC.                NE/NE Sec 16 T33S R67W : LOCATION
 DATE.                             08/01/05 : DATE(S) LOGGED
 SRVC.       BLANCO Geological Services LLC : SERVICE COMPANY
 STAT.                                   CO : STATE
 CNTY.                           Las Animas : COUNTY
 CTRY.                                  USA : COUNTRY
 API.                       05-071-08344-00 : API NUMBER
 STRT.FT                             582.00 : START DEPTH
 STOP.FT                            2275.00 : STOP DEPTH
 STEP.FT                               1.00 : DEPTH INCREMENT
 NULL.                                -9999 : NULL VALUE
~Curve information
 DEPTH.FT                                   :
 ROP.MIN/FT                                 :
 GAS.UNITS                                  :
~ASCII Log data
# ...
       782.0         0.17          7.7 
       783.0         0.17          6.8 
       784.0         0.17          6.9 
       785.0         0.20          6.8 
       786.0         0.17          5.8 
       787.0         0.33          6.1 
       788.0         0.17          6.9 
       789.0         0.18          6.6 
       790.0         0.23          5.6 
       791.0         0.23          3.8 
       792.0         0.17          3.2 
       793.0         0.20          2.7 
       794.0         0.17          2.5 
       795.0         0.17          2.0 
       796.0         0.13          2.3 
       797.0         0.27          2.3 
       798.0         0.13          2.7 
       799.0         0.13          4.0 
       800.0         0.18          5.5 
       801.0         0.23          8.4 
       802.0         0.27          8.9 
       803.0         0.20          8.5 
       804.0         0.17          7.8 
       805.0         0.20          7.6 
       806.0         0.85          7.0 
       807.0         0.20          4.9 
       808.0         0.20          4.9 
       809.0         0.20          4.5 
       810.0         0.20          3.8 
       811.0         0.13          3.5 
       812.0         0.23          3.6 
       813.0         0.20          3.3 
       814.0         0.20          3.3 
       815.0         0.20          3.1 
       816.0         0.20          3.1 
       817.0         0.17          3.2 
       818.0         0.20          3.0 
       819.0         0.20          3.4 
       820.0         0.17          3.2 
       821.0         0.15          3.5 
       822.0         0.27          3.0 
       823.0         0.13          1.3 
       824.0         0.13          1.2 
       825.0         0.23          0.7 
       826.0         0.20          0.4 
       827.0         0.17          0.0 
       828.0         0.20         -0.1 
       829.0         0.13          0.0 
       830.0         0.20         -0.1 
       831.0         0.17          0.5 
       832.0         0.17          1.0 
       833.0         0.17          1.6 
       834.0         0.17          3.8 
       835.0         0.20          5.4 
       836.0         1.32          8.3 
       837.0         0.37          4.5 
       838.0         0.33          3.2 
       839.0         0.20          2.8 
       840.0         0.20          2.7 
       841.0         0.23          2.6 
       842.0         0.23          2.4 
       843.0         0.27          2.6 
       844.0         0.23          2.7 
       845.0         0.20          2.6 
       846.0         0.35          2.7 
       847.0         0.37          2.9 
       848.0         0.23          2.6 
       849.0         0.20          2.9 
       850.0         0.23          3.1 
       851.0         0.13          2.6 
       852.0         0.17          2.2 
       853.0         0.17          1.8 
       854.0         0.23          1.2 
       855.0         0.30          2.9 
       856.0         0.17          2.9 
       857.0         0.17          1.2 
       858.0         0.17         -0.5 
       859.0         0.13          0.5 
       860.0         0.25         11.2 
       861.0         0.13         14.8 
       862.0         0.17         17.0 
       863.0         0.13         16.6 
       864.0         0.10         15.8 
       865.0         0.17         15.2 
       866.0         0.87         25.6 
       867.0         0.17         13.2 
       868.0         0.30         11.0 
       869.0         0.30          9.5 
       870.0         0.27          8.9 
       871.0         0.20          8.4 
       872.0         0.18          8.2 
       873.0         0.23          7.5 
       874.0         0.20          8.3 
       875.0         0.17          8.5 
       876.0         0.13          8.7 
       877.0         0.10          8.3 
       878.0         0.13          8.4 
       879.0         0.17          8.2 
       880.0         0.23          7.4 
       881.0         0.13          7.1 
       882.0         0.20          6.8 
       883.0         0.13          5.1 
       884.0         0.23          4.3 
       885.0         0.17          5.4 
       886.0         0.20          9.5 
       887.0         0.17         13.8 
       888.0         0.13         19.5 
       889.0         0.17         33.3 
       890.0         0.13         42.7 
       891.0         0.18         45.1 
       892.0         0.17         43.3 
       893.0         0.17         35.3 
       894.0         0.17         28.2 
       895.0         0.23         22.2 
       896.0         1.30        128.4 
       897.0         0.30        146.8 
       898.0         0.23        144.4 
       899.0         0.23        130.7 
       900.0         0.17        113.6 
       901.0         0.23        101.0 
       902.0         0.25         93.0 
       903.0         0.20         90.2 
       904.0         0.23         87.6 
       905.0         0.13         84.3 
       906.0         0.13         82.7 
       907.0         0.23         84.8 
       908.0         0.13         85.6 
       909.0         0.20         84.8 
       910.0         0.20         74.8 
       911.0         0.17         63.3 
       912.0         0.20         68.3 
       913.0         0.13         79.9 
       914.0         0.17         99.3 
       915.0         0.17        130.7 
       916.0         0.17        188.9 
       917.0         0.10        216.9 
       918.0         0.17        235.3 
       919.0         0.13        234.6 
       920.0         0.18        222.3 
       921.0         0.17        181.4 
       922.0         0.07        152.1 
       923.0         0.10        138.6 
       924.0         0.13        121.2 
       925.0         0.10        103.7 
       926.0         1.20         93.5 
       927.0         0.13         82.9 
       928.0         0.13        116.0 
       929.0         0.20        128.6 
       930.0         0.23        120.3 
       931.0         0.20         87.9 
       932.0         0.20         72.4 
       933.0         0.17         64.2 
       934.0         0.15         60.2 
       935.0         0.17         57.8 
       936.0         0.17         56.6 
       937.0         0.13         54.5 
       938.0         0.13         52.6 
       939.0         0.13         48.5 
       940.0         0.13         43.0 
       941.0         0.17         38.3 
       942.0         0.13         34.3 
       943.0         0.17         36.4 
       944.0         0.20         48.0 
       945.0         0.13         59.9 
       946.0         0.13         74.3 
       947.0         0.17        105.4 
       948.0         0.13        147.1 
       949.0         0.20        188.5 
       950.0         0.20        191.7 
       951.0         0.20        177.4 
       952.0         0.20        139.2 
       953.0         0.13        105.2 
       954.0         0.18         89.5 
       955.0         0.13         75.9 
       956.0         0.97         70.1 
       957.0         0.13         57.7 
       958.0         0.30         83.0 
       959.0         0.23         94.9 
       960.0         0.27         87.0 
       961.0         0.20         62.9 
       962.0         0.13         54.0 
       963.0         0.17         51.6 
       964.0         0.13         48.9 
       965.0         0.08         48.1 
       966.0         0.17         47.2 
       967.0         0.13         46.1 
       968.0         0.17         45.3 
       969.0         0.13         42.5 
       970.0         0.13         37.5 
       971.0         0.20         32.9 
       972.0         0.13         30.2 
       973.0         0.10         33.4 
       974.0         0.07         36.6 
       975.0         0.13         45.1 
       976.0         0.10         52.3 
       977.0         0.17         66.4 
       978.0         0.17         90.2 
       979.0         0.13        128.4 
       980.0         0.17        175.8 
       981.0         0.17        190.1 
