~Version Information
 VERS.                                  2.0 : CWLS LAS VERSION
 WRAP.                                   NO : WRAPING MODE
 SWARE .                 MController 2.5.0J : SOFTWARE VERSION
~Well Information
 WELL.                           Ywam 7-23V : WELL
 COMP.                       Petrogulf Corp : COMPANY
 FLD.                      Purgatorie River : FIELD
 LOC.                 NE/SW Sec 7 T33S R67W : LOCATION
 DATE.                          10/29-30/04 : DATE(S) LOGGED
 SRVC.       Blanco Geological Services LLC : SERVICE COMPANY
 STAT.                                   CO : STATE
 CNTY.                           Las Animas : COUNTY
 CTRY.                                  USA : COUNTRY
 API.                       05-071-08227-00 : API NUMBER
 STRT.FT                             634.00 : START DEPTH
 STOP.FT                            2611.00 : STOP DEPTH
 STEP.FT                               1.00 : DEPTH INCREMENT
 NULL.                                -9999 : NULL VALUE
~Curve information
 DEPTH.FT                                   :
 ROP.MIN/FT                                 :
 GAS.UNITS                                  :
~ASCII Log data
# ...
      1834.0         0.45         20.2 
      1835.0         0.27         20.6 
      1836.0         0.23         21.0 
      1837.0         0.33         23.3 
      1838.0         0.40         22.7 
      1839.0         0.40         21.0 
      1840.0         0.27         19.9 
      1841.0         0.27         20.1 
      1842.0         0.23         19.8 
      1843.0         0.27         19.9 
      1844.0         0.27         20.3 
      1845.0         0.28         18.9 
      1846.0         0.23         18.7 
      1847.0         0.17         18.7 
      1848.0         0.20         18.3 
      1849.0         0.27         19.8 
      1850.0         0.47         19.8 
      1851.0         0.20         20.5 
      1852.0         0.23         20.4 
      1853.0         0.30         21.1 
      1854.0         0.20         20.3 
      1855.0         0.20         19.4 
      1856.0         0.27         19.1 
      1857.0         0.27         20.0 
      1858.0         0.25         32.3 
      1859.0         0.27         21.1 
      1860.0         0.23         21.0 
      1861.0         0.33         20.4 
      1862.0         0.33         20.9 
      1863.0         0.27         21.5 
      1864.0         0.30         20.6 
      1865.0         0.30         19.3 
      1866.0         0.23         19.1 
      1867.0         0.27         20.0 
      1868.0         0.27         19.4 
      1869.0         0.27         20.0 
      1870.0         0.25         17.5 
      1871.0         0.30         18.0 
      1872.0         0.27         18.4 
      1873.0         0.27         19.3 
      1874.0         0.23         18.8 
      1875.0         0.37         19.0 
      1876.0         0.23         18.9 
      1877.0         0.27         19.7 
      1878.0         0.30         22.0 
      1879.0         0.27         24.1 
      1880.0         0.30         26.6 
      1881.0         0.27         28.0 
      1882.0         0.32         28.6 
      1883.0         0.30         27.8 
      1884.0         0.27         28.0 
      1885.0         0.30         27.3 
      1886.0         0.33         29.5 
      1887.0         0.27         30.3 
      1888.0         0.27         48.8 
      1889.0         0.27         52.0 
      1890.0         0.27         54.3 
      1891.0         0.33         48.1 
      1892.0         0.38         44.9 
      1893.0         0.37         34.3 
      1894.0         0.47         31.5 
      1895.0         0.30         29.9 
      1896.0         0.27         28.9 
      1897.0         0.43         27.7 
      1898.0         0.40         26.6 
      1899.0         0.33         26.5 
      1900.0         0.37         26.1 
      1901.0         0.28         26.1 
      1902.0         0.37         24.8 
      1903.0         0.27         26.2 
      1904.0         0.23         26.0 
      1905.0         0.20         24.4 
      1906.0         0.20         23.5 
      1907.0         0.23         24.3 
      1908.0         0.20         23.1 
      1909.0         0.20         22.3 
      1910.0         0.20         22.3 
      1911.0         0.23         22.5 
      1912.0         0.23         22.6 
      1913.0         0.27         22.7 
      1914.0         0.23         23.5 
      1915.0         0.22         21.9 
      1916.0         0.27         22.5 
      1917.0         0.20         32.6 
      1918.0         0.23         32.6 
      1919.0         0.23         38.3 
      1920.0         0.20         46.9 
      1921.0         0.27         50.7 
      1922.0         0.23         50.1 
      1923.0         0.33         41.7 
      1924.0         0.32         36.7 
      1925.0         0.30         34.3 
      1926.0         0.33         34.5 
      1927.0         0.30         29.8 
      1928.0         0.37         29.1 
      1929.0         0.37         26.6 
      1930.0         0.33         24.8 
      1931.0         0.23         23.4 
      1932.0         0.27         24.1 
      1933.0         0.27         23.8 
      1934.0         0.23         23.7 
      1935.0         0.25         22.4 
      1936.0         0.20         22.4 
      1937.0         0.23         24.3 
      1938.0         0.23         22.7 
      1939.0         0.23         22.0 
      1940.0         0.20         23.1 
      1941.0         0.20         22.5 
      1942.0         0.20         22.1 
      1943.0         0.20         23.7 
      1944.0         0.20         24.7 
      1945.0         0.20         26.6 
      1946.0         0.20         31.9 
      1947.0         0.23         96.2 
      1948.0         0.20        108.7 
      1949.0         0.27        127.0 
      1950.0         0.17        133.8 
      1951.0         0.23        165.8 
      1952.0         0.43        189.5 
      1953.0         0.30        167.3 
      1954.0         0.30        141.5 
      1955.0         0.27        128.9 
      1956.0         0.23        127.1 
      1957.0         0.30        113.3 
      1958.0         0.27        102.0 
      1959.0         0.27         89.8 
      1960.0         0.28         80.1 
      1961.0         0.30         75.6 
      1962.0         0.27         68.8 
      1963.0         0.27         64.0 
      1964.0         0.27         59.5 
      1965.0         0.27         57.6 
      1966.0         0.23         57.0 
      1967.0         0.23         54.7 
      1968.0         0.23         54.6 
      1969.0         0.20         52.7 
      1970.0         0.27         52.7 
      1971.0         0.27         51.6 
      1972.0         0.27         47.2 
      1973.0         0.28         46.3 
      1974.0         0.27         41.7 
      1975.0         0.23         41.1 
      1976.0         0.30         39.1 
      1977.0         0.27         37.4 
      1978.0         0.27         36.9 
      1979.0         0.23        110.1 
      1980.0         0.37        110.1 
      1981.0         0.27        103.4 
      1982.0         0.47         98.0 
      1983.0         0.50         50.3 
      1984.0         0.50         46.0 
      1985.0         0.40         41.7 
      1986.0         0.33         36.7 
      1987.0         0.35         32.4 
      1988.0         0.27         32.8 
      1989.0         0.23         32.8 
      1990.0         0.30         33.5 
      1991.0         0.23         33.9 
      1992.0         0.30         33.5 
      1993.0         0.30         32.9 
      1994.0         0.27         32.0 
      1995.0         0.23         31.0 
      1996.0         0.23         31.4 
      1997.0         0.23         28.6 
      1998.0         0.33         28.5 
      1999.0         0.25         28.4 
      2000.0         0.23         27.3 
      2001.0         0.23         26.9 
      2002.0         0.20         26.3 
      2003.0         0.27         25.9 
      2004.0         0.23         26.0 
      2005.0         0.23         25.2 
      2006.0         0.23         25.6 
      2007.0         0.23         25.7 
      2008.0         0.23         50.6 
      2009.0         0.23         50.6 
      2010.0         0.27         54.1 
      2011.0         0.23         54.1 
      2012.0         0.23         52.7 
      2013.0         0.27         50.5 
      2014.0         0.33         46.1 
      2015.0         0.33         42.2 
      2016.0         0.27         40.0 
      2017.0         0.27         39.7 
      2018.0         0.23         39.8 
      2019.0         0.27         34.8 
      2020.0         0.33         33.3 
      2021.0         0.27         30.9 
      2022.0         0.28         31.1 
      2023.0         0.23         31.4 
      2024.0         0.23         32.2 
      2025.0         0.23         31.9 
      2026.0         0.27         29.7 
      2027.0         0.33         29.4 
      2028.0         0.27         28.0 
      2029.0         0.27         28.7 
      2030.0         0.27         27.7 
      2031.0         0.27         28.0 
      2032.0         0.27         27.5 
      2033.0         0.33         27.0 
