~Version Information
VERS.                      2.0: CWLS Log ASCII Standard - VERSION 2.0
WRAP.                       NO: One line per depth step
~Well Information Block
STRT.FT               494.2500: 
STOP.FT              1992.0000: 
STEP.FT                 0.2500: 
NULL.                -999.2500: 
COMP.          Petrogulf Corporation: COMPANY
WELL.               Furu 6-23R: WELL
FLD.           Purgatoire River: FIELD
LOC.           2211' FSL & 1780' FWL--: LOCATION
CNTY.               Las Animas: COUNTY
SRVC.                Patterson: SERVICE COMPANY
DATE.          Wed Jun 21 14:57:59 2006: LOG DATE
UWI.           05 071 08266 00: UNIQUE WELL ID
STAT.                 Colorado: STATE
~Curve Information Block
DEPT.FT            0 000 00 00: Depth
GR.GAPI                       : Gamma Ray
RILD.Ohm-m                    : DIL Deep Resistivity
RILM.Ohm-m                    : DIL Medium Resistivity
RLL3.Ohm-m                    : DIL Shallow Resistivity
SP.mV                         : DIL Spontaneous Potential
~Parameter Information Block
~A  Depth        GR         RILD        RILM        RLL3         SP     
# ...
  1698.2500    135.6343     10.4545     10.6322     13.2216    114.6134
  1698.5000    137.5728     10.3630     10.4651     12.7251    114.8953
  1698.7500    138.6292     10.2832     10.2876     12.0820    115.1158
  1699.0000    138.7979     10.2131     10.1182     11.4385    115.2618
  1699.2500    138.2014     10.1488      9.9699     10.9185    115.3182
  1699.5000    137.7339     10.0866      9.8511     10.5700    115.2591
  1699.7500    138.4156     10.0251      9.7655     10.3725    115.0629
  1700.0000    140.8625      9.9646      9.7133     10.2916    114.7359
  1700.2500    142.8343      9.9073      9.6919     10.3291    114.3175
  1700.5000    145.2572      9.8561      9.6968     10.5274    113.8622
  1700.7500    146.1900      9.8151      9.7219     10.9328    113.4188
  1701.0000    146.4413      9.7906      9.7606     11.5401    113.0209
  1701.2500    146.0752      9.7903      9.8064     12.2464    112.6864
  1701.5000    145.7636      9.8227      9.8554     12.8565    112.4199
  1701.7500    146.3430      9.8955      9.9078     13.1724    112.2119
  1702.0000    148.4109     10.0153      9.9692     13.1296    112.0372
  1702.2500    149.9342     10.1864     10.0486     12.8568    111.8594
  1702.5000    151.4030     10.4116     10.1564     12.5816    111.6450
  1702.7500    151.8988     10.6931     10.3027     12.4625    111.3753
  1703.0000    152.8055     11.0338     10.4982     12.5094    111.0449
  1703.2500    153.7029     11.4376     10.7563     12.6486    110.6552
  1703.5000    154.3955     11.9080     11.0951     12.8463    110.2095
  1703.7500    153.3274     12.4456     11.5384     13.1972    109.7114
  1704.0000    148.0364     13.0468     12.1153     13.9922    109.1664
  1704.2500    141.7673     13.7048     12.8593     15.8060    108.5895
  1704.5000    128.3543     14.4121     13.8067     19.5106    108.0086
  1704.7500    117.1104     15.1619     14.9916     26.0117    107.4577
  1705.0000     98.3569     15.9472     16.4379     35.6597    106.9661
  1705.2500     86.0036     16.7572     18.1487     47.6779    106.5573
  1705.5000     70.0956     17.5746     20.0949     60.2056    106.2516
  1705.7500     62.2369     18.3745     22.2051     71.1749    106.0628
  1706.0000     55.6092     19.1229     24.3574     79.3809    105.9916
  1706.2500     54.9334     19.7764     26.3730     84.7561    106.0312
  1706.5000     59.3066     20.2824     28.0207     87.6285    106.1868
  1706.7500     65.1643     20.5860     29.0525     87.7781    106.4864
  1707.0000     76.7927     20.6430     29.2782     84.2633    106.9657
  1707.2500     85.6120     20.4346     28.6505     76.2719    107.6354
  1707.5000     99.2679     19.9740     27.2966     64.3103    108.4576
  1707.7500    107.8910     19.3022     25.4668     50.5810    109.3506
  1708.0000    118.6805     18.4768     23.4330     37.9938    110.2174
  1708.2500    123.9861     17.5603     21.4061     28.5720    110.9771
  1708.5000    129.6269     16.6115     19.5084     22.6387    111.5831
  1708.7500    132.6669     15.6808     17.7898     19.2745    112.0268
  1709.0000    137.3190     14.8077     16.2617     17.3037    112.3320
  1709.2500    140.6176     14.0198     14.9231     15.9094    112.5423
  1709.5000    145.2582     13.3325     13.7731     14.7047    112.7028
  1709.7500    147.6516     12.7503     12.8105     13.5835    112.8494
  1710.0000    149.7684     12.2685     12.0305     12.5902    113.0094
  1710.2500    150.3950     11.8767     11.4209     11.8417    113.2011
  1710.5000    150.9750     11.5632     10.9628     11.4572    113.4258
  1710.7500    151.4418     11.3200     10.6331     11.4807    113.6694
  1711.0000    152.0371     11.1442     10.4082     11.8230    113.9184
  1711.2500    152.0411     11.0374     10.2683     12.2822    114.1740
  1711.5000    151.4738     11.0022     10.1999     12.6536    114.4454
  1711.7500    151.1061     11.0402     10.1979     12.8521    114.7309
  1712.0000    150.9030     11.1513     10.2648     12.9580    115.0078
  1712.2500    150.5316     11.3349     10.4086     13.1656    115.2383
  1712.5000    148.1635     11.5903     10.6389     13.6698    115.3873
  1712.7500    144.8463     11.9169     10.9633     14.5413    115.4424
  1713.0000    137.6300     12.3143     11.3856     15.6572    115.4250
  1713.2500    132.1255     12.7829     11.9087     16.7634    115.3760
  1713.5000    124.4712     13.3253     12.5400     17.6741    115.3256
  1713.7500    120.4874     13.9475     13.2964     18.4893    115.2718
  1714.0000    116.3899     14.6588     14.2046     19.6677    115.1863
  1714.2500    114.2976     15.4688     15.2957     21.8935    115.0423
  1714.5000    110.4923     16.3818     16.5949     25.7810    114.8430
  1714.7500    106.9064     17.3923     18.1115     31.5347    114.6270
  1715.0000    100.0753     18.4834     19.8300     38.8026    114.4454
  1715.2500     94.9607     19.6331     21.7061     46.9234    114.3299
  1715.5000     87.0339     20.8217     23.6682     55.2967    114.2782
  1715.7500     81.8943     22.0356     25.6262     63.3055    114.2644
  1716.0000     75.0997     23.2604     27.4845     69.8648    114.2601
  1716.2500     71.5311     24.4694     29.1567     73.5004    114.2473
  1716.5000     67.8471     25.6179     30.5772     73.3247    114.2159
  1716.7500     66.5361     26.6499     31.7056     69.8849    114.1592
  1717.0000     66.5609     27.5108     32.5246     64.7859    114.0747
  1717.2500     68.2021     28.1557     33.0368     59.5134    113.9658
  1717.5000     73.2943     28.5532     33.2613     54.7733    113.8357
  1717.7500     77.9945     28.6938     33.2308     50.7428    113.6823
  1718.0000     85.2561     28.6034     32.9853     47.4815    113.5043
  1718.2500     89.1870     28.3471     32.5649     44.9367    113.3131
  1718.5000     93.1049     28.0144     32.0074     42.8277    113.1300
  1718.7500     94.9802     27.6922     31.3561     40.7960    112.9634
  1719.0000     98.4150     27.4461     30.6725     38.6519    112.7929
  1719.2500    101.6715     27.3141     30.0441     36.4257    112.5850
  1719.5000    107.2481     27.3077     29.5759     34.3308    112.3311
  1719.7500    110.2633     27.4148     29.3672     32.8557    112.0623
  1720.0000    111.5990     27.6017     29.4847     32.8411    111.8225
  1720.2500    109.5235     27.8195     29.9441     35.2589    111.6340
  1720.5000    101.9894     28.0138     30.7022     40.6913    111.4985
  1720.7500     95.1121     28.1343     31.6635     48.7955    111.4220
  1721.0000     85.0289     28.1419     32.6969     58.1254    111.4239
  1721.2500     80.0630     28.0134     33.6562     66.6378    111.5196
  1721.5000     76.5300     27.7459     34.3938     72.7983    111.7059
  1721.7500     76.5333     27.3557     34.7648     76.4874    111.9691
  1722.0000     78.6030     26.8725     34.6331     78.7737    112.2998
  1722.2500     80.6142     26.3340     33.9001     80.5838    112.6988
  1722.5000     84.6473     25.7821     32.5580     81.4141    113.1739
  1722.7500     88.7973     25.2596     30.7290     79.3303    113.7320
  1723.0000     98.4339     24.8050     28.6442     72.4888    114.3704
  1723.2500    106.9196     24.4466     26.5648     61.0088    115.0657
  1723.5000    120.4174     24.1972     24.7015     47.4244    115.7679
  1723.7500    128.0704     24.0532     23.1816     35.1615    116.4098
  1724.0000    135.2222     23.9968     22.0597     26.4739    116.9339
  1724.2500    136.7632     24.0004     21.3447     21.6622    117.3199
  1724.5000    135.0216     24.0335     21.0240     19.8199    117.5866
  1724.7500    131.9756     24.0696     21.0782     19.9672    117.7694
  1725.0000    126.0131     24.0956     21.4870     21.6220    117.8931
  1725.2500    121.6445     24.1195     22.2298     24.8033    117.9595
  1725.5000    114.3335     24.1697     23.2833     29.8732    117.9615
  1725.7500    108.4251     24.2847     24.6160     37.3431    117.9117
  1726.0000     97.8891     24.4968     26.1822     47.4946    117.8593
