~Version Information
VERS.                      2.0: CWLS Log ASCII Standard - VERSION 2.0
WRAP.                       NO: One line per depth step
~Well Information Block
STRT.FT               260.0000: 
STOP.FT              1199.2000: 
STEP.FT                 0.1000: 
NULL.                -999.2500: 
COMP.          Evergreen Operating Corporation: COMPANY
WELL.             Justin 32-10: WELL
FLD.           Purgatorie River: FIELD
LOC.           2994' FNL & 1449' FEL: LOCATION
PROV.                 Colorado: PROVINCE
CNTY.               Las Animas: COUNTRY
SRVC.                         : SERVICE COMPANY
DATE.          Mon Aug 30 07:14:35 2004: LOG DATE
UWI.           05 071 08053 00: UNIQUE WELL ID
~Curve Information Block
DEPT.FT            0 000 00 00: Depth
LTEN.lb                       : Surface Line Tension
DCAL.in                       : CDL Caliper
RHOB.g/cc                     : CDL Bulk Density
RHOC.g/cc                     : CDL Density Correction
DPOR.pu                       : CDL Density Porosity
GR.GAPI                       : Gamma Ray
NPOR.pu                       : Neutron Porosity
~Parameter Information Block
~A  Depth       LTEN        DCAL        RHOB        RHOC        DPOR         GR         NPOR    
# ...
   444.8000    814.3216      8.0448      2.5653      0.0233      5.1352    131.0423     28.2737
   444.9000    814.3216      8.0448      2.5838      0.0609      4.0147    122.3202     28.6599
   445.0000    778.0378      8.0362      2.5938      0.0952      3.4060    111.6921     29.1221
   445.1000    778.0378      8.0362      2.5780      0.0411      4.3620    107.4561     29.1632
   445.2000    778.0378      8.0362      2.5518      0.0268      5.9544    110.1121     28.7809
   445.3000    815.4658      8.0527      2.5314      0.0513      7.1870    113.2499     28.2765
   445.4000    815.4658      8.0527      2.5138      0.0365      8.2527    113.7610     27.9452
   445.5000    766.9073      8.0238      2.5010     -0.0041      9.0294    113.7402     27.8914
   445.6000    766.9073      8.0238      2.5022      0.0469      8.9559    114.0622     27.9174
   445.7000    766.9073      8.0238      2.5128      0.0087      8.3160    117.1092     27.8801
   445.8000    763.2757      8.0208      2.5206     -0.0049      7.8404    124.6604     27.6974
   445.9000    763.2757      8.0208      2.5200      0.0098      7.8768    132.2149     27.3571
   446.0000    787.3224      8.0424      2.5128      0.0448      8.3137    134.7296     27.3078
   446.1000    787.3224      8.0424      2.5093     -0.0001      8.5292    133.2085     27.9212
   446.2000    787.3224      8.0424      2.5182      0.0589      7.9862    129.6285     28.4042
   446.3000    819.7342      8.0546      2.5317      0.0632      7.1691    122.8762     27.9964
   446.4000    819.7342      8.0546      2.5396      0.0353      6.6887    115.7178     27.3765
   446.5000    829.6152      8.0604      2.5416      0.0470      6.5689    112.4378     27.1567
   446.6000    829.6152      8.0604      2.5405      0.0414      6.6376    111.4874     27.0665
   446.7000    829.6152      8.0604      2.5402      0.0406      6.6522    112.1305     27.0406
   446.8000    816.3715      8.0470      2.5368      0.0675      6.8621    116.5029     27.2097
   446.9000    816.3715      8.0470      2.5219      0.0080      7.7659    122.6566     27.7251
   447.0000    819.3790      8.0517      2.5049      0.0160      8.7935    125.1896     28.4574
   447.1000    819.3790      8.0517      2.4993      0.0144      9.1322    121.2764     28.7389
   447.2000    819.3790      8.0517      2.5025      0.0099      8.9424    117.0143     28.4117
   447.3000    829.3667      8.0555      2.5032      0.0151      8.8952    118.6451     28.0622
   447.4000    829.3667      8.0555      2.4979      0.0080      9.2181    121.4839     28.1491
   447.5000    843.2577      8.0509      2.4944     -0.0006      9.4276    121.4871     28.5664
   447.6000    843.2577      8.0509      2.5028      0.0100      8.9224    118.5462     28.8830
   447.7000    843.2577      8.0509      2.5208      0.0252      7.8310    114.4348     28.9736
   447.8000    836.0379      8.0512      2.5334      0.0374      7.0688    114.1704     28.8564
   447.9000    836.0379      8.0512      2.5264      0.0515      7.4889    118.5353     28.2769
   448.0000    872.2418      8.0351      2.4993      0.0365      9.1357    122.8872     27.4493
   448.1000    872.2418      8.0351      2.4707     -0.0233     10.8655    124.6319     26.9108
   448.2000    872.2418      8.0351      2.4681     -0.0038     11.0257    124.8962     26.7644
   448.3000    847.7579      8.0344      2.4936      0.0291      9.4794    122.9339     27.0236
   448.4000    847.7579      8.0344      2.5199      0.0645      7.8835    117.0645     27.6275
   448.5000    813.2225      8.0483      2.5299      0.0226      7.2804    109.2311     28.0783
   448.6000    813.2225      8.0483      2.5313      0.0908      7.1960    103.3321     28.0927
   448.7000    813.2225      8.0483      2.5349      0.0468      6.9761    103.7832     27.9202
   448.8000    790.0795      8.0616      2.5482      0.0701      6.1676    111.2942     28.0011
   448.9000    790.0795      8.0616      2.5612      0.1433      5.3843    116.7193     28.4640
   449.0000    809.6675      8.0397      2.5558      0.0971      5.7108    113.9736     28.6624
   449.1000    809.6675      8.0397      2.5382      0.0721      6.7771    109.8390     28.3113
   449.2000    809.6675      8.0397      2.5216      0.0426      7.7801    110.6390     27.9616
   449.3000    844.9169      8.0470      2.5042      0.0564      8.8371    113.6558     27.7910
   449.4000    844.9169      8.0470      2.4860      0.0350      9.9417    117.0777     27.8342
   449.5000    830.0961      8.0412      2.4793      0.0384     10.3468    122.1768     28.2174
   449.6000    830.0961      8.0412      2.4861      0.0550      9.9331    125.9198     28.6446
   449.7000    830.0961      8.0412      2.5008      0.0188      9.0411    126.1932     28.8417
   449.8000    821.1445      8.0492      2.5289      0.1003      7.3413    126.4421     28.8365
   449.9000    821.1445      8.0492      2.5648      0.1448      5.1626    126.2383     28.6649
   450.0000    784.8891      8.0724      2.5841      0.1372      3.9947    124.5598     28.5555
   450.1000    784.8891      8.0724      2.5745      0.1162      4.5756    127.3428     28.8278
   450.2000    784.8891      8.0724      2.5428      0.1258      6.4968    135.4776     29.1982
   450.3000    800.7074      8.0322      2.5055      0.0588      8.7585    143.0452     29.2371
   450.4000    800.7074      8.0322      2.4889      0.0803      9.7644    146.9976     29.0801
   450.5000    832.9342      8.0451      2.5098      0.0793      8.4952    148.6164     28.9019
   450.6000    832.9342      8.0451      2.5630      0.0883      5.2709    146.5885     28.4544
   450.7000    832.9342      8.0451      2.6263      0.1262      1.4350    138.4518     27.6323
   450.8000    817.7325      8.0543      2.6772      0.2157     -1.6463    128.6634     26.9628
   450.9000    817.7325      8.0543      2.7037      0.2194     -3.2526    119.8624     26.5721
   451.0000    811.5800      8.0457      2.7062      0.1966     -3.4036    111.7873     25.8709
   451.1000    811.5800      8.0457      2.6992      0.1216     -2.9821    105.7032     24.7800
   451.2000    811.5800      8.0457      2.6926      0.1479     -2.5846    101.1663     23.8470
   451.3000    800.4104      8.0454      2.6751      0.1066     -1.5203     97.6359     23.3984
   451.4000    800.4104      8.0454      2.6397      0.0784      0.6213     95.9096     23.2716
   451.5000    846.5574      8.0417      2.5970      0.0781      3.2140     94.7820     22.9701
   451.6000    846.5574      8.0417      2.5550      0.1027      5.7550     93.9237     22.2746
   451.7000    846.5574      8.0417      2.5221      0.0766      7.7506     94.8476     21.5581
   451.8000    839.5749      8.0707      2.5082      0.1189      8.5953     96.7203     21.2085
   451.9000    839.5749      8.0707      2.5087      0.1366      8.5652     97.6633     21.2648
   452.0000    809.7577      8.0356      2.5086      0.1509      8.5685     98.2673     21.7689
   452.1000    809.7577      8.0356      2.4989      0.1144      9.1577    100.4857     22.5092
   452.2000    809.7577      8.0356      2.4820      0.1110     10.1797    103.1219     23.1568
   452.3000    838.4858      8.0381      2.4682      0.0527     11.0153    105.4959     23.7252
   452.4000    838.4858      8.0381      2.4684      0.1006     11.0052    109.2872     24.2199
   452.5000    800.6567      8.0468      2.4844      0.0858     10.0389    112.9823     24.3999
   452.6000    800.6567      8.0468      2.5089      0.1051      8.5495    113.4637     24.2556
   452.7000    800.6567      8.0468      2.5306      0.1492      7.2348    113.0701     24.1366
   452.8000    756.1866      8.0440      2.5453      0.1239      6.3432    116.3805     24.4628
   452.9000    756.1866      8.0440      2.5551      0.1585      5.7545    120.2834     25.2323
   453.0000    774.9789      8.0408      2.5543      0.1568      5.7995    119.2558     25.8956
   453.1000    774.9789      8.0408      2.5404      0.1402      6.6433    116.3971     26.0296
