~Version Information
VERS.                      2.0: CWLS Log ASCII Standard - VERSION 2.0
WRAP.                       NO: One line per depth step
~Well Information Block
STRT.FT                -7.0000: 
STOP.FT              2389.2500: 
STEP.FT                 0.2500: 
NULL.                -999.2500: 
COMP.          Pioneer Natural Resources: COMPANY
WELL.            Victory 12-14: WELL
FLD.           Purgatorie River: FIELD
LOC.           2434' FNL & 188' FWL------: LOCATION
PROV.                       CO: PROVINCE
CNTY.               Las Animas: COUNTRY
SRVC.          Patterson Wireline: SERVICE COMPANY
DATE.          Fri Apr 22 14:29:17 2005: LOG DATE
UWI.           05 071 08332 00: UNIQUE WELL ID
~Curve Information Block
DEPT.FT            0 000 00 00: Depth
CCL.                          : Casing Collar Locator
TT3.usec                      : CBL 3' Travel Time
AMP3.mV                       : CBL 3' Amplitude
GR.GAPI                       : Gamma Ray
~Parameter Information Block
~A  Depth       CCL         TT3         AMP3         GR     
# ...
  2371.5000      0.0000    724.7868     11.0985     64.5628
  2371.7500      0.0000    743.9322     10.6748     62.9314
  2372.0000      0.0000    757.5792     10.2469     63.7520
  2372.2500      0.0000    762.7712      9.9606     66.0873
  2372.5000      0.0000    759.2826      9.9425     68.6963
  2372.7500      0.0000    749.4751     10.2164     70.5492
  2373.0000      0.0000    733.4341     10.6802     71.1806
  2373.2500      0.0000    705.3727     11.1962     70.9011
  2373.5000      0.0000    658.6025     11.7047     70.4287
  2373.7500      0.0000    596.1623     12.2241     70.0795
  2374.0000      0.0000    532.5430     12.7723     69.5529
  2374.2500      0.0000    480.4787     13.3542     68.6385
  2374.5000      0.0000    439.4066     14.0049     67.6744
  2374.7500      0.0000    401.6163     14.7547     66.6940
  2375.0000      0.0000    365.4866     15.5183     64.2318
  2375.2500      0.0000    337.1394     16.0787     57.8218
  2375.5000      0.0000    322.9433     16.2346     46.3582
  2375.7500      0.0000    326.7485     15.9543     31.8319
  2376.0000      0.0000    352.8972     15.3612     18.2052
  2376.2500      0.0000    405.4436     14.5857      8.5071
  2376.5000      0.0000    480.7615     13.6643      3.2050
  2376.7500      0.0000    563.1125     12.5918      0.9643
  2377.0000      0.0000    632.1499     11.4401      0.2299
  2377.2500      0.0000    676.1917     10.3782      0.0428
  2377.5000      0.0000    697.1833      9.5555      0.0058
  2377.7500      0.0000    704.2954      8.9724      0.0000
  2378.0000      0.0000    705.7003      8.4818   -999.2500
  2378.2500      0.0000    705.5593      7.9258   -999.2500
  2378.5000      0.0000    705.0765      7.2817   -999.2500
  2378.7500      0.0000    704.1572      6.6873   -999.2500
  2379.0000      0.0000    702.4088      6.3177   -999.2500
  2379.2500      0.0000    699.7910      6.2240   -999.2500
  2379.5000      0.0000    696.8743      6.2799   -999.2500
  2379.7500      0.0000    693.8133      6.2709   -999.2500
  2380.0000      0.0000    687.5746      6.0384   -999.2500
  2380.2500      0.0000    668.9171      5.5615   -999.2500
  2380.5000      0.0000    622.8694      4.9200   -999.2500
  2380.7500      0.0000    536.5623      4.1903   -999.2500
  2381.0000      0.0000    412.2430      3.4051   -999.2500
  2381.2500      0.0000    273.2131      2.6143   -999.2500
  2381.5000      0.0000    152.0123      1.9254   -999.2500
  2381.7500      0.0000     69.5615      1.4385   -999.2500
  2382.0000      0.0000     25.7912      1.1681   -999.2500
  2382.2500      0.0000      7.6631      1.0514   -999.2500
  2382.5000      0.0000      1.8078      1.0124   -999.2500
  2382.7500      0.0000      0.3333      1.0024   -999.2500
  2383.0000      0.0000      0.0439      1.0003   -999.2500
  2383.2500      0.0000   -999.2500   -999.2500   -999.2500
  2383.5000      0.0000   -999.2500   -999.2500   -999.2500
  2383.7500      0.0000   -999.2500   -999.2500   -999.2500
  2384.0000      0.0000   -999.2500   -999.2500   -999.2500
  2384.2500      0.0000   -999.2500   -999.2500   -999.2500
  2384.5000      0.0000   -999.2500   -999.2500   -999.2500
  2384.7500      0.0000   -999.2500   -999.2500   -999.2500
  2385.0000      0.0000   -999.2500   -999.2500   -999.2500
  2385.2500      0.0000   -999.2500   -999.2500   -999.2500
  2385.5000      0.0000   -999.2500   -999.2500   -999.2500
  2385.7500      0.0000   -999.2500   -999.2500   -999.2500
  2386.0000      0.0000   -999.2500   -999.2500   -999.2500
  2386.2500      0.0000   -999.2500   -999.2500   -999.2500
  2386.5000      0.0000   -999.2500   -999.2500   -999.2500
  2386.7500      0.0000   -999.2500   -999.2500   -999.2500
  2387.0000      0.0000   -999.2500   -999.2500   -999.2500
  2387.2500      0.0000   -999.2500   -999.2500   -999.2500
  2387.5000      0.0000   -999.2500   -999.2500   -999.2500
  2387.7500      0.0000   -999.2500   -999.2500   -999.2500
  2388.0000      0.0000   -999.2500   -999.2500   -999.2500
  2388.2500      0.0000   -999.2500   -999.2500   -999.2500
  2388.5000      0.0000   -999.2500   -999.2500   -999.2500
  2388.7500   -999.2500   -999.2500   -999.2500   -999.2500
  2389.0000   -999.2500   -999.2500   -999.2500   -999.2500
  2389.2500   -999.2500   -999.2500   -999.2500   -999.2500
