~Version Information
VERS.                      2.0: CWLS Log ASCII Standard - VERSION 2.0
WRAP.                       NO: One line per depth step
~Well Information Block
STRT.FT                -7.5000: 
STOP.FT              1129.7500: 
STEP.FT                 0.2500: 
NULL.                -999.2500: 
COMP.          Pioneer Natural Resources: COMPANY
WELL.          Drewmeister 34-34: WELL
FLD.           Purgatorie River: FIELD
LOC.           958' FSL & 1857' FEL: LOCATION
STAT.                       CO: State
CNTY.               Las Animas: COUNTRY
CTRY. USA : Country
SECT. 34 : Section
TOWN. 32S : Township
RANG. 65W : Range
SRVC.          Patterson Wireline: SERVICE COMPANY
DATE.          Fri Oct 14 14:02:00 2005: LOG DATE
API.           05 071 08131 00: UNIQUE WELL ID
~Curve Information Block
DEPT.FT            0 000 00 00: Depth
CCL.                          : Casing Collar Locator
TT3.usec                      : CBL 3' Travel Time
AMP3.mV                       : CBL 3' Amplitude
GR.GAPI                       : Gamma Ray
~Parameter Information Block
~A  Depth       CCL         TT3         AMP3         GR     
# ...
  1098.0000      0.0000    721.5419      7.3086    113.0946
  1098.2500      0.0000    722.8225      7.3371    109.2247
  1098.5000      0.0000    719.9067      7.3917    107.7140
  1098.7500      0.0000    708.3492      7.4595    107.4079
  1099.0000      0.0000    682.0600      7.5099    106.6728
  1099.2500      0.0000    637.7293      7.5464    104.8738
  1099.5000      0.0000    582.2604      7.6129    102.9739
  1099.7500      0.0000    535.2692      7.7363    102.7939
  1100.0000      0.0000    519.3436      7.8770    105.5138
  1100.2500      0.0000    543.3453      7.9557    110.6601
  1100.5000      0.0000    594.7553      7.9215    116.4975
  1100.7500      0.0000    649.5242      7.7858    121.5202
  1101.0000      0.0000    689.2899      7.6039    125.5725
  1101.2500      0.0000    709.8628      7.4394    129.4185
  1101.5000      0.0000    717.2181      7.3372    133.3064
  1101.7500      0.0000    719.2076      7.3029    136.0902
  1102.0000      0.0000    720.4487      7.3011    135.9189
  1102.2500      0.0000    721.6583      7.2812    132.1862
  1102.5000      0.0000    721.5486      7.2217    126.9152
  1102.7500      0.0000    719.1193      7.1560    123.5064
  1103.0000      0.0000    714.9760      7.1588    123.3637
  1103.2500      0.0000    710.9958      7.3051    124.1102
  1103.5000      0.0000    708.7036      7.6356    121.9116
  1103.7500      0.0000    708.0223      8.1513    115.4595
  1104.0000      0.0000    708.0281      8.8262    107.3758
  1104.2500      0.0000    708.5764      9.6109    101.9764
  1104.5000      0.0000    710.1753     10.4226    101.9522
  1104.7500      0.0000    712.2862     11.1502    106.8851
  1105.0000      0.0000    712.9831     11.6865    114.0277
  1105.2500      0.0000    710.8998     11.9717    119.9086
  1105.5000      0.0000    707.0292     12.0135    121.7399
  1105.7500      0.0000    704.1951     11.8677    118.5611
  1106.0000      0.0000    704.8434     11.5975    111.7607
  1106.2500      0.0000    709.2354     11.2464    104.3471
  1106.5000      0.0000    715.2881     10.8372     99.3922
  1106.7500      0.0000    719.9725     10.3849     98.8823
  1107.0000      0.0000    721.1771      9.9055    103.2874
  1107.2500      0.0000    718.6915      9.4170    111.4767
  1107.5000      0.0000    713.8163      8.9423    120.7910
  1107.7500      0.0000    708.4359      8.5170    127.5852
  1108.0000      0.0000    704.5177      8.1961    128.7532
  1108.2500      0.0000    703.7877      8.0418    123.5428
  1108.5000      0.0000    706.8950      8.0910    113.9917
  1108.7500      0.0000    712.6998      8.3247    103.6017
  1109.0000      0.0000    718.9028      8.6727     95.4645
  1109.2500      0.0000    723.6317      9.0540     91.0368
  1109.5000      0.0000    726.3781      9.4199     90.0674
  1109.7500      0.0000    727.6591      9.7636     91.4243
  1110.0000      0.0000    728.2015     10.0971     93.7330
  1110.2500      0.0000    728.4811     10.4239     95.4021
  1110.5000      0.0000    728.6942     10.7256     95.1290
  1110.7500      0.0000    728.8914     10.9676     93.3201
  1111.0000      0.0000    729.0674     11.1203     92.5761
  1111.2500      0.0000    729.1932     11.1768     95.8279
  1111.5000      0.0000    729.2345     11.1495    103.5746
  1111.7500      0.0000    729.1766     11.0513    112.9813
  1112.0000      0.0000    729.0340     10.8947    119.8576
  1112.2500      0.0000    728.8461     10.7117    121.7548
  1112.5000      0.0000    728.6708     10.5604    119.4186
  1112.7500      0.0000    728.5635     10.5003    115.6174
  1113.0000      0.0000    728.5377     10.5563    112.9242
  1113.2500      0.0000    728.5430     10.7020    112.5518
  1113.5000      0.0000    728.5040     10.8782    114.6388
  1113.7500      0.0000    728.3954     11.0314    118.7299
  1114.0000      0.0000    728.2764     11.1379    123.7300
  1114.2500      0.0000    728.2518     11.1994    128.2867
  1114.5000      0.0000    728.4040     11.2257    131.9143
  1114.7500      0.0000    728.7455     11.2287    134.9496
  1115.0000      0.0000    729.2051     11.2204    136.5708
  1115.2500      0.0000    729.6514     11.2048    133.6913
  1115.5000      0.0000    729.9583     11.1678    122.8958
  1115.7500      0.0000    730.0668     11.0816    103.2682
  1116.0000      0.0000    729.9904     10.9199     77.3950
  1116.2500      0.0000    729.7114     10.6721     50.4306
  1116.5000      0.0000    729.0329     10.3465     27.8439
  1116.7500      0.0000    727.4604      9.9645     12.7320
  1117.0000      0.0000    724.3511      9.5556      4.7359
  1117.2500      0.0000    719.5482      9.1604      1.4137
  1117.5000      0.0000    714.1384      8.8296      0.3346
  1117.7500      0.0000    710.2919      8.6021      0.0622
  1118.0000      0.0000    709.8391      8.4724      0.0083
  1118.2500      0.0000    712.8915      8.3930   -999.2500
  1118.5000      0.0000    717.8782      8.3232   -999.2500
  1118.7500      0.0000    722.7458      8.2659   -999.2500
  1119.0000      0.0000    726.1041      8.2351   -999.2500
  1119.2500      0.0000    727.5253      8.2014   -999.2500
  1119.5000      0.0000    727.0627      8.0984   -999.2500
  1119.7500      0.0000    724.6816      7.8910   -999.2500
  1120.0000      0.0000    720.3381      7.6160   -999.2500
  1120.2500      0.0000    714.1071      7.3419   -999.2500
  1120.5000      0.0000    704.6605      7.0878   -999.2500
  1120.7500      0.0000    685.3026      6.7715   -999.2500
  1121.0000      0.0000    641.6487      6.2228   -999.2500
  1121.2500      0.0000    558.2244      5.2779   -999.2500
  1121.5000      0.0000    433.7906      3.9310   -999.2500
  1121.7500      0.0000    290.5939      2.4146   -999.2500
  1122.0000      0.0000    163.1714      1.0804   -999.2500
  1122.2500      0.0000     75.2282      0.1658   -999.2500
  1122.5000      0.0000     28.0592     -0.3224   -999.2500
  1122.7500      0.0000      8.3772     -0.5254   -999.2500
  1123.0000      0.0000      1.9843     -0.5912   -999.2500
  1123.2500      0.0000      0.3672     -0.6078   -999.2500
  1123.5000      0.0000   -999.2500   -999.2500   -999.2500
  1123.7500      0.0000   -999.2500   -999.2500   -999.2500
  1124.0000      0.0000   -999.2500   -999.2500   -999.2500
  1124.2500      0.0000   -999.2500   -999.2500   -999.2500
  1124.5000      0.0000   -999.2500   -999.2500   -999.2500
  1124.7500      0.0000   -999.2500   -999.2500   -999.2500
  1125.0000      0.0000   -999.2500   -999.2500   -999.2500
  1125.2500      0.0000   -999.2500   -999.2500   -999.2500
  1125.5000      0.0000   -999.2500   -999.2500   -999.2500
  1125.7500      0.0000   -999.2500   -999.2500   -999.2500
  1126.0000      0.0000   -999.2500   -999.2500   -999.2500
  1126.2500      0.0000   -999.2500   -999.2500   -999.2500
  1126.5000      0.0000   -999.2500   -999.2500   -999.2500
  1126.7500      0.0000   -999.2500   -999.2500   -999.2500
  1127.0000      0.0000   -999.2500   -999.2500   -999.2500
  1127.2500      0.0000   -999.2500   -999.2500   -999.2500
  1127.5000      0.0000   -999.2500   -999.2500   -999.2500
  1127.7500      0.0000   -999.2500   -999.2500   -999.2500
  1128.0000      0.0000   -999.2500   -999.2500   -999.2500
  1128.2500      0.0000   -999.2500   -999.2500   -999.2500
  1128.5000      0.0000   -999.2500   -999.2500   -999.2500
  1128.7500      0.0000   -999.2500   -999.2500   -999.2500
  1129.0000      0.0000   -999.2500   -999.2500   -999.2500
  1129.2500   -999.2500   -999.2500   -999.2500   -999.2500
  1129.5000   -999.2500   -999.2500   -999.2500   -999.2500
  1129.7500   -999.2500   -999.2500   -999.2500   -999.2500
