~Version Information
 VERS.                                  2.0 : CWLS LAS VERSION
 WRAP.                                   NO : WRAPING MODE
 SWARE .                 MController 2.5.0I : SOFTWARE VERSION
~Well Information
 WELL.                       Montoya 13-41v : WELL
 COMP.                        Pertogulf Corp: COMPANY
 FLD.                      Pergatorie River : FIELD
 LOC.                NE/NE Sec 13 T33S R68W : LOCATION
 DATE.                           8/16-17/04 : DATE(S) LOGGED
 SRVC.       Blanco Geological Services LLC : SERVICE COMPANY
 STAT.                                   CO : STATE
 CNTY.                           Las Animas : COUNTY
 CTRY.                                  USA : COUNTRY
 API.                       05-071-08021-00 : API NUMBER
 STRT.FT                             767.00 : START DEPTH
 STOP.FT                            2499.00 : STOP DEPTH
 STEP.FT                               1.00 : DEPTH INCREMENT
 NULL.                                -9999 : NULL VALUE
~Curve information
 DEPTH.FT                                   :
 ROP.MIN/FT                                 :
 GAS.UNITS                                  :
~ASCII Log data
# ...
      2367.0          0.4          3.1 
      2368.0          0.4          3.0 
      2369.0          0.4          3.3 
      2370.0          0.4          2.8 
      2371.0          0.4          3.1 
      2372.0          0.4          3.3 
      2373.0          0.4          3.4 
      2374.0          0.4          3.1 
      2375.0          0.4          3.1 
      2376.0          0.5          3.0 
      2377.0          0.7          2.9 
      2378.0          9.6        102.9 
      2379.0          0.3          5.5 
      2380.0          0.4          3.5 
      2381.0          0.5          2.9 
      2382.0          0.5          2.6 
      2383.0          0.4          2.9 
      2384.0          0.4          2.9 
      2385.0          0.4          2.9 
      2386.0          0.4          3.1 
      2387.0          0.4          3.8 
      2388.0          0.4          4.0 
      2389.0          0.4          3.8 
      2390.0          0.4          3.8 
      2391.0          0.4          4.1 
      2392.0          0.4          3.9 
      2393.0          0.4          4.1 
      2394.0          0.4          4.3 
      2395.0          0.4          4.1 
      2396.0          0.5          4.2 
      2397.0          0.4          4.4 
      2398.0          0.4          4.3 
      2399.0          0.4          4.3 
      2400.0          0.4          4.1 
      2401.0          0.5          3.9 
      2402.0          0.6          4.2 
      2403.0          0.5          3.8 
      2404.0          0.5          4.1 
      2405.0          0.5          4.0 
      2406.0          0.4          3.6 
      2407.0          0.5          3.4 
      2408.0          1.0          3.6 
      2409.0          5.4         12.6 
      2410.0          0.4          7.2 
      2411.0          0.8          4.6 
      2412.0          0.4          2.7 
      2413.0          0.5          2.8 
      2414.0          0.4          2.8 
      2415.0          0.4          3.0 
      2416.0          0.5          2.9 
      2417.0          0.6          3.8 
      2418.0          0.6          4.2 
      2419.0          0.6          3.6 
      2420.0          0.6          3.3 
      2421.0          0.5          2.7 
      2422.0          0.6          3.5 
      2423.0          0.5          3.0 
      2424.0          0.6          3.1 
      2425.0          0.5          2.8 
      2426.0          0.7          2.7 
      2427.0          0.7          2.6 
      2428.0          0.7          2.9 
      2429.0          0.6          3.3 
      2430.0          0.5          3.0 
      2431.0          0.4          2.9 
      2432.0          0.5          3.1 
      2433.0          1.0          3.6 
      2434.0          0.6          3.7 
      2435.0          0.7          4.0 
      2436.0          0.7          4.2 
      2437.0          0.6          4.0 
      2438.0          0.7          3.9 
      2439.0          6.8         41.4 
      2440.0          0.2          5.0 
      2441.0          0.3          3.0 
      2442.0          0.4          2.5 
      2443.0          0.8          2.0 
      2444.0          0.5          2.0 
      2445.0          0.6          1.8 
      2446.0          0.7          1.8 
      2447.0          0.5          1.7 
      2448.0          0.6          2.3 
      2449.0          0.4          1.8 
      2450.0          0.5          2.3 
      2451.0          0.7          2.3 
      2452.0          0.6          2.2 
      2453.0          0.7          2.3 
      2454.0          0.6          2.1 
      2455.0          0.7          2.5 
      2456.0          0.5          2.4 
      2457.0          0.5          2.5 
      2458.0          0.6          2.3 
      2459.0          1.0          2.5 
      2460.0          0.5          2.3 
      2461.0          0.9          2.7 
      2462.0          0.4          2.4 
      2463.0          0.5          2.4 
      2464.0          0.9          2.6 
      2465.0          0.6          2.4 
      2466.0          0.5          2.3 
      2467.0          0.5          2.3 
      2468.0          0.6          2.0 
      2469.0          5.9         12.9 
      2470.0          0.4          7.9 
      2471.0          0.4          3.2 
      2472.0          0.4          1.7 
      2473.0          0.5          1.6 
      2474.0          0.4          1.7 
      2475.0          0.6          1.4 
      2476.0          0.5          1.1 
      2477.0          0.6          1.5 
      2478.0          0.5          1.1 
      2479.0          0.6          0.7 
      2480.0          0.5          1.0 
      2481.0          0.4          1.2 
      2482.0          0.5          1.3 
      2483.0          0.4          1.1 
      2484.0          0.8          1.9 
      2485.0          0.4          1.9 
      2486.0          0.5          1.5 
      2487.0          0.5          1.7 
      2488.0          0.6          2.1 
      2489.0          0.4          2.3 
      2490.0          0.4          2.1 
      2491.0          0.4          2.0 
      2492.0          0.5          1.9 
      2493.0          0.6          1.6 
      2494.0          0.4          1.8 
      2495.0          0.5          2.0 
      2496.0          0.4          1.7 
      2497.0          0.2          1.3 
      2498.0          0.5          1.4 
      2499.0         15.4          2.1 
