~Version Information
VERS.                      2.0: CWLS Log ASCII Standard - VERSION 2.0
WRAP.                       NO: One line per depth step
~Well Information Block
STRT.FT               955.2500: 
STOP.FT              2226.0000: 
STEP.FT                 0.2500: 
NULL.                -999.2500: 
COMP.          Petrogulf Corporation: COMPANY
WELL.             Burson 8-13R: WELL
FLD.           Purgatorie River: FIELD
LOC.           1045' FNL & 2189' FEL: LOCATION
CNTY.               Las Animas: COUNTY
SRVC.                         : SERVICE COMPANY
DATE.          Fri Apr 30 04:52:15 2004: LOG DATE
UWI.           05 071 08039 00: UNIQUE WELL ID
STAT.                 Colorado: STATE
~Curve Information Block
DEPT.FT            0 000 00 00: Depth
SP.mV                         : DIL Spontaneous Potential
RILD.Ohm-m                    : DIL Deep Resistivity
RILM.Ohm-m                    : DIL Medium Resistivity
RLL3.Ohm-m                    : DIL Shallow Resistivity
~Parameter Information Block
~A  Depth        SP         RILD        RILM        RLL3    
# ...
  1725.7500    115.7443     16.2783     21.0052     72.5535
  1726.0000    115.8784     16.2120     21.1907     78.0802
  1726.2500    116.0501     15.9563     21.0412     79.1273
  1726.5000    116.2380     15.4999     20.5401     75.6098
  1726.7500    116.4192     14.8702     19.6906     68.8805
  1727.0000    116.5769     14.1250     18.5296     60.7814
  1727.2500    116.7066     13.3335     17.1361     52.5480
  1727.5000    116.8150     12.5573     15.6245     44.5166
  1727.7500    116.9115     11.8382     14.1191     36.6256
  1728.0000    117.0054     11.1959     12.7249     28.9899
  1728.2500    117.1065     10.6324     11.5090     22.0600
  1728.5000    117.2240     10.1381     10.4997     16.3969
  1728.7500    117.3583      9.6993      9.6953     12.3383
  1729.0000    117.4931      9.3045      9.0756      9.8377
  1729.2500    117.5993      8.9491      8.6120      8.5767
  1729.5000    117.6481      8.6352      8.2733      8.2021
  1729.7500    117.6240      8.3681      8.0315      8.4587
  1730.0000    117.5328      8.1513      7.8654      9.1569
  1730.2500    117.3998      7.9850      7.7616     10.0820
  1730.5000    117.2584      7.8675      7.7132     10.9672
  1730.7500    117.1330      7.7979      7.7154     11.5672
  1731.0000    117.0299      7.7765      7.7625     11.7785
  1731.2500    116.9426      7.8043      7.8482     11.7057
  1731.5000    116.8634      7.8809      7.9680     11.6048
  1731.7500    116.7888      8.0040      8.1206     11.7274
  1732.0000    116.7210      8.1684      8.3051     12.1689
  1732.2500    116.6650      8.3671      8.5180     12.8285
  1732.5000    116.6239      8.5927      8.7522     13.5015
  1732.7500    116.5959      8.8389      9.0014     14.0288
  1733.0000    116.5745      9.1011      9.2641     14.3926
  1733.2500    116.5548      9.3762      9.5461     14.6939
  1733.5000    116.5381      9.6617      9.8570     15.0502
  1733.7500    116.5329      9.9553     10.2070     15.5378
  1734.0000    116.5510     10.2558     10.6035     16.2411
  1734.2500    116.6016     10.5649     11.0504     17.3329
  1734.5000    116.6842     10.8873     11.5469     19.0395
  1734.7500    116.7870     11.2301     12.0852     21.4328
  1735.0000    116.8907     11.6010     12.6509     24.2142
  1735.2500    116.9764     12.0070     13.2261     26.8057
  1735.5000    117.0306     12.4536     13.7960     28.7970
  1735.7500    117.0501     12.9440     14.3552     30.2931
  1736.0000    117.0481     13.4785     14.9093     31.7108
  1736.2500    117.0579     14.0520     15.4680     33.2753
  1736.5000    117.1224     14.6509     16.0390     34.8917
  1736.7500    117.2700     15.2504     16.6281     36.5317
  1737.0000    117.4974     15.8151     17.2501     38.5421
  1737.2500    117.7707     16.3038     17.9354     41.4213
  1737.5000    118.0379     16.6737     18.7143     45.3932
  1737.7500    118.2389     16.8857     19.5780     50.3447
  1738.0000    118.3181     16.9088     20.4402     56.0423
  1738.2500    118.2383     16.7304     21.1339     62.0836
  1738.5000    117.9939     16.3649     21.4629     67.5182
  1738.7500    117.6136     15.8539     21.2860     70.7294
  1739.0000    117.1559     15.2555     20.5774     70.0128
  1739.2500    116.6991     14.6287     19.4314     64.5509
  1739.5000    116.3243     14.0189     18.0200     55.0491
  1739.7500    116.0896     13.4492     16.5336     43.5361
  1740.0000    116.0040     12.9208     15.1307     32.4347
  1740.2500    116.0270     12.4216     13.9110     23.5277
  1740.5000    116.0995     11.9382     12.9139     17.4683
  1740.7500    116.1774     11.4638     12.1318     13.9799
  1741.0000    116.2411     10.9992     11.5263     12.3696
  1741.2500    116.2851     10.5482     11.0455     11.9246
  1741.5000    116.3086     10.1149     10.6385     12.0727
  1741.7500    116.3167      9.7036     10.2682     12.4185
  1742.0000    116.3235      9.3204      9.9166     12.7470
  1742.2500    116.3475      8.9737      9.5822     12.9895
  1742.5000    116.4001      8.6714      9.2710     13.1412
  1742.7500    116.4785      8.4183      8.9876     13.1782
  1743.0000    116.5693      8.2142      8.7320     13.0376
  1743.2500    116.6562      8.0539      8.5005     12.6707
  1743.5000    116.7253      7.9304      8.2885     12.1131
  1743.7500    116.7709      7.8371      8.0937     11.4935
  1744.0000    116.8031      7.7705      7.9166     10.9637
  1744.2500    116.8483      7.7299      7.7609     10.6175
  1744.5000    116.9363      7.7164      7.6319     10.4583
  1744.7500    117.0797      7.7311      7.5353     10.4088
  1745.0000    117.2643      7.7742      7.4763     10.3376
  1745.2500    117.4571      7.8448      7.4614     10.1161
  1745.5000    117.6234      7.9406      7.4997      9.7237
  1745.7500    117.7382      8.0574      7.6046      9.3730
  1746.0000    117.7901      8.1887      7.7915      9.5982
  1746.2500    117.7831      8.3261      8.0725     11.2220
  1746.5000    117.7359      8.4610      8.4478     15.0176
  1746.7500    117.6734      8.5875      8.8963     20.9758
  1747.0000    117.6135      8.7042      9.3711     27.6621
  1747.2500    117.5601      8.8145      9.8075     32.6114
  1747.5000    117.5083      8.9259     10.1460     33.9038
  1747.7500    117.4562      9.0464     10.3593     31.5514
  1748.0000    117.4092      9.1808     10.4618     27.2801
  1748.2500    117.3753      9.3278     10.4942     23.0725
  1748.5000    117.3555      9.4793     10.4981     20.0037
  1748.7500    117.3386      9.6214     10.4978     18.1400
  1749.0000    117.3028      9.7366     10.4969     17.0607
  1749.2500    117.2236      9.8074     10.4864     16.3352
  1749.5000    117.0841      9.8215     10.4568     15.7204
  1749.7500    116.8840      9.7766     10.4053     15.1567
  1750.0000    116.6402      9.6808     10.3363     14.6831
  1750.2500    116.3802      9.5485     10.2566     14.3613
  1750.5000    116.1303      9.3956     10.1715     14.2367
  1750.7500    115.9081      9.2362     10.0825     14.3151
  1751.0000    115.7223      9.0828      9.9865     14.5342
  1751.2500    115.5769      8.9471      9.8774     14.7703
  1751.5000    115.4704      8.8390      9.7490     14.9028
  1751.7500    115.3913      8.7643      9.5990     14.8794
  1752.0000    115.3279      8.7235      9.4314     14.7133
  1752.2500    115.2892      8.7121      9.2552     14.4253
  1752.5000    115.3057      8.7232      9.0846     14.0023
  1752.7500    115.3992      8.7527      8.9362     13.4158
  1753.0000    115.5569      8.8010      8.8293     12.6885
  1753.2500    115.7429      8.8739      8.7840     11.9398
  1753.5000    115.9268      8.9789      8.8219     11.3665
  1753.7500    116.0995      9.1229      8.9641     11.2351
  1754.0000    116.2678      9.3105      9.2278     11.9776
  1754.2500    116.4431      9.5461      9.6211     14.2801
  1754.5000    116.6347      9.8343     10.1374     18.8552
  1754.7500    116.8505     10.1753     10.7530     25.7638
  1755.0000    117.0987     10.5585     11.4279     33.7821
  1755.2500    117.3855     10.9603     12.1118     40.7360
  1755.5000    117.7068     11.3552     12.7543     44.9210
  1755.7500    118.0435     11.7340     13.3187     46.2500
  1756.0000    118.3657     12.1119     13.7926     45.8346
  1756.2500    118.6448     12.5153     14.1882     44.6405
  1756.5000    118.8645     12.9568     14.5314     42.8655
  1756.7500    119.0239     13.4189     14.8452     40.4264
  1757.0000    119.1340     13.8586     15.1410     37.5788
  1757.2500    119.2086     14.2287     15.4173     34.9482
  1757.5000    119.2561     14.4980     15.6636     33.1605
  1757.7500    119.2787     14.6594     15.8648     32.5365
  1758.0000    119.2777     14.7247     16.0037     33.0467
  1758.2500    119.2561     14.7180     16.0656     34.4490
  1758.5000    119.2202     14.6722     16.0459     36.3497
  1758.7500    119.1789     14.6228     15.9579     38.0468
  1759.0000    119.1429     14.5999     15.8347     38.4826
