~Version Information
VERS.                      2.0: CWLS Log ASCII Standard - VERSION 2.0
WRAP.                       NO: One line per depth step
~Well Information Block
STRT.FT               491.0000: 
STOP.FT              1056.0000: 
STEP.FT                 0.2500: 
NULL.                -999.2500: 
COMP.          Evergreen Operating Corporation: COMPANY
WELL.              Sunset 24-3: WELL
FLD.           Purgatorie River: FIELD
LOC.           467' FSL & 2262' FWL: LOCATION
PROV.                 Colorado: PROVINCE
CNTY.               Las Animas: COUNTRY
SRVC.                         : SERVICE COMPANY
DATE.          Wed Sep 22 11:23:45 2004: LOG DATE
UWI.           05 071 08158 00: UNIQUE WELL ID
~Curve Information Block
DEPT.FT            0 000 00 00: Depth
SN.Ohm-m                      : IEL Short Normal
SP.mV                         : IEL Spontaneous Potential
DIR.Ohm-m                     : IEL Induction Resistivity
GR.GAPI                       : Gamma Ray
~Parameter Information Block
~A  Depth        SN          SP         DIR          GR     
# ...
   826.0000     25.5877     -0.9991     20.0613     64.9434
   826.2500     25.2235     -0.8697     19.9023     65.7143
   826.5000     24.7545     -0.7134     19.8009     67.0494
   826.7500     24.2115     -0.5237     19.7273     68.2419
   827.0000     23.6352     -0.2979     19.6398     71.4201
   827.2500     23.0646     -0.0366     19.4992     74.7512
   827.5000     22.5290      0.2558     19.2825     81.0386
   827.7500     22.0471      0.5715     18.9932     85.3424
   828.0000     21.6327      0.8997     18.6576     90.4887
   828.2500     21.2998      1.2269     18.3097     92.3960
   828.5000     21.0631      1.5373     17.9756     92.8537
   828.7500     20.9329      1.8132     17.6667     92.2125
   829.0000     20.9079      2.0371     17.3848     91.5731
   829.2500     20.9696      2.1929     17.1303     92.0378
   829.5000     21.0835      2.2685     16.9038     93.8298
   829.7500     21.2073      2.2575     16.7047     95.1006
   830.0000     21.3032      2.1605     16.5282     96.5004
   830.2500     21.3482      1.9855     16.3684     97.3293
   830.5000     21.3352      1.7472     16.2220     98.9811
   830.7500     21.2679      1.4649     16.0887    100.1996
   831.0000     21.1533      1.1602     15.9685    101.1970
   831.2500     21.0002      0.8547     15.8555    100.8223
   831.5000     20.8228      0.5677     15.7375     98.7747
   831.7500     20.6449      0.3143     15.5993     96.9357
   832.0000     20.4974      0.1049     15.4293     94.5747
   832.2500     20.4090     -0.0555     15.2247     93.7652
   832.5000     20.3953     -0.1668     14.9943     93.9150
   832.7500     20.4514     -0.2328     14.7593     94.5895
   833.0000     20.5540     -0.2601     14.5509     95.6075
   833.2500     20.6708     -0.2562     14.4050     96.1460
   833.5000     20.7736     -0.2278     14.3542     97.4187
   833.7500     20.8476     -0.1792     14.4213     99.1495
   834.0000     20.8952     -0.1103     14.6177    103.4819
   834.2500     20.9334     -0.0164     14.9458    107.2568
   834.5000     20.9909      0.1121     15.4023    113.0169
   834.7500     21.1050      0.2888     15.9798    115.9568
   835.0000     21.3195      0.5285     16.6648    117.4756
   835.2500     21.6803      0.8454     17.4349    116.0723
   835.5000     22.2309      1.2498     18.2601    110.5550
   835.7500     23.0079      1.7455     19.1098    105.1581
   836.0000     24.0375      2.3289     19.9626     95.3989
   836.2500     25.3289      2.9875     20.8071     88.0550
   836.5000     26.8598      3.7018     21.6307     76.0691
   836.7500     28.5564      4.4465     22.4046     67.8115
   837.0000     30.2789      5.1940     23.0827     56.1551
   837.2500     31.8295      5.9174     23.6189     49.4744
   837.5000     32.9871      6.5932     23.9841     41.4511
   837.7500     33.5622      7.2036     24.1669     37.4575
   838.0000     33.4492      7.7371     24.1610     34.1861
   838.2500     32.6569      8.1884     23.9599     34.6778
   838.5000     31.3057      8.5572     23.5667     40.5882
   838.7500     29.5919      8.8471     23.0035     47.8120
   839.0000     27.7365      9.0635     22.3091     61.7310
   839.2500     25.9364      9.2134     21.5252     71.5600
   839.5000     24.3342      9.3040     20.6863     84.8362
   839.7500     23.0073      9.3428     19.8172     91.8744
   840.0000     21.9726      9.3375     18.9374     99.2741
   840.2500     21.1994      9.2958     18.0657    102.2883
   840.5000     20.6270      9.2263     17.2234    104.6254
   840.7500     20.1841      9.1371     16.4319    105.2359
   841.0000     19.8060      9.0366     15.7075    105.6802
   841.2500     19.4456      8.9323     15.0556    106.1754
   841.5000     19.0759      8.8306     14.4691    107.7370
   841.7500     18.6868      8.7362     13.9341    109.2846
   842.0000     18.2782      8.6521     13.4382    111.7164
   842.2500     17.8541      8.5800     12.9779    112.9462
   842.5000     17.4184      8.5205     12.5602    113.9862
   842.7500     16.9746      8.4738     12.1979    114.4999
   843.0000     16.5283      8.4410     11.9032    115.7831
   843.2500     16.0915      8.4243     11.6834    117.0452
   843.5000     15.6855      8.4274     11.5385    118.9697
   843.7500     15.3391      8.4555     11.4629    119.9971
   844.0000     15.0836      8.5145     11.4455    121.2371
   844.2500     14.9449      8.6095     11.4704    121.9144
   844.5000     14.9390      8.7436     11.5157    122.2332
   844.7500     15.0712      8.9170     11.5561    121.5770
   845.0000     15.3382      9.1259     11.5712    119.1244
   845.2500     15.7293      9.3627     11.5556    116.8015
   845.5000     16.2240      9.6168     11.5240    113.1007
   845.7500     16.7861      9.8756     11.5040    110.9535
   846.0000     17.3613     10.1257     11.5223    108.8544
   846.2500     17.8843     10.3547     11.5942    108.4641
   846.5000     18.2942     10.5516     11.7221    109.4439
   846.7500     18.5522     10.7081     11.9006    110.7748
   847.0000     18.6502     10.8195     12.1213    112.8755
   847.2500     18.6086     10.8846     12.3745    114.1968
   847.5000     18.4659     10.9063     12.6502    116.6576
   847.7500     18.2680     10.8915     12.9392    118.8208
   848.0000     18.0608     10.8505     13.2347    121.9604
   848.2500     17.8871     10.7963     13.5315    123.1098
   848.5000     17.7853     10.7422     13.8229    122.8848
   848.7500     17.7874     10.7006     14.0969    122.0292
   849.0000     17.9169     10.6812     14.3389    121.0341
   849.2500     18.1866     10.6891     14.5368    120.5260
   849.5000     18.5966     10.7254     14.6866    118.2758
   849.7500     19.1320     10.7871     14.7927    114.7339
   850.0000     19.7578     10.8684     14.8650    105.9195
   850.2500     20.4145     10.9625     14.9154     98.2451
   850.5000     21.0173     11.0618     14.9568     85.8693
   850.7500     21.4666     11.1593     15.0022     78.5534
   851.0000     21.6718     11.2482     15.0620     71.7128
   851.2500     21.5810     11.3217     15.1388     70.9746
   851.5000     21.2027     11.3738     15.2231     75.7294
   851.7500     20.6038     11.3994     15.2928     81.9024
   852.0000     19.8866     11.3959     15.3198     93.0357
   852.2500     19.1541     11.3640     15.2792    100.0712
   852.5000     18.4850     11.3090     15.1602    108.1980
   852.7500     17.9235     11.2409     14.9724    111.8337
   853.0000     17.4843     11.1732     14.7454    115.4062
   853.2500     17.1650     11.1214     14.5211    116.9964
   853.5000     16.9564     11.1010     14.3386    118.4922
   853.7500     16.8489     11.1243     14.2204    119.0404
   854.0000     16.8337     11.1995     14.1680    119.6931
   854.2500     16.9024     11.3287     14.1683    120.2054
   854.5000     17.0462     11.5087     14.2064    120.8246
   854.7500     17.2553     11.7312     14.2770    120.8166
   855.0000     17.5177     11.9840     14.3848    120.0651
   855.2500     17.8182     12.2528     14.5394    119.4175
   855.5000     18.1397     12.5222     14.7486    118.9521
   855.7500     18.4674     12.7768     15.0164    118.9411
   856.0000     18.7940     13.0021     15.3418    118.3074
   856.2500     19.1212     13.1852     15.7196    116.8711
   856.5000     19.4564     13.3162     16.1419    113.3446
   856.7500     19.8067     13.3887     16.6000    110.6764
   857.0000     20.1763     13.4013     17.0821    106.8038
   857.2500     20.5683     13.3574     17.5716    104.1007
   857.5000     20.9885     13.2649     18.0485     99.2243
   857.7500     21.4459     13.1355     18.4989     95.4412
   858.0000     21.9467     12.9823     18.9200     89.9053
   858.2500     22.4846     12.8182     19.3134     86.9395
   858.5000     23.0361     12.6539     19.6739     83.6824
   858.7500     23.5660     12.4972     19.9868     81.6893
   859.0000     24.0379     12.3518     20.2370     77.8600
   859.2500     24.4231     12.2184     20.4167     74.7706
