~Version Information
VERS.                      2.0: CWLS Log ASCII Standard - VERSION 2.0
WRAP.                       NO: One line per depth step
~Well Information Block
STRT.FT               954.4000: 
STOP.FT              2380.0000: 
STEP.FT                 0.1000: 
NULL.                -999.2500: 
COMP.          Petrogulf Corporation: COMPANY
WELL.             State 16-24V: WELL
FLD.           Purgatorie River: FIELD
LOC.           481' FSL & 2419' FWL: LOCATION
CNTY.               Las Animas: COUNTY
SRVC.                         : SERVICE COMPANY
DATE.          Tue May 04 07:31:25 2004: LOG DATE
UWI.           05 071 08014 00: UNIQUE WELL ID
STAT.                 Colorado: STATE
~Curve Information Block
DEPT.FT            0 000 00 00: Depth
DCAL.in                       : CDL Caliper
RHOB.g/cc                     : CDL Bulk Density
RHOC.g/cc                     : CDL Density Correction
DPOR.pu                       : CDL Density Porosity
GR.GAPI                       : Gamma Ray
~Parameter Information Block
~A  Depth       DCAL        RHOB        RHOC        DPOR         GR     
# ...
  2175.2000      7.8785      2.6676      0.1349     -1.0646     65.2655
  2175.3000      7.8716      2.6500      0.1904     -0.0024     53.6037
  2175.4000      7.8716      2.6258      0.1300      1.4636     53.4812
  2175.5000      7.8688      2.6041      0.0895      2.7800     57.4248
  2175.6000      7.8688      2.5861      0.1409      3.8756     61.3574
  2175.7000      7.8688      2.5534      0.1564      5.8555     67.5899
  2175.8000      7.8696      2.5108      0.0335      8.4346     74.6691
  2175.9000      7.8696      2.4967      0.0269      9.2906     74.7552
  2176.0000      7.8706      2.5286      0.0431      7.3577     73.2585
  2176.1000      7.8706      2.5858      0.0851      3.8922     78.8233
  2176.2000      7.8706      2.6282      0.1673      1.3205     83.5431
  2176.3000      7.8698      2.6355      0.0919      0.8766     79.6842
  2176.4000      7.8698      2.6261      0.1023      1.4473     70.2506
  2176.5000      7.8696      2.6118      0.0910      2.3168     64.4697
  2176.6000      7.8696      2.5878      0.0679      3.7677     66.3659
  2176.7000      7.8696      2.5664      0.0178      5.0638     76.5859
  2176.8000      7.8708      2.5757     -0.0024      4.5039     93.7504
  2176.9000      7.8708      2.6079      0.1661      2.5523    108.9609
  2177.0000      7.8808      2.6247      0.0602      1.5314    111.1341
  2177.1000      7.8808      2.6228      0.0813      1.6496     98.3321
  2177.2000      7.8808      2.6185      0.0495      1.9117     80.3310
  2177.3000      7.8905      2.6151      0.0069      2.1157     72.5243
  2177.4000      7.8905      2.6028      0.0571      2.8610     79.2417
  2177.5000      7.8961      2.5643      0.0991      5.1961     92.9743
  2177.6000      7.8961      2.5087      0.0009      8.5616     99.0068
  2177.7000      7.8961      2.4670     -0.1093     11.0926     91.4525
  2177.8000      7.8917      2.4449      0.0263     12.4329     85.0810
  2177.9000      7.8917      2.4419     -0.0799     12.6128     90.9722
  2178.0000      7.8766      2.4659      0.1183     11.1592     98.9498
  2178.1000      7.8766      2.5108      0.0053      8.4342     98.7123
  2178.2000      7.8766      2.5786      0.0916      4.3265     92.6763
  2178.3000      7.8828      2.6353      0.1641      0.8904     80.8132
  2178.4000      7.8828      2.6258      0.1275      1.4642     70.4706
  2178.5000      7.8868      2.5778     -0.0107      4.3732     75.1528
  2178.6000      7.8868      2.5630      0.0227      5.2754     89.4943
  2178.7000      7.8868      2.5907      0.1107      3.5956     94.1342
  2178.8000      7.8873      2.6158      0.1708      2.0736     81.8278
  2178.9000      7.8873      2.6059      0.0796      2.6719     64.7172
  2179.0000      7.8868      2.5714      0.0300      4.7606     55.0729
  2179.1000      7.8868      2.5318      0.0623      7.1643     50.7243
  2179.2000      7.8868      2.4879     -0.0034      9.8225     47.5755
  2179.3000      7.8764      2.4539     -0.0582     11.8833     48.3906
  2179.4000      7.8764      2.4569     -0.0520     11.7000     55.7887
  2179.5000      7.8800      2.4947      0.0263      9.4144     65.4678
  2179.6000      7.8800      2.5420      0.0238      6.5441     74.4614
  2179.7000      7.8800      2.5650      0.1318      5.1536     81.3106
  2179.8000      7.9013      2.5488      0.0649      6.1357     82.2777
  2179.9000      7.9013      2.5332      0.0149      7.0760     78.3379
  2180.0000      7.8929      2.5442      0.1198      6.4140     67.2645
  2180.1000      7.8929      2.5488      0.0754      6.1352     49.4313
  2180.2000      7.8929      2.5214      0.1168      7.7920     37.3723
  2180.3000      7.8919      2.4882     -0.0013      9.8056     39.7443
  2180.4000      7.8919      2.4842      0.0778     10.0499     51.2647
  2180.5000      7.8740      2.5027      0.0493      8.9262     63.6071
  2180.6000      7.8740      2.5292      0.0620      7.3232     71.2036
  2180.7000      7.8740      2.5573      0.0798      5.6176     73.6815
  2180.8000      7.8662      2.5618      0.1100      5.3471     76.1512
  2180.9000      7.8662      2.5343      0.0605      7.0105     75.5871
  2181.0000      7.8520      2.5140      0.0763      8.2439     67.6071
  2181.1000      7.8520      2.5258      0.0470      7.5259     58.5520
  2181.2000      7.8520      2.5486      0.0678      6.1457     55.2324
  2181.3000      7.8321      2.5492      0.1491      6.1115     61.1048
  2181.4000      7.8321      2.5285      0.0414      7.3662     69.6099
  2181.5000      7.8455      2.5236      0.0162      7.6588     69.8729
  2181.6000      7.8455      2.5497      0.0923      6.0760     65.5297
  2181.7000      7.8455      2.5792      0.1336      4.2935     64.6073
  2181.8000      7.8465      2.5948      0.1224      3.3447     63.7001
  2181.9000      7.8465      2.6085      0.1409      2.5157     56.8047
  2182.0000      7.8624      2.6115      0.1387      2.3327     50.7264
  2182.1000      7.8624      2.5824      0.1029      4.0960     53.6149
  2182.2000      7.8624      2.5303      0.0093      7.2552     61.5414
  2182.3000      7.8432      2.4889      0.0193      9.7620     65.3067
  2182.4000      7.8432      2.4945      0.0616      9.4224     62.0772
  2182.5000      7.8607      2.5661     -0.0282      5.0830     57.4499
  2182.6000      7.8607      2.6688      0.1713     -1.1394     57.5420
  2182.7000      7.8607      2.7184      0.2203     -4.1462     62.5393
  2182.8000      7.8564      2.6897      0.0909     -2.4065     71.5290
  2182.9000      7.8564      2.6435      0.0947      0.3952     81.2484
  2183.0000      7.7946      2.6143      0.2145      2.1625     90.7789
  2183.1000      7.7946      2.5870      0.1699      3.8178    110.1272
  2183.2000      7.7946      2.5663      0.0430      5.0758    134.5322
  2183.3000      7.7625      2.5626      0.1215      5.2987    147.2542
  2183.4000      7.7625      2.5505      0.1369      6.0324    151.6073
  2183.5000      7.7436      2.5072      0.0080      8.6530    150.3911
  2183.6000      7.7436      2.4502      0.1073     12.1111    134.5320
  2183.7000      7.7436      2.4194     -0.0423     13.9760    115.4871
  2183.8000      7.8152      2.4387      0.1092     12.8080    107.6839
  2183.9000      7.8152      2.4836      0.0989     10.0846    107.6674
  2184.0000      7.9120      2.5132      0.0959      8.2931    113.7629
  2184.1000      7.9120      2.5110      0.0390      8.4261    117.1503
  2184.2000      7.9120      2.4894      0.0520      9.7359    106.9719
  2184.3000      7.9312      2.4607     -0.0067     11.4733     94.1071
  2184.4000      7.9312      2.4488     -0.0550     12.1957     90.6069
  2184.5000      7.9063      2.4798      0.0440     10.3178     89.0565
  2184.6000      7.9063      2.5213      0.1006      7.7999     88.4865
  2184.7000      7.9063      2.5373      0.0060      6.8283    100.4165
  2184.8000      7.8911      2.5468      0.0243      6.2548    114.7392
  2184.9000      7.8911      2.5493      0.0909      6.1044    114.3346
  2185.0000      7.8955      2.5168      0.0413      8.0741    115.8751
  2185.1000      7.8955      2.4578     -0.0117     11.6497    133.1137
  2185.2000      7.8955      2.4171      0.0099     14.1139    143.8506
  2185.3000      7.8902      2.4361      0.0115     12.9651    130.6014
  2185.4000      7.8902      2.5104      0.0646      8.4589    105.4327
  2185.5000      7.8883      2.5917      0.1259      3.5323     91.5113
  2185.6000      7.8883      2.6412      0.0891      0.5314     94.7305
  2185.7000      7.8883      2.6581      0.1592     -0.4892    104.2327
  2185.8000      7.8922      2.6472      0.2127      0.1690    108.6927
  2185.9000      7.8922      2.6076      0.0886      2.5706    105.4129
  2186.0000      7.8804      2.5489      0.0379      6.1280    101.5691
  2186.1000      7.8804      2.4967      0.0346      9.2904    106.0335
  2186.2000      7.8804      2.4823      0.0198     10.1620    123.9066
  2186.3000      7.8793      2.5090      0.0489      8.5442    142.7840
