~Version Information
VERS.                      2.0: CWLS Log ASCII Standard - VERSION 2.0
WRAP.                       NO: One line per depth step
~Well Information Block
STRT.FT              1684.7500: 
STOP.FT              2367.7500: 
STEP.FT                 0.2500: 
NULL.                -999.2500: 
COMP.          Petrogulf Corporation: COMPANY
WELL.             Norton 9-14V: WELL
FLD.           Purgatorie River: FIELD
LOC.           250' FSL & 225' FWL--: LOCATION
CNTY.               Las Animas: COUNTY
SRVC.                         : SERVICE COMPANY
DATE.          Mon Jan 10 10:00:10 2005: LOG DATE
UWI.                          : UNIQUE WELL ID
STAT.                       CO: STATE
~Curve Information Block
DEPT.FT            0 000 00 00: Depth
CCL.                          : Casing Collar Locator
TT3.usec                      : CBL 3' Travel Time
AMP3.mV                       : CBL 3' Amplitude
GR.GAPI                       : Gamma Ray
~Parameter Information Block
~A  Depth       CCL         TT3         AMP3         GR     
# ...
  1718.2500      0.0000    266.3386     37.2659    138.9371
  1718.5000      0.0000    266.3365     37.3962    138.3511
  1718.7500      0.0000    266.3947     37.1318    136.5972
  1719.0000      0.0000    266.5014     36.5223    135.1579
  1719.2500      0.0000    266.6612     35.6443    135.8303
  1719.5000      0.0000    266.8798     34.5759    138.8172
  1719.7500      0.0000    267.2112     33.3398    142.1696
  1720.0000      0.0000    267.8590     31.9214    143.2050
  1720.2500      0.0000    269.2969     30.3403    140.3191
  1720.5000      0.0000    272.2777     28.6702    134.0420
  1720.7500      0.0000    277.4842     26.9988    127.1452
  1721.0000      0.0000    284.8190     25.4114    123.2980
  1721.2500      0.0000    292.9918     24.0002    124.3855
  1721.5000      0.0000    300.1284     22.8207    128.9733
  1721.7500      0.0000    304.9952     21.8293    134.2087
  1722.0000      0.0000    307.6000     20.9214    139.0963
  1722.2500      0.0000    308.7299     20.0455    144.6356
  1722.5000      0.0000    309.1717     19.2387    150.6517
  1722.7500      0.0000    309.3502     18.5541    154.3973
  1723.0000      0.0000    309.3996     18.0133    153.4150
  1723.2500      0.0000    309.3499     17.6379    148.6869
  1723.5000      0.0000    309.2377     17.4676    143.7715
  1723.7500      0.0000    309.1315     17.5183    141.2608
  1724.0000      0.0000    309.0992     17.7567    140.9718
  1724.2500      0.0000    309.1852     18.1328    141.2529
  1724.5000      0.0000    309.4277     18.5715    141.0432
  1724.7500      0.0000    310.1557     18.8908    140.5065
  1725.0000      0.0000    312.5598     18.7972    140.5240
  1725.2500      0.0000    319.3844     18.0554    141.8344
  1725.5000      0.0000    334.5755     16.6797    144.1991
  1725.7500      0.0000    360.8840     14.9472    146.5539
  1726.0000      0.0000    396.7460     13.2394    148.4467
  1726.2500      0.0000    436.0304     11.8589    150.7956
  1726.5000      0.0000    470.9897     10.9350    154.3760
  1726.7500      0.0000    494.5102     10.4409    157.8597
  1727.0000      0.0000    501.4422     10.2697    158.2528
  1727.2500      0.0000    492.4171     10.3017    153.4833
  1727.5000      0.0000    476.1437     10.4376    144.1230
  1727.7500      2.0000    462.6907     10.6061    132.5457
  1728.0000      2.0000    453.5312     10.7724    121.1646
  1728.2500      0.0000    442.0468     10.9879    111.8928
  1728.5000      0.0000    423.1534     11.4485    106.5091
  1728.7500      0.0000    398.0831     12.4394    106.5088
  1729.0000      0.0000    370.7747     14.1622    112.2912
  1729.2500      0.0000    344.2469     16.6231    122.4470
  1729.5000      0.0000    320.4361     19.6659    133.7250
  1729.7500      0.0000    300.7194     22.9839    142.0607
  1730.0000      0.0000    285.7870     26.0799    144.5578
  1730.2500      0.0000    275.6545     28.4190    141.2527
  1730.5000      0.0000    269.7274     29.7685    134.9484
  1730.7500      0.0000    266.8699     30.3384    129.0382
  1731.0000      0.0000    265.7719     30.5702    125.3363
  1731.2500      0.0000    265.4255     30.8555    123.7464
  1731.5000      0.0000    265.2917     31.4199    123.3296
  1731.7500      0.0000    265.1848     32.3481    123.1953
  1732.0000      0.0000    265.0744     33.6439    122.7346
  1732.2500      0.0000    264.9496     35.2647    121.8128
  1732.5000      0.0000    264.7844     37.1210    121.1682
  1732.7500      0.0000    264.5685     39.0815    122.2050
  1733.0000      0.0000    264.3311     41.0205    125.6781
  1733.2500      0.0000    264.1258     42.8685    130.5009
  1733.5000      0.0000    263.9978     44.6142    134.3289
  1733.7500      0.0000    263.9633     46.2811    135.7281
  1734.0000      0.0000    264.0055     47.9054    135.7003
  1734.2500      0.0000    264.0839     49.4991    136.7208
  1734.5000      0.0000    264.1539     51.0038    140.1127
  1734.7500      0.0000    264.1842     52.2946    144.5964
  1735.0000      0.0000    264.1609     53.2579    147.4782
  1735.2500      0.0000    264.0893     53.8600    146.9889
  1735.5000      0.0000    263.9929     54.1391    143.5075
  1735.7500      0.0000    263.9004     54.1513    139.0405
  1736.0000      0.0000    263.8271     53.9454    135.6027
  1736.2500      0.0000    263.7736     53.5877    133.6122
  1736.5000      0.0000    263.7346     53.1834    131.6780
  1736.7500      0.0000    263.7066     52.8316    128.4987
  1737.0000      0.0000    263.6902     52.5379    125.1970
  1737.2500      0.0000    263.6898     52.1834    124.8806
  1737.5000      0.0000    263.7091     51.5714    129.2159
  1737.7500      0.0000    263.7505     50.5004    136.2124
  1738.0000      0.0000    263.8223     48.8451    142.1111
  1738.2500      0.0000    263.9423     46.6403    144.7394
  1738.5000      0.0000    264.1238     44.1207    144.2158
  1738.7500      0.0000    264.3522     41.6565    141.2089
  1739.0000      0.0000    264.5801     39.5848    136.0112
  1739.2500      0.0000    264.7596     38.0231    129.4165
  1739.5000      0.0000    264.8876     36.8120    123.2261
  1739.7500      0.0000    265.0187     35.6489    118.9304
  1740.0000      0.0000    265.2240     34.3113    116.0565
  1740.2500      0.0000    265.5323     32.7967    112.6291
  1740.5000      0.0000    265.9015     31.2913    107.5532
  1740.7500      0.0000    266.2444     30.0175    102.0903
  1741.0000      0.0000    266.4856     29.0900     98.6417
  1741.2500      0.0000    266.6095     28.4670     98.4438
  1741.5000      0.0000    266.6760     27.9983    100.7834
  1741.7500      0.0000    266.7889     27.5306    103.9109
  1742.0000      0.0000    267.0162     27.0169    105.8611
  1742.2500      0.0000    267.3121     26.5611    104.6068
  1742.5000      0.0000    267.5207     26.3519     98.6666
  1742.7500      0.0000    267.4879     26.5189     88.4395
  1743.0000      0.0000    267.1898     27.0198     76.7442
  1743.2500      0.0000    266.7549     27.6510     67.4178
  1743.5000      0.0000    266.3673     28.1761     63.0036
  1743.7500      0.0000    266.1539     28.4624     63.5921
  1744.0000      0.0000    266.1355     28.5206     67.5161
  1744.2500      0.0000    266.2459     28.4497     72.8406
  1744.5000      0.0000    266.3858     28.3530     78.3665
  1744.7500      0.0000    266.4850     28.2714     83.7247
  1745.0000      0.0000    266.5388     28.1626     88.7573
  1745.2500      0.0000    266.5887     27.9556     92.8887
  1745.5000      0.0000    266.6727     27.6387     95.2270
  1745.7500      0.0000    266.8025     27.2779     95.2421
  1746.0000      0.0000    266.9789     26.9534     93.1133
  1746.2500      0.0000    267.2055     26.7024     89.5305
  1746.5000      0.0000    267.5164     26.5153     85.4691
  1746.7500      0.0000    268.0750     26.3446     81.9411
  1747.0000      0.0000    269.3323     26.1080     79.4024
  1747.2500      0.0000    272.0530     25.7209     77.3472
  1747.5000      0.0000    276.9433     25.1572     74.7945
  1747.7500      0.0000    283.9381     24.4854     71.0906
  1748.0000      0.0000    291.8128     23.8459     66.2021
  1748.2500      0.0000    298.7644     23.3763     60.7520
  1748.5000      0.0000    303.5625     23.1250     56.0612
  1748.7500      0.0000    306.1317     23.0107     53.6221
  1749.0000      0.0000    307.1659     22.8641     53.9118
  1749.2500      0.0000    307.4351     22.5298     55.7157
  1749.5000      0.0000    307.4325     21.9655     56.9125
  1749.7500      0.0000    307.3816     21.2738     56.1413
  1750.0000      0.0000    307.3505     20.6407     53.8186
  1750.2500      0.0000    307.3427     20.2332     51.5951
  1750.5000      0.0000    307.3545     20.1307     50.8328
  1750.7500      0.0000    307.3954     20.3171     51.5796
  1751.0000      0.0000    307.4785     20.7026     52.8591
  1751.2500      0.0000    307.6013     21.1534     53.7110
  1751.5000      0.0000    307.7422     21.5337     53.8702
