~Version Information
VERS.                      2.0: CWLS Log ASCII Standard - VERSION 2.0
WRAP.                       NO: One line per depth step
~Well Information Block
STRT.FT               583.0000: 
STOP.FT              1700.0000: 
STEP.FT                 0.1000: 
NULL.                -999.2500: 
COMP.          Pioneer Natural Resources: COMPANY
WELL.          Scott Canyon 11-18 Tr: WELL
FLD.           Purgatoire River: FIELD
LOC.           411' FNL & 580' FWL: LOCATION
PROV.                 Colorado: PROVINCE
CNTY.               Las Animas: COUNTRY
SRVC.                Patterson: SERVICE COMPANY
DATE.          Thu Feb 17 15:41:32 2005: LOG DATE
UWI.           05 071 08286 00: UNIQUE WELL ID
~Curve Information Block
DEPT.FT            0 000 00 00: Depth
DCAL.in                       : CDL Caliper
RHOB.g/cc                     : CDL Bulk Density
RHOC.g/cc                     : CDL Density Correction
DPOR.pu                       : CDL Density Porosity
GR.GAPI                       : Gamma Ray
NPOR.pu                       : Neutron Porosity
~Parameter Information Block
~A  Depth       DCAL        RHOB        RHOC        DPOR         GR         NPOR    
# ...
  1466.2000      7.7991      2.5643      0.0829      5.1958     84.0030     24.8646
  1466.3000      7.7959      2.5556      0.0790      5.7208     95.4983     24.5939
  1466.4000      7.7959      2.5514      0.0544      5.9746    104.3285     24.4206
  1466.5000      7.8020      2.5506      0.1403      6.0226    107.5835     24.9862
  1466.6000      7.8020      2.5306      0.0603      7.2393    109.8648     26.1607
  1466.7000      7.8020      2.4986      0.0309      9.1760    112.1345     26.7870
  1466.8000      7.8158      2.4889      0.0589      9.7607    113.0479     26.1693
  1466.9000      7.8158      2.5150      0.0358      8.1791    112.1483     25.2238
  1467.0000      7.8468      2.5533      0.0979      5.8611    109.3975     25.1128
  1467.1000      7.8468      2.5760      0.1079      4.4879    110.1827     25.7266
  1467.2000      7.8468      2.5926      0.0840      3.4807    118.4975     26.4116
  1467.3000      7.8465      2.6129      0.1889      2.2513    127.1774     26.9117
  1467.4000      7.8465      2.6133      0.1504      2.2260    129.1469     27.2568
  1467.5000      7.8100      2.5836      0.1254      4.0220    126.1581     27.5383
  1467.6000      7.8100      2.5506      0.0772      6.0233    125.6652     27.9294
  1467.7000      7.8100      2.5456      0.0743      6.3283    130.9690     28.1971
  1467.8000      7.8103      2.5654      0.1053      5.1243    138.1001     27.8895
  1467.9000      7.8103      2.5851      0.1165      3.9328    141.7888     27.6648
  1468.0000      7.8252      2.5945      0.1107      3.3661    138.2925     28.2993
  1468.1000      7.8252      2.5925      0.1405      3.4834    130.0993     29.1414
  1468.2000      7.8252      2.5803      0.1054      4.2243    122.5584     29.2491
  1468.3000      7.8524      2.5661      0.0768      5.0871    120.2419     28.5085
  1468.4000      7.8524      2.5487      0.0788      6.1371    125.8854     27.4335
  1468.5000      7.9019      2.5224      0.0532      7.7319    135.5213     26.7575
  1468.6000      7.9019      2.4995      0.0434      9.1188    138.1457     26.7075
  1468.7000      7.9019      2.4941      0.0087      9.4504    131.7665     26.8418
  1468.8000      7.9012      2.5044     -0.0226      8.8244    129.0472     26.5541
  1468.9000      7.9012      2.5220      0.0528      7.7583    135.1969     25.9849
  1469.0000      7.8808      2.5280      0.0977      7.3919    138.8014     25.8949
  1469.1000      7.8808      2.5150      0.0211      8.1822    133.5588     26.3282
  1469.2000      7.8808      2.5030      0.0383      8.9107    127.0054     26.7073
  1469.3000      7.8612      2.5047      0.0538      8.8061    123.3383     26.7524
  1469.4000      7.8612      2.5177      0.0177      8.0188    123.0494     26.3167
  1469.5000      7.8415      2.5424      0.0352      6.5236    125.5539     25.5496
  1469.6000      7.8415      2.5735      0.1027      4.6350    124.3157     24.6981
  1469.7000      7.8415      2.5976      0.1061      3.1755    115.5852     23.9484
  1469.8000      7.8532      2.6114      0.0781      2.3386    104.9426     23.8897
  1469.9000      7.8532      2.6238      0.0776      1.5896     99.0833     24.5528
  1470.0000      7.8413      2.6422      0.0755      0.4728     99.9726     24.9816
  1470.1000      7.8413      2.6667      0.0837     -1.0108    104.8768     24.8461
  1470.2000      7.8413      2.6895      0.1346     -2.3931    108.4675     24.3047
  1470.3000      7.8364      2.7037      0.1154     -3.2522    109.3560     23.5066
  1470.4000      7.8364      2.7065      0.1444     -3.4262    106.0834     23.0915
  1470.5000      7.8428      2.6925      0.1192     -2.5759     95.9770     23.4925
  1470.6000      7.8428      2.6683      0.1006     -1.1080     84.9722     24.2453
  1470.7000      7.8428      2.6499      0.0357      0.0058     78.3935     24.7185
  1470.8000      7.8626      2.6396      0.0596      0.6307     75.9067     24.8115
  1470.9000      7.8626      2.6321      0.0123      1.0878     77.1653     24.4902
  1471.0000      7.8645      2.6280      0.0406      1.3361     80.9565     23.8355
  1471.1000      7.8645      2.6308      0.0774      1.1643     85.1556     23.3054
  1471.2000      7.8645      2.6385      0.0907      0.6961     88.3095     23.1177
  1471.3000      7.8260      2.6435      0.0920      0.3928     88.5569     22.9342
  1471.4000      7.8260      2.6409      0.0915      0.5512     84.7952     22.6083
  1471.5000      7.8391      2.6272      0.1007      1.3823     80.2401     22.5434
  1471.6000      7.8391      2.6082      0.0117      2.5363     79.9090     23.0708
  1471.7000      7.8391      2.6027      0.0432      2.8654     85.4395     24.0355
  1471.8000      7.8398      2.6044      0.0429      2.7626     92.8216     24.6491
  1471.9000      7.8398      2.5948      0.0655      3.3431     94.9404     24.2247
  1472.0000      7.8502      2.5870      0.0046      3.8173     90.8163     23.0739
  1472.1000      7.8502      2.5925      0.0503      3.4834     87.4718     22.2590
  1472.2000      7.8502      2.5942      0.0135      3.3817     89.1356     22.5578
  1472.3000      7.8515      2.5851      0.0227      3.9333     90.8055     23.4279
  1472.4000      7.8515      2.5803      0.0042      4.2245     88.2121     23.8885
  1472.5000      7.8456      2.5911      0.0271      3.5716     86.0418     23.9217
  1472.6000      7.8456      2.6119      0.0475      2.3067     85.8180     24.1269
  1472.7000      7.8456      2.6282      0.0761      1.3207     83.6712     24.6630
  1472.8000      7.8299      2.6196      0.0850      1.8422     83.1723     24.9495
  1472.9000      7.8299      2.5772      0.0617      4.4110     89.8016     24.7552
  1473.0000      7.8366      2.5262     -0.0048      7.5025    101.7617     24.5730
  1473.1000      7.8366      2.4995     -0.0060      9.1192    112.0203     24.7216
  1473.2000      7.8366      2.5060      0.0059      8.7300    118.2903     25.1162
  1473.3000      7.8292      2.5336      0.0445      7.0556    123.7808     25.8750
  1473.4000      7.8292      2.5557      0.0658      5.7171    127.3451     26.9000
  1473.5000      7.8287      2.5550      0.0988      5.7601    127.1982     27.7230
  1473.6000      7.8287      2.5458      0.0766      6.3150    124.7845     28.2024
  1473.7000      7.8287      2.5449      0.1150      6.3691    121.4942     28.1947
  1473.8000      7.8124      2.5486      0.0946      6.1472    118.1082     27.8463
  1473.9000      7.8124      2.5555      0.0752      5.7287    116.1808     27.7296
  1474.0000      7.8131      2.5682      0.0943      4.9563    117.0002     27.5711
  1474.1000      7.8131      2.5871      0.0686      3.8127    119.2820     26.8797
  1474.2000      7.8131      2.6131      0.1200      2.2378    119.0007     26.1833
  1474.3000      7.8077      2.6343      0.1422      0.9536    114.0072     26.2277
  1474.4000      7.8077      2.6335      0.1185      1.0011    106.7343     26.6583
  1474.5000      7.8046      2.6139      0.0875      2.1904    102.0659     26.5742
  1474.6000      7.8046      2.6004      0.0430      3.0088    100.3900     25.8417
  1474.7000      7.8046      2.6199      0.0425      1.8272     98.8742     24.8567
  1474.8000      7.8128      2.6640      0.1658     -0.8514     95.8520     24.2217
  1474.9000      7.8128      2.6957      0.1090     -2.7726     90.9588     24.4363
  1475.0000      7.8244      2.7008      0.1058     -3.0761     85.2999     24.9333
  1475.1000      7.8244      2.6842      0.1355     -2.0729     81.4062     24.7466
  1475.2000      7.8244      2.6515      0.1429     -0.0882     78.9574     24.2383
  1475.3000      7.8182      2.6139      0.0830      2.1871     76.1394     24.4552
  1475.4000      7.8182      2.5888      0.0506      3.7066     73.6380     25.0642
  1475.5000      7.8286      2.5751      0.0601      4.5368     74.5190     24.9485
  1475.6000      7.8286      2.5582      0.0040      5.5635     78.1267     24.0536
  1475.7000      7.8286      2.5493     -0.0469      6.1056     80.0409     23.1879
