~Version Information
VERS.                      2.0: CWLS Log ASCII Standard - VERSION 2.0
WRAP.                       NO: One line per depth step
~Well Information Block
STRT.FT                -6.2500: 
STOP.FT              2316.0000: 
STEP.FT                 0.2500: 
NULL.                -999.2500: 
COMP.          Pioneer Natural Resources: COMPANY
WELL.             Trimax 44-23: WELL
FLD.           Purgatorie River: FIELD
LOC.           527' FSL & 1064' FEL------: LOCATION
PROV.                       CO: PROVINCE
CNTY.               Las Animas: COUNTRY
SRVC.          Patterson Wireline: SERVICE COMPANY
DATE.          Sat Mar 19 11:18:53 2005: LOG DATE
UWI.           05 071 08326 00: UNIQUE WELL ID
~Curve Information Block
DEPT.FT            0 000 00 00: Depth
CCL.                          : Casing Collar Locator
TT3.usec                      : CBL 3' Travel Time
AMP3.mV                       : CBL 3' Amplitude
GR.GAPI                       : Gamma Ray
~Parameter Information Block
~A  Depth       CCL         TT3         AMP3         GR     
# ...
  1802.7500      0.0000    761.0758      8.4055     55.1657
  1803.0000      0.0000    764.5148      8.5021     54.7458
  1803.2500      0.0000    769.4822      8.5409     53.3671
  1803.5000      0.0000    773.7937      8.4859     50.9532
  1803.7500      0.0000    776.4659      8.3624     48.7171
  1804.0000      0.0000    777.6964      8.2321     48.8935
  1804.2500      0.0000    778.0746      8.1424     53.3202
  1804.5000      0.0000    778.0391      8.1108     62.3952
  1804.7500      0.0000    777.8099      8.1519     75.2990
  1805.0000      0.0000    777.5264      8.2801     90.5819
  1805.2500      0.0000    777.3464      8.4729    106.2988
  1805.5000      0.0000    777.4194      8.6553    120.3591
  1805.7500      0.0000    777.7906      8.7472    131.5266
  1806.0000      0.0000    778.3635      8.7306    139.8505
  1806.2500      0.0000    778.9758      8.6649    145.6916
  1806.5000      0.0000    779.4946      8.6297    148.7208
  1806.7500      0.0000    779.8287      8.6479    148.3790
  1807.0000      0.0000    779.8951      8.6600    145.0998
  1807.2500      0.0000    779.6514      8.5795    140.6948
  1807.5000      0.0000    778.9824      8.3817    137.4649
  1807.7500      0.0000    777.2982      8.1425    136.7831
  1808.0000      0.0000    772.9584      7.9838    138.2678
  1808.2500      0.0000    763.5461      7.9638    140.1970
  1808.5000      0.0000    747.9078      8.0251    140.8763
  1808.7500      0.0000    728.9073      8.0600    139.9437
  1809.0000      0.0000    713.5435      8.0057    138.4975
  1809.2500      0.0000    708.8716      7.8670    137.8743
  1809.5000      0.0000    716.9411      7.6881    138.3119
  1809.7500      0.0000    733.0970      7.5448    138.9730
  1810.0000      0.0000    748.4514      7.5246    139.2585
  1810.2500      0.0000    754.3342      7.6521    139.6572
  1810.5000      0.0000    746.1812      7.8373    140.9299
  1810.7500      0.0000    725.4120      7.9458    142.8420
  1811.0000      0.0000    698.6625      7.9286    144.4238
  1811.2500      0.0000    674.2455      7.8564    145.4543
  1811.5000      0.0000    657.7933      7.8396    146.8567
  1811.7500      0.0000    650.4188      7.9465    149.3202
  1812.0000      0.0000    649.8329      8.1745    152.2295
  1812.2500      0.0000    651.9009      8.4567    154.2724
  1812.5000      0.0000    651.3474      8.6966    154.4267
  1812.7500      0.0000    643.3322      8.8202    152.2217
  1813.0000      0.0000    626.5502      8.8017    147.9741
  1813.2500      0.0000    605.0628      8.6668    143.1397
  1813.5000      0.0000    585.8719      8.4954    139.6700
  1813.7500      0.0000    573.8950      8.3901    138.6398
  1814.0000      0.0000    569.2852      8.4069    139.7327
  1814.2500      0.0000    569.1010      8.5333    141.9623
  1814.5000      0.0000    570.4313      8.7346    144.4632
  1814.7500      0.0000    571.8336      8.9811    146.5147
  1815.0000      0.0000    572.9834      9.2284    147.1973
  1815.2500      0.0000    573.9282      9.4164    145.6248
  1815.5000      0.0000    574.7078      9.4972    141.7612
  1815.7500      0.0000    575.3124      9.4454    136.7920
  1816.0000      0.0000    575.9243      9.2676    132.5800
  1816.2500      0.0000    577.4539      9.0306    130.7835
  1816.5000      0.0000    582.3293      8.8493    132.0461
  1816.7500      0.0000    594.6662      8.8110    135.4566
  1817.0000      0.0000    618.2996      8.9223    138.8892
  1817.2500      0.0000    652.6709      9.1330    140.3307
  1817.5000      0.0000    690.4650      9.3784    138.8858
  1817.7500      0.0000    721.3020      9.5920    134.6124
  1818.0000      0.0000    738.9348      9.7126    128.1517
  1818.2500      0.0000    744.1840      9.6968    120.7618
  1818.5000      0.0000    741.7025      9.5263    113.7790
  1818.7500      0.0000    736.7585      9.2249    107.5657
  1819.0000      0.0000    734.8809      8.8815    101.5970
  1819.2500      0.0000    740.2068      8.6189     95.8979
  1819.5000      0.0000    751.8273      8.5163     91.7655
  1819.7500      0.0000    763.8824      8.5817     90.6330
  1820.0000      0.0000    770.5967      8.7995     92.5011
  1820.2500      0.0000    770.1139      9.1503     95.8044
  1820.5000      0.0000    763.3329      9.5734     98.7619
  1820.7500      0.0000    751.4102      9.9591    100.7485
  1821.0000      0.0000    736.5264     10.2003    102.4066
  1821.2500      0.0000    724.1335     10.2272    104.6774
  1821.5000      0.0000    721.1892     10.0033    107.9989
  1821.7500      0.0000    730.2145      9.5337    112.3635
  1822.0000      0.0000    746.3789      8.8883    117.6217
  1822.2500      0.0000    761.9904      8.1821    123.3121
  1822.5000      0.0000    773.0226      7.5159    128.4125
  1822.7500      0.0000    780.5746      6.9398    131.7240
  1823.0000      0.0000    787.3659      6.4606    132.5278
  1823.2500      0.0000    794.1740      6.0769    130.7644
  1823.5000      0.0000    799.4894      5.8133    126.9021
  1823.7500      0.0000    801.6373      5.7181    122.0056
  1824.0000      0.0000    800.4471      5.8121    117.6068
  1824.2500     -1.0000    797.2664      6.0422    114.8781
  1824.5000      0.0000    794.2579      6.3019    113.8815
  1824.7500      0.0000    793.3842      6.5062    113.8833
  1825.0000      0.0000    794.6603      6.6380    114.1074
  1825.2500      0.0000    795.4922      6.7161    113.9522
  1825.5000      0.0000    793.0836      6.7416    113.1129
  1825.7500      0.0000    787.6859      6.7035    111.9963
  1826.0000      0.0000    782.6470      6.6420    111.4917
  1826.2500      0.0000    781.2921      6.6621    111.9779
  1826.5000      0.0000    784.3123      6.8418    113.1018
  1826.7500      0.0000    789.9116      7.1309    114.5897
  1827.0000      0.0000    795.6673      7.3744    116.3093
  1827.2500      0.0000    800.1744      7.4479    117.3385
  1827.5000      0.0000    803.4412      7.3585    116.2040
  1827.7500      0.0000    805.9113      7.2132    112.8311
  1828.0000      0.0000    807.1986      7.1221    109.4594
  1828.2500      0.0000    805.5962      7.1429    108.7292
  1828.5000      0.0000    798.6039      7.2687    111.2503
  1828.7500      0.0000    784.0833      7.4303    115.6043
  1829.0000      0.0000    761.5656      7.5330    120.1915
  1829.2500      0.0000    733.0047      7.5180    124.3618
  1829.5000      0.0000    703.2100      7.3824    127.9826
  1829.7500      0.0000    680.2811      7.1567    130.5690
  1830.0000      0.0000    673.5352      6.8916    131.1057
  1830.2500      0.0000    687.0470      6.6524    128.6638
  1830.5000      0.0000    714.4285      6.4994    123.1535
  1830.7500      0.0000    742.5483      6.4744    115.5126
  1831.0000      0.0000    761.3723      6.5952    107.2468
  1831.2500      0.0000    769.2428      6.8291     99.9087
  1831.5000      0.0000    769.7362      7.0807     94.9555
  1831.7500      0.0000    766.2332      7.2377     93.8372
  1832.0000      0.0000    760.0782      7.2316     97.8156
  1832.2500      0.0000    751.8770      7.0590    107.0913
  1832.5000      0.0000    742.7406      6.7767    119.7679
  1832.7500      0.0000    733.9341      6.4827    132.1169
  1833.0000      0.0000    726.2161      6.2786    140.7138
  1833.2500      0.0000    720.2764      6.2336    144.5616
  1833.5000      0.0000    717.4300      6.3693    145.0350
  1833.7500      0.0000    718.7817      6.6479    144.1065
  1834.0000      0.0000    723.6205      6.9758    142.8732
  1834.2500      0.0000    729.4832      7.2474    141.2391
  1834.5000      0.0000    734.0530      7.3976    138.5456
  1834.7500      0.0000    736.5912      7.4077    134.7190
  1835.0000      0.0000    737.6403      7.2898    130.8380
  1835.2500      0.0000    737.9865      7.0922    128.2608
  1835.5000      0.0000    738.0850      6.9006    127.3874
  1835.7500      0.0000    738.0456      6.8079    127.6529
  1836.0000      0.0000    737.7372      6.8729    128.3277
