~Version Information
 VERS.                                  2.0 : CWLS LAS VERSION
 WRAP.                                   NO : WRAPING MODE
 SWARE .                 MController 2.5.0E : SOFTWARE VERSION
~Well Information
 WELL.                         STATE 16-24V : WELL
 COMP.                      Petrogulf Corp. : COMPANY
 FLD.                      Purgatorie River : FIELD
 LOC.                NW/SE Sec 16 T33S R67W : LOCATION
 DATE.                      5/02/04-5/03/04 : DATE(S) LOGGED
 SRVC.       Blanco Geological Services LLC : SERVICE COMPANY
 STAT.                                   CO : STATE
 CNTY.                           Las Animas : COUNTY
 CTRY.                                  USA : COUNTRY
 API.                       05-071-08014-00 : API NUMBER
 STRT.FT                              40.00 : START DEPTH
 STOP.FT                            2380.00 : STOP DEPTH
 STEP.FT                               1.00 : DEPTH INCREMENT
 NULL.                                -9999 : NULL VALUE
~Curve information
 DEPTH.FT                                   :
 ROP.MIN/FT                                 :
 GAS.UNITS                                  :
~ASCII Log data
# ...
      640.00        0.133         17.0 
      641.00        0.267         16.7 
      642.00        4.050        136.3 
      643.00        0.267        148.9 
      644.00        0.350        150.5 
      645.00        0.267        144.2 
      646.00        0.267        132.6 
      647.00        0.233        112.8 
      648.00        0.133        102.6 
      649.00        0.133         92.3 
      650.00        0.133         86.2 
      651.00        0.133         75.8 
      652.00        0.167         65.2 
      653.00        0.133         59.2 
      654.00        0.133         46.3 
      655.00        0.133         36.1 
      656.00        0.133         36.1 
      657.00        0.133         30.5 
      658.00        0.200         30.5 
      659.00        0.200         29.6 
      660.00        0.433         25.1 
      661.00        0.233         17.0 
      662.00        0.250         15.9 
      663.00        0.233         11.8 
      664.00        0.233         10.8 
      665.00        0.233          9.4 
      666.00        0.133          9.4 
      667.00        0.167          8.7 
      668.00        0.267          8.2 
      669.00        0.267          7.8 
      670.00        0.267          8.1 
      671.00        0.200          8.1 
      672.00        1.817         26.6 
      673.00        0.300         37.7 
      674.00        0.300         54.4 
      675.00        0.233         71.9 
      676.00        0.167         90.8 
      677.00        0.133         90.8 
      678.00        0.167         99.8 
      679.00        0.233        107.0 
      680.00        0.233        108.4 
      681.00        0.267        104.1 
      682.00        0.167        103.2 
      683.00        0.133         94.0 
      684.00        0.100         90.1 
      685.00        0.100         83.5 
      686.00        0.133         72.4 
      687.00        0.317         61.4 
      688.00        0.367         49.4 
      689.00        2.000         40.3 
      690.00        0.033         13.0 
      691.00        0.267         13.2 
      692.00        0.267         12.2 
      693.00        0.283         12.6 
      694.00        0.267         14.7 
      695.00        0.267         16.4 
      696.00        0.200         19.3 
      697.00        0.200         19.3 
      698.00        0.333         22.9 
      699.00        0.300         23.3 
      700.00        0.267         23.7 
      701.00        0.333         21.6 
      702.00        3.050         31.4 
      703.00        0.567         66.7 
      704.00        0.533         91.9 
      705.00        0.417         95.7 
      706.00        0.433         91.1 
      707.00        0.367         77.0 
      708.00        0.433         66.1 
      709.00        0.400         53.7 
      710.00        0.300         46.9 
      711.00        0.333         37.7 
      712.00        0.267         32.4 
      713.00        0.233         28.6 
      714.00        0.267         25.9 
      715.00        0.317         24.9 
      716.00        0.333         23.0 
      717.00        0.300         20.4 
      718.00        0.233         19.0 
      719.00        0.200         19.5 
      720.00        0.200         18.6 
      721.00        0.167         17.1 
      722.00        0.167         16.7 
      723.00        0.200         15.9 
      724.00        0.200         15.4 
      725.00        0.200         14.3 
      726.00        0.167         13.5 
      727.00        0.133         13.5 
      728.00        0.233         13.1 
      729.00        0.233         13.1 
      730.00        0.283         13.1 
      731.00        0.267         12.9 
      732.00        1.867         16.5 
      733.00        0.267         18.7 
      734.00        0.267         25.7 
      735.00        0.267         37.9 
      736.00        0.267         51.5 
      737.00        0.150         64.9 
      738.00        0.267         74.2 
      739.00        0.267         79.7 
      740.00        0.267         81.1 
      741.00        0.267         79.3 
      742.00        0.267         74.8 
      743.00        0.267         68.9 
      744.00        0.267         66.3 
      745.00        0.267         50.9 
      746.00        0.267         44.9 
      747.00        0.267         39.6 
      748.00        0.100         39.6 
      749.00        0.267         34.1 
      750.00        0.283         29.1 
      751.00        0.267         26.8 
      752.00        0.267         25.2 
      753.00        0.267         22.5 
      754.00        0.267         20.7 
      755.00        0.267         19.1 
      756.00        0.333         17.2 
      757.00        0.400         16.2 
      758.00        0.267         13.9 
      759.00        0.267         13.3 
      760.00        0.100         13.3 
      761.00        0.267         13.0 
      762.00        4.133         20.8 
      763.00        0.300         22.7 
      764.00        0.300         28.5 
      765.00        0.300         42.1 
      766.00        0.300         61.2 
      767.00        0.267         72.0 
      768.00        0.233         72.9 
      769.00        0.267         83.4 
      770.00        0.300         82.8 
      771.00        0.300         81.1 
      772.00        0.233         80.7 
      773.00        0.317         74.6 
      774.00        0.233         67.4 
      775.00        0.300         58.9 
      776.00        0.267         47.5 
      777.00        0.167         43.8 
      778.00        0.200         39.0 
      779.00        0.267         33.9 
      780.00        0.167         29.8 
      781.00        0.167         27.5 
      782.00        0.133         28.1 
      783.00        0.200         24.5 
      784.00        0.167         23.8 
      785.00        0.133         21.7 
      786.00        0.233         21.3 
      787.00        0.200         18.4 
      788.00        0.200         18.4 
      789.00        0.250         17.5 
      790.00        0.233         16.2 
      791.00        0.267         15.1 
      792.00        1.500         21.8 
      793.00        0.067         24.9 
      794.00        0.233         33.4 
      795.00        0.133         53.7 
      796.00        0.100         82.0 
      797.00        0.233        106.6 
      798.00        0.167        139.7 
      799.00        0.100        148.1 
      800.00        0.150        160.4 
      801.00        0.133        167.0 
      802.00        0.167        169.5 
      803.00        0.167        166.8 
      804.00        0.200        151.2 
      805.00        0.133        149.7 
      806.00        0.200        129.4 
      807.00        0.133        107.2 
      808.00        0.167        101.3 
      809.00        0.133         88.2 
      810.00        0.367         81.0 
      811.00        0.167         55.3 
      812.00        0.233         50.8 
      813.00        0.233         41.3 
      814.00        0.267         33.2 
      815.00        0.267         28.1 
      816.00        0.233         23.7 
      817.00        0.250         21.2 
      818.00        0.267         20.0 
      819.00        0.267         18.6 
      820.00        0.267         19.3 
      821.00        0.233         19.1 
      822.00        2.033         49.6 
      823.00        0.117         60.4 
      824.00        0.233        115.5 
      825.00        0.433        160.2 
      826.00        0.367        188.8 
      827.00        0.433        181.6 
      828.00        0.267        163.6 
      829.00        0.367        142.1 
      830.00        0.300        117.4 
      831.00        0.100         95.0 
      832.00        0.200         91.4 
      833.00        0.200         85.5 
      834.00        0.200         73.2 
      835.00        0.133         70.2 
      836.00        0.150         69.7 
      837.00        0.200         68.6 
      838.00        0.200         64.0 
      839.00        0.233         61.3 
