~Version Information
 VERS.                                  2.0 : CWLS LAS VERSION
 WRAP.                                   NO : WRAPING MODE
 SWARE .                 MController 2.5.0N : SOFTWARE VERSION
~Well Information
 WELL.                           King 22-13 : WELL
 COMP.    Pioneer Natural Resources USA Inc : COMPANY
 FLD.                      Purgatoire River : FIELD
 LOC.                SE/NW Sec 13 T32S R66W : LOCATION
 DATE.                           3/30-31/05 : DATE(S) LOGGED
 SRVC.       Blanco Geological Services LLC : SERVICE COMPANY
 STAT.                                   CO : STATE
 CNTY.                           Las Animas : COUNTY
 CTRY.                                  USA : COUNTRY
 API.                       05-071-08318-00 : API NUMBER
 STRT.FT                             603.00 : START DEPTH
 STOP.FT                            2185.00 : STOP DEPTH
 STEP.FT                               1.00 : DEPTH INCREMENT
 NULL.                                -9999 : NULL VALUE
~Curve information
 DEPTH.FT                                   :
 ROP.MIN/FT                                 :
 GAS.UNITS                                  :
~ASCII Log data
# ...
      2003.0         0.37       2379.5 
      2004.0         0.33       3134.6 
      2005.0         0.58       4876.6 
      2006.0         4.02       7303.7 
      2007.0         0.50       3455.8 
      2008.0         0.50       3161.4 
      2009.0         0.50       3082.6 
      2010.0         0.40       3125.7 
      2011.0         0.72       3099.2 
      2012.0         0.40       3096.0 
      2013.0         0.43       3233.0 
      2014.0         0.23       3317.1 
      2015.0         0.50       3458.1 
      2016.0         0.37       3472.2 
      2017.0         0.33       3467.3 
      2018.0         0.20       3449.3 
      2019.0         0.20       3449.3 
      2020.0         0.30       3466.3 
      2021.0         0.48       3499.7 
      2022.0         0.30       3521.3 
      2023.0         0.37       3546.8 
      2024.0         0.30       3541.9 
      2025.0         0.33       3550.7 
      2026.0         0.33       3580.5 
      2027.0         0.33       3594.9 
      2028.0         0.33       3593.2 
      2029.0         0.27       3532.7 
      2030.0         0.27       3240.2 
      2031.0         0.30       3002.7 
      2032.0         0.35       2074.9 
      2033.0         0.30       2012.8 
      2034.0         0.30       2124.0 
      2035.0         0.30       2283.0 
      2036.0         5.60       6929.8 
      2037.0         0.97       5814.9 
      2038.0         0.93       3040.3 
      2039.0         1.95       4010.3 
      2040.0         0.63       3973.4 
      2041.0         0.63       3537.6 
      2042.0         0.57       3055.7 
      2043.0         0.53       3111.3 
      2044.0         0.48       3238.3 
      2045.0         0.43       3373.1 
      2046.0         0.40       3492.8 
      2047.0         0.40       3543.2 
      2048.0         0.43       3540.6 
      2049.0         0.47       3534.3 
      2050.0         0.40       3454.8 
      2051.0         0.37       3253.6 
      2052.0         0.42       3195.7 
      2053.0         0.37       3115.6 
      2054.0         0.40       3154.5 
      2055.0         0.40       3233.4 
      2056.0         0.50       3302.1 
      2057.0         0.43       3300.8 
      2058.0         0.43       3300.1 
      2059.0         0.40       3291.9 
      2060.0         0.42       3273.6 
      2061.0         0.40       3220.3 
      2062.0         0.40       3229.4 
      2063.0         0.43       3062.6 
      2064.0         0.43       2957.6 
      2065.0         0.53       1512.2 
      2066.0         6.50       7192.2 
      2067.0         0.83       1907.1 
      2068.0         0.72       2331.1 
      2069.0         0.53       2569.3 
      2070.0         0.43       2715.8 
      2071.0         0.50       2779.9 
      2072.0         0.43       2836.2 
      2073.0         0.47       2901.6 
      2074.0         0.47       2949.7 
      2075.0         0.52       3115.9 
      2076.0         0.47       3171.2 
      2077.0         0.50       3223.2 
      2078.0         0.47       3328.2 
      2079.0         0.50       3368.2 
      2080.0         0.50       3321.7 
      2081.0         0.47       3308.3 
      2082.0         0.52       3583.4 
      2083.0         0.50       3809.1 
      2084.0         0.63       3899.4 
      2085.0         0.80       3805.9 
      2086.0         0.90       2118.1 
      2087.0         0.82        884.8 
      2088.0         0.83        842.2 
      2089.0         0.70        900.8 
      2090.0         0.80        823.3 
      2091.0         0.95        766.7 
      2092.0         0.87       1024.5 
      2093.0         0.83       1042.8 
      2094.0         0.87        782.4 
      2095.0         1.15       1182.5 
      2096.0         9.35       7641.7 
      2097.0         0.97        980.9 
      2098.0         0.57        768.6 
      2099.0         0.50        767.6 
      2100.0         0.53        770.6 
      2101.0         0.47        779.8 
      2102.0         0.48        771.9 
      2103.0         0.57        749.7 
      2104.0         0.50        743.8 
      2105.0         0.83        743.8 
      2106.0         0.60        745.1 
      2107.0         0.55        763.4 
      2108.0         0.53        781.7 
      2109.0         0.53        847.8 
      2110.0         0.57        895.6 
      2111.0         0.53        911.9 
      2112.0         0.57        908.0 
      2113.0         0.58        889.3 
      2114.0         0.53        852.4 
      2115.0         0.57        809.5 
      2116.0         0.53        769.6 
      2117.0         0.60        761.1 
      2118.0         0.63        744.4 
      2119.0         0.65        742.8 
      2120.0         0.60        739.8 
      2121.0         0.77        725.8 
      2122.0         0.70        780.1 
      2123.0         0.50       1039.2 
      2124.0         0.72       1050.0 
      2125.0         0.50        986.8 
      2126.0        12.05       9469.8 
      2127.0         0.82       1106.2 
      2128.0         0.50       1077.5 
      2129.0         0.50        994.4 
      2130.0         0.63        936.5 
      2131.0         0.63        823.6 
      2132.0         0.73        802.3 
      2133.0         0.75        790.5 
      2134.0         0.63        784.3 
      2135.0         0.67        780.1 
      2136.0         0.60        772.9 
      2137.0         0.70        774.8 
      2138.0         0.68        773.5 
      2139.0         0.73        766.7 
      2140.0         0.60        765.7 
      2141.0         0.60        767.3 
      2142.0         1.32        764.7 
      2143.0         0.57        779.8 
      2144.0         0.53        786.3 
      2145.0         1.23        783.7 
      2146.0         0.95        765.7 
      2147.0         0.60        756.2 
      2148.0         0.43        754.2 
      2149.0         0.60        751.9 
      2150.0         0.87        789.6 
      2151.0         0.58        837.0 
      2152.0         0.57        967.9 
      2153.0         0.70       1158.3 
      2154.0         0.40       1065.7 
      2155.0         0.60        862.5 
      2156.0         7.85       7120.2 
      2157.0         0.73       1125.9 
      2158.0         0.53       1000.9 
      2159.0         0.53        888.0 
      2160.0         0.60        795.1 
      2161.0         0.60        756.2 
      2162.0         0.72        750.0 
      2163.0         0.57        735.9 
      2164.0         0.57        766.3 
      2165.0         0.70        765.4 
      2166.0         0.60        761.1 
      2167.0         0.58        763.1 
      2168.0         0.57        765.4 
      2169.0         0.53        763.7 
      2170.0         0.47        762.7 
      2171.0         0.47        752.9 
      2172.0         0.53        747.7 
      2173.0         0.65        738.5 
      2174.0         0.50        739.5 
      2175.0         0.70        743.1 
      2176.0         0.60        746.4 
      2177.0         0.47        719.6 
      2178.0         0.50        743.4 
      2179.0         0.58        748.7 
      2180.0         0.47        746.1 
      2181.0         0.70        737.5 
      2182.0         0.40        734.9 
      2183.0         0.50        680.6 
      2184.0         0.87        674.7 
      2185.0         0.45        799.7 
