~Version Information
VERS.                      2.0: CWLS Log ASCII Standard - VERSION 2.0
WRAP.                       NO: One line per depth step
~Well Information Block
STRT.FT                10.0000: 
STOP.FT               859.0000: 
STEP.FT                 0.2500: 
NULL.                -999.2500: 
COMP.          Pioneer Natural Resources: COMPANY
WELL.          Prospector 12-19: WELL
FLD.           Purgatoire River: FIELD
LOC.           2262' FNL & 634' FWL: LOCATION
PROV.                 Colorado: PROVINCE
CNTY.               Las Animas: COUNTRY
SRVC.                Patterson: SERVICE COMPANY
DATE.          Tue May 10 11:52:48 2005: LOG DATE
UWI.           05 071 08191 00: UNIQUE WELL ID
~Curve Information Block
DEPT.FT            0 000 00 00: Depth
CCL.                          : Casing Collar Locator
TT3.usec                      : CBL 3' Travel Time
AMP3.mV                       : CBL 3' Amplitude
GR.GAPI                       : Gamma Ray
~Parameter Information Block
~A  Depth       CCL         TT3         AMP3         GR     
# ...
   646.5000      0.0000    890.5908      1.8424     81.0821
   646.7500      0.0000    869.9102      1.7878     77.6048
   647.0000      0.0000    841.9259      1.7556     76.0329
   647.2500      0.0000    817.7078      1.7497     75.0200
   647.5000      0.0000    810.2700      1.7707     73.4146
   647.7500      0.0000    824.5992      1.8139     71.2350
   648.0000      0.0000    853.3245      1.8755     69.7866
   648.2500      0.0000    882.7796      1.9564     70.8145
   648.5000      0.0000    902.4892      2.0595     75.2956
   648.7500      0.0000    909.2249      2.1926     82.6436
   649.0000      0.0000    905.0711      2.3748     90.7886
   649.2500      0.0000    894.3671      2.6292     97.4072
   649.5000      0.0000    881.9052      2.9570    101.5248
   649.7500      0.0000    871.5396      3.3219    103.8670
   650.0000      0.0000    865.0016      3.6665    105.5368
   650.2500      0.0000    861.8857      3.9494    106.6610
   650.5000      0.0000    860.8134      4.1631    106.5772
   650.7500      0.0000    860.5668      4.3205    104.9880
   651.0000      0.0000    860.4519      4.4319    102.5691
   651.2500      0.0000    860.0679      4.4984    100.6094
   651.5000      0.0000    858.9371      4.5231    100.2182
   651.7500      0.0000    856.3549      4.5247    101.5681
   652.0000      0.0000    851.7674      4.5308    103.5685
   652.2500      0.0000    845.6517      4.5563    104.4025
   652.5000      0.0000    840.0229      4.5909    102.6331
   652.7500      0.0000    837.4863      4.6168     97.9771
   653.0000      0.0000    839.2015      4.6335     91.2502
   653.2500      0.0000    843.7346      4.6529     83.8685
   653.5000      0.0000    848.1532      4.6761     77.3827
   653.7500      0.0000    850.3815      4.6876     73.0251
   654.0000      0.0000    850.4966      4.6722     71.0136
   654.2500      0.0000    849.8085      4.6296     70.1806
   654.5000      0.0000    848.7885      4.5755     68.8013
   654.7500      0.0000    846.3240      4.5327     66.0730
   655.0000      0.0000    841.5380      4.5193     62.6575
   655.2500      0.0000    836.1472      4.5397     59.8126
   655.5000      0.0000    833.8991      4.5828     58.2682
   655.7500      0.0000    837.0138      4.6301     57.8996
   656.0000      0.0000    843.8879      4.6666     58.1784
   656.2500      0.0000    850.8760      4.6856     58.8021
   656.5000      0.0000    855.5109      4.6857     59.9709
   656.7500      0.0000    857.3626      4.6678     61.9979
   657.0000      0.0000    856.6037      4.6349     64.6060
   657.2500      0.0000    852.7512      4.5890     66.8890
   657.5000      0.0000    845.2951      4.5243     68.1447
   657.7500      0.0000    835.9673      4.4296     68.4965
   658.0000      0.0000    829.8999      4.3008     68.4477
   658.2500      0.0000    832.4230      4.1524     68.0749
   658.5000      0.0000    843.3046      4.0230     67.0070
   658.7500      0.0000    855.6516      3.9675     65.0905
   659.0000      0.0000    862.0812      4.0274     62.6753
   659.2500      0.0000    861.1448      4.1934     60.2062
   659.5000      0.0000    857.1982      4.4009     58.0044
   659.7500      0.0000    855.5137      4.5688     56.6329
   660.0000      1.5729    858.1842      4.6451     56.9047
   660.2500      0.0000    863.5741      4.6323     58.9803
   660.5000      0.0000    868.6842      4.5902     61.6868
   660.7500      0.0000    871.7728      4.5997     63.2203
   661.0000      0.0000    872.7981      4.6897     62.6294
   661.2500      0.0000    872.1585      4.7993     60.4623
   661.5000      0.0000    870.1006      4.8383     58.0437
   661.7500      0.0000    867.1983      4.7829     56.4007
   662.0000      0.0000    864.4105      4.6908     55.8560
   662.2500      0.0000    862.4283      4.6317     56.1525
   662.5000      0.0000    861.3204      4.6280     56.5688
   662.7500      0.0000    860.7931      4.6581     56.2859
   663.0000      0.0000    860.5481      4.6920     55.1685
   663.2500      0.0000    860.3981      4.7144     53.9971
   663.5000      0.0000    860.2458      4.7255     53.6292
   663.7500      0.0000    860.0565      4.7336     54.2112
   664.0000      0.0000    859.8344      4.7464     55.4243
   664.2500      0.0000    859.5983      4.7668     57.0770
   664.5000      0.0000    859.3697      4.7919     59.0483
   664.7500      0.0000    859.1893      4.8157     60.8504
   665.0000      0.0000    859.1258      4.8323     61.7701
   665.2500      0.0000    859.2516      4.8431     61.7510
   665.5000      0.0000    859.6359      4.8628     62.0014
   665.7500      0.0000    860.4188      4.9147     64.1844
   666.0000      0.0000    861.9573      5.0178     68.6423
   666.2500      0.0000    864.8575      5.1733     73.6880
   666.5000      0.0000    869.5755      5.3592     77.0625
   666.7500      0.0000    875.6849      5.5379     77.9851
   667.0000      0.0000    881.6879      5.6733     77.5739
   667.2500      0.0000    885.9130      5.7447     77.5964
   667.5000      0.0000    887.4926      5.7455     79.2186
   667.7500      0.0000    886.2921      5.6757     82.5868
   668.0000      0.0000    882.5215      5.5409     86.9614
   668.2500      0.0000    877.0092      5.3542     91.3376
   668.5000      0.0000    871.3176      5.1359     95.3786
   668.7500      0.0000    866.8973      4.9099     99.5876
   669.0000      0.0000    864.2251      4.7025    104.0961
   669.2500      0.0000    862.9102      4.5386    107.5429
   669.5000      0.0000    862.3456      4.4311    107.9305
   669.7500      0.0000    862.1086      4.3728    104.6540
   670.0000      0.0000    861.9768      4.3427     99.2004
   670.2500      0.0000    861.8253      4.3214     94.0193
   670.5000      0.0000    861.5692      4.3002     90.9977
   670.7500      0.0000    861.1720      4.2765     90.4955
   671.0000      0.0000    860.6575      4.2460     91.3012
   671.2500      0.0000    860.0870      4.2006     91.5813
   671.5000      0.0000    859.5269      4.1348     90.1758
   671.7500      0.0000    859.0372      4.0545     87.2340
   672.0000      0.0000    858.6717      3.9758     83.8934
   672.2500      0.0000    858.4560      3.9136     81.5298
   672.5000      0.0000    858.3625      3.8724     81.1361
   672.7500      0.0000    858.2974      3.8492     82.9543
   673.0000      0.0000    858.0875      3.8435     86.3359
   673.2500      0.0000    857.4583      3.8635     90.1043
   673.5000      0.0000    856.1323      3.9213     93.3968
   673.7500      0.0000    854.1852      4.0189     96.2631
   674.0000      0.0000    852.3444      4.1371     99.2901
   674.2500      0.0000    851.5844      4.2424    102.6458
   674.5000      0.0000    852.0458      4.3100    105.6219
   674.7500      0.0000    852.5461      4.3421    107.1752
   675.0000      0.0000    851.5698      4.3603    106.8717
   675.2500      0.0000    848.6442      4.3780    105.2161
   675.5000      0.0000    844.3015      4.3873    103.0799
   675.7500      0.0000    838.3672      4.3743    100.9722
   676.0000      0.0000    828.3597      4.3395     98.9762
   676.2500      0.0000    810.2757      4.2945     97.3696
   676.5000      0.0000    782.1030      4.2461     97.0713
   676.7500      0.0000    747.1581      4.1941     99.0277
   677.0000      0.0000    713.4670      4.1450    103.0697
   677.2500      0.0000    689.4948      4.1159    107.7965
   677.5000      0.0000    680.0934      4.1190    111.6103
   677.7500      0.0000    684.8693      4.1483    113.5470
   678.0000      0.0000    698.9570      4.1859    113.2526
   678.2500      0.0000    716.4373      4.2116    110.8431
   678.5000      0.0000    734.4076      4.1957    106.9415
   678.7500      0.0000    752.8648      4.0949    102.3795
   679.0000      0.0000    770.9510      3.8774     97.5885
   679.2500      0.0000    786.7638      3.5567     92.4113
   679.5000      0.0000    801.2947      3.1903     86.5640
   679.7500      0.0000    818.6571      2.8413     80.1456
