~Version Information
VERS.                      2.0: CWLS Log ASCII Standard - VERSION 2.0
WRAP.                       NO: One line per depth step
~Well Information Block
STRT.FT               780.0000: 
STOP.FT              3152.2500: 
STEP.FT                 0.2500: 
NULL.                -999.2500: 
COMP.          Pioneer Natural Resources: COMPANY
WELL.            Paradise 13-8: WELL
FLD.           Purgatoire River: FIELD
LOC.           1896' FSL & 1120' FWL: LOCATION
PROV.                 Colorado: PROVINCE
CNTY.               Las Animas: COUNTRY
SRVC.                Patterson: SERVICE COMPANY
DATE.          Sat Jan 22 20:39:47 2005: LOG DATE
UWI.           05 071 07946 00: UNIQUE WELL ID
~Curve Information Block
DEPT.FT            0 000 00 00: Depth
SN.Ohm-m                      : IEL Short Normal
SP.mV                         : IEL Spontaneous Potential
DIR.Ohm-m                     : IEL Induction Resistivity
GR.GAPI                       : Gamma Ray
~Parameter Information Block
~A  Depth        SN          SP         DIR          GR     
# ...
  1550.5000   2000.0000   2000.0000     12.6807    130.5251
  1550.7500   2000.0000   2000.0000     12.9350    130.0782
  1551.0000   2000.0000   2000.0000     13.0880    129.4817
  1551.2500   2000.0000   2000.0000     13.1263    129.3511
  1551.5000   2000.0000   2000.0000     13.0417    129.6116
  1551.7500   2000.0000   2000.0000     12.8364    129.9618
  1552.0000   2000.0000   2000.0000     12.5275    130.6985
  1552.2500   2000.0000   2000.0000     12.1475    131.3650
  1552.5000   2000.0000   2000.0000     11.7378    132.9505
  1552.7500   2000.0000   2000.0000     11.3364    135.0152
  1553.0000   2000.0000   2000.0000     10.9682    140.9345
  1553.2500   2000.0000   2000.0000     10.6397    146.8107
  1553.5000   2000.0000   2000.0000     10.3442    156.6385
  1553.7500   2000.0000   2000.0000     10.0707    162.2443
  1554.0000   2000.0000   2000.0000      9.8153    167.1260
  1554.2500   2000.0000   2000.0000      9.5856    167.4192
  1554.5000   2000.0000   2000.0000      9.3994    163.0592
  1554.7500   2000.0000   2000.0000      9.2786    157.0734
  1555.0000   2000.0000   2000.0000      9.2430    144.4566
  1555.2500   2000.0000   2000.0000      9.3044    134.7868
  1555.5000   2000.0000   2000.0000      9.4637    121.3408
  1555.7500   2000.0000   2000.0000      9.7065    114.8321
  1556.0000   2000.0000   2000.0000     10.0018    110.1038
  1556.2500   2000.0000   2000.0000     10.3051    109.7060
  1556.5000   2000.0000   2000.0000     10.5701    111.0069
  1556.7500    523.3093   2000.0000     10.7654    112.1364
  1557.0000    530.8275   2000.0000     10.8842    113.7502
  1557.2500    523.3492   -450.0003     10.9386    114.9483
  1557.5000    495.0123   -450.0003     10.9455    117.1613
  1557.7500    441.8033   -450.0003     10.9164    118.6720
  1558.0000    369.9448   -450.0003     10.8558    120.0067
  1558.2500    300.5955   -450.0003     10.7668    119.8727
  1558.5000    260.7354   -450.0003     10.6561    118.6004
  1558.7500    266.2767   -450.0003     10.5351    117.7436
  1559.0000    313.3473   -450.0003     10.4186    117.0755
  1559.2500    382.0024   -450.0003     10.3229    116.8391
  1559.5000    445.1037   -450.0003     10.2638    116.5428
  1559.7500    478.5407   -450.0003     10.2539    116.7838
  1560.0000    470.0784   -450.0003     10.3003    118.7893
  1560.2500    422.7675   -450.0003     10.4021    121.1877
  1560.5000    352.3924   -450.0003     10.5515    124.8334
  1560.7500    281.5434   -450.0003     10.7359    126.1706
  1561.0000    231.4406   -450.0003     10.9422    125.8657
  1561.2500    213.4322   -450.0003     11.1620    124.6756
  1561.5000    224.8229   -450.0003     11.3961    122.6710
  1561.7500    252.4037   -450.0003     11.6557    121.2723
  1562.0000    281.1065   -450.0003     11.9565    118.0752
  1562.2500    300.9455   -450.0003     12.3070    114.7719
  1562.5000    309.3120   -450.0003     12.6958    108.8953
  1562.7500    310.8452   -449.9971     13.0880    105.5965
  1563.0000    314.8345   -449.9887     13.4349    103.3083
  1563.2500    328.5175   -449.9631     13.6927    103.6764
  1563.5000    350.1588   -449.8933     13.8364    106.0908
  1563.7500    369.0683   -449.7253     13.8607    108.3245
  1564.0000    372.8047   -449.3674     13.7709    112.0296
  1564.2500    354.6725   -448.6961     13.5764    114.4829
  1564.5000    315.4565   -447.5908     13.2902    117.5558
  1564.7500    260.9476   -446.0082     12.9349    118.9462
  1565.0000    199.2460   -444.0509     12.5478    120.2228
  1565.2500    138.8502   -441.9741     12.1770    120.9203
  1565.5000     87.0296   -440.0681     11.8700    122.1794
  1565.7500     48.6650   -438.4298     11.6617    123.0398
  1566.0000     25.4089   -436.7437     11.5673    123.8486
  1566.2500     15.3744   -434.2365     11.5844    123.8876
  1566.5000     14.1229   -429.9132     11.7005    123.0238
  1566.7500     16.6354   -423.0090     11.9026    121.6898
  1567.0000     19.2251   -413.4374     12.1859    118.6781
  1567.2500     20.4114   -401.9915     12.5552    116.5590
  1567.5000     20.5040   -390.1642     13.0198    114.4156
  1567.7500     20.4881   -379.6480     13.5822    113.8572
  1568.0000     21.0711   -371.7473     14.2277    113.5500
  1568.2500     22.3617   -366.9679     14.9197    113.2782
  1568.5000     23.9920   -364.9547     15.6082    113.2703
  1568.7500     25.4712   -364.7856     16.2456    114.3984
  1569.0000     26.5050   -365.4738     16.8015    118.6946
  1569.2500     27.0697   -366.4284     17.2645    122.7314
  1569.5000     27.2782   -367.6542     17.6353    128.0389
  1569.7500     27.2298   -369.5657     17.9218    129.7664
  1570.0000     26.9718   -372.5395     18.1404    129.2408
  1570.2500     26.5382   -376.4667     18.3207    127.5204
  1570.5000     25.9818   -380.5868     18.5019    124.3342
  1570.7500     25.3654   -383.7054     18.7226    122.2438
  1571.0000     24.7410   -384.6854     19.0084    119.1378
  1571.2500     24.1571   -382.9481     19.3672    116.9136
  1571.5000     23.7030   -378.7279     19.7907    113.2845
  1571.7500     23.5445   -372.9900     20.2563    110.7137
  1572.0000     23.8750   -367.0766     20.7263    106.4158
  1572.2500     24.7809   -362.2779     21.1518    103.0456
  1572.5000     26.1234   -359.5117     21.4860     97.5934
  1572.7500     27.5500   -359.2003     21.7029     94.5094
  1573.0000     28.6494   -361.3264     21.8026     92.2323
  1573.2500     29.1458   -365.5686     21.7965     92.5610
  1573.5000     28.9980   -371.4284     21.6822     94.9876
  1573.7500     28.3603   -378.3185     21.4344     97.0347
  1574.0000     27.4699   -385.6369     21.0238     99.6495
  1574.2500     26.5439   -392.8447     20.4501    101.0482
  1574.5000     25.7252   -399.5482     19.7605    103.5700
  1574.7500     25.0720   -405.5494     19.0328    106.1742
  1575.0000     24.5769   -410.8304     18.3399    111.7108
  1575.2500     24.1936   -415.4782     17.7226    116.0481
  1575.5000     23.8587   -419.5772     17.1873    122.3989
  1575.7500     23.5140   -423.1152     16.7209    125.9561
  1576.0000     23.1265   -425.9342     16.3077    129.5054
  1576.2500     22.6986   -427.7367     15.9401    130.4280
  1576.5000     22.2573   -428.1407     15.6178    129.9747
  1576.7500     21.8327   -426.7855     15.3432    129.0737
  1577.0000     21.4377   -423.4954     15.1182    127.7164
  1577.2500     21.0647   -418.4411     14.9441    126.8155
  1577.5000     20.6983   -412.2334     14.8225    125.1838
  1577.7500     20.3297   -405.8321     14.7533    124.1835
  1578.0000     19.9539   -400.2445     14.7298    124.0952
  1578.2500     19.5651   -396.1125     14.7358    125.5257
  1578.5000     19.1686   -393.4056     14.7499    129.1909
  1578.7500     18.7953   -391.4212     14.7547    131.3490
  1579.0000     18.4914   -389.1114     14.7426    132.2399
  1579.2500     18.2943   -385.5804     14.7146    131.3339
  1579.5000     18.2202   -380.4869     14.6759    129.7168
  1579.7500     18.2625   -374.1669     14.6343    129.6147
  1580.0000     18.3920   -367.4497     14.5991    131.0091
  1580.2500     18.5641   -361.2909     14.5785    131.9495
  1580.5000     18.7425   -356.4117     14.5779    131.5642
  1580.7500     18.9254   -353.0950     14.6011    129.9468
  1581.0000     19.1493   -351.1860     14.6540    126.8626
  1581.2500     19.4623   -350.2582     14.7441    125.4024
  1581.5000     19.8901   -349.8435     14.8783    124.8082
  1581.7500     20.4266   -349.6420     15.0607    125.0920
  1582.0000     21.0430   -349.6474     15.2965    125.2069
  1582.2500     21.6975   -350.1785     15.5958    124.2505
  1582.5000     22.3426   -351.7940     15.9750    120.1297
  1582.7500     22.9442   -355.1156     16.4501    115.4132
  1583.0000     23.5118   -360.5544     17.0298    106.3239
  1583.2500     24.1123   -368.0070     17.7114     99.9005
  1583.5000     24.8530   -376.6605     18.4844     91.1423
  1583.7500     25.8382   -385.0407     19.3357     86.3904
