~Version Information
 VERS.                2.0:  CWLS LOG ASCII STANDARD -VERSION 2.0
 WRAP.                 NO:  ONE LINE PER DEPTH STEP
~WELL INFORMATION BLOCK
#MNEM.UNIT       DATA		            DESCRIPTION OF MNEMONIC
#---------    -------------            ------------------------
 STRT.FT  0.500                          :START DEPTH
 STOP.FT  1808.700                       :STOP DEPTH
 STEP.FT  0.100                          :STEP    UP_HOLE  
 NULL.    -999.25                        :NULL VALUE
 COMP.              EL PASO PRODUCTIONS  :COMPANY
 WELL.                     COREHOLE #38  :WELL
 FLD .                 PURGATOIRE RIVER  :FIELD
 LOC .      15   35S   65W               :LOCATION
 CNTY.                           COLFAX  :COUNTY
 STAT.                     NM            :STATE
 CTRY.                                   :
 SRVC.     O'DRISCOLL                    :SERVICE COMPANY
 DATE.   04/28/05                        :LOG DATE
 API .                                   :API NUMBER
 LIC .                                   :LICENSE NUMBER
~Curve Information Block
#MNEM.UNIT      API CODE     Curve Description
#---------    -------------  ------------------------
 DEPT     .FT        00 001 00 00          :  1  DEPTH   
 GAMMA    .API-GR    00 310 00 00          :  2                GAMMA
 VOLTAGE  .MV        00 000 00 00          :  3              VOLTAGE
 CALIPER  .INCH      00 280 00 00          :  4              CALIPER
 DEN(LS)  .G/CC      00 350 00 00          :  5              DEN(LS)
 DEN(SS)  .G/CC      00 350 00 00          :  6              DEN(SS)
 CURRENT  .UA        00 000 00 00          :  7              CURRENT
 RES(SG)  .OHM-M     00 220 00 00          :  8              RES(SG)
 POR(DEN) .PERCENT   00 890 00 00          :  9             POR(DEN)
 DEN(LS)  .CPS       00 350 00 00          : 10              DEN(LS)
 DEN(SS)  .CPS       00 350 00 00          : 11              DEN(SS)
 COMP     .G/CC      00 356 00 00          : 12                 COMP
 DEN(CDL) .G/CC      00 350 00 00          : 13             DEN(CDL)
 TEMP     .DEG F     00 660 00 00          : 14                 TEMP
 DEL_TEMP .DEG F     00 000 00 00          : 15             DEL_TEMP
 TIME     .MINUTES   00 000 00 00          : 16                 TIME
~Parameter Information Block
#MNEM.UNIT   Information     Description
#---------- ---------------  ------------------------
 FILE.      ORIGINAL           :File Type
 FIID.      9139A              :File Type Identifier
 VERS.      3.58G              :System Version
 SER .      1                  :System Serial Number
 TRUK.      .498775            :Truck Calibration Number
 TOOL.        1245             :Tool Serial Number
 TIME.      1507               :Time    HrHrMinMin
 LAT .       36 59'            :Latitude
 LON .       104 39'           :Longitude
 LMF .            GL           :Log Measured From
 DMF .            GL           :Driller Measured From
 PD  .            GL           :Permanent Data
 PDEV.                         :Elevation Permanent Data
 EKB .M                        :Elevation Kelly Bushing
 ELEV.DF                       :Elevation DF
 EGL .M        7777            :Elevation Ground Level
 DRDP.          1825           :Driller's Depth
 CASD.       10.               :Casing Diameter
 CASB.           300           :Casing Bottom
 CASX.         STEEL           :Casing Type
 CAST.                         :Casing Thickness
 TNOC.                         :Time Circulation Stopped
 LOGU.        108              :Logging Unit
 RECB.           R.SIPES       :Recorded By
 OSR1.          9057           :Other Services
 OSR2.                         :Other Services
 OSR3.                         :Other Services
 BS  .MM         3.5           :Bit Size
 MST .                         :Mean Surface Temperature
 TGRD.                         :Temperature Gradiant
 MAGN.            12           :Magnetic Declination
 MDEN.       2.7               :Density Matrix
 MATR.      SANDSTONE          :Neutron Matrix
 DTMT.            54           :Delta T Matrix
 DTFL.                         :Delta T Fluid
 MUDS.                         :Mud Sample Source
 MRS .                         :Mud Resistivity
 MTP .                         :Mud Temperature
 MFRS.                         :Resistivity Mud Filtrate
 MFTP.                         :Temperature Mud Filtrate
 MCRS.                         :Resistivity Mud Cake
 MCTP.                         :Temperature Mud Cake
 FTYP.                         :Fluid Type
 FD  .K/M3                     :Fluid Density
 DFV .S                        :Fluid Viscosity
 FPH .                         :Fuild PH
 ELCO.       50000             :Electron Cutoff
~Other Information
#MNEM.UNIT  Information      Description
#---------- ---------------  ------------------------
# -------------------------- 
~A DEPTH  GAMMA    VOLTAGE  CALIPER DEN(LS) DEN(SS) CURRENT  RES(SG)  POR(DEN) DEN(LS) DEN(SS) COMP  DEN(CDL) TEMP  DEL_TEMP TIME    
# ...
 488.000     76.6     -7.2   3.0  2.84 3.14   127.7     -4.0  29.4  350.38 3108.72 -0.637 2.27 33.3  0.00 0.20100 
 488.100     69.9     -6.4   3.0  2.72 3.03   123.1     -3.7  37.7  445.62 3409.58 -0.665 2.24 33.3  0.00 0.20000 
 488.200     65.2     -5.4   3.0  2.87 3.10   121.8     -3.2  18.2  330.33 3200.44 -0.476 2.19 33.3  0.00 0.19900 
 488.300     61.4     -4.7   3.0  2.80 3.10   124.4     -2.7  32.1  380.43 3205.62 -0.645 2.18 33.3  0.00 0.10100 
 488.400     56.7     -4.7   3.0  2.82 3.12   125.1     -2.7  31.5  365.40 3144.45 -0.654 2.25 33.3  0.00 0.20000 
 488.500     53.9     -4.9   3.0  2.82 3.15   121.1     -2.9  34.0  360.40 3078.17 -0.702 2.21 33.3  0.00 0.19900 
 488.600     59.6     -4.8   3.0  2.81 3.01   121.9     -2.8  17.0  375.42 3481.00 -0.396 2.19 33.3  0.00 0.20000 
 488.700     70.9     -5.6   3.0  2.74 3.00   124.4     -3.2  28.8  425.54 3496.31 -0.534 2.18 33.3  0.00 0.20000 
 488.800     82.2     -5.6   3.0  2.71 3.01   121.3     -3.3  37.7  460.68 3470.77 -0.650 2.24 33.3  0.00 0.20100 
 488.900     91.7     -6.1   3.0  2.79 3.11   119.0     -3.7  35.5  390.46 3195.34 -0.690 2.20 33.3  0.00 0.19900 
 489.000     89.8     -3.5   3.0  2.87 3.10   120.9     -2.1  17.5  330.33 3215.75 -0.463 2.14 33.3  0.00 0.20000 
 489.100     96.4     -4.3   3.0  2.84 3.12   119.7     -2.6  26.8  350.37 3154.65 -0.593 2.03 33.3  0.00 0.20000 
 489.200     97.3     -6.1   3.0  2.85 3.25   115.9     -3.8  46.3  340.35 2798.64 -0.937 1.96 33.3  0.00 0.20000 
 489.300     89.8     -6.7   3.0  2.80 3.31   116.4     -4.1  71.4  380.44 2650.92 -1.313 1.80 33.3  0.00 0.20000 
 489.400     79.4     -6.5   3.0  2.80 3.24   118.4     -3.9  56.2  380.43 2833.89 -1.054 1.79 33.3  0.00 0.10000 
 489.500     86.9     -5.7   3.0  2.77 3.24   114.9     -3.5  65.4  405.49 2818.65 -1.179 1.89 33.3  0.00 0.20000 
 489.600     81.3     -5.3   3.0  2.86 3.15   115.8     -3.2  27.2  335.35 3067.98 -0.620 2.05 33.3  0.00 0.20000 
 489.700     73.7     -5.4   3.0  2.87 3.11   119.6     -3.2  19.3  330.33 3180.05 -0.494 2.18 33.3  0.00 0.20000 
 489.800     79.4     -6.2   3.0  2.82 3.08   122.8     -3.6  24.3  365.41 3276.91 -0.532 2.30 33.3  0.00 0.20000 
 489.900     93.6     -4.2   3.0  2.81 3.00   123.0     -2.4  15.9  375.42 3506.56 -0.376 2.25 33.3  0.00 0.20000 
 490.000     96.4     -4.1   3.0  2.70 2.96   124.6     -2.3  30.2  465.73 3644.51 -0.517 2.21 33.3  0.00 0.20000 
 490.100    100.2     -1.2   3.0  2.70 3.03   136.8     -0.6  42.2  465.65 3409.54 -0.721 2.19 33.3  0.00 0.20000 
 490.200    105.8     -1.9   3.0  2.72 2.99   136.7     -1.0  32.3  450.61 3532.03 -0.569 2.11 33.3  0.00 0.20000 
 490.300    105.8     -3.2   3.0  2.74 3.00   136.7     -1.7  29.3  430.56 3506.51 -0.538 2.07 33.3  0.00 0.20000 
 490.400    103.9     -1.2   3.0  2.67 2.98   136.5     -0.6  40.6  495.74 3562.71 -0.665 2.05 33.3  0.00 0.20000 
 490.500    102.1     -0.3   3.0  2.73 3.06   135.4     -0.1  41.3  440.58 3322.88 -0.732 1.85 33.3  0.00 0.10000 
 490.600    111.5     -1.1   3.0  2.72 3.08   136.3     -0.6  46.6  450.63 3271.83 -0.811 1.94 33.3  0.00 0.20000 
 490.700    109.6     -1.3   3.0  2.61 3.17   137.0     -0.7  92.8  560.95 3017.06 -1.487 1.91 33.3  0.00 0.20000 
 490.800    110.6     -2.4   3.0  2.87 2.98   134.5     -1.2   1.5  330.34 3588.25 -0.192 1.88 33.3  0.00 0.20000 
 490.900    110.6     -4.5   3.0  2.67 3.04   128.3     -2.5  51.2  500.75 3394.29 -0.839 1.85 33.3  0.00 0.20000 
 491.000    124.7     -1.9   3.0  2.66 3.02   134.6     -1.0  49.1  505.78 3450.38 -0.798 2.08 33.3  0.00 0.20000 
 491.100    121.9     -0.4   3.0  2.67 3.07   135.4     -0.2  56.7  500.75 3302.40 -0.933 1.94 33.3  0.00 0.20000 
 491.200    125.7     -1.8   3.0  2.73 2.96   127.0     -1.0  24.5  435.57 3634.20 -0.450 1.92 33.3  0.00 0.20000 
 491.300    127.6     -6.2   3.0  2.67 2.99   118.5     -3.7  41.4  495.74 3547.42 -0.678 1.91 33.3  0.00 0.20000 
 491.400    125.7     -7.8   3.0  2.66 3.06   114.3     -4.9  57.0  505.77 3317.80 -0.933 1.96 33.3  0.00 0.20000 
 491.500    114.3     -5.8   3.0  2.66 3.03   116.7     -3.6  51.7  510.79 3424.86 -0.839 1.92 33.3  0.00 0.20000 
 491.600    104.9     -4.4   3.0  2.68 3.02   120.1     -2.6  44.4  485.72 3450.52 -0.739 2.00 33.3  0.00 0.20000 
 491.700    105.8     -6.5   3.0  2.71 3.01   116.4     -4.0  35.5  455.62 3491.23 -0.618 2.02 33.3  0.00 0.20000 
 491.800    111.5     -6.4   3.0  2.75 2.94   116.9     -3.9  18.1  420.53 3716.13 -0.357 2.06 33.3  0.00 0.10000 
 491.900    113.4     -6.3   3.0  2.64 2.99   117.2     -3.8  49.9  530.84 3537.44 -0.788 2.02 33.3  0.00 0.20000 
 492.000    119.1     -6.7   3.0  2.71 3.02   117.4     -4.1  39.1  460.64 3445.24 -0.673 2.03 33.3  0.00 0.20000 
 492.100    117.2     -6.4   3.0  2.66 3.06   116.6     -3.9  57.3  510.78 3333.03 -0.933 1.98 33.3  0.00 0.20000 
 492.200    111.5     -6.5   3.0  2.77 3.06   117.1     -4.0  31.6  400.48 3317.71 -0.612 2.08 33.3  0.00 0.20000 
 492.300     98.3     -6.1   3.0  2.79 3.11   120.0     -3.6  35.3  385.45 3175.00 -0.693 2.09 33.3  0.00 0.20000 
 492.400     87.9     -7.0   3.0  2.88 3.13   119.7     -4.2  18.8  320.31 3124.03 -0.503 2.13 33.3  0.00 0.20000 
 492.500     86.9     -7.4   3.0  2.78 3.10   120.8     -4.4  35.4  395.47 3220.88 -0.683 2.13 33.3  0.00 0.20000 
 492.600    100.2     -6.4   3.0  2.72 3.08   122.7     -3.7  45.7  445.60 3266.71 -0.801 2.16 33.3  0.00 0.20000 
 492.700     99.2     -7.2   3.0  2.79 3.09   122.5     -4.2  33.8  390.46 3225.93 -0.661 2.10 33.3  0.00 0.20000 
 492.800    105.8     -7.0   3.0  2.79 3.04   124.9     -4.0  25.3  390.46 3389.11 -0.516 2.14 33.3  0.00 0.20000 
 492.900    113.4     -7.1   3.0  2.73 3.03   115.0     -4.4  35.5  440.59 3429.97 -0.632 2.18 33.3  0.00 0.20000 
 493.000    100.2     -7.3   3.0  2.81 3.07   133.4     -3.9  25.9  375.43 3297.32 -0.547 2.17 33.3  0.00 0.20000 
 493.100     94.5     -5.8   3.0  2.76 3.05   131.3     -3.1  32.4  410.50 3353.41 -0.613 2.12 33.3  0.00 0.10000 
 493.200     89.8     -6.7   3.0  2.66 2.94   126.0     -3.8  37.4  510.81 3695.69 -0.594 2.14 33.3  0.00 0.20000 
 493.300     86.9     -7.2   3.0  2.76 3.09   128.3     -4.0  38.0  410.51 3251.41 -0.707 2.11 33.3  0.00 0.20000 
 493.400     88.8     -7.1   3.0  2.77 3.07   126.0     -4.0  32.1  400.48 3307.53 -0.621 2.03 33.3  0.00 0.20000 
 493.500     95.4     -7.4   3.0  2.73 3.01   132.2     -4.0  33.6  440.58 3465.71 -0.600 2.01 33.3  0.00 0.20000 
 493.600     88.8     -4.9   3.0  2.70 3.10   133.2     -2.6  55.7  470.69 3200.46 -0.946 2.05 33.3  0.00 0.20000 
 493.700     99.2     -6.1   3.0  2.74 3.08   126.8     -3.4  42.8  430.57 3256.56 -0.767 2.07 33.3  0.00 0.20000 
 493.800    106.8     -7.0   3.0  2.77 3.04   123.7     -4.0  27.9  400.49 3389.12 -0.549 2.19 33.3  0.00 0.20000 
 493.900    101.1     -6.9   3.0  2.75 2.98   119.9     -4.1  24.4  420.53 3567.93 -0.464 2.19 33.3  0.00 0.20000 
 494.000    103.0     -7.7   3.0  2.87 2.97   114.6     -4.8  -1.0  325.32 3618.93 -0.157 2.27 33.3  0.00 0.20000 
 494.100    108.7     -6.6   3.0  2.65 3.04   112.3     -4.2  55.7  515.80 3378.98 -0.901 2.27 33.3  0.00 0.20000 
 494.200    109.6     -5.9   3.0  2.77 2.98   111.9     -3.8  19.2  400.48 3572.91 -0.400 2.21 33.3  0.00 0.09900 
 494.300    107.7     -7.3   3.0  2.78 3.05   110.9     -4.7  27.9  395.47 3363.61 -0.555 2.04 33.3  0.00 0.20100 
 494.400    108.7     -7.6   3.0  2.72 3.06   106.4     -5.1  43.6  450.62 3322.80 -0.761 2.09 33.3  0.00 0.20000 
 494.500    114.3     -7.2   3.0  2.73 3.10   110.8     -4.7  48.5  440.58 3200.50 -0.853 2.07 33.3  0.00 0.20000 
 494.600    118.1     -6.3   3.0  2.69 3.00   110.8     -4.0  39.6  475.68 3496.32 -0.668 2.02 33.3  0.00 0.20000 
 494.700    117.2     -6.1   3.0  2.80 3.05   103.7     -4.2  24.7  380.46 3348.33 -0.519 2.03 33.3  0.00 0.19900 
 494.800    108.7     -7.2   3.0  2.71 3.05    97.3     -5.3  44.5  460.64 3348.35 -0.765 1.99 33.3  0.00 0.20100 
 494.900    111.5     -6.2   3.0  2.71 3.04    96.6     -4.6  40.7  455.63 3394.23 -0.707 2.03 33.3  0.00 0.20000 
