~Version Information
VERS.                      2.0: CWLS Log ASCII Standard - VERSION 2.0
WRAP.                       NO: One line per depth step
~Well Information Block
STRT.FT                 0.0000: 
STOP.FT              2006.5000: 
STEP.FT                 0.2500: 
NULL.                -999.2500: 
COMP.          Petrogulf Corporation: COMPANY
WELL.           Lavedure 7-44R: WELL
FLD.           Purgatorie River: FIELD
LOC.           946' FSL & 521' FEL: LOCATION
STAT.                 Colorado: State
CNTY.               Las Animas: COUNTY
CTRY. USA : Country
SECT. 7 : Section
TOWN. 33S : Township
RANG. 67W : Range
SRVC.                Patterson: SERVICE COMPANY
DATE.          Thu Nov 10 15:49:38 2005: LOG DATE
API. 05-071-08090       : UNIQUE WELL ID
~Curve Information Block
DEPT.FT            0 000 00 00: Depth
CCL.                          : Casing Collar Locator
TT3.usec                      : CBL 3' Travel Time
AMP3.mV                       : CBL 3' Amplitude
GR.GAPI                       : Gamma Ray
~Parameter Information Block
~A  Depth       CCL         TT3         AMP3         GR     
     0.0000   -999.2500   1197.0000      0.9703     50.9880
     0.2500      0.0000   1197.0000      0.9250     59.4157
     0.5000      0.0000   1197.0000      0.9174     71.6892
     0.7500      0.0000   1197.0000      0.9863     73.7862
     1.0000      0.0000   1197.0000      1.0468     72.9363
     1.2500      0.0000   1197.0000      1.0576     70.3861
     1.5000      0.0000   1197.0000      1.0304     68.0974
     1.7500      0.0000   1197.0000      0.9970     67.2167
     2.0000      0.0000   1197.0000      0.9809     67.3289
     2.2500      0.0000   1197.0000      0.9800     67.4308
     2.5000      0.0000   1197.0000      0.9646     67.2511
     2.7500      0.0000   1197.0000      0.9201     67.2474
     3.0000      0.0000   1197.0000      0.8755     67.5599
     3.2500      0.0000   1197.0000      0.8638     67.5663
     3.5000      0.0000   1197.0000      0.8753     66.6188
     3.7500      0.0000   1197.0000      0.8828     64.7979
     4.0000      0.0000   1197.0000      0.8850     62.6931
     4.2500      0.0000   1197.0000      0.8942     60.7507
     4.5000      0.0000   1197.0000      0.9122     59.1056
     4.7500      0.0000   1197.0000      0.9233     57.8051
     5.0000      0.0000   1197.0000      0.9135     56.8399
     5.2500     -2.0000   1197.0000      0.9006     56.0718
     5.5000      0.0000   1197.0000      0.9141     55.4862
     5.7500      2.0000   1197.0000      0.9454     55.3667
     6.0000      0.0000   1197.0000      0.9551     55.7901
     6.2500      0.0000   1197.0000      0.9391     56.1374
     6.5000      0.0000   1197.0000      0.9318     55.5756
     6.7500      0.0000   1197.0000      0.9443     53.9525
     7.0000      0.0000   1197.0000      0.9574     51.9725
     7.2500      0.0000   1197.0000      0.9577     50.7147
     7.5000      0.0000   1197.0000      0.9537     51.0309
     7.7500      0.0000   1197.0000      0.9557     52.9905
     8.0000      0.0000   1197.0000      0.9575     55.7995
     8.2500      0.0000   1197.0000      0.9589     58.5809
     8.5000      0.0000   1197.0000      0.9635     61.2188
     8.7500      0.0000   1196.9650      0.9579     64.2043
     9.0000      0.0000   1196.5386      0.9376     67.7046
     9.2500      0.0000   1193.2657      0.9317     71.0247
     9.5000      0.0000   1176.8762      1.0616     73.0876
     9.7500      0.0000   1122.4441      1.7962     73.4770
    10.0000      0.0000   1000.1412      4.5605     72.9459
    10.2500      0.0000    809.0894     11.9829     72.7469
    10.5000      0.0000    595.4051     25.5623     73.4905
    10.7500      0.0000    421.0316     42.0107     74.7397
    11.0000      0.0000    317.5563     55.0889     75.5835
    11.2500      0.0000    273.9101     61.9875     75.5430
    11.5000      0.0000    261.1733     64.5488     74.9875
    11.7500      0.0000    258.6324     65.3663     74.5617
    12.0000      0.0000    258.2676     65.6766     74.2364
    12.2500      0.0000    258.2110     65.8525     73.3531
    12.5000      0.0000    258.1964     66.0596     71.7274
    12.7500      0.0000    258.2059     66.3709     70.1239
    13.0000      0.0000    258.2278     66.7537     69.1845
    13.2500      0.0000    258.2255     67.1438     68.3849
    13.5000      0.0000    258.1760     67.5010     66.5918
    13.7500      0.0000    258.1073     67.8282     63.3695
    14.0000      0.0000    258.0738     68.1446     59.3262
    14.2500      0.0000    258.0927     68.4398     55.3823
    14.5000      0.0000    258.1353     68.7139     52.0375
    14.7500      0.0000    258.1689     69.0032     49.2997
    15.0000      0.0000    258.1775     69.3110     47.0929
    15.2500      0.0000    258.1569     69.5812     45.5371
    15.5000      0.0000    258.1158     69.7557     44.8067
    15.7500      0.0000    258.0771     69.8461     44.8890
    16.0000      0.0000    258.0641     69.9293     45.5869
    16.2500      0.0000    258.0873     70.0589     46.6223
    16.5000      0.0000    258.1380     70.2410     47.6173
    16.7500      0.0000    258.1854     70.4685     48.1302
    17.0000      0.0000    258.1950     70.6977     47.8970
    17.2500      0.0000    258.1614     70.8651     46.9777
    17.5000      0.0000    258.1101     70.9739     45.5271
    17.7500      0.0000    258.0717     71.0739     43.5614
    18.0000      0.0000    258.0578     71.1747     41.1686
    18.2500      0.0000    258.0623     71.2599     38.8225
    18.5000      0.0000    258.0801     71.3132     37.1362
    18.7500      0.0000    258.1161     71.2794     36.3514
    19.0000      0.0000    258.1941     70.9694     36.4326
    19.2500      0.0000    258.4096     69.8470     37.5556
    19.5000      0.0000    258.9642     67.1434     39.9933
    19.7500      0.0000    260.0555     62.6648     43.4263
    20.0000      0.0000    261.6614     57.1929     46.7153
    20.2500      0.0000    263.4511     52.0371     48.5341
    20.5000      0.0000    264.9518     48.5163     48.1862
    20.7500      0.0000    265.8612     47.1592     45.9746
    21.0000     -2.0000    266.2213     47.2735     43.0844
    21.2500      2.0000    266.2768     47.7867     41.1237
    21.5000      0.0000    266.2323     48.1161     41.3970
    21.7500     -2.0000    266.1544     48.1795     44.1721
    22.0000      0.0000    265.9702     48.2420     48.4750
    22.2500      0.0000    265.5170     49.0387     52.6584
    22.5000      0.0000    264.6680     51.6211     55.3773
    22.7500      0.0000    263.4355     56.1726     56.3166
    23.0000      0.0000    261.9678     61.1638     56.1690
    23.2500      0.0000    260.4842     65.1690     55.9004
    23.5000      0.0000    259.2255     68.3348     56.0318
    23.7500      0.0000    258.3886     70.8101     56.5886
    24.0000      0.0000    257.9891     72.2222     57.4674
    24.2500      0.0000    257.8634     72.7276     58.5248
    24.5000      0.0000    257.8397     72.8742     59.3309
    24.7500      0.0000    257.8318     72.9750     59.1109
    25.0000      0.0000    257.8195     73.0506     57.2122
    25.2500      0.0000    257.8080     73.0540     53.8381
    25.5000      0.0000    257.8024     73.0087     50.3905
    25.7500      0.0000    257.8007     72.9704     48.9358
    26.0000      0.0000    257.7984     72.9522     51.0470
    26.2500      0.0000    257.7995     72.9495     56.7946
    26.5000      0.0000    257.8082     72.9900     64.6393
    26.7500      0.0000    257.8156     73.1033     72.3791
    27.0000      0.0000    257.8113     73.2590     78.5543
    27.2500      0.0000    257.7987     73.3645     83.1935
    27.5000      0.0000    257.7867     73.3552     87.2012
    27.7500      0.0000    257.7786     73.2852     91.0351
    28.0000      0.0000    257.7719     73.2733     94.1247
    28.2500      0.0000    257.7582     73.3510     95.4797
    28.5000      0.0000    257.7319     73.4362     94.6465
    28.7500      0.0000    257.7077     73.4557     92.1188
    29.0000      0.0000    257.7058     73.4282     89.0772
    29.2500      0.0000    257.7231     73.4311     86.8113
    29.5000      0.0000    257.7414     73.5123     86.1715
    29.7500      0.0000    257.7474     73.6464     87.1534
    30.0000      0.0000    257.7427     73.7665     88.8787
    30.2500      0.0000    257.7409     73.8171     90.2530
    30.5000      0.0000    257.7524     73.8102     90.8047
    30.7500      0.0000    257.7716     73.8467     90.7717
    31.0000      0.0000    257.7831     74.0225     90.6218
    31.2500      0.0000    257.7769     74.2995     90.9184
    31.5000      0.0000    257.7549     74.5239     92.4088
    31.7500      0.0000    257.7272     74.5728     95.5680
    32.0000      0.0000    257.7086     74.4659    100.0369
    32.2500      0.0000    257.7152     74.3574    104.9284
    32.5000      0.0000    257.7496     74.3909    109.5361
    32.7500      0.0000    257.7874     74.5517    113.3076
    33.0000      0.0000    257.7970     74.7169    115.4195
    33.2500      0.0000    257.7716     74.8031    115.2231
