~Version Information
VERS.                      2.0: CWLS Log ASCII Standard - VERSION 2.0
WRAP.                       NO: One line per depth step
~Well Information Block
STRT.FT               500.0000: 
STOP.FT              2760.5000: 
STEP.FT                 0.1000: 
NULL.                -999.2500: 
COMP.          Petrogulf Corporation: COMPANY
WELL.              Silva 1-43V: WELL
FLD.           Purgatorie River: FIELD
LOC.           2010' FSL & 614' FEL: LOCATION
PROV.                 Colorado: PROVINCE
CNTY.               Las Animas: COUNTRY
SRVC.                Patterson: SERVICE COMPANY
DATE.          Mon Aug 29 08:02:37 2005: LOG DATE
UWI.                          : UNIQUE WELL ID
~Curve Information Block
DEPT.FT            0 000 00 00: Depth
DCAL.in                       : CDL Caliper
RHOB.g/cc                     : CDL Bulk Density
RHOC.g/cc                     : CDL Density Correction
DPOR.pu                       : CDL Density Porosity
GR.GAPI                       : Gamma Ray
NPOR.pu                       : Neutron Porosity
~Parameter Information Block
~A  Depth       DCAL        RHOB        RHOC        DPOR         GR         NPOR    
# ...
  1248.8000      8.5974      2.5452      0.0584      6.3522    148.9408     31.2595
  1248.9000      8.5974      2.5548      0.0664      5.7726    150.1925     30.5413
  1249.0000      8.6010      2.5596      0.0617      5.4809    146.9384     29.9448
  1249.1000      8.6010      2.5623      0.0513      5.3150    139.9850     29.6056
  1249.2000      8.6010      2.5668      0.0485      5.0421    136.7270     29.3990
  1249.3000      8.5965      2.5782      0.0121      4.3540    138.1921     29.3948
  1249.4000      8.5965      2.6026      0.0639      2.8711    141.2272     29.3605
  1249.5000      8.5984      2.6331      0.1005      1.0231    142.2128     29.1839
  1249.6000      8.5984      2.6505      0.0941     -0.0303    139.0345     29.0653
  1249.7000      8.5984      2.6516      0.0542     -0.0960    135.0995     28.9044
  1249.8000      8.5978      2.6511      0.0773     -0.0679    134.4801     28.4560
  1249.9000      8.5978      2.6527      0.0918     -0.1625    135.6938     27.8000
  1250.0000      8.5895      2.6455      0.0956      0.2704    136.5628     27.2156
  1250.1000      8.5895      2.6235      0.0753      1.6055    138.5411     27.1779
  1250.2000      8.5895      2.5957      0.0345      3.2895    142.8829     27.9631
  1250.3000      8.5753      2.5804      0.0159      4.2175    147.1038     28.9293
  1250.4000      8.5753      2.5874      0.0426      3.7960    148.3897     29.2724
  1250.5000      8.5703      2.6104      0.0935      2.3980    146.2446     29.0609
  1250.6000      8.5703      2.6358      0.1128      0.8629    141.3674     28.7123
  1250.7000      8.5703      2.6483      0.1402      0.1021    137.3534     28.4274
  1250.8000      8.5571      2.6401      0.1191      0.5983    137.4967     28.3051
  1250.9000      8.5571      2.6150      0.1287      2.1209    141.9063     28.4693
  1251.0000      8.5658      2.5838      0.0817      4.0091    148.2887     28.6762
  1251.1000      8.5658      2.5593      0.1037      5.4942    152.1825     28.6103
  1251.2000      8.5658      2.5486      0.0517      6.1430    153.2142     28.3778
  1251.3000      8.5668      2.5528      0.0593      5.8918    155.8600     28.0821
  1251.4000      8.5668      2.5640      0.0923      5.2126    161.8450     28.0091
  1251.5000      8.5577      2.5679      0.0910      4.9765    166.1269     28.5178
  1251.6000      8.5577      2.5584      0.0816      5.5515    164.6966     29.2098
  1251.7000      8.5577      2.5443      0.0867      6.4056    158.2938     29.6726
  1251.8000      8.5823      2.5368      0.0792      6.8580    149.0424     29.9435
  1251.9000      8.5823      2.5345      0.1235      7.0015    142.3020     29.9971
  1252.0000      8.5688      2.5296      0.1073      7.2950    139.6416     29.7494
  1252.1000      8.5688      2.5256      0.1001      7.5385    137.9916     29.3847
  1252.2000      8.5688      2.5281      0.0715      7.3891    137.3710     29.1346
  1252.3000      8.5720      2.5346      0.1054      6.9962    136.5332     28.9271
  1252.4000      8.5720      2.5392      0.1013      6.7168    133.2951     28.9902
  1252.5000      8.5620      2.5395      0.0799      6.6998    131.2534     29.4319
  1252.6000      8.5620      2.5400      0.0625      6.6659    131.6913     29.7888
  1252.7000      8.5620      2.5436      0.0788      6.4469    131.1215     29.8284
  1252.8000      8.5254      2.5473      0.0538      6.2261    129.5262     29.5738
  1252.9000      8.5254      2.5602      0.0299      5.4404    130.1096     28.9832
  1253.0000      8.4847      2.5832      0.0918      4.0503    133.9503     28.2701
  1253.1000      8.4847      2.5897      0.1202      3.6549    136.5750     27.7979
  1253.2000      8.4847      2.5718      0.0608      4.7367    133.7692     27.6448
  1253.3000      8.4417      2.5506      0.0689      6.0229    128.5507     27.6117
  1253.4000      8.4417      2.5373      0.0654      6.8309    123.6306     27.4385
  1253.5000      8.4205      2.5333      0.0169      7.0744    119.3602     26.9848
  1253.6000      8.4205      2.5409      0.0400      6.6139    118.9624     26.3997
  1253.7000      8.4205      2.5551      0.0372      5.7507    123.0851     26.0873
  1253.8000      8.4053      2.5666      0.0329      5.0515    127.5953     26.2024
  1253.9000      8.4053      2.5642      0.0755      5.2009    129.9210     26.3187
  1254.0000      8.4018      2.5455      0.0367      6.3320    131.7878     26.0121
  1254.1000      8.4018      2.5321      0.0200      7.1470    134.6088     25.5939
  1254.2000      8.4018      2.5423      0.0433      6.5280    139.5929     25.6907
  1254.3000      8.3985      2.5655      0.0865      5.1221    145.3648     26.1351
  1254.4000      8.3985      2.5842      0.0699      3.9880    146.7411     26.3954
  1254.5000      8.3983      2.5974      0.0926      3.1906    145.2877     26.5709
  1254.6000      8.3983      2.6075      0.0905      2.5738    146.1821     26.9286
  1254.7000      8.3983      2.6119      0.0950      2.3118    146.6596     27.4120
  1254.8000      8.4278      2.6151      0.1023      2.1180    143.1113     27.8340
  1254.9000      8.4278      2.6243      0.0992      1.5583    139.5447     28.1684
  1255.0000      8.4288      2.6299      0.1365      1.2207    139.4126     28.4777
  1255.1000      8.4288      2.6168      0.0996      2.0150    141.2167     28.6073
  1255.2000      8.4288      2.5944      0.0348      3.3725    142.8794     28.4113
  1255.3000      8.4167      2.5840      0.0330      4.0027    143.2291     27.9338
  1255.4000      8.4167      2.5873      0.0606      3.7979    142.3842     27.5534
  1255.5000      8.4237      2.5946      0.0307      3.3560    138.7601     27.5097
  1255.6000      8.4237      2.6026      0.0122      2.8728    132.3465     27.3120
  1255.7000      8.4237      2.6089      0.0965      2.4886    129.2124     26.5208
  1255.8000      8.4140      2.6130      0.0139      2.2409    130.8617     25.6062
  1255.9000      8.4140      2.6157      0.0634      2.0766    131.0261     25.1181
  1256.0000      8.3447      2.6089      0.0510      2.4902    125.8946     24.6295
  1256.1000      8.3447      2.5996      0.0167      3.0560    118.5068     23.6481
  1256.2000      8.3447      2.6061      0.0259      2.6581    114.8997     22.3667
  1256.3000      8.2787      2.6247      0.0473      1.5354    114.7534     21.2773
  1256.4000      8.2787      2.6328      0.0982      1.0414    111.8526     20.6535
  1256.5000      8.2419      2.6230      0.0464      1.6338    107.3162     20.3381
  1256.6000      8.2419      2.6176      0.0211      1.9614    107.3408     20.2107
  1256.7000      8.2419      2.6263      0.0676      1.4344    111.9656     20.5150
  1256.8000      8.2320      2.6264      0.0936      1.4297    116.9060     21.3206
  1256.9000      8.2320      2.6090      0.0440      2.4821    119.9312     22.1636
  1257.0000      8.2260      2.5967      0.0307      3.2292    122.4880     22.5342
  1257.1000      8.2260      2.6012      0.0576      2.9586    127.8952     22.4468
  1257.2000      8.2260      2.6070      0.0899      2.6074    133.6157     22.3487
  1257.3000      8.2242      2.6024      0.0446      2.8852    134.1357     22.4852
  1257.4000      8.2242      2.5938      0.0624      3.4075    130.4755     22.6491
  1257.5000      8.2157      2.5877      0.0514      3.7763    127.1356     22.5047
  1257.6000      8.2157      2.5846      0.0485      3.9609    125.3845     22.0707
  1257.7000      8.2157      2.5845      0.0454      3.9687    124.5149     21.6524
  1257.8000      8.2083      2.5911      0.0400      3.5670    122.5271     21.3806
  1257.9000      8.2083      2.6031      0.0507      2.8405    117.1478     21.2269
  1258.0000      8.2001      2.6063      0.0633      2.6474    111.3085     21.0947
  1258.1000      8.2001      2.5951      0.0422      3.3270    108.7730     20.8530
  1258.2000      8.2001      2.5862     -0.0010      3.8691    109.9002     20.4142
  1258.3000      8.2011      2.5892      0.0872      3.6878    113.8791     19.9513
