~Version Information
VERS.                      2.0: CWLS Log ASCII Standard - VERSION 2.0
WRAP.                       NO: One line per depth step
~Well Information Block
STRT.FT                -5.2500: 
STOP.FT               769.5000: 
STEP.FT                 0.2500: 
NULL.                -999.2500: 
COMP.          Pioneer Natural Resources: COMPANY
WELL.          HG Duran 34-27 Tr: WELL
FLD.           Purgatorie River: FIELD
LOC.           1076' FSL & 1465' FEL: LOCATION
PROV.                 Colorado: PROVINCE
CNTY.               Las Animas: COUNTRY
SRVC.          Patterson Wireline: SERVICE COMPANY
DATE.          Mon Apr 18 09:19:17 2005: LOG DATE
UWI.           05-071-08218-00: UNIQUE WELL ID
~Curve Information Block
DEPT.FT            0 000 00 00: Depth
CCL.                          : Casing Collar Locator
TT3.usec                      : CBL 3' Travel Time
AMP3.mV                       : CBL 3' Amplitude
GR.GAPI                       : Gamma Ray
~Parameter Information Block
~A  Depth       CCL         TT3         AMP3         GR     
# ...
    95.2500      0.0000    848.4852     13.4895     64.1505
    95.5000      0.0000    848.1835     13.4617     65.4836
    95.7500      0.0000    847.3582     13.3253     66.5688
    96.0000      0.0000    845.6635     13.0505     66.0084
    96.2500      0.0000    843.1564     12.6816     63.5449
    96.5000      0.0000    840.6821     12.2604     59.8749
    96.7500      0.0000    839.5236     11.8101     56.2571
    97.0000      0.0000    840.3151     11.3599     54.0391
    97.2500      0.0000    842.4086     10.9583     53.9736
    97.5000      0.0000    844.5214     10.6678     56.0697
    97.7500      0.0000    845.7901     10.5403     60.0049
    98.0000      0.0000    846.0078     10.5735     64.9790
    98.2500      0.0000    845.1069     10.6926     69.1824
    98.5000      0.0000    842.7985     10.7948     70.5406
    98.7500      0.0000    838.9575     10.8111     68.6405
    99.0000      0.0000    834.4550     10.7182     65.3149
    99.2500      0.0000    831.2902     10.5111     63.0057
    99.5000      0.0000    831.2361     10.1925     62.9019
    99.7500      0.0000    834.0809      9.7905     64.5715
   100.0000      0.0000    837.4675      9.3665     66.7785
   100.2500      0.0000    838.4838      8.9995     68.4609
   100.5000      0.0000    835.3110      8.7548     69.2069
   100.7500      0.0000    827.7761      8.6508     69.0771
   101.0000      0.0000    816.9607      8.6414     68.3069
   101.2500      0.0000    804.4327      8.6454     67.4110
   101.5000      0.0000    791.7276      8.6049     67.1857
   101.7500      0.0000    780.3181      8.5153     68.0740
   102.0000      0.0000    771.5096      8.4044     69.6955
   102.2500      0.0000    765.9283      8.2981     71.3984
   102.5000      0.0000    763.2316      8.2081     72.9741
   102.7500      0.0000    762.5311      8.1393     74.3526
   103.0000      0.0000    763.0862      8.1015     75.0296
   103.2500      0.0000    764.7374      8.1147     74.5502
   103.5000      0.0000    767.9429      8.1935     73.3247
   103.7500      0.0000    773.3274      8.3237     72.3681
   104.0000      0.0000    780.8183      8.4689     72.3092
   104.2500      0.0000    789.1300      8.6023     72.9113
   104.5000      0.0000    796.4205      8.7190     73.4143
   104.7500      0.0000    801.6911      8.8231     73.3321
   105.0000      0.0000    805.6005      8.9288     73.0368
   105.2500      0.0000    810.0768      9.0665     73.5018
   105.5000      0.0000    817.0973      9.2562     75.3759
   105.7500      0.0000    827.2399      9.4670     78.2710
   106.0000      0.0000    839.0122      9.6265     80.7257
   106.2500      0.0000    849.9725      9.6783     80.9694
   106.5000      0.0000    858.7950      9.6209     78.3135
   106.7500      0.0000    865.8233      9.5005     73.9301
   107.0000      0.0000    871.6854      9.3898     69.9588
   107.2500      0.0000    876.4821      9.3716     67.8477
   107.5000      0.0000    880.6845      9.5161     67.7140
   107.7500      0.0000    885.6591      9.8414     69.1215
   108.0000      0.0000    892.4598     10.2833     71.9316
   108.2500      0.0000    900.6821     10.7087     75.9156
   108.5000      0.0000    909.0301     10.9872     79.9116
   108.7500      0.0000    916.5972     11.0712     82.3390
   109.0000      0.0000    923.5319     11.0132     82.6835
   109.2500      0.0000    931.2662     10.9180     81.7530
   109.5000      0.0000    942.1490     10.9009     80.4922
   109.7500      0.0000    957.3279     11.0972     79.2861
   110.0000      0.0000    973.7646     11.6762     78.2281
   110.2500      0.0000    984.8805     12.7723     77.1072
   110.5000      0.0000    987.1014     14.3249     75.0613
   110.7500      0.0000    985.5444     15.9405     71.2257
   111.0000      0.0000    990.0698     16.9477     66.3023
   111.2500      0.0000   1005.1756     16.7256     62.7784
   111.5000      0.0000   1026.4626     15.1440     62.7420
   111.7500      0.0000   1047.1421     12.7426     65.6433
   112.0000      0.0000   1065.9364     10.3993     68.5722
   112.2500      0.0000   1088.3895      8.7573     68.5533
   112.5000      0.0000   1121.3723      7.9430     64.6935
   112.7500      0.0000   1165.6145      7.7160     58.8098
   113.0000     -5.0000   1212.0856      7.7682     54.2071
   113.2500      0.0000   1244.0634      7.9271     53.2786
   113.5000      0.0000   1243.3820      8.2351     55.8634
   113.7500      0.0000   1200.9747      8.8933     59.7919
   114.0000      0.0000   1128.3821     10.0293     62.9167
   114.2500      0.0000   1055.9830     11.4341     64.7744
   114.5000      0.0000   1010.9377     12.5961     66.5724
   114.7500      0.0000    994.2839     13.0978     69.6701
   115.0000      0.0000    983.6685     12.9647     74.1566
   115.2500      0.0000    959.1661     12.5715     78.9297
   115.5000      0.0000    921.6939     12.2665     82.8018
   115.7500      0.0000    885.8638     12.1533     85.1158
   116.0000      0.0000    862.5981     12.1682     85.5548
   116.2500      0.0000    852.7035     12.2441     84.1712
   116.5000      0.0000    851.8372     12.3699     81.7021
   116.7500      0.0000    855.5499     12.5498     79.1313
   117.0000      0.0000    860.0682     12.7645     76.7581
   117.2500      0.0000    862.2125     12.9766     74.1302
   117.5000      0.0000    860.9848     13.1641     70.7752
   117.7500      0.0000    858.7999     13.3507     66.6545
   118.0000      0.0000    860.3146     13.6022     62.3029
   118.2500      0.0000    869.1851     13.9681     58.9363
   118.5000      0.0000    884.7410     14.4067     58.0535
   118.7500      0.0000    900.8895     14.7799     60.3200
   119.0000      0.0000    909.7994     14.9531     64.6618
   119.2500      0.0000    908.5992     14.9132     68.8573
   119.5000      0.0000    901.6740     14.7778     71.4482
   119.7500      0.0000    895.3774     14.6931     72.8810
   120.0000      0.0000    892.3381     14.7245     74.4709
   120.2500      0.0000    892.6353     14.8258     76.6645
   120.5000      0.0000    898.1476     14.8926     78.7293
   120.7500      0.0000    911.4024     14.8569     79.7290
   121.0000      0.0000    929.0827     14.7399     79.2397
   121.2500      0.0000    940.2679     14.6021     77.3289
   121.5000      0.0000    934.8953     14.4443     74.3850
   121.7500      0.0000    913.5300     14.1953     71.0708
   122.0000      0.0000    886.6061     13.8153     68.0637
   122.2500      0.0000    864.6920     13.3816     65.5483
   122.5000      0.0000    851.9884     13.0370     63.3124
   122.7500      0.0000    848.6313     12.8614     61.6767
   123.0000      0.0000    856.4808     12.8141     61.8280
   123.2500      0.0000    880.3659     12.7947     64.7381
   123.5000      0.0000    921.9686     12.7424     69.9814
   123.7500      0.0000    972.9883     12.6759     75.5508
   124.0000      0.0000   1017.5867     12.6649     78.5673
   124.2500      0.0000   1042.6592     12.7786     76.8284
   124.5000      0.0000   1042.7981     13.0437     70.5159
   124.7500      0.0000   1017.6453     13.4247     62.2472
   125.0000      0.0000    972.2602     13.8447     55.1436
   125.2500      0.0000    919.4773     14.2448     51.0068
   125.5000      0.0000    874.3126     14.6424     50.0608
   125.7500      0.0000    844.7019     15.1181     51.5620
   126.0000      0.0000    829.6257     15.7181     54.3288
   126.2500      0.0000    823.8193     16.3672     57.2651
   126.5000      0.0000    822.3679     16.9061     59.9703
   126.7500      0.0000    822.6673     17.2144     62.7970
   127.0000      0.0000    824.1339     17.2892     66.1133
   127.2500      0.0000    826.6127     17.2229     69.7340
   127.5000      0.0000    829.6175     17.1298     73.4343
   127.7500      0.0000    832.9676     17.0829     77.6322
   128.0000      0.0000    837.0523     17.0944     82.6867
   128.2500      0.0000    842.4662     17.1269     87.5034
   128.5000      0.0000    849.8506     17.0970     89.8283
