~Version Information
VERS.                      2.0: CWLS Log ASCII Standard - VERSION 2.0
WRAP.                       NO: One line per depth step
~Well Information Block
STRT.FT                39.7500: 
STOP.FT              1484.0000: 
STEP.FT                 0.2500: 
NULL.                -999.2500: 
COMP.          Evergreen Operating Corporation: COMPANY
WELL.              Chase 21-10: WELL
FLD.           Purgatoire River: FIELD
LOC.           1122' FNL & 1544' FWL: LOCATION
PROV.                       CO: PROVINCE
CNTY.               Las Animas: COUNTRY
SRVC.                         : SERVICE COMPANY
DATE.          Fri May 28 15:54:16 2004: LOG DATE
UWI.           05 071 08006 00: UNIQUE WELL ID
~Curve Information Block
DEPT.FT            0 000 00 00: Depth
TT3.usec                      : CBL 3' Travel Time
AMP3.mV                       : CBL 3' Amplitude
GR.GAPI                       : Gamma Ray
CCL.                          : Casing Collar Locator
~Parameter Information Block
~A  Depth       TT3         AMP3         GR         CCL     
# ...
  1446.7500    304.5320     32.9145     73.9554      0.0000
  1447.0000    304.4429     33.1122     75.2206      0.0000
  1447.2500    304.3742     33.1416     77.0246      0.0000
  1447.5000    304.3666     32.9632     78.6626      0.0000
  1447.7500    304.4113     32.6498     80.0457      0.0000
  1448.0000    304.4733     32.3450     81.0865      0.0000
  1448.2500    304.5151     32.1838     81.0225      0.0000
  1448.5000    304.5023     32.2412     79.1816      0.0000
  1448.7500    304.4202     32.5231     76.4660      0.0000
  1449.0000    304.2940     32.9840     75.2142      0.0000
  1449.2500    304.1730     33.5495     77.1222      0.0000
  1449.5000    304.0847     34.1248     81.5190      0.0000
  1449.7500    304.0175     34.6046     85.8246      0.0000
  1450.0000    303.9522     34.9085     87.6238      0.0000
  1450.2500    303.8973     35.0246     86.4751      0.0000
  1450.5000    303.8837     35.0111     84.0450      0.0000
  1450.7500    303.9263     34.9517     82.5996      0.0000
  1451.0000    303.9961     34.9056     83.2096      0.0000
  1451.2500    304.0360     34.8773     85.1491      0.0000
  1451.5000    304.0128     34.8158     86.6757      0.0000
  1451.7500    303.9512     34.6473     86.2668      0.0000
  1452.0000    303.9091     34.3301     83.4826      0.0000
  1452.2500    303.9218     33.8884     79.2285      0.0000
  1452.5000    303.9749     33.3978     75.3474      0.0000
  1452.7500    304.0240     32.9395     73.5906      0.0000
  1453.0000    304.0367     32.5492     74.5011      0.0000
  1453.2500    304.0242     32.1891     77.1540      0.0000
  1453.5000    304.0479     31.7698     80.0185      0.0000
  1453.7500    304.2263     31.2190     82.0700      0.0000
  1454.0000    304.7680     30.5344     83.2485      0.0000
  1454.2500    306.3182     29.7699     84.2253      0.0000
  1454.5000    310.6744     28.9831     85.7864      0.0000
  1454.7500    321.3795     28.2028     88.1821      0.0000
  1455.0000    342.2230     27.4429     90.9386      0.0000
  1455.2500    372.2336     26.7384     93.2324      0.0000
  1455.5000    401.1594     26.1555     94.2324      0.0000
  1455.7500    413.7694     25.7576     93.1654      3.0000
  1456.0000    402.8395     25.5555     89.5646      0.0000
  1456.2500    376.6068     25.4979     83.8642      0.0000
  1456.5000    350.7551     25.5185     77.6615      0.0000
  1456.7500    334.7390     25.5938     73.0731      0.0000
  1457.0000    327.4792     25.7567     71.5545      0.0000
  1457.2500    323.2898     26.0567     73.0407      0.0000
  1457.5000    318.6104     26.5050     75.9372      0.0000
  1457.7500    313.5421     27.0589     78.1585      0.0000
  1458.0000    309.5504     27.6571     78.7684      0.0000
  1458.2500    307.3079     28.2605     78.7678      0.0000
  1458.5000    306.3900     28.8562     79.9972      0.0000
  1458.7500    306.0724     29.4368     83.2706      0.0000
  1459.0000    305.8862     29.9907     87.7103      0.0000
  1459.2500    305.6842     30.5091     91.6793      0.0000
  1459.5000    305.4846     30.9957     93.9966      0.0000
  1459.7500    305.3310     31.4766     94.3649      0.0000
  1460.0000    305.2406     31.9955     93.2105      0.0000
  1460.2500    305.2151     32.5820     91.5822      0.0000
  1460.5000    305.2511     33.2175     90.9949      0.0000
  1460.7500    305.3242     33.8495     92.6791      0.0000
  1461.0000    305.3443     34.4514     96.5575      0.0000
  1461.2500    305.0959     35.0615    101.1321      0.0000
  1461.5000    304.1597     35.7630    104.7466      0.0000
  1461.7500    301.9029     36.6343    106.9409      0.0000
  1462.0000    297.7478     37.7123    108.2814      0.0000
  1462.2500    291.7466     38.9798    109.1232      0.0000
  1462.5000    284.9335     40.3726    109.3071      0.0000
  1462.7500    278.8537     41.7974    109.0821      0.0000
  1463.0000    274.5731     43.1596    109.4027      0.0000
  1463.2500    272.1631     44.3944    110.9034      0.0000
  1463.5000    271.0325     45.4912    113.0796      0.0000
  1463.7500    270.5336     46.4916    114.6688      0.0000
  1464.0000    270.2673     47.4526    114.4387      0.0000
  1464.2500    270.0687     48.3991    111.6259      0.0000
  1464.5000    269.8948     49.3003    106.2088      0.0000
  1464.7500    269.7461     50.0884     99.1972      0.0000
  1465.0000    269.6294     50.6986     92.5735      0.0000
  1465.2500    269.5499     51.0882     88.6420      0.0000
  1465.5000    269.5108     51.2317     89.0006      0.0000
  1465.7500    269.5102     51.1338     93.6659      0.0000
  1466.0000    269.5366     50.8543    100.9866   -999.2500
  1466.2500    269.5735     50.4863    108.5200   -999.2500
  1466.5000    269.6137     50.0879    114.1343   -999.2500
  1466.7500    269.6647     49.6455    116.4666   -999.2500
  1467.0000    269.7397     49.1104    114.9368   -999.2500
  1467.2500    269.8463     48.4583    109.8743   -999.2500
  1467.5000    269.9803     47.7188    102.1692   -999.2500
  1467.7500    270.1292     46.9569     91.9774   -999.2500
  1468.0000    270.2813     46.2292     78.1756   -999.2500
  1468.2500    270.4360     45.5438     60.1940   -999.2500
  1468.5000    270.6036     44.8631     40.2440   -999.2500
  1468.7500    270.7921     44.1592     22.5946   -999.2500
  1469.0000    270.9963     43.4669     10.4091   -999.2500
  1469.2500    271.2269     42.8694      3.8750   -999.2500
  1469.5000    271.5816     42.4252      1.1537   -999.2500
  1469.7500    272.3102     42.1152      0.2725   -999.2500
  1470.0000    273.7470     41.8609      0.0504   -999.2500
  1470.2500    276.0277     41.5885      0.0066   -999.2500
  1470.5000    278.8381     41.2802      0.0000   -999.2500
  1470.7500    281.6333     40.9752   -999.2500   -999.2500
  1471.0000    284.1078     40.7295   -999.2500   -999.2500
  1471.2500    286.0633     40.5869   -999.2500   -999.2500
  1471.5000    286.8220     40.5840   -999.2500   -999.2500
  1471.7500    285.4879     40.7584   -999.2500   -999.2500
  1472.0000    282.0924     41.1308   -999.2500   -999.2500
  1472.2500    277.9287     41.6877   -999.2500   -999.2500
  1472.5000    274.4789     42.3931   -999.2500   -999.2500
  1472.7500    272.3487     43.2170   -999.2500   -999.2500
  1473.0000    271.2810     44.1499   -999.2500   -999.2500
  1473.2500    270.7715     45.1977   -999.2500   -999.2500
  1473.5000    270.4699     46.3625   -999.2500   -999.2500
  1473.7500    270.2247     47.6232   -999.2500   -999.2500
  1474.0000    269.9930     48.9355   -999.2500   -999.2500
  1474.2500    269.7684     50.2596   -999.2500   -999.2500
  1474.5000    269.5483     51.5956   -999.2500   -999.2500
  1474.7500    269.3237     52.9905   -999.2500   -999.2500
  1475.0000    269.0817     54.5027   -999.2500   -999.2500
  1475.2500    268.8189     56.1431   -999.2500   -999.2500
  1475.5000    268.5520     57.8387   -999.2500   -999.2500
  1475.7500    268.3110     59.4528   -999.2500   -999.2500
  1476.0000    268.1035     60.8427   -999.2500   -999.2500
  1476.2500    267.8563     61.9067   -999.2500   -999.2500
  1476.5000    267.1814     62.5533   -999.2500   -999.2500
  1476.7500    264.7823     62.5426   -999.2500   -999.2500
  1477.0000    257.5137     61.2150   -999.2500   -999.2500
  1477.2500    240.1393     57.3878   -999.2500   -999.2500
  1477.5000    207.7185     49.9120   -999.2500   -999.2500
  1477.7500    160.5712     38.8742   -999.2500   -999.2500
  1478.0000    107.1595     26.2977   -999.2500   -999.2500
  1478.2500     60.0292     15.1759   -999.2500   -999.2500
  1478.5000     27.6386      7.5269   -999.2500   -999.2500
  1478.7500     10.3015      3.4324   -999.2500   -999.2500
  1479.0000      3.0743      1.7258   -999.2500   -999.2500
  1479.2500      0.7280      1.1718   -999.2500   -999.2500
  1479.5000      0.1347      1.0318   -999.2500   -999.2500
  1479.7500      0.0179      1.0042   -999.2500   -999.2500
  1480.0000   -999.2500   -999.2500   -999.2500   -999.2500
