~Version Information
VERS.                      2.0: CWLS Log ASCII Standard - VERSION 2.0
WRAP.                       NO: One line per depth step
~Well Information Block
STRT.FT                -7.5000: 
STOP.FT               872.5000: 
STEP.FT                 0.5000: 
NULL.                -999.2500: 
COMP.          Pioneer Natural Resources: COMPANY
WELL.          New Mexico 21-5: WELL
FLD.           Purgatorie River: FIELD
LOC.           175' FNL & 1700' FWL: LOCATION
PROV.                 Colorado: PROVINCE
CNTY.               Las Animas: COUNTRY
SRVC.          Patterson Wireline: SERVICE COMPANY
DATE.          Fri Dec 17 09:32:01 2004: LOG DATE
UWI.           05-071-08234-00: UNIQUE WELL ID
~Curve Information Block
DEPT.FT            0 000 00 00: Depth
CCL.                          : Casing Collar Locator
TT3.usec                      : CBL 3' Travel Time
AMP3.mV                       : CBL 3' Amplitude
GR.GAPI                       : Gamma Ray
~Parameter Information Block
~A  Depth       CCL         TT3         AMP3         GR     
# ...
   796.5000      0.0000    732.7405      7.2472     67.6525
   797.0000      0.0000    747.0483      7.2579     63.5182
   797.5000      0.0000    771.1066      7.1274     67.5781
   798.0000      0.0000    775.1701      6.7351     71.8658
   798.5000      0.0000    747.8574      6.1408     81.8679
   799.0000      0.0000    731.9324      5.6711     91.9506
   799.5000      0.0000    748.2581      5.4799     87.8691
   800.0000      0.0000    764.3381      5.5027     76.1276
   800.5000      5.0000    783.8467      5.5742     74.0652
   801.0000      0.0000    809.9957      5.5425     84.5628
   801.5000      0.0000    818.5062      5.6864     90.2152
   802.0000      0.0000    792.1324      5.8806     78.8603
   802.5000      0.0000    758.8864      6.1808     60.9694
   803.0000      0.0000    742.8198      6.4325     55.7599
   803.5000      0.0000    735.9799      6.3546     72.0936
   804.0000      0.0000    736.9205      6.2551     97.7253
   804.5000      0.0000    743.9431      6.1595    109.5067
   805.0000      0.0000    733.1323      6.1095    108.6922
   805.5000      0.0000    687.2318      6.0162    113.6544
   806.0000      0.0000    640.4568      5.9992    116.8894
   806.5000      0.0000    614.9623      5.9593    113.8949
   807.0000      0.0000    611.7504      5.7662    110.9833
   807.5000      0.0000    646.4372      5.9166    107.9668
   808.0000      0.0000    680.8922      6.2111    104.4711
   808.5000      0.0000    625.4640      6.3020    100.8418
   809.0000      0.0000    514.3736      6.4438     92.4166
   809.5000      0.0000    469.5026      6.3584     81.7175
   810.0000      0.0000    536.6718      6.0118     74.5843
   810.5000      0.0000    648.4083      5.9967     76.0129
   811.0000      0.0000    702.9200      6.2903     81.4214
   811.5000      0.0000    703.5955      6.3395     82.0657
   812.0000      0.0000    698.1027      6.2004     81.8853
   812.5000      0.0000    697.9687      6.3171     84.6845
   813.0000      0.0000    698.2395      6.6106     86.7248
   813.5000      0.0000    695.4505      6.5949     85.9385
   814.0000      0.0000    689.9423      6.1964     84.9846
   814.5000      0.0000    688.6224      6.0596     85.7186
   815.0000      0.0000    689.4479      6.5772     83.9214
   815.5000      0.0000    670.3920      7.0038     80.2010
   816.0000      0.0000    615.6437      6.7950     81.3428
   816.5000      0.0000    591.8540      6.6444     86.3860
   817.0000      0.0000    632.9042      6.9403     87.9996
   817.5000      0.0000    629.0783      6.9885     78.6462
   818.0000      0.0000    565.0728      6.5132     68.5152
   818.5000      0.0000    564.7275      6.0395     70.7218
   819.0000      0.0000    634.6057      5.9200     72.6323
   819.5000      0.0000    677.2543      6.1805     68.5071
   820.0000      0.0000    689.9476      6.6224     65.2899
   820.5000      0.0000    695.7875      6.8592     62.8632
   821.0000      0.0000    703.1567      6.6933     61.9342
   821.5000      0.0000    703.4830      6.2643     63.7463
   822.0000      0.0000    652.4679      5.8530     65.2137
   822.5000      0.0000    544.6423      5.8713     66.2613
   823.0000      0.0000    459.0358      6.4932     66.5522
   823.5000      0.0000    432.0790      7.2938     61.4792
   824.0000      0.0000    452.1046      7.6714     53.1138
   824.5000      0.0000    509.6622      7.2760     46.5466
   825.0000      0.0000    527.5204      6.6753     43.3523
   825.5000      0.0000    468.8535      6.6741     42.7624
   826.0000      0.0000    423.5853      7.1996     44.8814
   826.5000      0.0000    413.9464      7.7626     49.8625
   827.0000      0.0000    407.2778      7.7023     53.4659
   827.5000      0.0000    410.2168      6.9160     52.4324
   828.0000      0.0000    472.2539      6.1879     50.9448
   828.5000      0.0000    602.3281      5.9408     52.5979
   829.0000      0.0000    695.4980      6.1172     52.8956
   829.5000      0.0000    714.6506      6.5567     52.0527
   830.0000      0.0000    726.4858      7.0545     48.3362
   830.5000      0.0000    728.2216      7.4709     43.7743
   831.0000      0.0000    669.7688      7.6788     47.2834
   831.5000      0.0000    541.4629      7.6872     52.2640
   832.0000      0.0000    437.9739      7.5560     51.5283
   832.5000      0.0000    427.8374      7.2513     49.2099
   833.0000      0.0000    488.5564      6.6985     46.3880
   833.5000      0.0000    518.1353      6.0677     46.3392
   834.0000      0.0000    461.4095      5.7993     53.8273
   834.5000      0.0000    410.5054      5.9380     62.3265
   835.0000      0.0000    397.2223      6.4717     65.2192
   835.5000      0.0000    395.4688      7.0401     63.3011
   836.0000      0.0000    394.7730      7.0719     58.8222
   836.5000      0.0000    394.0840      6.7773     55.6686
   837.0000      0.0000    393.0810      6.7819     56.5528
   837.5000      0.0000    392.6491      7.1350     58.9495
   838.0000      0.0000    399.7130      7.2395     63.1874
   838.5000      0.0000    443.6605      6.8149     68.6986
   839.0000      0.0000    560.2017      6.5182     69.2405
   839.5000      0.0000    689.1324      6.8880     68.7825
   840.0000      0.0000    746.3943      7.1109     71.1777
   840.5000      0.0000    764.7089      6.6587     72.3571
   841.0000      0.0000    782.2343      6.2881     74.5785
   841.5000      0.0000    794.4446      6.3128     78.0274
   842.0000      0.0000    791.3347      6.1599     75.7117
   842.5000      0.0000    798.4063      5.7609     69.2140
   843.0000      0.0000    819.1761      5.7495     61.2719
   843.5000      0.0000    803.8868      6.2235     54.5448
   844.0000      0.0000    753.0856      6.7829     50.4507
   844.5000      0.0000    722.5738      7.2230     46.1564
   845.0000      0.0000    754.9537      7.4130     47.2541
   845.5000      0.0000    807.1420      7.5480     50.3851
   846.0000      0.0000    828.7494      8.2814     45.6657
   846.5000      0.0000    830.7907      8.5877     38.7195
   847.0000      0.0000    824.5004      8.2107     38.3835
   847.5000      0.0000    811.3419      7.9435     43.8341
   848.0000      0.0000    801.7317      7.7056     48.2523
   848.5000      0.0000    801.1095      7.5611     48.9490
   849.0000      0.0000    797.3857      7.5633     47.3791
   849.5000      0.0000    780.5385      7.3669     48.0087
   850.0000      0.0000    753.3777      7.2711     49.3518
   850.5000      0.0000    724.2635      7.3598     48.5787
   851.0000      0.0000    703.7260      7.5608     49.9542
   851.5000      0.0000    696.7401      7.8135     54.1047
   852.0000      0.0000    696.1500      7.6621     54.4225
   852.5000      0.0000    696.7259      7.2579     55.5746
   853.0000      0.0000    697.3032      6.7946     57.9136
   853.5000      0.0000    698.4191      6.4607     56.5440
   854.0000      0.0000    703.1022      6.5262     55.8025
   854.5000      0.0000    719.6901      6.5704     56.6127
   855.0000      0.0000    746.8041      6.4670     56.8987
   855.5000      0.0000    769.2611      6.2709     55.2774
   856.0000      0.0000    783.3560      6.0313     52.4465
   856.5000      0.0000    767.7650      6.0713     51.0778
   857.0000      0.0000    727.2178      6.1766     50.3437
   857.5000      0.0000    703.7734      6.2520     48.2594
   858.0000      0.0000    699.3791      6.3853     47.0518
   858.5000      0.0000    703.7694      6.5630     43.4043
   859.0000      0.0000    728.0947      6.7389     26.0992
   859.5000      0.0000    777.4738      6.6827      7.4756
   860.0000      0.0000    816.3795      6.5261      0.8852
   860.5000      0.0000    828.0490      6.3661      0.0405
   861.0000      0.0000    829.0282      6.2804      0.0000
   861.5000      0.0000    828.5374      6.4254   -999.2500
   862.0000      0.0000    828.3094      6.5580   -999.2500
   862.5000      0.0000    830.9534      6.6115   -999.2500
   863.0000      0.0000    837.0915      6.4033   -999.2500
