~Version Information
VERS.                      2.0: CWLS Log ASCII Standard - VERSION 2.0
WRAP.                       NO: One line per depth step
~Well Information Block
STRT.FT                -4.0000: 
STOP.FT              2464.0000: 
STEP.FT                 0.2500: 
NULL.                -999.2500: 
COMP.          Pioneer Natural Resources: COMPANY
WELL.            Rancher 12-35: WELL
FLD.           Purgatorie River: FIELD
LOC.           2131' FNL & 297' FWL--: LOCATION
PROV.                       CO: PROVINCE
CNTY.               Las Animas: COUNTRY
SRVC.                         : SERVICE COMPANY
DATE.          Wed Oct 20 13:17:53 2004: LOG DATE
UWI.                          : UNIQUE WELL ID
~Curve Information Block
DEPT.FT            0 000 00 00: Depth
GR.GAPI                       : Gamma Ray
CCL.                          : Casing Collar Locator
TT3.usec                      : CBL 3' Travel Time
AMP3.mV                       : CBL 3' Amplitude
~Parameter Information Block
~A  Depth        GR         CCL         TT3         AMP3    
# ...
  1805.0000     84.4035      0.0000    745.4693      5.8506
  1805.2500     89.5410      0.0000    746.7144      5.7983
  1805.5000     95.2886      0.0000    749.0508      5.7676
  1805.7500    102.6399      0.0000    752.7526      5.7722
  1806.0000    111.7115      0.0000    756.8866      5.8149
  1806.2500    121.4295      0.0000    759.3181      5.8955
  1806.5000    130.4203      0.0000    758.1411      6.0136
  1806.7500    137.6983      0.0000    753.3825      6.1619
  1807.0000    142.2950      0.0000    746.9083      6.3145
  1807.2500    143.2557      0.0000    740.5110      6.4302
  1807.5000    140.9458      0.0000    734.4401      6.4809
  1807.7500    137.7973      0.0000    727.8231      6.4766
  1808.0000    136.7575      0.0000    719.9056      6.4498
  1808.2500    138.9015      0.0000    709.9728      6.4164
  1808.5000    142.6726      0.0000    696.0127      6.3650
  1808.7500    145.2050      0.0000    675.6255      6.2833
  1809.0000    144.4789      0.0000    651.0511      6.1806
  1809.2500    140.5826      0.0000    632.4484      6.0781
  1809.5000    135.0602      0.0000    631.9244      5.9870
  1809.7500    129.3035      0.0000    652.5547      5.9077
  1810.0000    123.7737      0.0000    685.3470      5.8443
  1810.2500    118.3196      0.0000    717.3427      5.8071
  1810.5000    112.7231      0.0000    740.4600      5.7965
  1810.7500    107.1221      0.0000    752.9878      5.7965
  1811.0000    102.1691      0.0000    756.4989      5.7921
  1811.2500     98.6327      0.0000    753.4440      5.7893
  1811.5000     96.9286      0.0000    746.1132      5.8064
  1811.7500     97.2749      0.0000    735.9230      5.8477
  1812.0000     99.9240      0.0000    723.5098      5.8937
  1812.2500    104.5695      0.0000    709.8289      5.9172
  1812.5000    109.6992      0.0000    696.7133      5.9068
  1812.7500    113.3515      0.0000    685.4541      5.8788
  1813.0000    114.7477      0.0000    674.0778      5.8693
  1813.2500    114.8270      0.0000    656.3368      5.9121
  1813.5000    115.2386      0.0000    625.3151      6.0161
  1813.7500    117.1395      0.0000    580.3553      6.1601
  1814.0000    120.4920      0.0000    530.6804      6.3073
  1814.2500    123.8704      0.0000    491.0783      6.4250
  1814.5000    125.3267      0.0000    473.3181      6.4982
  1814.7500    124.1541      0.0000    480.8995      6.5325
  1815.0000    121.6247      0.0000    509.7993      6.5442
  1815.2500    119.7575      0.0000    552.4302      6.5463
  1815.5000    119.7927      0.0000    600.9262      6.5429
  1815.7500    122.0115      0.0000    647.6960      6.5361
  1816.0000    126.2082      0.0000    685.2845      6.5363
  1816.2500    131.5250      0.0000    708.6838      6.5637
  1816.5000    136.1468      0.0000    718.1755      6.6402
  1816.7500    138.2275      0.0000    718.4261      6.7720
  1817.0000    137.6234      0.0000    714.4691      6.9332
  1817.2500    136.1611      0.0000    709.1414      7.0698
  1817.5000    135.5396      0.0000    703.8221      7.1308
  1817.7500    135.3227      0.0000    699.9108      7.1046
  1818.0000    133.5839      0.0000    698.5334      7.0260
  1818.2500    129.2152      0.0000    699.6909      6.9461
  1818.5000    123.0628      0.0000    702.6263      6.8940
  1818.7500    117.0939      0.0000    706.7743      6.8631
  1819.0000    112.9562      0.0000    711.7938      6.8306
  1819.2500    111.3003      0.0000    717.0383      6.7948
  1819.5000    111.9557      0.0000    721.4946      6.7941
  1819.7500    114.0738      0.0000    724.1205      6.8830
  1820.0000    115.9020      0.0000    724.1478      7.0804
  1820.2500    115.1739      0.0000    721.3452      7.3411
  1820.5000    110.5924      0.0000    716.4174      7.5761
  1820.7500    103.0140      0.0000    711.4109      7.7037
  1821.0000     95.0423      0.0000    709.3493      7.6924
  1821.2500     89.5937      0.0000    712.3539      7.5649
  1821.5000     88.6202      0.0000    719.6078      7.3726
  1821.7500     92.2595      0.0000    727.6738      7.1660
  1822.0000     98.4294      0.0000    733.3497      6.9742
  1822.2500    103.7036      0.0000    736.2303      6.8004
  1822.5000    105.7912      0.0000    738.4481      6.6354
  1822.7500    105.6599      0.0000    741.8845      6.4783
  1823.0000    106.7359      0.0000    745.7515      6.3446
  1823.2500    111.6537      0.0000    747.2799      6.2568
  1823.5000    119.9704      0.0000    744.5175      6.2289
  1823.7500    128.9334      0.0000    737.7802      6.2620
  1824.0000    135.9693      0.0000    729.0030      6.3483
  1824.2500    140.3384      0.0000    720.8254      6.4762
  1824.5000    142.9536      0.0000    715.9300      6.6286
  1824.7500    145.1760      0.0000    715.9169      6.7796
  1825.0000    147.8204      0.0000    720.1365      6.9008
  1825.2500    150.7897      0.0000    725.7732      6.9749
  1825.5000    153.2142      0.0000    729.5405      6.9995
  1825.7500    154.1624      0.0000    729.6587      6.9797
  1826.0000    153.6527      0.0000    726.4377      6.9266
  1826.2500    152.7274      0.0000    721.2955      6.8595
  1826.5000    152.1294      0.0000    715.6559      6.7990
  1826.7500    151.2123      0.0000    710.5604      6.7528
  1827.0000    148.5730      0.0000    706.6127      6.7123
  1827.2500    143.4368      0.0000    704.0020      6.6656
  1827.5000    136.2824      0.0000    702.8129      6.6099
  1827.7500    128.6916      0.0000    703.3111      6.5502
  1828.0000    122.8258      0.0000    705.6605      6.4892
  1828.2500    120.4337      0.0000    709.2697      6.4254
  1828.5000    121.8328      0.0000    712.6390      6.3593
  1828.7500    125.8712      0.0000    714.1277      6.2947
  1829.0000    131.0232      0.0000    713.0120      6.2360
  1829.2500    136.3069      0.0000    709.9210      6.1853
  1829.5000    141.0494      0.0000    706.3345      6.1386
  1829.7500    144.4883      0.0000    703.6756      6.0821
  1830.0000    146.3721      0.0000    702.8446      5.9998
  1830.2500    147.5997      0.0000    704.3238      5.8882
  1830.5000    149.4116      0.0000    708.0538      5.7598
  1830.7500    151.8382      0.0000    712.7712      5.6315
  1831.0000    153.4379      0.0000    715.8831      5.5111
  1831.2500    152.5410      0.0000    714.7911      5.3982
  1831.5000    148.5136      0.0000    708.6699      5.2947
  1831.7500    142.1607      0.0000    698.8807      5.2101
  1832.0000    135.2615      0.0000    688.0129      5.1510
  1832.2500    129.5246      0.0000    678.7651      5.1070
  1832.5000    125.8489      0.0000    673.0198      5.0552
  1832.7500    124.4627      0.0000    671.1386      4.9825
  1833.0000    125.2814      0.0000    672.2473      4.8986
  1833.2500    127.7357      0.0000    675.4625      4.8231
  1833.5000    130.4713      0.0000    680.4261      4.7641
  1833.7500    131.7448      0.0000    686.5266      4.7163
  1834.0000    130.5872      0.0000    692.3969      4.6723
  1834.2500    127.6792      0.0000    696.7074      4.6317
  1834.5000    124.7957      0.0000    699.0948      4.5979
  1834.7500    123.3482      0.0000    700.1111      4.5679
  1835.0000    123.7619      0.0000    700.6172      4.5323
  1835.2500    125.9847      0.0000    701.4654      4.4891
  1835.5000    129.6478      0.0000    703.4795      4.4562
  1835.7500    133.4922      0.0000    707.2762      4.4625
  1836.0000    135.5195      0.0000    712.8755      4.5290
  1836.2500    134.3923      0.0000    719.5554      4.6589
  1836.5000    130.5910      0.0000    726.1150      4.8408
  1836.7500    126.0587      0.0000    731.2775      5.0511
  1837.0000    122.9256      0.0000    734.2845      5.2472
  1837.2500    122.4951      0.0000    735.6653      5.3694
  1837.5000    124.8513      0.0000    737.2242      5.3689
  1837.7500    128.9604      0.0000    740.6318      5.2493
  1838.0000    133.3250      0.0000    745.9138      5.0819
  1838.2500    136.9330      0.0000    751.4598      4.9623
