~Version Information
VERS.                      2.0: CWLS Log ASCII Standard - VERSION 2.0
WRAP.                       NO: One line per depth step
~Well Information Block
STRT.FT                -7.2500: 
STOP.FT               765.5000: 
STEP.FT                 0.2500: 
NULL.                -999.2500: 
COMP.          Pioneer Natural Resources: COMPANY
WELL.          Barrelman 41-27: WELL
FLD.           Purgatorie River: FIELD
LOC.           371' FNL & 493' FEL--: LOCATION
PROV.                       CO: PROVINCE
CNTY.               Las Animas: COUNTRY
SRVC.          Patterson Wireline: SERVICE COMPANY
DATE.          Wed May 25 09:32:20 2005: LOG DATE
UWI.           05 071 08334 00: UNIQUE WELL ID
~Curve Information Block
DEPT.FT            0 000 00 00: Depth
CCL.                          : Casing Collar Locator
TT3.usec                      : CBL 3' Travel Time
AMP3.mV                       : CBL 3' Amplitude
GR.GAPI                       : Gamma Ray
~Parameter Information Block
~A  Depth       CCL         TT3         AMP3         GR     
# ...
   193.7500      0.0000    837.0944      7.4453     60.1372
   194.0000      0.0000    844.3293      7.3512     61.7517
   194.2500      0.0000    849.9782      7.2497     64.7661
   194.5000      0.0000    850.0563      7.1467     68.1558
   194.7500      0.0000    842.3249      7.0554     70.8280
   195.0000      0.0000    828.3046      6.9911     72.2365
   195.2500      0.0000    812.4550      6.9678     72.2859
   195.5000      0.0000    799.2052      6.9928     71.1672
   195.7500      0.0000    790.5416      7.0618     69.4502
   196.0000      0.0000    785.9261      7.1626     67.9294
   196.2500      0.0000    783.7842      7.2827     66.9897
   196.5000      0.0000    782.8025      7.4118     66.2694
   196.7500      0.0000    782.3007      7.5408     65.1527
   197.0000      0.0000    782.0366      7.6668     63.5217
   197.2500      0.0000    781.9472      7.7999     61.9091
   197.5000      0.0000    782.0480      7.9551     60.8669
   197.7500      0.0000    782.5150      8.1346     60.2543
   198.0000      0.0000    783.8229      8.3222     59.3473
   198.2500      0.0000    786.6954      8.4954     57.6032
   198.5000      0.0000    791.6946      8.6393     55.0270
   198.7500      0.0000    798.5962      8.7505     51.8825
   199.0000      0.0000    806.1369      8.8309     48.5202
   199.2500      0.0000    812.6285      8.8811     45.4837
   199.5000      0.0000    817.0129      8.8983     43.3068
   199.7500      0.0000    819.3325      8.8804     42.0683
   200.0000      0.0000    820.3079      8.8321     41.3559
   200.2500      0.0000    820.6697      8.7689     40.6819
   200.5000      0.0000    820.8386      8.7106     39.8704
   200.7500      0.0000    820.9575      8.6668     39.1272
   201.0000      0.0000    821.0322      8.6303     38.7606
   201.2500      0.0000    821.0381      8.5862     38.7874
   201.5000      0.0000    820.9653      8.5280     38.9769
   201.7500      0.0000    820.8195      8.4610     39.3633
   202.0000      0.0000    820.6154      8.3943     40.3930
   202.2500      0.0000    820.3792      8.3331     42.3874
   202.5000      0.0000    820.1532      8.2806     45.1079
   202.7500      0.0000    819.9901      8.2438     47.9540
   203.0000      0.0000    819.9247      8.2340     50.3875
   203.2500      0.0000    819.9473      8.2583     52.1884
   203.5000      0.0000    819.9811      8.3136     53.5451
   203.7500      0.0000    819.8187      8.3886     54.8787
   204.0000      0.0000    818.9943      8.4744     56.4132
   204.2500      0.0000    816.7460      8.5730     57.9650
   204.5000      0.0000    812.3867      8.6915     59.2950
   204.7500      0.0000    806.0806      8.8260     60.5568
   205.0000      0.0000    799.3511      8.9565     62.1413
   205.2500      0.0000    794.4894      9.0644     64.0593
   205.5000      0.0000    793.1141      9.1498     65.7923
   205.7500      0.0000    795.2126      9.2261     66.8886
   206.0000      0.0000    799.5291      9.2979     67.4512
   206.2500      0.0000    804.6480      9.3528     67.8072
   206.5000      0.0000    809.5835      9.3749     67.7730
   206.7500      0.0000    813.7048      9.3583     66.5001
   207.0000      0.0000    816.6535      9.3089     63.2995
   207.2500      0.0000    818.4011      9.2390     58.6467
   207.5000      0.0000    819.0891      9.1644     54.1146
   207.7500      0.0000    818.6689      9.1011     51.2473
   208.0000      0.0000    816.7142      9.0595     50.7143
   208.2500      0.0000    812.7205      9.0415     52.3711
   208.5000      0.0000    806.8322      9.0387     55.5481
   208.7500      0.0000    800.3607      9.0342     59.1599
   209.0000      0.0000    795.2764      9.0112     62.0176
   209.2500      0.0000    792.8182      8.9658     63.4672
   209.5000      0.0000    792.6033      8.9124     63.8166
   209.7500      0.0000    793.2997      8.8759     64.1049
   210.0000      0.0000    794.1708      8.8724     65.4688
   210.2500      0.0000    795.6062      8.8957     68.5013
   210.5000      0.0000    797.9918      8.9243     72.8825
   210.7500      0.0000    800.5779      8.9431     77.5927
   211.0000      0.0000    801.9789      8.9516     81.6428
   211.2500      0.0000    801.5803      8.9536     84.5402
   211.5000      0.0000    800.0478      8.9502     86.0583
   211.7500      0.0000    798.5941      8.9461     86.0132
   212.0000      0.0000    797.9423      8.9522     84.5949
   212.2500      0.0000    797.8018      8.9750     82.5355
   212.5000      0.0000    797.1628      9.0080     80.6122
   212.7500      0.0000    795.1884      9.0351     79.1184
   213.0000      0.0000    791.9656      9.0427     77.7745
   213.2500      0.0000    788.5250      9.0288     75.9215
   213.5000      0.0000    786.1647      9.0043     73.0140
   213.7500      0.0000    785.6432      8.9798     69.2762
   214.0000      0.0000    786.5853      8.9496     65.7676
   214.2500      0.0000    787.3903      8.8942     63.6312
   214.5000      0.0000    786.3923      8.7995     63.4469
   214.7500      0.0000    784.0247      8.6674     65.1871
   215.0000      0.0000    783.2999      8.5078     68.2542
   215.2500      0.0000    786.8627      8.3295     71.4621
   215.5000      0.0000    793.8978      8.1408     73.5029
   215.7500      0.0000    801.0527      7.9524     73.8126
   216.0000      0.0000    805.8060      7.7784     73.0343
   216.2500      0.0000    807.8689      7.6337     72.6620
   216.5000      0.0000    808.1370      7.5279     74.0439
   216.7500      0.0000    807.5469      7.4574     77.2444
   217.0000      0.0000    806.5303      7.4069     80.7218
   217.2500      0.0000    804.4209      7.3605     82.4383
   217.5000      0.0000    799.3955      7.3131     81.5106
   217.7500      0.0000    789.9915      7.2682     78.7631
   218.0000      0.0000    777.1539      7.2249     75.8525
   218.2500      0.0000    764.1537      7.1718     74.1648
   218.5000      0.0000    754.0093      7.0932     74.3262
   218.7500      0.0000    747.5536      6.9778     76.1389
   219.0000      0.0000    744.1427      6.8241     78.7888
   219.2500      0.0000    743.1694      6.6460     81.4743
   219.5000      0.0000    744.1512      6.4756     84.0702
   219.7500      0.0000    745.9134      6.3542     87.0631
   220.0000      0.0000    746.5153      6.3086     90.6223
   220.2500      0.0000    744.4274      6.3282     93.7347
   220.5000      0.0000    740.3743      6.3710     94.6298
   220.7500      0.0000    738.5862      6.3942     92.4209
   221.0000      0.0000    745.8505      6.3723     88.2109
   221.2500      0.0000    767.2268      6.2941     84.3549
   221.5000      0.0000    800.8673      6.1697     82.7494
   221.7500      0.0000    837.4499      6.0365     83.7455
   222.0000      0.0000    867.3798      5.9326     86.2922
   222.2500      0.0000    890.0727      5.8690     88.9517
   222.5000     -2.0000    913.7480      5.8438     90.9280
   222.7500      0.0000    943.1208      5.8797     92.2364
   223.0000      0.0000    969.3549      6.0327     93.0533
   223.2500      0.0000    976.7118      6.3411     93.2467
   223.5000      0.0000    959.0384      6.7433     92.6084
   223.7500      0.0000    926.0740      7.0638     91.2289
   224.0000      0.0000    893.2938      7.1352     89.4077
   224.2500      0.0000    870.2374      6.9420     87.3129
   224.5000      0.0000    860.6237      6.6139     84.9829
   224.7500      0.0000    867.7231      6.2918     82.7162
   225.0000      0.0000    892.7815      6.0352     81.2120
   225.2500      0.0000    929.2803      5.8335     81.0889
   225.5000      0.0000    963.9981      5.6575     82.3414
   225.7500      0.0000    984.5415      5.4891     84.3187
   226.0000      0.0000    984.3435      5.3270     86.1127
   226.2500      0.0000    962.5821      5.1828     87.0121
   226.5000      0.0000    923.6584      5.0710     86.8426
   226.7500      0.0000    877.0917      4.9991     85.8763
   227.0000      0.0000    833.9256      4.9608     84.3760
