~Version Information
VERS.                      2.0: CWLS Log ASCII Standard - VERSION 2.0
WRAP.                       NO: One line per depth step
~Well Information Block
STRT.FT               245.0000: 
STOP.FT              2464.2000: 
STEP.FT                 0.1000: 
NULL.                -999.2500: 
COMP.          Pioneer Natural Resources: COMPANY
WELL.          Oink Oink 14-36: WELL
FLD.           Purgatoire River: FIELD
LOC.           216' FSL & 263' FWL--: LOCATION
PROV.                 Colorado: PROVINCE
CNTY.               Las Animas: COUNTRY
SRVC.                Patterson: SERVICE COMPANY
DATE.          Wed Jun 08 16:53:09 2005: LOG DATE
UWI.           05 071 08394 00: UNIQUE WELL ID
~Curve Information Block
DEPT.FT            0 000 00 00: Depth
DCAL.in                       : CDL Caliper
RHOB.g/cc                     : CDL Bulk Density
RHOC.g/cc                     : CDL Density Correction
DPOR.pu                       : CDL Density Porosity
NPOR.pu                       : Neutron Porosity
GR.GAPI                       : Gamma Ray
~Parameter Information Block
~A  Depth       DCAL        RHOB        RHOC        DPOR        NPOR         GR     
# ...
  1560.2000      8.0488      2.6716      0.1079     -1.3093     22.7175     83.3244
  1560.3000      8.0527      2.6472      0.0653      0.1703     22.7141     80.1140
  1560.4000      8.0527      2.6334      0.0665      1.0035     22.6699     78.1236
  1560.5000      8.0581      2.6295      0.0124      1.2422     22.8405     79.3045
  1560.6000      8.0581      2.6268      0.0387      1.4060     23.1092     84.7230
  1560.7000      8.0581      2.6158      0.0117      2.0697     23.2948     90.9860
  1560.8000      8.0620      2.6010      0.0204      2.9684     23.6038     92.9922
  1560.9000      8.0620      2.5929      0.0266      3.4608     23.9983     90.5480
  1561.0000      8.0639      2.5931      0.0141      3.4494     24.0279     89.3031
  1561.1000      8.0639      2.5981      0.0093      3.1464     23.6242     93.4246
  1561.2000      8.0639      2.6005      0.0225      3.0024     23.0419     99.5023
  1561.3000      8.0635      2.5938      0.0325      3.4056     22.1528    101.2506
  1561.4000      8.0635      2.5818      0.0408      4.1357     21.3212     96.7797
  1561.5000      8.0619      2.5731      0.0136      4.6610     21.3802     90.6879
  1561.6000      8.0619      2.5791     -0.0138      4.2981     22.0773     90.0033
  1561.7000      8.0619      2.5996      0.0450      3.0575     22.3566     95.1470
  1561.8000      8.0610      2.6160      0.0341      2.0581     21.7991     99.5229
  1561.9000      8.0610      2.6166      0.0707      2.0241     20.8859     99.3642
  1562.0000      8.0618      2.6062      0.0541      2.6533     20.2682     95.6519
  1562.1000      8.0618      2.5998      0.0340      3.0436     20.1621     91.2122
  1562.2000      8.0618      2.6038      0.0271      2.7986     20.4155     88.5811
  1562.3000      8.0625      2.6125      0.0206      2.2757     20.7116     88.0416
  1562.4000      8.0625      2.6214      0.0449      1.7352     20.7612     88.5391
  1562.5000      8.0631      2.6283      0.0370      1.3128     20.6187     90.0334
  1562.6000      8.0631      2.6281      0.0317      1.3265     20.5558     90.2658
  1562.7000      8.0631      2.6167      0.0337      2.0200     20.6628     85.5029
  1562.8000      8.0645      2.6026      0.0166      2.8716     20.9134     78.6461
  1562.9000      8.0645      2.6020      0.0176      2.9116     21.2652     75.6583
  1563.0000      8.0655      2.6136      0.0427      2.2088     21.5526     76.2373
  1563.1000      8.0655      2.6234      0.0448      1.6129     21.7704     77.7484
  1563.2000      8.0655      2.6343      0.0300      0.9536     21.8139     80.2081
  1563.3000      8.0669      2.6507      0.0639     -0.0412     21.5504     81.0199
  1563.4000      8.0669      2.6518      0.0602     -0.1116     21.4246     76.6961
  1563.5000      8.0701      2.6287      0.0254      1.2882     21.9109     71.0189
  1563.6000      8.0701      2.6107     -0.0133      2.3847     22.8640     69.5819
  1563.7000      8.0701      2.6224      0.0497      1.6747     23.8053     73.2062
  1563.8000      8.0727      2.6474      0.0717      0.1570     24.3883     80.3821
  1563.9000      8.0727      2.6600      0.0533     -0.6057     24.6868     88.1741
  1564.0000      8.0732      2.6577      0.0639     -0.4686     25.1530     91.3404
  1564.1000      8.0732      2.6470      0.0549      0.1846     25.8863     87.8773
  1564.2000      8.0732      2.6304      0.0599      1.1888     26.4187     83.0969
  1564.3000      8.0719      2.6172      0.0323      1.9886     26.4709     83.7699
  1564.4000      8.0719      2.6183      0.0045      1.9221     26.2318     89.1309
  1564.5000      8.0708      2.6248      0.0715      1.5271     25.9491     93.3191
  1564.6000      8.0708      2.6207      0.0546      1.7727     25.7905     95.3947
  1564.7000      8.0708      2.6098      0.0661      2.4362     25.8629     97.5934
  1564.8000      8.0716      2.6042      0.0510      2.7744     26.2423    101.6816
  1564.9000      8.0716      2.6037      0.0492      2.8063     26.7740    109.1774
  1565.0000      8.0733      2.5967      0.0709      3.2289     27.1149    117.4502
  1565.1000      8.0733      2.5856      0.0114      3.9005     27.3100    120.5873
  1565.2000      8.0733      2.5803      0.0602      4.2225     27.4279    119.5033
  1565.3000      8.0749      2.5678      0.0574      4.9845     27.2663    120.2982
  1565.4000      8.0749      2.5438     -0.0013      6.4345     26.9462    123.4772
  1565.5000      8.0799      2.5350     -0.0180      6.9673     26.6926    124.0598
  1565.6000      8.0799      2.5450      0.0436      6.3630     26.3269    121.5817
  1565.7000      8.0799      2.5382      0.0640      6.7734     25.3527    121.1009
  1565.8000      8.0890      2.4864      0.0248      9.9167     23.6186    124.8060
  1565.9000      8.0890      2.3884      0.0235     15.8567     21.8244    131.2194
  1566.0000      8.0950      2.2735     -0.0761     22.8154     20.5103    135.8783
  1566.1000      8.0950      2.1815     -0.0880     28.3957     19.5454    135.0569
  1566.2000      8.0950      2.1193     -0.0651     32.1647     18.4746    133.1975
  1566.3000      8.0956      2.0806     -0.1181     34.5096     16.9432    134.3628
  1566.4000      8.0956      2.0786     -0.1007     34.6316     15.3181    134.9357
  1566.5000      8.0933      2.1134     -0.0149     32.5230     14.1795    132.2918
  1566.6000      8.0933      2.1619      0.0179     29.5838     13.4242    128.6901
  1566.7000      8.0933      2.2175      0.0518     26.2151     12.6264    126.5633
  1566.8000      8.0866      2.2897      0.1391     21.8335     11.9737    124.3054
  1566.9000      8.0866      2.3746      0.2402     16.6889     12.0202    120.3404
  1567.0000      8.0662      2.4491      0.2820     12.1755     12.9089    117.6924
  1567.1000      8.0662      2.4919      0.2644      9.5832     14.4207    117.8742
  1567.2000      8.0662      2.5136      0.1611      8.2653     16.1198    119.3550
  1567.3000      8.0375      2.5387      0.1938      6.7428     17.5885    123.1230
  1567.4000      8.0375      2.5646      0.1619      5.1735     18.7179    130.9200
  1567.5000      8.0221      2.5758      0.1415      4.4975     19.5364    140.2997
  1567.6000      8.0221      2.5692      0.0933      4.8957     20.1806    145.6583
  1567.7000      8.0221      2.5530      0.0855      5.8773     20.8076    147.9141
  1567.8000      8.0174      2.5340      0.0860      7.0278     21.5176    152.3417
  1567.9000      8.0174      2.5190      0.0800      7.9393     22.3196    154.6067
  1568.0000      8.0151      2.5213      0.0282      7.8006     23.0592    148.1289
  1568.1000      8.0151      2.5514      0.0357      5.9754     23.7005    137.4317
  1568.2000      8.0151      2.5975      0.0800      3.1836     24.4276    128.9654
  1568.3000      8.0150      2.6487      0.0805      0.0779     25.2725    123.8610
  1568.4000      8.0150      2.7161      0.1119     -4.0063     25.9158    123.3508
  1568.5000      8.0175      2.7921      0.1593     -8.6132     26.3351    124.8778
  1568.6000      8.0175      2.8435      0.1714    -11.7262     27.1483    122.5585
  1568.7000      8.0175      2.8518      0.1278    -12.2278     28.5345    116.2598
  1568.8000      8.0197      2.8277      0.1218    -10.7670     30.1310    108.2224
  1568.9000      8.0197      2.7938      0.0694     -8.7152     31.6090     99.4578
  1569.0000      8.0191      2.7628      0.0614     -6.8371     32.7584     93.0222
  1569.1000      8.0191      2.7328     -0.0401     -5.0169     33.3555     92.1794
  1569.2000      8.0191      2.7077     -0.0952     -3.4969     32.9948     94.0058
  1569.3000      8.0177      2.6933     -0.1253     -2.6249     31.6887     94.9509
  1569.4000      8.0177      2.6729     -0.0974     -1.3904     29.7373     93.9304
  1569.5000      8.0202      2.6289     -0.1810      1.2817     27.3415     89.4646
  1569.6000      8.0202      2.5746     -0.1561      4.5721     25.1538     83.7328
  1569.7000      8.0202      2.5345     -0.1184      6.9976     23.5326     80.4796
