~Version Information
VERS.                      2.0: CWLS Log ASCII Standard - VERSION 2.0
WRAP.                       NO: One line per depth step
~Well Information Block
STRT.FT               742.5000: 
STOP.FT              2463.5000: 
STEP.FT                 0.2500: 
NULL.                -999.2500: 
COMP.          Petrogulf Corporation: COMPANY
WELL.           Montoya 12-44V: WELL
FLD.           Purgatorie River: FIELD
LOC.           698' FSL & 599' FEL: LOCATION
CNTY.               Las Animas: COUNTY
SRVC.                         : SERVICE COMPANY
DATE.          Sun Aug 08 06:43:17 2004: LOG DATE
UWI.           05 071 08094 00: UNIQUE WELL ID
STAT.                 Colorado: STATE
~Curve Information Block
DEPT.FT            0 000 00 00: Depth
SN.Ohm-m                      : IEL Short Normal
SP.mV                         : IEL Spontaneous Potential
DIR.Ohm-m                     : IEL Induction Resistivity
GR.GAPI                       : Gamma Ray
~Parameter Information Block
~A  Depth        SN          SP         DIR          GR     
# ...
  1513.0000     11.5298   -101.5975     11.1064    134.0986
  1513.2500     12.0340   -102.0067     11.0757    129.5626
  1513.5000     12.7150   -101.7857     11.0487    124.9035
  1513.7500     13.3710   -101.0584     10.9852    123.2845
  1514.0000     13.8255   -100.0600     10.8495    123.4541
  1514.2500     13.9865    -99.0762     10.6381    125.3184
  1514.5000     13.8631    -98.3731     10.3835    130.0826
  1514.7500     13.5347    -98.1424     10.1293    134.0119
  1515.0000     13.1001    -98.4645      9.8993    140.3741
  1515.2500     12.6361    -99.3056      9.6899    144.6934
  1515.5000     12.1862   -100.5298      9.4872    150.7299
  1515.7500     11.7726   -101.9445      9.2936    154.0889
  1516.0000     11.4131   -103.3413      9.1369    157.8973
  1516.2500     11.1254   -104.5420      9.0532    159.7288
  1516.5000     10.9204   -105.4304      9.0633    161.7178
  1516.7500     10.7953   -105.9637      9.1624    162.7484
  1517.0000     10.7397   -106.1680      9.3320    164.2598
  1517.2500     10.7485   -106.1139      9.5583    165.3400
  1517.5000     10.8322   -105.8931      9.8418    166.5599
  1517.7500     11.0179   -105.5889     10.1895    166.3858
  1518.0000     11.3492   -105.2638     10.6022    163.0782
  1518.2500     11.8940   -104.9527     11.0701    158.0961
  1518.5000     12.7517   -104.6712     11.5820    146.1093
  1518.7500     14.0371   -104.4267     12.1365    135.7311
  1519.0000     15.8284   -104.2271     12.7479    119.1777
  1519.2500     18.0991   -104.0809     13.4378    109.5467
  1519.5000     20.6785   -103.9917     14.2217    100.3943
  1519.7500     23.2773   -103.9529     15.0939     98.8044
  1520.0000     25.5744   -103.9412     16.0200    102.7514
  1520.2500     27.3187   -103.9196     16.9377    108.2775
  1520.5000     28.3928   -103.8535     17.7676    117.8404
  1520.7500     28.8125   -103.7177     18.4334    123.4645
  1521.0000     28.6808   -103.5009     18.8855    128.9343
  1521.2500     28.1340   -103.2031     19.1241    129.9618
  1521.5000     27.3105   -102.8239     19.2111    127.2523
  1521.7500     26.3454   -102.3645     19.2592    123.2956
  1522.0000     25.3729   -101.8303     19.3827    117.1903
  1522.2500     24.5134   -101.2478     19.6403    115.1545
  1522.5000     23.8439   -100.6784     20.0080    117.2343
  1522.7500     23.3760   -100.2213     20.4023    121.8364
  1523.0000     23.0710    -99.9971     20.7372    131.6620
  1523.2500     22.8854   -100.1109     20.9670    138.7346
  1523.5000     22.8123   -100.6219     21.0870    147.5692
  1523.7500     22.8821   -101.5171     21.1116    151.0633
  1524.0000     23.1241   -102.7096     21.0557    152.1716
  1524.2500     23.5248   -104.0612     20.9333    150.7915
  1524.5000     24.0230   -105.4126     20.7686    147.0177
  1524.7500     24.5447   -106.6171     20.6058    143.9346
  1525.0000     25.0462   -107.5687     20.5085    139.0564
  1525.2500     25.5275   -108.2091     20.5446    135.8503
  1525.5000     26.0112   -108.5309     20.7682    131.1322
  1525.7500     26.5121   -108.5649     21.2106    128.1239
  1526.0000     27.0229   -108.3716     21.8671    124.7788
  1526.2500     27.5190   -108.0235     22.6692    124.0566
  1526.5000     27.9684   -107.5910     23.4591    125.0857
  1526.7500     28.3409   -107.1332     24.0198    125.9717
  1527.0000     28.6204   -106.6895     24.1900    125.2546
  1527.2500     28.8144   -106.2842     23.9906    122.9380
  1527.5000     28.9518   -105.9332     23.6204    117.6936
  1527.7500     29.0642   -105.6518     23.3356    114.1593
  1528.0000     29.1639   -105.4515     23.3412    110.8975
  1528.2500     29.2349   -105.3343     23.7431    110.9236
  1528.5000     29.2426   -105.2763     24.5415    114.2009
  1528.7500     29.1558   -105.2176     25.6174    117.6504
  1529.0000     28.9715   -105.0707     26.7303    122.8859
  1529.2500     28.7302   -104.7397     27.5605    125.8365
  1529.5000     28.5117   -104.1557     27.8354    129.4611
  1529.7500     28.4071   -103.3121     27.4814    131.4726
  1530.0000     28.4792   -102.2839     26.6652    133.6228
  1530.2500     28.7315   -101.2199     25.6807    134.2366
  1530.5000     29.1048   -100.3110     24.8059    134.1834
  1530.7500     29.5057    -99.7408     24.2344    133.9241
  1531.0000     29.8492    -99.6316     24.0627    133.1686
  1531.2500     30.0894   -100.0050     24.2855    131.7493
  1531.5000     30.2253   -100.7773     24.7889    127.4107
  1531.7500     30.2839   -101.7765     25.3753    123.5377
  1532.0000     30.2984   -102.7925     25.8524    118.3369
  1532.2500     30.2936   -103.6402     26.1378    116.3346
  1532.5000     30.2789   -104.2071     26.2867    116.1180
  1532.7500     30.2494   -104.4821     26.4274    117.4937
  1533.0000     30.1923   -104.5507     26.6658    120.5933
  1533.2500     30.1002   -104.5545     27.0121    122.5013
  1533.5000     29.9802   -104.6440     27.3566    123.9156
  1533.7500     29.8499   -104.9292     27.5140    123.5499
  1534.0000     29.7176   -105.4495     27.3509    121.3893
  1534.2500     29.5640   -106.1760     26.8901    119.6365
  1534.5000     29.3419   -107.0335     26.2896    118.1690
  1534.7500     28.9980   -107.9360     25.7210    118.4887
  1535.0000     28.4994   -108.8135     25.2615    120.3106
  1535.2500     27.8471   -109.6292     24.8778    121.4902
  1535.5000     27.0717   -110.3675     24.4888    122.1580
  1535.7500     26.2240   -111.0188     24.0635    122.0933
  1536.0000     25.3722   -111.5626     23.6691    122.4904
  1536.2500     24.5999   -111.9606     23.4282    123.6535
  1536.5000     23.9929   -112.1691     23.4350    126.9266
  1536.7500     23.6148   -112.1595     23.6972    129.9377
  1537.0000     23.4872   -111.9386     24.1223    135.0231
  1537.2500     23.5889   -111.5584     24.5387    138.1888
  1537.5000     23.8732   -111.1083     24.7599    141.6531
  1537.7500     24.2886   -110.6918     24.6810    142.9228
  1538.0000     24.7964   -110.3956     24.3503    143.2790
  1538.2500     25.3810   -110.2677     23.9506    142.2503
  1538.5000     26.0534   -110.3068     23.7073    138.2153
  1538.7500     26.8348   -110.4618     23.8064    134.0543
  1539.0000     27.7224   -110.6434     24.3609    127.3558
  1539.2500     28.6568   -110.7478     25.4110    123.8743
  1539.5000     29.5265   -110.6753     26.9283    121.2099
  1539.7500     30.2186   -110.3500     28.7972    120.8113
  1540.0000     30.6822   -109.7396     30.7662    120.8826
  1540.2500     30.9591   -108.8607     32.4020    120.7258
  1540.5000     31.1551   -107.7775     33.1775    119.7900
  1540.7500     31.3781   -106.5919     32.8128    118.7381
  1541.0000     31.6817   -105.4231     31.5892    116.7443
  1541.2500     32.0455   -104.3881     30.1882    115.2611
  1541.5000     32.3973   -103.5825     29.2185    112.8653
  1541.7500     32.6602   -103.0714     28.9399    111.1685
  1542.0000     32.7973   -102.8826     29.2514    108.7879
  1542.2500     32.8281   -103.0069     29.7933    107.6640
  1542.5000     32.8089   -103.3923     30.1370    107.1164
  1542.7500     32.7967   -103.9481     30.0171    107.4154
  1543.0000     32.8203   -104.5541     29.4439    108.0549
  1543.2500     32.8758   -105.0816     28.6083    108.0043
  1543.5000     32.9415   -105.4273     27.7413    106.6049
  1543.7500     33.0007   -105.5453     27.0516    104.9417
  1544.0000     33.0568   -105.4699     26.7024    102.4778
  1544.2500     33.1327   -105.3076     26.7901    101.6503
  1544.5000     33.2543   -105.2057     27.3205    102.3139
  1544.7500     33.4338   -105.3022     28.2012    103.8614
  1545.0000     33.6670   -105.6728     29.2471    107.0777
  1545.2500     33.9475   -106.3033     30.2047    109.4256
  1545.5000     34.2857   -107.0887     30.8355    112.7964
  1545.7500     34.7116   -107.8660     31.0370    114.7469
  1546.0000     35.2556   -108.4636     30.9102    117.0506
  1546.2500     35.9237   -108.7509     30.6899    118.1835
