~Version Information
VERS.                      2.0: CWLS Log ASCII Standard - VERSION 2.0
WRAP.                       NO: One line per depth step
~Well Information Block
STRT.FT                -6.7500: 
STOP.FT              1766.5000: 
STEP.FT                 0.2500: 
NULL.                -999.2500: 
COMP.          Pioneer Natural Resources: COMPANY
WELL.            Hill 33-22 Tr: WELL
FLD.           Purgatorie River: FIELD
LOC.           1573' FSL & 1585' FEL: LOCATION
PROV.                 Colorado: PROVINCE
CNTY.               Las Animas: COUNTRY
SRVC.          Patterson Wireline: SERVICE COMPANY
DATE.          Tue Apr 19 09:26:19 2005: LOG DATE
UWI.           05-071-08316-00: UNIQUE WELL ID
~Curve Information Block
DEPT.FT            0 000 00 00: Depth
CCL.                          : Casing Collar Locator
TT3.usec                      : CBL 3' Travel Time
AMP3.mV                       : CBL 3' Amplitude
GR.GAPI                       : Gamma Ray
~Parameter Information Block
~A  Depth       CCL         TT3         AMP3         GR     
# ...
  1266.2500      0.0000    909.4366      4.8784    101.8973
  1266.5000      0.0000    996.8104      3.9361    101.6116
  1266.7500      0.0000   1108.5951      3.3621    101.8172
  1267.0000      0.0000   1221.3217      3.1201    101.7806
  1267.2500      0.0000   1304.8376      3.0123    100.8940
  1267.5000      0.0000   1343.7896      2.9230     98.5472
  1267.7500      0.0000   1350.0973      2.8778     94.7781
  1268.0000      0.0000   1351.6458      2.9128     90.8129
  1268.2500      5.0000   1366.6265      2.9956     88.3956
  1268.5000     -5.0000   1388.5924      3.0796     88.6439
  1268.7500      0.0000   1394.1906      3.2000     91.8220
  1269.0000      0.0000   1361.2771      3.4997     97.8603
  1269.2500      0.0000   1281.7820      4.1238    106.3792
  1269.5000      0.0000   1166.0725      5.0470    116.0672
  1269.7500      0.0000   1039.2151      6.0434    124.5742
  1270.0000      0.0000    929.0222      6.8873    129.6252
  1270.2500      0.0000    852.4222      7.5444    130.5091
  1270.5000      0.0000    810.4290      8.1179    128.4367
  1270.7500      0.0000    793.6189      8.6649    125.5157
  1271.0000      0.0000    790.5479      9.1274    123.4796
  1271.2500      0.0000    792.7181      9.4128    122.9776
  1271.5000      0.0000    795.5200      9.4855    123.4264
  1271.7500      0.0000    797.3328      9.3822    123.4683
  1272.0000      0.0000    798.1676      9.1680    122.0474
  1272.2500      0.0000    798.4579      8.8980    119.0733
  1272.5000      0.0000    798.3605      8.6056    114.9689
  1272.7500      0.0000    797.5953      8.3111    110.1057
  1273.0000      0.0000    795.6887      8.0306    105.0462
  1273.2500      0.0000    792.4664      7.7822    100.7369
  1273.5000      0.0000    788.3738      7.5840     97.9117
  1273.7500      0.0000    784.0195      7.4446     96.4295
  1274.0000      0.0000    779.3370      7.3564     95.5658
  1274.2500      0.0000    773.7443      7.2997     94.9598
  1274.5000      0.0000    767.4199      7.2549     94.8406
  1274.7500      0.0000    761.8813      7.2100     95.2725
  1275.0000      0.0000    758.8575      7.1617     95.8225
  1275.2500      0.0000    758.7281      7.1149     96.3161
  1275.5000      0.0000    760.1477      7.0789     97.2297
  1275.7500      0.0000    761.1639      7.0606     98.7831
  1276.0000      0.0000    760.9421      7.0622    100.2202
  1276.2500      0.0000    760.4761      7.0840    100.6932
  1276.5000      0.0000    761.4720      7.1224    100.5001
  1276.7500      0.0000    764.6118      7.1645    100.7979
  1277.0000      0.0000    768.9885      7.1915    102.3390
  1277.2500      0.0000    772.8987      7.1916    104.9852
  1277.5000      0.0000    775.0217      7.1689    108.1869
  1277.7500      0.0000    775.3926      7.1418    111.3828
  1278.0000      0.0000    775.6425      7.1327    114.1217
  1278.2500      0.0000    777.7828      7.1545    116.2842
  1278.5000      0.0000    782.2990      7.2006    118.1675
  1278.7500      0.0000    787.7487      7.2491    120.0644
  1279.0000      0.0000    792.2726      7.2812    121.9706
  1279.2500      0.0000    795.0421      7.2975    124.0520
  1279.5000      0.0000    796.3053      7.3170    126.8989
  1279.7500      0.0000    796.6867      7.3573    130.5464
  1280.0000      0.0000    796.7145      7.4143    133.5942
  1280.2500      0.0000    796.6944      7.4623    134.1845
  1280.5000      0.0000    796.7260      7.4724    131.8351
  1280.7500      0.0000    796.7826      7.4286    127.8783
  1281.0000      0.0000    796.8169      7.3325    124.2866
  1281.2500      0.0000    796.8201      7.1969    122.3074
  1281.5000      0.0000    796.8116      7.0394    121.8848
  1281.7500      0.0000    796.8085      6.8764    122.0214
  1282.0000      0.0000    796.8176      6.7203    121.6868
  1282.2500      0.0000    796.8339      6.5803    120.5196
  1282.5000      0.0000    796.7791      6.4646    118.9213
  1282.7500      0.0000    796.3959      6.3795    117.7115
  1283.0000      0.0000    795.1832      6.3249    117.6884
  1283.2500      0.0000    792.5315      6.2910    119.1581
  1283.5000      0.0000    788.0854      6.2610    121.5265
  1283.7500      0.0000    782.0653      6.2177    123.4732
  1284.0000      0.0000    775.1679      6.1509    123.9303
  1284.2500      0.0000    768.1569      6.0626    122.8949
  1284.5000      0.0000    761.6638      5.9684    121.0375
  1284.7500      0.0000    756.2106      5.8901    118.6527
  1285.0000      0.0000    751.9785      5.8444    115.3567
  1285.2500      0.0000    748.5711      5.8338    110.8648
  1285.5000      0.0000    745.4860      5.8472    105.7945
  1285.7500      0.0000    742.9764      5.8693    101.3937
  1286.0000      0.0000    742.0411      5.8899     98.5162
  1286.2500      0.0000    743.2985      5.9034     97.1293
  1286.5000      0.0000    746.2366      5.9066     96.8121
  1286.7500      0.0000    749.9760      5.9052     97.2288
  1287.0000      0.0000    754.4796      5.9210     97.8066
  1287.2500      0.0000    760.5284      5.9858     97.3212
  1287.5000      0.0000    768.4528      6.1242     94.3327
  1287.7500      0.0000    777.1954      6.3382     88.2656
  1288.0000      0.0000    784.8512      6.6046     80.1535
  1288.2500      0.0000    790.0469      6.8858     72.3376
  1288.5000      0.0000    792.6209      7.1438     67.3039
  1288.7500      0.0000    793.1190      7.3484     66.5624
  1289.0000      0.0000    792.0706      7.4788     70.2648
  1289.2500      0.0000    790.0181      7.5309     77.4852
  1289.5000      0.0000    788.0125      7.5300     86.6225
  1289.7500      0.0000    787.4605      7.5292     95.7145
  1290.0000      0.0000    789.0483      7.5769    102.8830
  1290.2500      0.0000    791.9919      7.6771    106.9413
  1290.5000      0.0000    794.6418      7.7832    107.7703
  1290.7500      0.0000    795.6716      7.8328    106.2205
  1291.0000      0.0000    794.6454      7.7864    103.8139
  1291.2500      0.0000    791.9796      7.6425    102.2932
  1291.5000      0.0000    788.7355      7.4287    102.9195
  1291.7500      0.0000    785.9417      7.1846    106.0012
  1292.0000      0.0000    783.4739      6.9423    110.9617
  1292.2500      0.0000    779.8625      6.7207    116.4213
  1292.5000      0.0000    773.8497      6.5332    120.1449
  1292.7500      0.0000    766.0370      6.3933    119.8013
  1293.0000      0.0000    758.5934      6.3079    114.8389
  1293.2500      0.0000    753.5538      6.2725    107.5950
  1293.5000      0.0000    751.8516      6.2757    101.8221
  1293.7500      0.0000    753.6591      6.3031     99.8097
  1294.0000      0.0000    758.7278      6.3375    100.9385
  1294.2500      0.0000    765.8637      6.3660    102.7360
  1294.5000      0.0000    772.5075      6.3909    103.0100
  1294.7500      0.0000    775.7808      6.4284    101.2460
  1295.0000      0.0000    774.5905      6.4929     98.5202
  1295.2500      0.0000    770.5975      6.5854     96.3422
  1295.5000      0.0000    766.7336      6.6952     95.5458
  1295.7500      0.0000    764.7903      6.8086     96.0975
  1296.0000      0.0000    764.6958      6.9187     97.6192
  1296.2500      0.0000    765.8031      7.0278     99.7766
  1296.5000      0.0000    768.0618      7.1368    102.1786
  1296.7500      0.0000    771.7940      7.2301    104.1726
  1297.0000      0.0000    776.9670      7.2761    105.1488
  1297.2500      0.0000    783.0019      7.2485    105.2110
  1297.5000      0.0000    789.1306      7.1493    105.2903
  1297.7500      0.0000    795.0291      7.0081    106.2336
  1298.0000      0.0000    801.1498      6.8600    107.7796
  1298.2500      0.0000    808.1198      6.7270    108.5764
  1298.5000      0.0000    815.5342      6.6181    107.3561
  1298.7500      0.0000    821.4763      6.5370    104.3495
  1299.0000      0.0000    823.5234      6.4839    101.6083
  1299.2500      0.0000    820.3931      6.4513    101.5630
  1299.5000      0.0000    812.7171      6.4253    104.8596
