~Version Information
VERS.                      2.0: CWLS Log ASCII Standard - VERSION 2.0
WRAP.                       NO: One line per depth step
~Well Information Block
STRT.FT               860.0000: 
STOP.FT              1907.0000: 
STEP.FT                 0.1000: 
NULL.                -999.2500: 
COMP.          Pioneer Natural Resources: COMPANY
WELL.          Victory 12-14 Tr: WELL
FLD.           Purgatoire River: FIELD
LOC.           2522' FNL & 276' FWL: LOCATION
PROV.                 Colorado: PROVINCE
CNTY.               Las Animas: COUNTRY
SRVC.                Patterson: SERVICE COMPANY
DATE.          Mon Jul 18 06:52:40 2005: LOG DATE
UWI.           05 071 08433 00: UNIQUE WELL ID
~Curve Information Block
DEPT.FT            0 000 00 00: Depth
DCAL.in                       : CDL Caliper
RHOB.g/cc                     : CDL Bulk Density
RHOC.g/cc                     : CDL Density Correction
DPOR.pu                       : CDL Density Porosity
GR.GAPI                       : Gamma Ray
NPOR.pu                       : Neutron Porosity
~Parameter Information Block
~A  Depth       DCAL        RHOB        RHOC        DPOR         GR         NPOR    
# ...
  1829.6000      8.0525      2.5184      0.1001      7.9743    153.8481     26.5155
  1829.7000      8.0525      2.5437      0.1200      6.4416    151.9821     27.8682
  1829.8000      8.0719      2.5820      0.2096      4.1205    152.2299     28.4561
  1829.9000      8.0719      2.6064      0.2169      2.6430    158.6376     28.4793
  1830.0000      8.0746      2.6068      0.1880      2.6198    164.4859     28.4359
  1830.1000      8.0746      2.6005      0.1190      2.9978    164.3332     28.0570
  1830.2000      8.0746      2.6009      0.1542      2.9743    158.5959     27.1174
  1830.3000      8.0371      2.5999      0.1130      3.0356    151.8484     26.1831
  1830.4000      8.0371      2.5977      0.1007      3.1689    149.7694     26.0371
  1830.5000      8.0872      2.6042      0.1097      2.7785    150.3317     26.5523
  1830.6000      8.0872      2.6161      0.1181      2.0558    147.3488     26.3474
  1830.7000      8.0872      2.6211      0.1052      1.7514    141.1350     24.9325
  1830.8000      8.1883      2.6095      0.1108      2.4535    139.0002     23.9625
  1830.9000      8.1883      2.5811      0.0851      4.1736    142.7904     24.8447
  1831.0000      8.1479      2.5482      0.0542      6.1723    145.7316     27.0018
  1831.1000      8.1479      2.5292      0.0552      7.3193    142.3608     28.7942
  1831.2000      8.1479      2.5378      0.0266      6.7993    134.5827     29.1230
  1831.3000      8.0841      2.5674      0.0862      5.0042    127.4246     28.3349
  1831.4000      8.0841      2.5962      0.0855      3.2622    127.1535     27.3324
  1831.5000      8.0453      2.6163      0.0795      2.0435    135.2959     26.7899
  1831.6000      8.0453      2.6344      0.0907      0.9429    144.7161     27.1697
  1831.7000      8.0453      2.6545      0.1229     -0.2706    148.2829     28.0242
  1831.8000      8.0318      2.6682      0.1473     -1.1023    145.0260     28.5501
  1831.9000      8.0318      2.6653      0.1362     -0.9283    138.3830     28.8197
  1832.0000      8.0399      2.6495      0.1046      0.0287    131.9568     29.0241
  1832.1000      8.0399      2.6201      0.1465      1.8092    133.0503     28.7708
  1832.2000      8.0399      2.5764      0.0460      4.4612    145.8990     27.8311
  1832.3000      8.0334      2.5413      0.0298      6.5851    160.0336     27.1101
  1832.4000      8.0334      2.5278      0.0621      7.4078    164.0753     27.6567
  1832.5000      8.0190      2.5288     -0.0036      7.3471    161.7525     28.2121
  1832.6000      8.0190      2.5442      0.0452      6.4118    163.1757     27.0056
  1832.7000      8.0190      2.5623      0.0753      5.3135    168.8339     25.2153
  1832.8000      8.0121      2.5658      0.0495      5.1032    172.0107     24.6816
  1832.9000      8.0121      2.5614      0.0740      5.3703    170.7434     25.1250
  1833.0000      8.0001      2.5604      0.0972      5.4297    167.8656     25.4731
  1833.1000      8.0001      2.5648      0.0761      5.1655    165.8779     25.6684
  1833.2000      8.0001      2.5761      0.1011      4.4781    163.1857     26.3369
  1833.3000      8.0088      2.5893      0.1390      3.6772    158.1312     27.3137
  1833.4000      8.0088      2.5959      0.1084      3.2772    155.1257     27.9666
  1833.5000      8.0020      2.5942      0.1310      3.3819    154.6956     27.9319
  1833.6000      8.0020      2.5896      0.1067      3.6634    152.6631     27.1552
  1833.7000      8.0020      2.5902      0.0784      3.6262    151.2194     26.2471
  1833.8000      8.0174      2.5945      0.0665      3.3650    153.9110     26.2412
  1833.9000      8.0174      2.5968      0.0594      3.2239    160.8211     27.4519
  1834.0000      8.0579      2.6027      0.0342      2.8692    170.2385     28.4354
  1834.1000      8.0579      2.6262      0.0749      1.4432    175.0108     27.8365
  1834.2000      8.0579      2.6635      0.1296     -0.8208    167.4862     26.9528
  1834.3000      8.0296      2.6893      0.1127     -2.3826    152.7233     27.1101
  1834.4000      8.0296      2.6881      0.0902     -2.3097    142.5028     26.9576
  1834.5000      8.0437      2.6706      0.0612     -1.2498    138.6237     25.7791
  1834.6000      8.0437      2.6622      0.0555     -0.7373    134.8865     24.9175
  1834.7000      8.0437      2.6756      0.0460     -1.5508    130.3246     25.1807
  1834.8000      8.0342      2.6967      0.0912     -2.8284    127.6632     26.1195
  1834.9000      8.0342      2.6992      0.0906     -2.9808    127.6665     26.6370
  1835.0000      8.0005      2.6735      0.0943     -1.4248    133.5137     26.6050
  1835.1000      8.0005      2.6359     -0.0202      0.8554    143.9907     26.9629
  1835.2000      8.0005      2.6072      0.0339      2.5921    148.8981     27.3867
  1835.3000      8.0118      2.5826      0.0387      4.0833    145.0970     26.6496
  1835.4000      8.0118      2.5466      0.0318      6.2640    141.4822     25.0062
  1835.5000      8.0236      2.5040     -0.0141      8.8515    144.0374     24.0913
  1835.6000      8.0236      2.4805     -0.0494     10.2697    149.6037     24.7451
  1835.7000      8.0236      2.4875     -0.0105      9.8490    150.1118     26.5039
  1835.8000      8.0222      2.5015      0.0257      9.0010    143.9586     28.0432
  1835.9000      8.0222      2.5055      0.0481      8.7601    141.1175     28.2896
  1836.0000      8.0486      2.5063      0.0728      8.7097    148.5441     27.7270
  1836.1000      8.0486      2.5145      0.0328      8.2109    158.3685     27.1581
  1836.2000      8.0486      2.5344      0.0850      7.0079    161.6699     26.5604
  1836.3000      8.0535      2.5563      0.1118      5.6812    160.1031     26.1359
  1836.4000      8.0535      2.5711      0.0378      4.7821    159.1836     26.1329
  1836.5000      8.0636      2.5838      0.0750      4.0109    159.3469     26.2516
  1836.6000      8.0636      2.5930      0.0916      3.4533    157.8490     26.1988
  1836.7000      8.0636      2.5948      0.0775      3.3439    155.6086     26.1707
  1836.8000      8.0646      2.6033      0.1106      2.8283    152.2766     26.3949
  1836.9000      8.0646      2.6263      0.1474      1.4356    147.3982     27.1597
  1837.0000      8.0205      2.6423      0.1678      0.4661    143.9013     28.2410
  1837.1000      8.0205      2.6303      0.1429      1.1938    146.5327     28.3465
  1837.2000      8.0205      2.5966      0.1356      3.2334    156.0989     27.2021
  1837.3000      8.0093      2.5604      0.1245      5.4287    164.5038     26.2393
  1837.4000      8.0093      2.5441      0.0656      6.4194    164.9852     26.5015
  1837.5000      8.0126      2.5501      0.1477      6.0573    160.3100     27.4973
  1837.6000      8.0126      2.5499      0.1123      6.0663    156.5946     27.9653
  1837.7000      8.0126      2.5280      0.0813      7.3947    156.5650     28.3536
  1837.8000      8.0246      2.4945      0.0660      9.4241    157.9939     29.6750
  1837.9000      8.0246      2.4638     -0.0249     11.2858    158.1550     30.6723
  1838.0000      8.0449      2.4499      0.0403     12.1279    158.1918     30.0266
  1838.1000      8.0449      2.4577      0.0584     11.6574    159.6638     28.3844
  1838.2000      8.0449      2.4798      0.0930     10.3161    160.3807     27.0774
  1838.3000      8.0621      2.5074      0.1028      8.6436    158.7799     26.9816
  1838.4000      8.0621      2.5395      0.1266      6.6973    158.5391     27.8893
  1838.5000      8.0309      2.5765      0.2111      4.4521    163.3192     28.4101
  1838.6000      8.0309      2.6137      0.1951      2.1994    168.8277     27.5733
  1838.7000      8.0309      2.6409      0.2516      0.5527    167.1807     26.3430
  1838.8000      8.0112      2.6459      0.1809      0.2484    160.0400     25.8440
  1838.9000      8.0112      2.6301      0.1453      1.2039    155.5540     26.2039
  1839.0000      8.0293      2.6014      0.1539      2.9485    157.9409     26.9293
  1839.1000      8.0293      2.5685      0.1035      4.9364    164.9536     27.3567
