~Version Information
VERS.                      2.0: CWLS Log ASCII Standard - VERSION 2.0
WRAP.                       NO: One line per depth step
~Well Information Block
STRT.FT               550.0000: 
STOP.FT              2042.5000: 
STEP.FT                 0.1000: 
NULL.                -999.2500: 
COMP.          Petrogulf Corporation: COMPANY
WELL.          Robinson 15-12V: WELL
FLD.           Purgatorie River: FIELD
LOC.           1788' FNL & 466' FWL: LOCATION
PROV.                 Colorado: PROVINCE
CNTY.               Las Animas: COUNTRY
SRVC.                Patterson: SERVICE COMPANY
DATE.          Mon Sep 12 10:04:59 2005: LOG DATE
UWI.                          : UNIQUE WELL ID
~Curve Information Block
DEPT.FT            0 000 00 00: Depth
DCAL.in                       : CDL Caliper
RHOB.g/cc                     : CDL Bulk Density
RHOC.g/cc                     : CDL Density Correction
DPOR.pu                       : CDL Density Porosity
GR.GAPI                       : Gamma Ray
NPOR.pu                       : Neutron Porosity
~Parameter Information Block
~A  Depth       DCAL        RHOB        RHOC        DPOR         GR         NPOR    
# ...
  1039.6000      7.9742      2.5732      0.0441      4.6520    170.2643     24.2967
  1039.7000      7.9742      2.5621      0.0159      5.3297    174.5219     24.2572
  1039.8000      7.9952      2.5493     -0.0033      6.1055    178.9147     24.0744
  1039.9000      7.9952      2.5476     -0.0153      6.2058    178.7411     24.0215
  1040.0000      8.0559      2.5549      0.0268      5.7632    175.7000     24.3933
  1040.1000      8.0559      2.5640     -0.0092      5.2095    175.0874     24.9686
  1040.2000      8.0559      2.5723     -0.0089      4.7121    178.7639     25.3280
  1040.3000      8.0979      2.5731      0.0189      4.6580    181.8123     25.6312
  1040.4000      8.0979      2.5680     -0.0202      4.9685    179.4185     25.8144
  1040.5000      8.1161      2.5704     -0.0006      4.8226    173.5902     25.2660
  1040.6000      8.1161      2.5788      0.0068      4.3145    169.7328     24.2217
  1040.7000      8.1161      2.5788      0.0026      4.3174    170.1913     23.6568
  1040.8000      8.1312      2.5709     -0.0192      4.7944    172.4058     23.6915
  1040.9000      8.1312      2.5628      0.0153      5.2837    173.3692     23.8949
  1041.0000      8.1116      2.5563      0.0257      5.6801    171.6674     24.1384
  1041.1000      8.1116      2.5591     -0.0097      5.5067    168.2057     24.1412
  1041.2000      8.1116      2.5747      0.0260      4.5645    165.9603     23.8202
  1041.3000      8.1002      2.5915      0.0343      3.5432    164.7602     23.5616
  1041.4000      8.1002      2.6044      0.0453      2.7662    161.5638     23.5459
  1041.5000      8.0451      2.6138      0.0410      2.1943    155.7735     23.8526
  1041.6000      8.0451      2.6143      0.0729      2.1615    149.8705     24.4113
  1041.7000      8.0451      2.6002      0.0405      3.0181    146.2851     24.6298
  1041.8000      8.0318      2.5798      0.0241      4.2546    143.3343     24.4220
  1041.9000      8.0318      2.5692     -0.0012      4.8987    139.6932     24.2189
  1042.0000      7.9944      2.5700      0.0058      4.8488    135.2356     24.1643
  1042.1000      7.9944      2.5655      0.0144      5.1228    129.8999     24.2335
  1042.2000      7.9944      2.5515     -0.0012      5.9716    128.7666     24.1470
  1042.3000      7.9713      2.5538      0.0201      5.8320    133.9464     23.5996
  1042.4000      7.9713      2.5830      0.0746      4.0615    137.7682     22.7417
  1042.5000      7.9484      2.6120      0.1120      2.3041    135.2237     22.0950
  1042.6000      7.9484      2.6240      0.0615      1.5775    129.7807     21.7933
  1042.7000      7.9484      2.6288      0.0996      1.2866    126.2010     21.5516
  1042.8000      7.9437      2.6298      0.0799      1.2220    126.3577     21.3531
  1042.9000      7.9437      2.6237      0.0624      1.5968    129.3506     21.1788
  1043.0000      7.9341      2.6114      0.1161      2.3414    134.9971     20.6838
  1043.1000      7.9341      2.5991      0.1047      3.0823    141.3339     19.7809
  1043.2000      7.9341      2.5971      0.0951      3.2088    145.2811     19.0142
  1043.3000      7.9064      2.6020      0.1496      2.9103    146.3501     18.7577
  1043.4000      7.9064      2.6003      0.0884      3.0116    144.5532     18.8431
  1043.5000      7.8828      2.5891      0.1269      3.6885    141.1035     19.0462
  1043.6000      7.8828      2.5732      0.0786      4.6546    138.5255     19.2461
  1043.7000      7.8828      2.5595      0.1100      5.4830    139.1576     19.5903
  1043.8000      7.8996      2.5558      0.0839      5.7077    143.8262     20.0971
  1043.9000      7.8996      2.5679      0.0794      4.9769    149.4902     20.4673
  1044.0000      7.9189      2.5877      0.1099      3.7747    151.2302     20.8004
  1044.1000      7.9189      2.5972      0.1178      3.1970    149.9370     21.3540
  1044.2000      7.9189      2.5943      0.0975      3.3783    150.7737     21.8997
  1044.3000      7.9250      2.5936      0.0817      3.4175    154.9211     22.1622
  1044.4000      7.9250      2.6066      0.0501      2.6312    159.4017     22.1848
  1044.5000      7.9315      2.6260      0.1042      1.4525    159.6127     22.2362
  1044.6000      7.9315      2.6338      0.0954      0.9801    155.5731     22.4649
  1044.7000      7.9315      2.6216      0.0876      1.7217    154.4502     22.5216
  1044.8000      7.9393      2.5909      0.0791      3.5821    159.1494     22.1996
  1044.9000      7.9393      2.5480      0.0206      6.1812    165.3076     22.0114
  1045.0000      7.9399      2.5105     -0.0241      8.4519    169.5964     22.5475
  1045.1000      7.9399      2.4954     -0.0279      9.3710    172.4587     23.5234
  1045.2000      7.9399      2.4995     -0.0314      9.1212    174.9269     24.2040
  1045.3000      7.9527      2.5096     -0.0024      8.5092    176.6417     24.4869
  1045.4000      7.9527      2.5160      0.0471      8.1228    178.5229     24.5132
  1045.5000      8.0198      2.5149      0.0516      8.1873    179.8336     24.4919
  1045.6000      8.0198      2.5122      0.0306      8.3511    178.4040     24.9375
  1045.7000      8.0198      2.5133      0.0573      8.2850    175.9685     25.7213
  1045.8000      8.0394      2.5099      0.0435      8.4927    173.6734     26.0883
  1045.9000      8.0394      2.4949      0.0362      9.4025    167.6898     26.0577
  1046.0000      8.0453      2.4773      0.0010     10.4668    156.7020     26.2961
  1046.1000      8.0453      2.4711      0.0099     10.8453    145.9906     26.7271
  1046.2000      8.0453      2.4746      0.0192     10.6332    138.2681     26.6156
  1046.3000      8.0574      2.4826      0.0015     10.1432    129.8931     25.9085
  1046.4000      8.0574      2.4959      0.0497      9.3417    118.4622     25.1473
  1046.5000      8.0701      2.5088      0.0335      8.5591    107.6484     24.4540
  1046.6000      8.0701      2.5178      0.0502      8.0115    101.5858     23.4716
  1046.7000      8.0701      2.5306      0.0537      7.2336     99.5831     22.1528
  1046.8000      8.0693      2.5569      0.0705      5.6419     99.8393     20.9194
  1046.9000      8.0693      2.5925      0.1498      3.4873    102.2143     20.1877
  1047.0000      7.9384      2.6208      0.1747      1.7692    106.1564     19.5579
  1047.1000      7.9384      2.6327      0.1650      1.0469    109.6050     18.4227
  1047.2000      7.9384      2.6321      0.1506      1.0856    111.5937     17.1303
  1047.3000      7.9022      2.6275      0.1489      1.3644    112.4337     16.0716
  1047.4000      7.9022      2.6258      0.0747      1.4677    111.9343     15.1421
  1047.5000      7.9126      2.6289      0.1212      1.2803    112.2537     14.4050
  1047.6000      7.9126      2.6375      0.0548      0.7567    116.5986     13.9844
  1047.7000      7.9126      2.6498      0.0988      0.0092    124.7161     13.8820
  1047.8000      7.9512      2.6450      0.1098      0.3022    133.8291     14.1754
  1047.9000      7.9512      2.6067      0.1160      2.6262    141.8324     14.8625
  1048.0000      7.9713      2.5558      0.0445      5.7110    150.1666     15.8125
  1048.1000      7.9713      2.5252      0.0400      7.5607    160.1780     16.7608
  1048.2000      7.9713      2.5139      0.0556      8.2460    168.3118     17.5574
  1048.3000      7.9586      2.5003      0.0653      9.0736    171.8031     18.6493
  1048.4000      7.9586      2.4866      0.0272      9.9049    172.8211     20.2037
  1048.5000      7.9653      2.4938      0.0328      9.4693    175.2324     21.5526
  1048.6000      7.9653      2.5203      0.0997      7.8591    178.4681     22.5025
  1048.7000      7.9653      2.5447      0.1197      6.3833    178.3554     23.3847
  1048.8000      7.9602      2.5615      0.1177      5.3641    178.7028     24.0748
  1048.9000      7.9602      2.5822      0.1262      4.1114    181.9821     24.4929
  1049.0000      7.9825      2.6028      0.1603      2.8594    180.8299     24.9402
  1049.1000      7.9825      2.6042      0.1367      2.7738    175.5532     25.3671
