~Version Information
 VERS.                                  2.0 : CWLS LAS VERSION
 WRAP.                                   NO : WRAPING MODE
 SWARE .                 MController 2.5.0I : SOFTWARE VERSION
~Well Information
 WELL.                        Montoya 1-44v : WELL
 COMP.                       Petrogulf Corp : COMPANY
 FLD.                      Purgatorie River : FIELD
 LOC.                 SE/SE Sec 1 T33S R68W : LOCATION
 DATE.                           8/24-25/04 : DATE(S) LOGGED
 SRVC.       Blanco Geological services LLC : SERVICE COMPANY
 STAT.                                   CO : STATE
 CNTY.                           Las Animas : COUNTY
 CTRY.                                  USA : COUNTRY
 API.                       05-071-08142-00 : API NUMBER
 STRT.FT                             556.00 : START DEPTH
 STOP.FT                            2600.00 : STOP DEPTH
 STEP.FT                               1.00 : DEPTH INCREMENT
 NULL.                                -9999 : NULL VALUE
~Curve information
 DEPTH.FT                                   :
 ROP.MIN/FT                                 :
 GAS.UNITS                                  :
~ASCII Log data
# ...
      1356.0          0.1         52.4 
      1357.0          0.3         38.5 
      1358.0          0.2         17.6 
      1359.0          0.3         12.3 
      1360.0          0.3         10.3 
      1361.0          0.4          8.9 
      1362.0          0.5          6.6 
      1363.0          0.4          5.3 
      1364.0          0.3          3.7 
      1365.0          0.3          3.2 
      1366.0          0.7          2.3 
      1367.0          0.7          2.5 
      1368.0          0.7          2.4 
      1369.0          0.4          2.6 
      1370.0          0.2          2.6 
      1371.0          0.4          2.9 
      1372.0          0.4          3.0 
      1373.0          0.4          2.7 
      1374.0          0.4          2.7 
      1375.0          0.6          2.6 
      1376.0          0.4          2.4 
      1377.0          0.3          2.5 
      1378.0          0.1          2.5 
      1379.0          0.2          2.6 
      1380.0          0.2          3.2 
      1381.0          0.2          3.3 
      1382.0          0.2          3.2 
      1383.0          0.2          2.8 
      1384.0          0.3          2.5 
      1385.0          3.1         40.5 
      1386.0          0.2          8.8 
      1387.0          0.3          5.1 
      1388.0          0.3          2.4 
      1389.0          0.2          1.7 
      1390.0          0.2          1.4 
      1391.0          0.3          1.1 
      1392.0          0.3          1.3 
      1393.0          0.3          1.2 
      1394.0          0.3          1.3 
      1395.0          0.4          1.7 
      1396.0          0.3          2.0 
      1397.0          0.3          2.0 
      1398.0          0.3          1.7 
      1399.0          0.4          1.8 
      1400.0          0.5          2.4 
      1401.0          0.6          2.1 
      1402.0          0.5          2.5 
      1403.0          0.3          2.4 
      1404.0          0.4          2.3 
      1405.0          0.6          2.7 
      1406.0          0.4          2.6 
      1407.0          0.2          2.6 
      1408.0          0.1          3.0 
      1409.0          0.1          3.7 
      1410.0          0.2          5.7 
      1411.0          0.2          7.1 
      1412.0          0.3          7.1 
      1413.0          0.3          6.0 
      1414.0          0.3          4.7 
      1415.0          3.0         26.3 
      1416.0          0.4          4.2 
      1417.0          0.3          3.7 
      1418.0          0.3          3.5 
      1419.0          0.2          3.1 
      1420.0          0.3          3.2 
      1421.0          0.3          3.1 
      1422.0          0.2          2.9 
      1423.0          0.4          3.2 
      1424.0          0.3          2.9 
      1425.0          0.3          2.8 
      1426.0          0.3          2.9 
      1427.0          0.2          2.8 
      1428.0          0.2          2.9 
      1429.0          0.1          2.9 
      1430.0          0.2          2.7 
      1431.0          0.2          3.3 
      1432.0          0.2          3.4 
      1433.0          0.3          3.3 
      1434.0          0.3          3.0 
      1435.0          0.3          2.9 
      1436.0          0.3          2.9 
      1437.0          0.2          2.8 
      1438.0          0.2          2.8 
      1439.0          0.2          3.3 
      1440.0          0.3          3.7 
      1441.0          0.3          3.6 
      1442.0          0.3          3.2 
      1443.0          0.2          3.2 
      1444.0          0.6          3.5 
      1445.0          2.0         48.4 
      1446.0          0.3         32.0 
      1447.0          0.5         11.3 
      1448.0          0.6          6.5 
      1449.0          0.7          6.6 
      1450.0          0.5          6.6 
      1451.0          0.3          6.2 
      1452.0          0.7          5.8 
      1453.0          0.2          5.4 
      1454.0          0.2          5.6 
      1455.0          0.2          5.8 
      1456.0          0.2          5.6 
      1457.0          0.1          5.8 
      1458.0          0.2          6.0 
      1459.0          0.2          7.0 
      1460.0          0.2          7.9 
      1461.0          0.2          8.0 
      1462.0          0.2          7.4 
      1463.0          0.3          6.8 
      1464.0          0.3          6.1 
      1465.0          0.3          5.7 
      1466.0          0.3          5.5 
      1467.0          0.2          5.7 
      1468.0          0.2          5.6 
      1469.0          0.2          5.7 
      1470.0          0.1          5.5 
      1471.0          0.2          5.4 
      1472.0          0.1          5.7 
      1473.0          0.1          6.2 
      1474.0          0.5         11.6 
      1475.0          5.2         48.3 
      1476.0          0.5          9.4 
      1477.0          0.2          5.8 
      1478.0          0.4          5.6 
      1479.0          0.2          5.4 
      1480.0          0.3          5.6 
      1481.0          0.5          6.2 
      1482.0          0.3          6.1 
      1483.0          0.7          5.7 
      1484.0          0.7          5.5 
      1485.0          0.5          5.4 
      1486.0          0.5          5.3 
      1487.0          0.4          5.3 
      1488.0          0.4          5.4 
      1489.0          0.4          5.5 
      1490.0          0.7          5.4 
      1491.0          0.6          5.2 
      1492.0          0.4          4.1 
      1493.0          0.3          4.9 
      1494.0          0.2          5.1 
      1495.0          0.3          5.2 
      1496.0          0.3          5.2 
      1497.0          0.3          5.4 
      1498.0          0.3          5.2 
      1499.0          0.3          5.2 
      1500.0          0.2          5.2 
      1501.0          0.1          5.2 
      1502.0          0.2          5.2 
      1503.0          0.2          6.0 
      1504.0          0.3          6.5 
      1505.0          2.4         34.3 
      1506.0          0.1         26.1 
      1507.0          0.3         21.6 
      1508.0          0.3         11.8 
      1509.0          0.3          7.5 
      1510.0          0.4          5.9 
      1511.0          0.3          5.2 
      1512.0          0.3          5.2 
      1513.0          0.3          5.0 
      1514.0          0.3          4.6 
      1515.0          0.2          4.6 
      1516.0          0.3          4.9 
      1517.0          1.0          4.8 
      1518.0          1.3          4.9 
      1519.0          0.6          4.9 
      1520.0          0.6          4.9 
      1521.0          0.7          5.0 
      1522.0          0.4          4.7 
      1523.0          0.3          4.9 
      1524.0          0.3          4.5 
      1525.0          0.2          4.6 
      1526.0          0.2          4.6 
      1527.0          0.3          4.5 
      1528.0          0.3          4.5 
      1529.0          0.2          4.7 
      1530.0          0.3          4.6 
      1531.0          0.3          4.4 
      1532.0          0.3          4.3 
      1533.0          0.3          4.4 
      1534.0          0.2          4.5 
      1535.0          3.1         43.5 
      1536.0          0.1         28.2 
      1537.0          0.2         20.1 
      1538.0          0.2         12.1 
      1539.0          0.3          7.7 
      1540.0          0.3          5.5 
      1541.0          0.3          4.7 
      1542.0          0.3          4.6 
      1543.0          0.4          4.3 
      1544.0          0.3          4.1 
      1545.0          0.3          4.2 
      1546.0          0.3          4.2 
      1547.0          0.3          4.2 
      1548.0          0.4          4.0 
      1549.0          0.3          4.2 
      1550.0          0.4          4.2 
      1551.0          0.4          4.4 
      1552.0          0.3          4.4 
      1553.0          0.4          5.3 
      1554.0          0.4          5.3 
      1555.0          0.4          5.2 
