~Version Information
VERS.                      2.0: CWLS Log ASCII Standard - VERSION 2.0
WRAP.                       NO: One line per depth step
~Well Information Block
STRT.FT               742.5000: 
STOP.FT              2463.5000: 
STEP.FT                 0.2500: 
NULL.                -999.2500: 
COMP.          Petrogulf Corporation: COMPANY
WELL.           Montoya 12-44V: WELL
FLD.           Purgatorie River: FIELD
LOC.           698' FSL & 599' FEL: LOCATION
CNTY.               Las Animas: COUNTY
SRVC.                         : SERVICE COMPANY
DATE.          Sun Aug 08 06:43:17 2004: LOG DATE
UWI.           05 071 08094 00: UNIQUE WELL ID
STAT.                 Colorado: STATE
~Curve Information Block
DEPT.FT            0 000 00 00: Depth
SN.Ohm-m                      : IEL Short Normal
SP.mV                         : IEL Spontaneous Potential
DIR.Ohm-m                     : IEL Induction Resistivity
GR.GAPI                       : Gamma Ray
~Parameter Information Block
~A  Depth        SN          SP         DIR          GR     
# ...
  2183.0000     27.9342     16.7527     25.3817     50.5269
  2183.2500     28.5042     16.3489     25.8404     45.9590
  2183.5000     29.0165     16.0598     26.3055     40.9066
  2183.7500     29.4838     15.8228     26.7889     39.1757
  2184.0000     29.9167     15.5691     27.2788     38.9201
  2184.2500     30.3029     15.2343     27.7182     39.8315
  2184.5000     30.6064     14.7680     28.0268     41.6631
  2184.7500     30.7837     14.1453     28.1580     42.6011
  2185.0000     30.8014     13.3711     28.1384     43.1651
  2185.2500     30.6447     12.4735     28.0351     43.1438
  2185.5000     30.3193     11.4949     27.8795     43.1538
  2185.7500     29.8497     10.4898     27.6427     43.5290
  2186.0000     29.2741      9.5193     27.2797     45.1004
  2186.2500     28.6371      8.6600     26.7862     47.0130
  2186.5000     27.9861      8.0033     26.2045     50.9382
  2186.7500     27.3679      7.6486     25.5923     53.5578
  2187.0000     26.8265      7.6752     24.9907     55.8726
  2187.2500     26.3960      8.1095     24.4084     55.8685
  2187.5000     26.0935      8.8957     23.8371     54.3437
  2187.7500     25.9156      9.8859     23.2871     53.3950
  2188.0000     25.8420     10.8653     22.8118     53.4595
  2188.2500     25.8447     11.6012     22.4849     54.4533
  2188.5000     25.8972     11.9109     22.3444     56.2224
  2188.7500     25.9805     11.7199     22.3598     56.9841
  2189.0000     26.0816     11.0934     22.4519     57.3466
  2189.2500     26.1881     10.2217     22.5475     57.3433
  2189.5000     26.2837      9.3717     22.6179     57.4202
  2189.7500     26.3484      8.8105     22.6825     57.5909
  2190.0000     26.3651      8.7264     22.8005     57.8861
  2190.2500     26.3262      9.1766     23.0624     57.9706
  2190.5000     26.2350     10.0726     23.5656     57.7078
  2190.7500     26.0994     11.2104     24.3650     57.2603
  2191.0000     25.9268     12.3320     25.4208     56.5539
  2191.2500     25.7271     13.1976     26.5816     56.3967
  2191.5000     25.5215     13.6481     27.6268     56.9261
  2191.7500     25.3476     13.6360     28.3557     57.6801
  2192.0000     25.2473     13.2235     28.6512     58.9164
  2192.2500     25.2480     12.5495     28.4726     59.5134
  2192.5000     25.3515     11.7794     27.8279     59.9148
  2192.7500     25.5420     11.0585     26.8002     60.0942
  2193.0000     25.8040     10.4744     25.6033     60.8179
  2193.2500     26.1322     10.0468     24.5351     61.5832
  2193.5000     26.5278      9.7412     23.8472     62.2724
  2193.7500     26.9835      9.4912     23.6467     61.9033
  2194.0000     27.4724      9.2364     23.8781     60.1906
  2194.2500     27.9473      8.9454     24.3629     58.8100
  2194.5000     28.3556      8.6265     24.8692     57.0516
  2194.7500     28.6569      8.3175     25.1976     56.0181
  2195.0000     28.8337      8.0724     25.2345     54.2821
  2195.2500     28.8898      7.9454     24.9520     53.0165
  2195.5000     28.8421      7.9762     24.3860     51.4465
  2195.7500     28.7137      8.1874     23.6398     50.9139
  2196.0000     28.5277      8.5750     22.8883     51.1333
  2196.2500     28.3014      9.1115     22.3337     51.9610
  2196.5000     28.0449      9.7467     22.1231     54.0373
  2196.7500     27.7703     10.4068     22.2895     55.7514
  2197.0000     27.5051     11.0143     22.7399     58.2231
  2197.2500     27.2968     11.5018     23.2900     59.3806
  2197.5000     27.1983     11.8337     23.7353     59.8422
  2197.7500     27.2428     12.0163     23.9371     59.3368
  2198.0000     27.4299     12.0939     23.8718     57.9940
  2198.2500     27.7334     12.1281     23.6169     57.0462
  2198.5000     28.1275     12.1734     23.2934     55.5190
  2198.7500     28.6065     12.2526     23.0171     54.2426
  2199.0000     29.1828     12.3498     22.8875     52.1917
  2199.2500     29.8645     12.4143     22.9933     51.3691
  2199.5000     30.6304     12.3844     23.3982     52.0335
  2199.7500     31.4218     12.2091     24.0966     53.7180
  2200.0000     32.1506     11.8734     24.9767     56.7190
  2200.2500     32.7197     11.4018     25.8294     58.0229
  2200.5000     33.0402     10.8611     26.4229     58.1816
  2200.7500     33.0429     10.3507     26.5966     57.4024
  2201.0000     32.6782      9.9877     26.2954     56.0160
  2201.2500     31.9079      9.8901     25.5368     55.5153
  2201.5000     30.6989     10.1679     24.3651     55.9933
  2201.7500     29.0349     10.9057     22.8528     57.2368
  2202.0000     26.9435     12.1485     21.1283     60.1904
  2202.2500     24.5230     13.8909     19.3769     62.4576
  2202.5000     21.9425     16.0690     17.7834     65.4934
  2202.7500     19.4084     18.5671     16.4621     67.0712
  2203.0000     17.1156     21.2313     15.4291     69.3609
  2203.2500     15.2124     23.8983     14.6248     71.7000
  2203.5000     13.7922     26.4219     13.9624     78.0866
  2203.7500     12.9010     28.7022     13.3800     84.8520
  2204.0000     12.5384     30.6929     12.8681     98.8074
  2204.2500     12.6458     32.3987     12.4569    110.1952
  2204.5000     13.0991     33.8476     12.1793    128.7527
  2204.7500     13.7268     35.0661     12.0414    140.5804
  2205.0000     14.3550     36.0564     12.0168    154.7162
  2205.2500     14.8573     36.7820     12.0598    160.7618
  2205.5000     15.1818     37.1799     12.1232    164.5499
  2205.7500     15.3444     37.1758     12.1736    163.7073
  2206.0000     15.3991     36.7101     12.2014    157.4374
  2206.2500     15.4039     35.7625     12.2249    150.2255
  2206.5000     15.4009     34.3661     12.2852    136.8036
  2206.7500     15.4135     32.6099     12.4336    127.9146
  2207.0000     15.4582     30.6349     12.7182    117.4880
  2207.2500     15.5580     28.6140     13.1785    113.2555
  2207.5000     15.7466     26.7316     13.8410    110.5646
  2207.7500     16.0599     25.1484     14.7118    110.3682
  2208.0000     16.5190     23.9846     15.7633    110.9526
  2208.2500     17.1134     23.3013     16.9214    111.2877
  2208.5000     17.7904     23.1056     18.0669    111.2422
  2208.7500     18.4563     23.3580     19.0636    110.9412
  2209.0000     18.9957     23.9919     19.8132    110.4542
  2209.2500     19.3064     24.9297     20.2989    110.1502
  2209.5000     19.3383     26.0940     20.5706    109.3551
  2209.7500     19.1156     27.4128     20.6815    108.2749
  2210.0000     18.7281     28.8153     20.6400    105.5541
  2210.2500     18.2983     30.2335     20.4270    103.1760
  2210.5000     17.9454     31.5933     20.0458     99.5333
  2210.7500     17.7595     32.8179     19.5410     97.6340
  2211.0000     17.7877     33.8290     18.9666     96.6706
  2211.2500     18.0241     34.5609     18.3584     97.7849
  2211.5000     18.4113     34.9718     17.7454    101.9277
  2211.7500     18.8616     35.0609     17.1734    105.4665
  2212.0000     19.2947     34.8738     16.7033    109.9981
  2212.2500     19.6676     34.4954     16.3856    111.7875
  2212.5000     19.9814     34.0280     16.2423    112.5137
  2212.7500     20.2627     33.5640     16.2670    112.0524
  2213.0000     20.5375     33.1623     16.4381    110.6677
  2213.2500     20.8142     32.8382     16.7326    109.4995
  2213.5000     21.0836     32.5793     17.1375    107.1311
  2213.7500     21.3350     32.3613     17.6483    104.8002
  2214.0000     21.5746     32.1712     18.2556    100.1466
  2214.2500     21.8320     32.0134     18.9314     96.8927
  2214.5000     22.1528     31.9036     19.6320     93.2842
  2214.7500     22.5841     31.8540     20.3169     92.1291
  2215.0000     23.1628     31.8626     20.9647     91.5806
  2215.2500     23.9111     31.9066     21.5738     91.1477
  2215.5000     24.8399     31.9537     22.1533     89.1214
  2215.7500     25.9584     31.9680     22.7209     86.4567
  2216.0000     27.2802     31.9192     23.3092     80.3641
  2216.2500     28.8116     31.7753     23.9580     75.1707
