~Version Information
VERS.                      2.0: CWLS Log ASCII Standard - VERSION 2.0
WRAP.                       NO: One line per depth step
~Well Information Block
STRT.FT                17.7500: 
STOP.FT              1139.0000: 
STEP.FT                 0.2500: 
NULL.                -999.2500: 
COMP.          El Paso E&P Company L.P.: COMPANY
WELL.              VPR "ST" 38: WELL
FLD.           Purgatorie River: FIELD
LOC.           687' FNL & 2121' FEL: LOCATION
CNTY.               Las Animas: COUNTY
SRVC.          Superior Well Services: SERVICE COMPANY
DATE.          Sat Oct 13 22-40-21 2007: LOG DATE
UWI.           05-071-08357-00: UNIQUE WELL ID
STAT.                       CO: STATE
~Curve Information Block
DEPT.FT            0 000 00 00: Depth
CCL.                          : Casing Collar Locator
TT3.usec                      : CBL 3' Travel Time
AMP3.mV                       : CBL 3' Amplitude
GR.GAPI                       : Gamma Ray
~Parameter Information Block
~A  Depth       CCL         TT3         AMP3         GR     
# ...
   386.2500      0.0000    501.7151      3.4913     58.8786
   386.5000      0.0000    501.1233      3.4945     60.9555
   386.7500      0.0000    502.1205      3.4940     64.7012
   387.0000      0.0000    507.6745      3.4872     68.2286
   387.2500      0.0000    518.8415      3.4715     76.1605
   387.5000      0.0000    535.0552      3.4491     83.0371
   387.7500      0.0000    555.0076      3.4282     94.2818
   388.0000      0.0000    576.4979      3.4178    101.6616
   388.2500      0.0000    596.2386      3.4210    112.0398
   388.5000      0.0000    611.1323      3.4318    118.2214
   388.7500      0.0000    620.0164      3.4402    125.5548
   389.0000      0.0000    623.8003      3.4387    128.9399
   389.2500      0.0000    623.9119      3.4258    132.7194
   389.5000      0.0000    620.8447      3.4042    135.2356
   389.7500      0.0000    614.1597      3.3780    138.9944
   390.0000      0.0000    603.7516      3.3513    140.3591
   390.2500      0.0000    591.0861      3.3290    139.0706
   390.5000      0.0000    579.0231      3.3152    136.3569
   390.7500      0.0000    570.1546      3.3119    131.5334
   391.0000      0.0000    565.2723      3.3184    128.4782
   391.2500      0.0000    563.4713      3.3311    123.7913
   391.5000      0.0000    563.2158      3.3429    120.2978
   391.7500      0.0000    562.7679      3.3449    114.7430
   392.0000      0.0000    560.2757      3.3317    111.0934
   392.2500      0.0000    554.8080      3.3052    105.6715
   392.5000      0.0000    547.5585      3.2731    102.1598
   392.7500      0.0000    541.3640      3.2441     98.3298
   393.0000      0.0000    538.7943      3.2240     97.7166
   393.2500      0.0000    540.6025      3.2159     99.6640
   393.5000      0.0000    545.5023      3.2216    101.6488
   393.7500      0.0000    551.1843      3.2433    103.8726
   394.0000      0.0000    556.2145      3.2828    105.1215
   394.2500      0.0000    561.4871      3.3394    108.2865
   394.5000      0.0000    569.4947      3.4100    111.4456
   394.7500      0.0000    581.7941      3.4894    116.1665
   395.0000      0.0000    597.3423      3.5720    118.4588
   395.2500      0.0000    613.9742      3.6530    120.6822
   395.5000      0.0000    631.6964      3.7288    121.3999
   395.7500      0.0000    654.0906      3.7963    119.9536
   396.0000      0.0000    685.3295      3.8511    116.6475
   396.2500      0.0000    724.4355      3.8873    110.0523
   396.5000      0.0000    762.1230      3.8999    107.0248
   396.7500      0.0000    784.9186      3.8881    107.1043
   397.0000      0.0000    784.1256      3.8547    109.3252
   397.2500      0.0000    760.7076      3.8035    111.8223
   397.5000      0.0000    722.1580      3.7368    111.0872
   397.7500      0.0000    677.0518      3.6586    105.9152
   398.0000      0.0000    632.6241      3.5787    100.6416
   398.2500      0.0000    594.3555      3.5121     92.6694
   398.5000      0.0000    565.5542      3.4691     89.2817
   398.7500      0.0000    547.0905      3.4459     89.2601
   399.0000      0.0000    537.8334      3.4273     91.9248
   399.2500      0.0000    535.6735      3.3995     96.0304
   399.5000      0.0000    538.1863      3.3619     96.8628
   399.7500      0.0000    542.4663      3.3276     94.7933
   400.0000      0.0000    544.9943      3.3121     92.3183
   400.2500      0.0000    542.9438      3.3224     89.5063
   400.5000      0.0000    536.1112      3.3530     89.3938
   400.7500      0.0000    526.9731      3.3902     92.3120
   401.0000      0.0000    518.3138      3.4204     95.4190
   401.2500      0.0000    510.9362      3.4359     99.3648
   401.5000      0.0000    503.9586      3.4369    100.5520
   401.7500      0.0000    497.0109      3.4294     99.9177
   402.0000      0.0000    491.6338      3.4209     98.1036
   402.2500      0.0000    490.8329      3.4162     93.7177
   402.5000      0.0000    497.9467      3.4166     90.1531
   402.7500      0.0000    515.5198      3.4210     85.3256
   403.0000      0.0000    543.6982      3.4280     83.3482
   403.2500      0.0000    578.7194      3.4359     82.5675
   403.5000      0.0000    613.5417      3.4443     82.7479
   403.7500      0.0000    641.3595      3.4518     82.3649
   404.0000      0.0000    659.4691      3.4540     81.2652
   404.2500      0.0000    670.1792      3.4457     78.5862
   404.5000      0.0000    678.5748      3.4274     76.3024
   404.7500      0.0000    689.6375      3.4064     72.6864
   405.0000      0.0000    706.2730      3.3908     70.8661
   405.2500      0.0000    727.9585      3.3840     69.7975
   405.5000      0.0000    750.1998      3.3868     69.5279
   405.7500      0.0000    766.2673      3.4019     67.5375
   406.0000      0.0000    771.4033      3.4322     64.7565
   406.2500      0.0000    766.4988      3.4766     60.7688
   406.5000      0.0000    757.7391      3.5303     60.3184
   406.7500      0.0000    752.2859      3.5894     64.1683
   407.0000      0.0000    753.5563      3.6509     68.3440
   407.2500      0.0000    759.9269      3.7097     73.3943
   407.5000      0.0000    767.6824      3.7599     75.0098
   407.7500      0.0000    776.0222      3.7990     75.9810
   408.0000      0.0000    788.4818      3.8286     76.8386
   408.2500      0.0000    806.8021      3.8500     79.1474
   408.5000      0.0000    823.5084      3.8618     80.8650
   408.7500      0.0000    824.8938      3.8613     82.5451
   409.0000      0.0000    803.6614      3.8475     82.9655
   409.2500      0.0000    765.7166      3.8197     83.5540
   409.5000      0.0000    722.8367      3.7785     84.6197
   409.7500      0.0000    682.0347      3.7272     87.6318
   410.0000      0.0000    643.8590      3.6730     90.2757
   410.2500      0.0000    607.5916      3.6246     94.0344
   410.5000      0.0000    574.7632      3.5900     95.5742
   410.7500      0.0000    547.9102      3.5738     95.6810
   411.0000      0.0000    527.8701      3.5744     94.7397
   411.2500      0.0000    513.5314      3.5829     93.5518
   411.5000      0.0000    503.6008      3.5877     93.5040
   411.7500      0.0000    497.4747      3.5829     94.2006
   412.0000      0.0000    494.2521      3.5713     94.9163
   412.2500      0.0000    492.1688      3.5603     96.7697
   412.5000      0.0000    489.7482      3.5551     98.6757
   412.7500      0.0000    487.0397      3.5575    101.4849
   413.0000      0.0000    485.4537      3.5718    102.2957
   413.2500      0.0000    486.9083      3.6149    100.9879
   413.5000      0.0000    493.4734      3.7137     98.7729
   413.7500      0.0000    507.1073      3.8806     95.1615
   414.0000      0.0000    528.4948      4.0814     93.6248
   414.2500      0.0000    555.9185      4.2435     93.1191
   414.5000      0.0000    586.8119      4.3158     93.2605
   414.7500      0.0000    621.8307      4.3166     92.6402
   415.0000      0.0000    666.3881      4.3074     91.5119
   415.2500     -2.0000    726.0773      4.3299     89.8256
   415.5000      2.0000    798.7843      4.3825     89.4069
   415.7500      0.0000    869.0937      4.4434     90.0756
   416.0000     -2.0000    911.3323      4.4988     90.8846
   416.2500      0.0000    905.3486      4.5440     91.5949
   416.5000      0.0000    854.7313      4.5618     91.7770
   416.7500      0.0000    786.5398      4.5109     93.1474
   417.0000      0.0000    729.6290      4.3556     95.7012
   417.2500      0.0000    694.6031      4.1198    101.9424
   417.5000      0.0000    674.2761      3.8896    106.8987
   417.7500      0.0000    657.9519      3.7403    114.2152
   418.0000      0.0000    642.1776      3.6758    118.7259
   418.2500      0.0000    630.8893      3.6472    125.1204
   418.5000      0.0000    629.3305      3.6088    129.3703
   418.7500      0.0000    638.4658      3.5476    135.6888
   419.0000      0.0000    653.9580      3.4784    139.4410
   419.2500      0.0000    669.1253      3.4263    143.9229
   419.5000      0.0000    677.9617      3.4086    146.5708
