~Version Information
VERS.                      2.0: CWLS Log ASCII Standard - VERSION 2.0
WRAP.                       NO: One line per depth step
~Well Information Block
STRT.FT               652.0000: 
STOP.FT              1880.5000: 
STEP.FT                 0.2500: 
NULL.                -999.2500: 
COMP.          Pioneer Natural Resources: COMPANY
WELL.          Corkscrew 33-12 Tr: WELL
FLD.           Purgatoire River: FIELD
LOC.           1870' FSL & 1706' FEL: LOCATION
PROV.                 Colorado: PROVINCE
CNTY.               Las Animas: COUNTRY
SRVC.                Patterson: SERVICE COMPANY
DATE.          Mon Mar 28 22:58:28 2005: LOG DATE
UWI.           05 071 08295 00: UNIQUE WELL ID
~Curve Information Block
DEPT.FT            0 000 00 00: Depth
SN.Ohm-m                      : IEL Short Normal
SP.mV                         : IEL Spontaneous Potential
DIR.Ohm-m                     : IEL Induction Resistivity
GR.GAPI                       : Gamma Ray
~Parameter Information Block
~A  Depth        SN          SP         DIR          GR     
# ...
  1623.5000      6.8815     52.5041      6.5394    138.0218
  1623.7500      6.6750     52.6514      6.4296    139.8710
  1624.0000      6.5188     52.7519      6.3231    141.7228
  1624.2500      6.3904     52.8006      6.2239    142.8372
  1624.5000      6.2742     52.8147      6.1411    145.3897
  1624.7500      6.1715     52.8211      6.0825    147.9365
  1625.0000      6.0959     52.8410      6.0501    152.5382
  1625.2500      6.0640     52.8792      6.0401    155.4516
  1625.5000      6.0787     52.9245      6.0453    157.9521
  1625.7500      6.1251     52.9583      6.0582    157.3009
  1626.0000      6.1940     52.9634      6.0722    151.7816
  1626.2500      6.2896     52.9294      6.0830    145.4797
  1626.5000      6.4158     52.8560      6.0902    134.5944
  1626.7500      6.5631     52.7556      6.0970    128.2130
  1627.0000      6.7040     52.6513      6.1076    121.9936
  1627.2500      6.8085     52.5667      6.1254    120.0928
  1627.5000      6.8588     52.5171      6.1512    119.0554
  1627.7500      6.8446     52.5072      6.1841    118.5047
  1628.0000      6.7705     52.5360      6.2219    117.2487
  1628.2500      6.6664     52.5986      6.2607    116.7398
  1628.5000      6.5714     52.6835      6.2938    118.3042
  1628.7500      6.5048     52.7699      6.3126    121.4640
  1629.0000      6.4455     52.8329      6.3095    128.4588
  1629.2500      6.3312     52.8522      6.2812    133.3151
  1629.5000      6.1149     52.8191      6.2309    138.8321
  1629.7500      5.8357     52.7383      6.1664    140.9032
  1630.0000      5.6061     52.6287      6.0974    142.3298
  1630.2500      5.5353     52.5193      6.0320    142.9048
  1630.5000      5.6765     52.4398      5.9770    143.8241
  1630.7500      5.9975     52.4086      5.9383    144.3194
  1631.0000      6.3675     52.4252      5.9218    144.4644
  1631.2500      6.6256     52.4709      5.9318    144.1268
  1631.5000      6.6949     52.5173      5.9680    142.8249
  1631.7500      6.5947     52.5397      6.0230    140.9589
  1632.0000      6.3666     52.5300      6.0834    135.8202
  1632.2500      6.0470     52.5023      6.1357    131.2121
  1632.5000      5.6898     52.4875      6.1735    125.0337
  1632.7500      5.3721     52.5212      6.2010    122.8597
  1633.0000      5.1819     52.6285      6.2295    122.8603
  1633.2500      5.2058     52.8127      6.2701    124.0850
  1633.5000      5.5028     53.0502      6.3281    125.9107
  1633.7500      6.0385     53.2948      6.4043    126.4266
  1634.0000      6.6656     53.4903      6.4994    125.3909
  1634.2500      7.2233     53.5907      6.6172    123.2802
  1634.5000      7.6338     53.5800      6.7641    118.3755
  1634.7500      7.8994     53.4805      6.9442    114.6141
  1635.0000      8.0534     53.3400      7.1559    109.5918
  1635.2500      8.1350     53.2036      7.3915    107.2931
  1635.5000      8.1939     53.0875      7.6390    105.8413
  1635.7500      8.2796     52.9737      7.8841    105.9105
  1636.0000      8.4231     52.8274      8.1123    106.2943
  1636.2500      8.6349     52.6227      8.3124    105.9307
  1636.5000      8.9025     52.3571      8.4809    103.8378
  1636.7500      9.1905     52.0489      8.6237    101.6933
  1637.0000      9.4601     51.7228      8.7523     98.5187
  1637.2500      9.6953     51.3945      8.8780     97.0353
  1637.5000      9.9115     51.0675      9.0075     96.0036
  1637.7500     10.1279     50.7405      9.1417     95.7983
  1638.0000     10.3303     50.4204      9.2768     95.6444
  1638.2500     10.4784     50.1291      9.4037     95.8028
  1638.5000     10.5487     49.8990      9.5097     97.5688
  1638.7500     10.5548     49.7561      9.5814    100.2051
  1639.0000     10.5185     49.7045      9.6107    105.2755
  1639.2500     10.4350     49.7238      9.5978    107.8602
  1639.5000     10.3009     49.7822      9.5495    108.4706
  1639.7500     10.1636     49.8524      9.4733    106.8374
  1640.0000     10.0696     49.9210      9.3731    103.4945
  1640.2500     10.0005     49.9904      9.2507    101.9277
  1640.5000      9.9243     50.0787      9.1119    101.1944
  1640.7500      9.8324     50.2122      8.9698    101.4689
  1641.0000      9.7059     50.4082      8.8416    102.5905
  1641.2500      9.5234     50.6588      8.7410    103.8897
  1641.5000      9.2909     50.9318      8.6716    106.7768
  1641.7500      9.0206     51.1881      8.6260    109.0655
  1642.0000      8.6955     51.3993      8.5908    112.1940
  1642.2500      8.2805     51.5568      8.5539    113.6192
  1642.5000      7.7710     51.6725      8.5095    114.4414
  1642.7500      7.2371     51.7730      8.4584    114.3212
  1643.0000      6.8205     51.8845      8.4061    113.9981
  1643.2500      6.6572     52.0150      8.3593    114.0755
  1643.5000      6.7999     52.1484      8.3252    114.5699
  1643.7500      7.2285     52.2614      8.3105    114.9061
  1644.0000      7.8815     52.3465      8.3199    115.2689
  1644.2500      8.6204     52.4151      8.3547    115.4846
  1644.5000      9.2424     52.4754      8.4126    115.8147
  1644.7500      9.6268     52.5119      8.4886    116.0213
  1645.0000      9.8117     52.4930      8.5787    116.4898
  1645.2500      9.9004     52.3969      8.6809    117.1243
  1645.5000      9.9673     52.2266      8.7926    118.4823
  1645.7500     10.0533     52.0063      8.9046    119.0663
  1646.0000     10.1750     51.7689      8.9987    118.2277
  1646.2500     10.3082     51.5470      9.0539    116.4779
  1646.5000     10.3992     51.3663      9.0592    113.4234
  1646.7500     10.4199     51.2404      9.0198    112.0258
  1647.0000     10.3913     51.1694      8.9533    111.4251
  1647.2500     10.3504     51.1436      8.8780    111.6578
  1647.5000     10.3178     51.1485      8.8073    112.0012
  1647.7500     10.2828     51.1726      8.7500    112.0396
  1648.0000     10.2041     51.2144      8.7149    112.3715
  1648.2500     10.0595     51.2858      8.7117    113.1826
  1648.5000      9.8886     51.4062      8.7484    115.3343
  1648.7500      9.7589     51.5922      8.8267    117.1861
  1649.0000      9.7140     51.8473      8.9399    120.4184
  1649.2500      9.7700     52.1575      9.0760    122.7036
  1649.5000      9.9191     52.4932      9.2214    125.1131
  1649.7500     10.1175     52.8164      9.3647    125.0247
  1650.0000     10.3011     53.0897      9.4965    121.8062
  1650.2500     10.4353     53.2864      9.6105    118.3990
  1650.5000     10.5437     53.4005      9.7035    113.1968
  1650.7500     10.6802     53.4520      9.7786    109.9965
  1651.0000     10.8821     53.4772      9.8466    105.1003
  1651.2500     11.1501     53.5069      9.9256    101.6554
  1651.5000     11.4564     53.5490     10.0356     96.7482
  1651.7500     11.7684     53.5909     10.1910     93.8825
  1652.0000     12.0765     53.6137     10.3940     89.8695
  1652.2500     12.4005     53.6007     10.6349     87.0775
  1652.5000     12.7686     53.5389     10.8973     82.7015
  1652.7500     13.1931     53.4201     11.1648     79.9544
  1653.0000     13.6650     53.2452     11.4245     76.7467
  1653.2500     14.1580     53.0276     11.6672     75.4934
  1653.5000     14.6258     52.7878     11.8872     74.9536
  1653.7500     15.0097     52.5435     12.0827     75.2578
  1654.0000     15.2658     52.3053     12.2572     76.5508
  1654.2500     15.3790     52.0845     12.4176     78.2991
  1654.5000     15.3513     51.9012     12.5671     83.1453
  1654.7500     15.2097     51.7773     12.6962     88.0271
  1655.0000     15.0367     51.7175     12.7801     96.6794
  1655.2500     14.9345     51.6962     12.7911    101.8560
  1655.5000     14.9264     51.6680     12.7204    106.0509
  1655.7500     14.9438     51.5953     12.5912    105.7997
  1656.0000     14.9269     51.4731     12.4470    102.1201
  1656.2500     14.9057     51.3319     12.3280     99.1182
  1656.5000     14.9672     51.2190     12.2541     96.3779
  1656.7500     15.1532     51.1710     12.2271     96.5134
