~Version Information
VERS.                      2.0: CWLS Log ASCII Standard - VERSION 2.0
WRAP.                       NO: One line per depth step
~Well Information Block
STRT.FT               488.0000: 
STOP.FT              1824.7000: 
STEP.FT                 0.1000: 
NULL.                -999.2500: 
COMP.          Pioneer Natural Resources: COMPANY
WELL.            Buckeye 11-13: WELL
FLD.           Purgatoire River: FIELD
LOC.           211' FNL & 1054' FWL: LOCATION
STAT.                 Colorado: State
CNTY.               Las Animas: COUNTY
CTRY. USA : Country
SECT. 13 : Section
TOWN. 33S : Township
RANG. 67W : Range
SRVC.                Patterson: SERVICE COMPANY
DATE.          Mon Mar 07 02:06:39 2005: LOG DATE
API.           05 071 08317 00: UNIQUE WELL ID
~Curve Information Block
DEPT.FT            0 000 00 00: Depth
DCAL.in                       : CDL Caliper
RHOB.g/cc                     : CDL Bulk Density
RHOC.g/cc                     : CDL Density Correction
DPOR.pu                       : CDL Density Porosity
GR.GAPI                       : Gamma Ray
NPOR.pu                       : Neutron Porosity
~Parameter Information Block
~A  Depth       DCAL        RHOB        RHOC        DPOR         GR         NPOR    
# ...
   574.4000      7.8753      2.4666      0.0072     11.1127    118.3546     23.5940
   574.5000      7.8775      2.4771      0.0145     10.4768    117.5363     23.8017
   574.6000      7.8775      2.4953      0.0730      9.3770    118.2023     23.7187
   574.7000      7.8775      2.5009      0.0894      9.0365    118.4067     22.8677
   574.8000      7.8788      2.4779      0.0587     10.4325    115.1520     21.8027
   574.9000      7.8788      2.4331      0.0306     13.1430    109.9666     21.7641
   575.0000      7.8792      2.3924     -0.0307     15.6112    109.0390     22.8978
   575.1000      7.8792      2.3825     -0.0781     16.2142    113.9023     24.0137
   575.2000      7.8792      2.4070     -0.0172     14.7270    118.3908     24.8283
   575.3000      7.8778      2.4418      0.0772     12.6209    120.3650     26.0538
   575.4000      7.8778      2.4657      0.0413     11.1712    119.8656     27.1053
   575.5000      7.8736      2.4809      0.0740     10.2464    116.1891     27.0263
   575.6000      7.8736      2.4947      0.1049      9.4136    112.1368     26.1595
   575.7000      7.8736      2.5085      0.1218      8.5765    109.6982     25.3729
   575.8000      7.8704      2.5199      0.1493      7.8821    109.7132     25.0473
   575.9000      7.8704      2.5232      0.1252      7.6836    112.0342     25.1027
   576.0000      7.8691      2.5252      0.0925      7.5655    112.5436     25.3800
   576.1000      7.8691      2.5427      0.1107      6.5043    109.6918     25.4573
   576.2000      7.8691      2.5740      0.1372      4.6060    106.7415     25.2760
   576.3000      7.8514      2.5964      0.1545      3.2506    104.7645     25.4875
   576.4000      7.8514      2.5961      0.1143      3.2661    102.4043     26.0866
   576.5000      7.8762      2.5857      0.0576      3.8981     96.9805     26.3450
   576.6000      7.8762      2.5788      0.0656      4.3169     88.5524     25.9817
   576.7000      7.8762      2.5738      0.0645      4.6202     81.4271     25.5223
   576.8000      7.8805      2.5670      0.0724      5.0313     78.6811     25.2953
   576.9000      7.8805      2.5563      0.0573      5.6761     78.3892     24.9355
   577.0000      7.8777      2.5447      0.0423      6.3815     78.6119     24.4635
   577.1000      7.8777      2.5425     -0.0027      6.5151     80.8268     24.2632
   577.2000      7.8777      2.5505      0.0345      6.0300     85.5507     23.9151
   577.3000      7.8753      2.5595      0.0192      5.4831     91.5834     22.9704
   577.4000      7.8753      2.5648      0.0323      5.1660     97.8195     21.5681
   577.5000      7.8613      2.5613      0.0565      5.3762    104.2832     20.2042
   577.6000      7.8613      2.5486      0.0731      6.1448    109.3718     19.5688
   577.7000      7.8613      2.5372      0.0165      6.8351    108.6140     19.7154
   577.8000      7.8635      2.5345      0.0419      7.0020    103.7392     20.2990
   577.9000      7.8635      2.5321      0.0429      7.1426    104.6122     21.0747
   578.0000      7.8730      2.5153      0.0925      8.1611    116.2526     21.5493
   578.1000      7.8730      2.4804     -0.0079     10.2770    130.8621     21.5186
   578.2000      7.8730      2.4486     -0.0250     12.2044    138.6847     21.3578
   578.3000      7.8787      2.4433     -0.0199     12.5285    135.8452     21.5452
   578.4000      7.8787      2.4667      0.0056     11.1074    125.7555     22.2926
   578.5000      7.8790      2.4984      0.0591      9.1874    120.1076     23.2724
   578.6000      7.8790      2.5085      0.0714      8.5762    126.6255     23.9792
   578.7000      7.8790      2.4903      0.0506      9.6781    139.7177     24.2220
   578.8000      7.8792      2.4592      0.0473     11.5656    148.1050     23.9816
   578.9000      7.8792      2.4297     -0.0252     13.3531    147.4762     23.4887
   579.0000      7.8784      2.4144     -0.0128     14.2808    142.5697     23.4489
   579.1000      7.8784      2.4135      0.0452     14.3348    136.8954     24.2478
   579.2000      7.8784      2.4129      0.0311     14.3695    129.0913     25.3612
   579.3000      7.8792      2.4073     -0.0330     14.7078    121.7173     25.9995
   579.4000      7.8792      2.4056      0.0237     14.8151    121.3747     26.0427
   579.5000      7.8795      2.4142      0.0536     14.2922    128.3189     26.0690
   579.6000      7.8795      2.4356      0.0418     12.9943    135.2418     26.5272
   579.7000      7.8795      2.4723      0.0540     10.7697    136.4904     27.3488
   579.8000      7.8803      2.5162      0.1466      8.1100    132.9944     28.0140
   579.9000      7.8803      2.5488      0.1503      6.1350    129.3093     27.9494
   580.0000      7.8789      2.5657      0.1446      5.1119    128.6876     27.3416
   580.1000      7.8789      2.5742      0.1315      4.5927    128.8579     26.7478
   580.2000      7.8789      2.5748      0.1370      4.5552    124.2315     26.2363
   580.3000      7.8798      2.5661      0.1171      5.0835    117.1609     25.9397
   580.4000      7.8798      2.5561      0.0181      5.6884    113.0740     26.0135
   580.5000      7.8784      2.5511      0.0219      5.9932    110.8664     26.0207
   580.6000      7.8784      2.5477      0.0101      6.2026    110.3948     25.3959
   580.7000      7.8784      2.5441      0.0261      6.4195    112.1254     24.3399
   580.8000      7.8789      2.5384      0.0368      6.7654    112.5445     23.7365
   580.9000      7.8789      2.5292      0.0220      7.3221    111.1584     23.6005
   581.0000      7.8797      2.5223     -0.0221      7.7413    109.1038     23.2149
   581.1000      7.8797      2.5188     -0.0140      7.9531    105.8132     22.4535
   581.2000      7.8797      2.5137     -0.0128      8.2628    104.0585     21.7257
   581.3000      7.8799      2.5030     -0.0448      8.9064    106.2788     21.3113
   581.4000      7.8799      2.4817     -0.0126     10.2007    109.0664     21.2710
   581.5000      7.8805      2.4574     -0.0963     11.6742    108.0468     21.4822
   581.6000      7.8805      2.4432     -0.0137     12.5318    102.9557     21.6583
   581.7000      7.8805      2.4383     -0.0722     12.8291     98.6696     21.6056
   581.8000      7.8778      2.4472     -0.0590     12.2891     99.7652     21.6284
   581.9000      7.8778      2.4724     -0.0064     10.7645    105.3822     21.9844
   582.0000      7.8803      2.4977      0.0475      9.2283    110.6092     22.2304
   582.1000      7.8803      2.5040      0.0819      8.8461    114.0279     22.0461
   582.2000      7.8803      2.4879      0.0501      9.8238    116.3347     21.9824
   582.3000      7.8787      2.4648      0.0475     11.2242    115.6517     22.5389
   582.4000      7.8787      2.4502      0.0306     12.1069    115.9564     23.1986
   582.5000      7.8775      2.4463      0.0435     12.3443    123.6114     23.5537
   582.6000      7.8775      2.4455      0.0533     12.3954    133.0101     23.9265
   582.7000      7.8775      2.4459      0.0414     12.3688    135.8347     24.5054
   582.8000      7.8772      2.4563      0.0568     11.7393    135.1980     25.0997
   582.9000      7.8772      2.4727      0.0866     10.7449    136.5803     25.4220
   583.0000      7.8718      2.4768      0.0825     10.4975    137.9104     25.6740
   583.1000      7.8718      2.4573      0.1043     11.6761    135.3926     25.6188
   583.2000      7.8718      2.4168      0.0423     14.1314    132.2002     24.8927
   583.3000      7.8753      2.3734     -0.0250     16.7617    129.9993     24.4507
   583.4000      7.8753      2.3524     -0.0333     18.0371    128.1288     24.9929
   583.5000      7.8660      2.3564     -0.0413     17.7915    129.1846     25.6599
   583.6000      7.8660      2.3638      0.0325     17.3435    133.2956     25.7449
   583.7000      7.8660      2.3658     -0.0064     17.2232    138.2749     25.8024
   583.8000      7.8772      2.3821     -0.0465     16.2350    140.7188     26.1424
   583.9000      7.8772      2.4160      0.0806     14.1840    138.5099     26.5904
