~Version Information
VERS.                      2.0: CWLS Log ASCII Standard - VERSION 2.0
WRAP.                       NO: One line per depth step
~Well Information Block
STRT.FT                -9.7500: 
STOP.FT              2158.2500: 
STEP.FT                 0.2500: 
NULL.                -999.2500: 
COMP.          Petrogulf Corporation: COMPANY
WELL.             State 16-41V: WELL
FLD.           Purgatoire River: FIELD
LOC.           335' FNL & 823' FEL--: LOCATION
PROV.                 Colorado: PROVINCE
CNTY.               Las Animas: COUNTRY
SRVC.                Patterson: SERVICE COMPANY
DATE.          Wed Aug 17 12:15:10 2005: LOG DATE
UWI.           05 071 08344 00: UNIQUE WELL ID
~Curve Information Block
DEPT.FT            0 000 00 00: Depth
CCL.                          : Casing Collar Locator
TT3.usec                      : CBL 3' Travel Time
AMP3.mV                       : CBL 3' Amplitude
GR.GAPI                       : Gamma Ray
~Parameter Information Block
~A  Depth       CCL         TT3         AMP3         GR     
# ...
  1698.7500      0.0000    694.4678     14.2407     90.0758
  1699.0000      0.0000    657.5066     19.0795     94.4170
  1699.2500      0.0000    606.2150     25.2613     96.2051
  1699.5000      0.0000    536.9250     32.7100     96.3367
  1699.7500      0.0000    456.0461     41.0723     96.6657
  1700.0000      0.0000    379.7071     49.7671     98.8617
  1700.2500      0.0000    322.5095     58.1379    102.9052
  1700.5000      0.0000    288.3665     65.5980    107.0697
  1700.7500      0.0000    271.9324     71.7320    109.7512
  1701.0000      0.0000    265.4625     76.3417    111.0042
  1701.2500      0.0000    263.3486     79.4229    111.9719
  1701.5000      0.0000    262.7587     81.1014    113.2534
  1701.7500      0.0000    262.6050     81.5791    114.3686
  1702.0000      0.0000    262.5548     81.0897    114.7319
  1702.2500      0.0000    262.5214     79.8524    114.7221
  1702.5000      0.0000    262.5017     78.0491    115.4061
  1702.7500      0.0000    262.5096     75.8512    117.1439
  1703.0000      0.0000    262.5558     73.4579    118.8803
  1703.2500      0.0000    262.6361     71.0828    119.0710
  1703.5000      0.0000    262.7355     68.8910    117.0324
  1703.7500      0.0000    262.8388     66.9610    113.3022
  1704.0000      0.0000    262.9354     65.3281    109.2038
  1704.2500      0.0000    263.0148     64.0653    106.3477
  1704.5000      0.0000    263.0645     63.2908    106.1436
  1704.7500      0.0000    263.0750     63.0806    109.2224
  1705.0000      0.0000    263.0473     63.4012    114.9803
  1705.2500      0.0000    262.9923     64.1650    121.6561
  1705.5000      0.0000    262.9211     65.3330    127.2234
  1705.7500      0.0000    262.8375     66.9084    130.5997
  1706.0000      0.0000    262.7423     68.8149    131.9952
  1706.2500      0.0000    262.6432     70.8203    132.1792
  1706.5000      0.0000    262.5557     72.6073    131.7077
  1706.7500      0.0000    262.4945     73.8960    130.7372
  1707.0000      0.0000    262.4698     74.4858    129.1479
  1707.2500      0.0000    262.4961     74.2202    126.7902
  1707.5000      0.0000    262.6302     72.9759    123.7772
  1707.7500      0.0000    263.0593     70.7192    120.4857
  1708.0000      0.0000    264.2349     67.5811    117.3533
  1708.2500      0.0000    266.9082     63.8599    114.8565
  1708.5000      0.0000    271.8246     59.9249    113.3331
  1708.7500      0.0000    279.1440     56.0618    112.4007
  1709.0000      0.0000    288.5452     52.3424    110.9253
  1709.2500      0.0000    300.7783     48.6026    108.1548
  1709.5000      0.0000    319.8418     44.5650    104.7863
  1709.7500      0.0000    352.7204     40.0343    102.4040
  1710.0000      0.0000    404.4765     35.0407    101.6361
  1710.2500      0.0000    471.8957     29.8718    101.2912
  1710.5000      0.0000    543.1442     24.9912     99.7197
  1710.7500      0.0000    605.3167     20.8605     96.6567
  1711.0000      0.0000    651.7404     17.7367     93.2705
  1711.2500      0.0000    682.4384     15.5888     90.8750
  1711.5000      0.0000    700.8347     14.2018     90.2571
  1711.7500      0.0000    710.9017     13.3662     91.8560
  1712.0000      0.0000    714.4832     12.9870     95.6259
  1712.2500      0.0000    709.3464     13.0586    100.4639
  1712.5000      0.0000    690.4883     13.5724    104.4016
  1712.7500      0.0000    655.0692     14.4429    106.0019
  1713.0000      0.0000    607.7621     15.4970    105.4976
  1713.2500      0.0000    561.0917     16.5429    104.2085
  1713.5000      0.0000    528.6909     17.4598    103.0272
  1713.7500      0.0000    518.0183     18.1798    101.7700
  1714.0000      0.0000    528.6997     18.5770     99.8523
  1714.2500      0.0000    551.8830     18.5013     97.3632
  1714.5000      0.0000    569.2390     18.0103     95.2876
  1714.7500      0.0000    562.1559     17.4378     94.5217
  1715.0000      0.0000    529.2123     17.1176     95.0005
  1715.2500      0.0000    490.2286     17.0990     96.0288
  1715.5000      0.0000    468.3728     17.1792     96.9325
  1715.7500      2.0000    469.6265     17.1479     97.0056
  1716.0000      0.0000    479.8683     17.0106     95.6060
  1716.2500      0.0000    479.7628     17.0502     93.0501
  1716.5000      0.0000    462.6170     17.6569     90.9397
  1716.7500      0.0000    438.6347     19.0214     90.9585
  1717.0000      0.0000    422.0097     21.0084     93.4677
  1717.2500      0.0000    415.4732     23.3644     97.3340
  1717.5000      0.0000    409.1683     25.9361    100.8498
  1717.7500      0.0000    393.3520     28.5865    102.9154
  1718.0000      0.0000    368.9058     31.0033    103.6485
  1718.2500      0.0000    344.9646     32.7386    103.7653
  1718.5000      0.0000    329.5720     33.4508    103.3497
  1718.7500      0.0000    324.5665     33.0820    101.5714
  1719.0000      0.0000    327.4748     31.8224     97.7954
  1719.2500      0.0000    336.1339     29.9422     92.6885
  1719.5000      0.0000    351.6757     27.6704     88.0328
  1719.7500      0.0000    377.8738     25.1840     85.4442
  1720.0000      0.0000    416.2559     22.6473     85.1900
  1720.2500      0.0000    459.7001     20.2178     85.9318
  1720.5000      0.0000    492.2227     18.0214     85.6174
  1720.7500      0.0000    500.2485     16.1270     83.1125
  1721.0000      0.0000    487.1019     14.5418     79.2723
  1721.2500      0.0000    473.8567     13.2248     76.2849
  1721.5000      0.0000    482.8333     12.1152     75.8372
  1721.7500      0.0000    519.3198     11.1704     77.8783
  1722.0000      0.0000    568.4982     10.3981     80.9534
  1722.2500      0.0000    608.7040      9.8657     83.3853
  1722.5000      0.0000    627.4211      9.6732     84.1224
  1722.7500      0.0000    626.3027      9.8902     82.8019
  1723.0000      0.0000    614.1486     10.4973     79.4052
  1723.2500      0.0000    596.4029     11.3894     74.1423
  1723.5000      0.0000    570.0199     12.4463     67.8162
  1723.7500      0.0000    528.7269     13.6003     61.9986
  1724.0000      0.0000    474.0360     14.8406     58.2983
  1724.2500      0.0000    418.4327     16.1615     57.2911
  1724.5000      0.0000    376.2572     17.4983     58.3348
  1724.7500      0.0000    354.4566     18.6887     60.3700
  1725.0000      0.0000    353.3588     19.4901     62.7700
  1725.2500      0.0000    372.2075     19.6717     65.5910
  1725.5000      0.0000    409.5042     19.1493     69.1882
  1725.7500      0.0000    458.2802     18.0679     73.4771
  1726.0000      0.0000    506.0372     16.7459     77.4541
  1726.2500      0.0000    543.6414     15.5081     79.5617
  1726.5000      0.0000    572.4027     14.5479     78.6651
  1726.7500      0.0000    598.3389     13.9182     74.7906
  1727.0000      0.0000    621.1927     13.5939     69.1804
  1727.2500      0.0000    633.8347     13.4970     63.7087
  1727.5000      0.0000    631.9197     13.4818     59.8788
  1727.7500      0.0000    620.4527     13.3647     58.1329
  1728.0000      0.0000    609.7810     13.0178     58.0672
  1728.2500      0.0000    606.5537     12.4450     58.9992
  1728.5000      0.0000    610.1048     11.7734     60.1117
  1728.7500      0.0000    616.9990     11.1722     60.4372
  1729.0000      0.0000    626.1873     10.7585     59.3215
  1729.2500      0.0000    638.3783     10.5395     57.0491
  1729.5000      0.0000    652.8472     10.4256     54.7702
  1729.7500      0.0000    667.4907     10.3026     53.6797
  1730.0000      0.0000    681.0431     10.1127     54.3779
  1730.2500      0.0000    692.8726      9.8981     57.0054
  1730.5000      0.0000    700.8599      9.7911     61.6395
  1730.7500      0.0000    701.6125      9.9754     68.3067
  1731.0000      0.0000    692.7518     10.6486     76.6911
  1731.2500      0.0000    673.2361     11.9912     85.9777
  1731.5000      0.0000    641.2619     14.1192     94.9859
  1731.7500      0.0000    594.2681     17.0236    102.4710
  1732.0000      0.0000    533.1228     20.5611    107.4011
