~Version Information
VERS.                      2.0: CWLS Log ASCII Standard - VERSION 2.0
WRAP.                       NO: One line per depth step
~Well Information Block
STRT.FT               300.0000: 
STOP.FT               871.2500: 
STEP.FT                 0.2500: 
NULL.                -999.2500: 
COMP.          Pioneer Natural Resources: COMPANY
WELL.            Hustler 12-17: WELL
FLD.           Purgatoire River: FIELD
LOC.           2150' FNL & 450' FWL: LOCATION
PROV.                 Colorado: PROVINCE
CNTY.               Las Animas: COUNTRY
SRVC.                Patterson: SERVICE COMPANY
DATE.          Mon Dec 20 09:25:34 2004: LOG DATE
UWI.           05 071 08236 00: UNIQUE WELL ID
~Curve Information Block
DEPT.FT            0 000 00 00: Depth
SN.Ohm-m                      : IEL Short Normal
SP.mV                         : IEL Spontaneous Potential
DIR.Ohm-m                     : IEL Induction Resistivity
GR.GAPI                       : Gamma Ray
~Parameter Information Block
~A  Depth        SN          SP         DIR          GR     
# ...
   367.0000    645.9807   -800.0005     23.7037     87.5115
   367.2500    645.9807   -800.0005     23.7638     86.6484
   367.5000    645.9807   -800.0005     23.8555     86.1404
   367.7500    645.9807   -800.0005     23.9580     86.2807
   368.0000    645.9807   -800.0005     24.0486     86.6616
   368.2500    645.9807   -800.0005     24.1116     86.6511
   368.5000    645.9807   -800.0005     24.1465     86.0240
   368.7500    645.9807   -800.0005     24.1698     85.4489
   369.0000    645.9807   -800.0005     24.2132     85.0530
   369.2500    645.9807   -800.0005     24.3152     85.2606
   369.5000    645.9807   -800.0005     24.5082     85.8184
   369.7500    645.9807   -800.0005     24.8050     85.9432
   370.0000    645.9807   -800.0005     25.1901     85.5345
   370.2500    645.9807   -800.0005     25.6240     85.0940
   370.5000    645.9807   -800.0005     26.0557     84.8336
   370.7500    645.9807   -800.0005     26.4357     85.2609
   371.0000    645.9807   -800.0005     26.7259     87.0559
   371.2500    645.9807   -800.0005     26.9024     88.9209
   371.5000    645.9807   -800.0005     26.9573     92.2385
   371.7500    645.9807   -800.0005     26.8987     94.5244
   372.0000    645.9807   -800.0005     26.7494     97.8700
   372.2500    645.9807   -800.0005     26.5413    100.0659
   372.5000    645.9807   -800.0005     26.3088    103.3957
   372.7500    645.9807   -800.0005     26.0824    105.6659
   373.0000    645.9807   -800.0005     25.8842    109.0822
   373.2500    645.9807   -800.0005     25.7265    111.2360
   373.5000    645.9807   -800.0005     25.6105    113.8872
   373.7500    645.9807   -800.0005     25.5272    115.0164
   374.0000    645.9807   -800.0005     25.4615    115.5354
   374.2500    645.9807   -800.0005     25.3981    115.1613
   374.5000    645.9807   -800.0005     25.3268    113.8399
   374.7500    645.9807   -800.0005     25.2441    112.6708
   375.0000    645.9807   -800.0005     25.1493    110.7337
   375.2500    645.9807   -800.0005     25.0414    109.1985
   375.5000    645.9807   -800.0005     24.9168    105.8206
   375.7500    645.9807   -800.0005     24.7661    102.5910
   376.0000    645.9807   -800.0005     24.5744     97.0558
   376.2500    645.9807   -800.0005     24.3305     93.9354
   376.5000    645.9807   -800.0005     24.0375     91.4776
   376.7500    645.9807   -800.0005     23.7168     91.3150
   377.0000    645.9807   -800.0005     23.4002     92.0449
   377.2500    645.9807   -800.0005     23.1245     92.2676
   377.5000    645.9807   -800.0005     22.9303     91.4312
   377.7500    645.9807   -800.0005     22.8552     90.4633
   378.0000    645.9807   -800.0005     22.9148     90.0770
   378.2500    645.9807   -800.0005     23.0871     91.3864
   378.5000    645.9807   -800.0005     23.3180     95.6375
   378.7500    645.9807   -800.0005     23.5515     99.0253
   379.0000    645.9807   -800.0005     23.7600    102.9517
   379.2500    645.9807   -800.0005     23.9510    104.1653
   379.5000    645.9807   -800.0005     24.1499    103.7708
   379.7500    645.9807   -800.0005     24.3783    102.2072
   380.0000    645.9807   -800.0005     24.6401     98.5359
   380.2500    645.9807   -800.0005     24.9188     95.7916
   380.5000    645.9807   -800.0005     25.1819     91.9376
   380.7500    645.9807   -800.0005     25.3950     89.4428
   381.0000    645.9807   -800.0005     25.5388     85.3333
   381.2500    645.9807   -800.0005     25.6174     82.4374
   381.5000    645.9807   -800.0005     25.6501     78.6352
   381.7500    645.9807   -800.0005     25.6560     76.7946
   382.0000    645.9807   -800.0005     25.6469     74.9442
   382.2500    645.9807   -800.0005     25.6278     74.0188
   382.5000    645.9807   -800.0005     25.6007     72.7632
   382.7500    645.9807   -800.0005     25.5663     72.0406
   383.0000    645.9807   -800.0005     25.5265     71.3927
   383.2500    645.9807   -800.0005     25.4876     71.3532
   383.5000    645.9807   -800.0005     25.4585     71.7889
   383.7500    645.9807   -800.0005     25.4432     72.3195
   384.0000    645.9807   -800.0005     25.4365     73.6542
   384.2500    645.9807   -800.0005     25.4301     75.1775
   384.5000    645.9807   -800.0005     25.4227     78.5949
   384.7500    645.9807   -800.0005     25.4208     81.3110
   385.0000    645.9807   -800.0005     25.4297     84.9501
   385.2500    645.9807   -800.0005     25.4436     86.4717
   385.5000    645.9807   -800.0005     25.4415     86.9506
   385.7500    645.9807   -800.0005     25.3879     86.3209
   386.0000    645.9807   -800.0005     25.2371     85.2174
   386.2500    645.9807   -800.0005     24.9449     85.3714
   386.5000    645.9807   -800.0005     24.4868     88.3966
   386.7500    645.9807   -800.0005     23.8710     92.5996
   387.0000    645.9807   -800.0005     23.1363    101.4319
   387.2500    645.9807   -800.0005     22.3376    107.9579
   387.5000    645.9807   -800.0005     21.5298    116.7201
   387.7500    645.9807   -800.0005     20.7544    121.0141
   388.0000    645.9807   -800.0005     20.0297    124.4640
   388.2500    645.9807   -800.0005     19.3495    124.8281
   388.5000    645.9807   -800.0005     18.6937    123.2493
   388.7500    645.9807   -800.0005     18.0469    121.5900
   389.0000    645.9807   -800.0005     17.4118    120.0926
   389.2500    645.9807   -800.0005     16.8079    120.9351
   389.5000    645.9807   -800.0005     16.2581    126.2064
   389.7500    645.9807   -800.0005     15.7730    132.1119
   390.0000    645.9807   -800.0005     15.3432    142.1802
   390.2500    645.9807   -800.0005     14.9428    147.8757
   390.5000    645.9807   -800.0005     14.5427    152.8078
   390.7500    645.9807   -800.0005     14.1250    153.5141
   391.0000    645.9807   -800.0005     13.6903    151.8165
   391.2500    645.9807   -800.0005     13.2565    149.9307
   391.5000    645.9807   -800.0005     12.8500    147.8100
   391.7500    645.9807   -800.0005     12.4976    147.4837
   392.0000    645.9807   -800.0005     12.2202    148.5059
   392.2500    645.9807   -800.0005     12.0303    149.7040
   392.5000    645.9807   -800.0005     11.9329    151.5150
   392.7500    645.9807   -800.0005     11.9282    152.4016
   393.0000    645.9807   -800.0005     12.0140    152.2529
   393.2500    645.9807   -800.0005     12.1870    150.2836
   393.5000    645.9807   -800.0005     12.4440    143.7058
   393.7500    645.9807   -800.0005     12.7835    137.4639
   394.0000    645.9807   -800.0005     13.2085    127.3543
   394.2500    645.9807   -800.0005     13.7276    120.9579
   394.5000    645.9807   -800.0005     14.3521    112.1330
   394.7500    645.9807   -800.0005     15.0842    106.7857
   395.0000    645.9807   -800.0005     15.8979    100.1939
   395.2500    645.9807   -800.0005     16.7154     97.1942
   395.5000    645.9807   -800.0005     17.3960     95.0314
   395.7500    645.9807   -800.0005     17.7607     95.1766
   396.0000    645.9807   -800.0005     17.6674     98.3610
   396.2500    645.9807   -800.0005     17.0949    103.0713
   396.5000    645.9807   -800.0005     16.1609    114.5589
   396.7500    645.9807   -800.0005     15.0537    124.6716
   397.0000    645.9807   -800.0005     13.9443    141.0898
   397.2500    645.9807   -800.0005     12.9409    150.9378
   397.5000    645.9807   -800.0005     12.0908    161.2932
   397.7500    645.9807   -800.0005     11.3988    164.5790
   398.0000    645.9807   -800.0005     10.8478    164.6844
   398.2500    645.9807   -800.0005     10.4131    162.5412
   398.5000    645.9807   -800.0005     10.0723    157.9586
   398.7500    645.9807   -800.0005      9.8106    154.9072
   399.0000    645.9807   -800.0005      9.6205    151.3245
   399.2500    645.9807   -800.0005      9.4981    149.9612
   399.5000    645.9807   -800.0005      9.4391    149.8588
   399.7500    645.9807   -800.0005      9.4368    151.0589
   400.0000    645.9807   -800.0005      9.4810    153.9834
   400.2500    645.9807   -800.0005      9.5592    155.9255
