~Version Information
VERS.                      2.0: CWLS Log ASCII Standard - VERSION 2.0
WRAP.                       NO: One line per depth step
~Well Information Block
STRT.FT               270.0000: 
STOP.FT              1771.7000: 
STEP.FT                 0.1000: 
NULL.                -999.2500: 
COMP.          Pioneer Natural Resources: COMPANY
WELL.           Labrador 34-30: WELL
FLD.           Purgatoire River: FIELD
LOC.           926' FSL & 2080' FEL: LOCATION
PROV.                 Colorado: PROVINCE
CNTY.               Las Animas: COUNTRY
SRVC.                Patterson: SERVICE COMPANY
DATE.          Mon Dec 06 08:24:34 2004: LOG DATE
UWI.           05 071 08202 00: UNIQUE WELL ID
~Curve Information Block
DEPT.FT            0 000 00 00: Depth
DCAL.in                       : CDL Caliper
RHOB.g/cc                     : CDL Bulk Density
RHOC.g/cc                     : CDL Density Correction
DPOR.pu                       : CDL Density Porosity
NPOR.pu                       : Neutron Porosity
GR.GAPI                       : Gamma Ray
~Parameter Information Block
~A  Depth       DCAL        RHOB        RHOC        DPOR        NPOR         GR     
# ...
   663.6000      8.1045      2.4730      0.0474     10.7254     16.2643     50.4585
   663.7000      8.1045      2.5056      0.0862      8.7540     16.6951     55.9110
   663.8000      8.1099      2.5225      0.0676      7.7290     17.2126     61.7256
   663.9000      8.1099      2.5171      0.0635      8.0536     17.7908     65.4060
   664.0000      8.1195      2.4970      0.0851      9.2725     18.3966     69.2856
   664.1000      8.1195      2.4680      0.0318     11.0294     19.2016     77.2077
   664.2000      8.1195      2.4449      0.0393     12.4303     20.3715     85.2993
   664.3000      8.1258      2.4396      0.0316     12.7501     21.4487     88.6266
   664.4000      8.1258      2.4450      0.0518     12.4238     21.9538     90.4156
   664.5000      8.1167      2.4535      0.0047     11.9118     22.4318     95.7272
   664.6000      8.1167      2.4645      0.0858     11.2397     23.2844    103.9452
   664.7000      8.1167      2.4718      0.0501     10.8015     24.1192    112.6068
   664.8000      8.1145      2.4717      0.0747     10.8054     24.6878    120.1158
   664.9000      8.1145      2.4704      0.1086     10.8876     25.1111    125.0189
   665.0000      8.1388      2.4751      0.0821     10.6019     25.6155    128.7421
   665.1000      8.1388      2.4876      0.1186      9.8445     26.3138    131.0224
   665.2000      8.1388      2.5069      0.0880      8.6717     27.0079    131.3987
   665.3000      8.1767      2.5344      0.1377      7.0070     27.3830    132.5312
   665.4000      8.1767      2.5549      0.2119      5.7658     27.2734    133.6621
   665.5000      8.1832      2.5464      0.1362      6.2781     26.9003    134.3114
   665.6000      8.1832      2.5229      0.0669      7.7000     26.6083    136.0810
   665.7000      8.1832      2.5138      0.0914      8.2523     26.3122    136.8107
   665.8000      8.1518      2.5195      0.1339      7.9090     25.7000    135.4969
   665.9000      8.1518      2.5208      0.1840      7.8327     24.9882    134.6788
   666.0000      8.1318      2.5106      0.1026      8.4503     24.6954    133.1922
   666.1000      8.1318      2.4974      0.0717      9.2510     24.8067    129.5548
   666.2000      8.1318      2.4715      0.1413     10.8207     24.7903    127.5891
   666.3000      8.1223      2.4168      0.0859     14.1324     24.5485    130.9970
   666.4000      8.1223      2.3484      0.0883     18.2780     24.3726    136.5971
   666.5000      8.1076      2.2987      0.0067     21.2921     24.1685    137.4148
   666.6000      8.1076      2.2961     -0.0220     21.4504     23.5659    131.5183
   666.7000      8.1076      2.3424      0.0886     18.6446     22.6152    123.8592
   666.8000      8.0998      2.4109      0.1003     14.4881     21.9627    119.3880
   666.9000      8.0998      2.4860      0.1276      9.9385     21.9358    117.6728
   667.0000      8.1079      2.5639      0.2366      5.2172     22.3314    116.2952
   667.1000      8.1079      2.6262      0.2972      1.4405     22.8382    116.6689
   667.2000      8.1079      2.6541      0.2764     -0.2480     23.2905    118.4466
   667.3000      8.1254      2.6518      0.2379     -0.1109     23.8438    118.8340
   667.4000      8.1254      2.6265      0.2457      1.4218     24.7487    120.8400
   667.5000      8.1458      2.5723      0.2129      4.7097     25.9741    127.8695
   667.6000      8.1458      2.4939      0.1054      9.4604     27.0512    134.8225
   667.7000      8.1458      2.4169      0.0153     14.1291     27.7630    135.4971
   667.8000      8.1694      2.3673     -0.0275     17.1362     28.5079    132.1946
   667.9000      8.1694      2.3526     -0.0549     18.0213     29.2207    129.6908
   668.0000      8.1868      2.3509      0.0170     18.1283     29.3419    128.1337
   668.1000      8.1868      2.3266      0.0194     19.6004     29.0821    126.1230
   668.2000      8.1868      2.2778     -0.0245     22.5589     28.6117    123.5229
   668.3000      8.1805      2.2396     -0.0047     24.8722     27.7823    120.7328
   668.4000      8.1805      2.2385      0.0678     24.9382     26.9652    119.8181
   668.5000      8.1536      2.2630      0.2109     23.4531     26.2804    122.2390
   668.6000      8.1536      2.2873      0.2085     21.9844     25.5123    124.2997
   668.7000      8.1536      2.3074      0.2195     20.7612     24.7453    123.3584
   668.8000      8.1357      2.3287      0.2084     19.4699     23.9116    123.9239
   668.9000      8.1357      2.3446      0.2107     18.5066     22.8354    128.8620
   669.0000      8.1328      2.3481      0.1746     18.2952     21.8294    135.0417
   669.1000      8.1328      2.3461      0.1636     18.4163     21.0473    139.0090
   669.2000      8.1328      2.3582      0.1461     17.6838     20.2832    141.5863
   669.3000      8.1425      2.3951      0.2144     15.4502     19.8161    143.7458
   669.4000      8.1425      2.4381      0.2358     12.8444     19.9226    144.4748
   669.5000      8.1704      2.4649      0.1852     11.2179     20.3244    143.7614
   669.6000      8.1704      2.4786      0.1714     10.3865     20.6531    144.6372
   669.7000      8.1704      2.4917      0.1622      9.5967     20.8197    147.8317
   669.8000      8.2064      2.5031      0.2005      8.9052     20.7936    147.1044
   669.9000      8.2064      2.5007      0.1462      9.0509     20.7534    140.0311
   670.0000      8.2196      2.4846      0.1243     10.0268     20.9796    134.4520
   670.1000      8.2196      2.4740      0.0276     10.6638     21.3605    134.4244
   670.2000      8.2196      2.4848      0.0646     10.0126     21.8024    134.9038
   670.3000      8.1966      2.5075      0.0811      8.6363     22.3724    132.8790
   670.4000      8.1966      2.5202      0.1176      7.8692     22.9958    130.9723
   670.5000      8.1589      2.5168      0.0409      8.0754     23.5928    129.2391
   670.6000      8.1589      2.5156      0.0166      8.1463     24.1716    128.2867
   670.7000      8.1589      2.5249      0.0654      7.5790     24.6263    130.2153
   670.8000      8.1380      2.5327      0.0757      7.1071     24.6945    130.7914
   670.9000      8.1380      2.5380      0.0437      6.7863     24.3677    124.1067
   671.0000      8.1355      2.5432      0.1044      6.4746     23.9957    114.8264
   671.1000      8.1355      2.5412      0.0443      6.5967     23.7785    111.7606
   671.2000      8.1355      2.5324      0.0509      7.1248     23.7997    112.5840
   671.3000      8.1369      2.5156      0.0556      8.1460     24.1505    110.9052
   671.4000      8.1369      2.4852      0.0171      9.9862     24.6503    106.2742
   671.5000      8.1341      2.4442     -0.0136     12.4702     25.0976    102.6350
   671.6000      8.1341      2.3872      0.0263     15.9287     25.4489    103.5549
   671.7000      8.1341      2.3025     -0.0664     21.0629     25.2793    106.7254
   671.8000      8.1314      2.1977     -0.0939     27.4118     24.3367    106.3183
   671.9000      8.1314      2.0938     -0.1255     33.7078     23.2405    102.7934
   672.0000      8.1348      2.0074     -0.1301     38.9450     22.2705    102.4193
   672.1000      8.1348      1.9400     -0.0973     43.0290     21.1413    105.7488
   672.2000      8.1348      1.8865     -0.1144     46.2715     19.9154    107.4305
   672.3000      8.1451      1.8585     -0.0703     47.9720     18.7522    105.6674
   672.4000      8.1451      1.8758     -0.0008     46.9187     17.4956    102.2530
   672.5000      8.1591      1.9423      0.1169     42.8913     16.1734     99.0436
   672.6000      8.1591      2.0419      0.2137     36.8568     15.2157     99.0528
   672.7000      8.1591      2.1522      0.3009     30.1671     14.8371    104.9484
   672.8000      8.1733      2.2552      0.3284     23.9247     14.8144    115.4222
   672.9000      8.1733      2.3415      0.2997     18.6994     15.0094    125.0315
   673.0000      8.1843      2.4112      0.2363     14.4732     15.6743    130.6793
   673.1000      8.1843      2.4651      0.2064     11.2063     16.9612    133.7318
