~Version Information
VERS.                      2.0: CWLS Log ASCII Standard - VERSION 2.0
WRAP.                       NO: One line per depth step
~Well Information Block
STRT.FT               866.0000: 
STOP.FT              2029.0000: 
STEP.FT                 0.2500: 
NULL.                -999.2500: 
COMP.          Petrogulf Corporation: COMPANY
WELL.             State 16-21R: WELL
FLD.           Purgatorie River: FIELD
LOC.           203' FNL & 1560' FWL: LOCATION
PROV.                 Colorado: PROVINCE
CNTY.               Las Animas: COUNTRY
SRVC.                Patterson: SERVICE COMPANY
DATE.          Tue Aug 16 12:55:36 2005: LOG DATE
UWI.                071 08313 : UNIQUE WELL ID
~Curve Information Block
DEPT.FT            0 000 00 00: Depth
SP.mV                         : DIL Spontaneous Potential
RILD.Ohm-m                    : DIL Deep Resistivity
RILM.Ohm-m                    : DIL Medium Resistivity
RLL3.Ohm-m                    : DIL Shallow Resistivity
GR.GAPI                       : Gamma Ray
~Parameter Information Block
~A  Depth        SP         RILD        RILM        RLL3         GR     
# ...
  1566.0000     96.0113      9.3826     10.1218     14.1529    143.6034
  1566.2500     94.0413      9.5448     10.3337     15.2585    133.2195
  1566.5000     93.3222      9.7953     10.6344     16.8029    134.2996
  1566.7500     93.1732     10.1464     10.9587     17.7070    143.0284
  1567.0000     92.7542     10.6003     11.1777     17.6090    137.5703
  1567.2500     91.4172     11.0634     11.7037     16.6480    134.8756
  1567.5000     90.3869     11.7412     12.2617     15.6040    124.3446
  1567.7500     89.4411     12.5569     13.1808     15.6411    124.6440
  1568.0000     89.1279     13.4428     14.5800     16.4654    105.2721
  1568.2500     89.6053     14.2894     16.4088     22.1331     95.2229
  1568.5000     89.9772     15.4847     18.4931     37.0615     75.7637
  1568.7500     90.5117     16.6090     21.2346     59.3770     77.3712
  1569.0000     91.2112     18.0799     24.2987     80.5755     69.9063
  1569.2500     91.7349     19.2875     26.8517     99.7673     62.6102
  1569.5000     91.5050     21.0813     29.3477    114.6699     58.9462
  1569.7500     91.7354     22.7649     32.1223    116.6525     63.6516
  1570.0000     92.3126     24.9901     35.7887    113.3988     64.0716
  1570.2500     93.6396     27.9313     41.3802    112.1742     60.3196
  1570.5000     94.9580     30.7147     46.7956    112.1564     59.1399
  1570.7500     96.3092     32.8472     51.5102    110.5540     57.8991
  1571.0000     98.6447     35.0026     56.1015    107.0266     61.1530
  1571.2500    100.7672     35.1503     62.6293    105.3883     64.6508
  1571.5000    102.9033     33.5607     69.3553    107.5088     55.2461
  1571.7500    104.9872     32.5197     69.0063    105.9384     62.3556
  1572.0000    107.4426     30.0653     63.4173    103.1765     67.5652
  1572.2500    110.5225     27.3738     55.4915    100.2264     65.8167
  1572.5000    114.1804     24.6429     49.2575     88.7746     70.9406
  1572.7500    117.6519     22.4127     40.9402     60.6220     74.5956
  1573.0000    120.7411     20.8919     32.5236     38.8369     77.8040
  1573.2500    123.8045     19.4492     26.4764     36.4247     91.9737
  1573.5000    126.8949     18.0241     22.0703     35.7635    104.5805
  1573.7500    129.4835     16.8766     19.5463     22.6356    119.8407
  1574.0000    131.8916     15.7384     17.5057     14.8831    128.2540
  1574.2500    133.2801     14.9972     15.8786     14.2564    125.6143
  1574.5000    134.5842     14.1274     14.7039     14.4529    125.5435
  1574.7500    136.0213     13.0767     14.3724     14.2330    122.9686
  1575.0000    136.9665     12.1640     14.0048     14.8213    110.4409
  1575.2500    137.4569     11.2797     13.5523     16.8563    110.1481
  1575.5000    138.1613     10.6005     13.0768     18.8388    117.2734
  1575.7500    139.2247     10.0442     12.1570     20.4371    119.3177
  1576.0000    140.0533      9.5697     11.0924     20.1580    127.1915
  1576.2500    141.1916      9.3404     10.2727     15.9194    150.9901
  1576.5000    142.2625      9.1628      9.5701     11.5965    155.0148
  1576.7500    143.5138      8.9402      9.1334      9.5011    149.0779
  1577.0000    144.8109      8.7865      8.9729      9.9217    148.3946
  1577.2500    145.8517      8.7571      8.9421     10.8323    156.6757
  1577.5000    146.9486      8.7292      8.9414     12.2794    150.8510
  1577.7500    147.8926      8.7268      8.9693     12.2762    157.0880
  1578.0000    148.1607      8.6766      9.0324     12.0594    155.7767
  1578.2500    147.8589      8.6444      9.0547     11.5784    148.8927
  1578.5000    147.6280      8.6543      9.1632     11.6884    129.9301
  1578.7500    147.3627      8.7637      9.3797     12.4188    130.0920
  1579.0000    146.8202      8.9439      9.7461     13.2829    118.6003
  1579.2500    145.5639      9.1165     10.1624     15.4767    116.7254
  1579.5000    144.0721      9.1995     10.3740     17.4168    118.2410
  1579.7500    142.3490      9.3467     10.7669     17.8542    123.9397
  1580.0000    140.0931      9.6022     10.9891     17.1714    132.1837
  1580.2500    137.8353      9.9547     11.0131     16.4634    130.4720
  1580.5000    135.7799     10.3223     11.2027     15.8730    125.8686
  1580.7500    133.5987     10.6549     11.3458     15.1276    128.0247
  1581.0000    131.5696     11.1887     11.7566     14.4412    126.1661
  1581.2500    129.9410     11.4917     12.3190     14.5704    129.6490
  1581.5000    128.4133     11.7187     12.7947     16.4359    125.4156
  1581.7500    126.7647     11.9356     13.3476     19.0467    128.1000
  1582.0000    125.0219     12.1125     13.6818     19.8619    127.4673
  1582.2500    122.9715     12.2136     13.9699     17.4830    128.4265
  1582.5000    120.7909     12.0962     14.2713     16.1014    124.3534
  1582.7500    118.7301     11.9538     14.6100     17.1115    114.8909
  1583.0000    116.9091     11.8933     14.8221     21.0459    113.3914
  1583.2500    115.2366     11.9341     14.7143     26.4322    122.0979
  1583.5000    113.6698     11.8122     14.4605     28.1468    135.5998
  1583.7500    112.0077     11.7982     13.9080     22.2183    138.2135
  1584.0000    110.2560     11.5528     13.3433     15.8473    148.0123
  1584.2500    108.2473     11.4697     13.0879     13.3864    143.0976
  1584.5000    106.9836     11.2750     12.8434     13.2445    146.6561
  1584.7500    106.5334     11.2170     12.7805     14.0407    137.4551
  1585.0000    105.4800     10.9233     12.6240     14.9588    138.4096
  1585.2500    104.2766     10.6492     12.4122     15.4272    139.3720
  1585.5000    103.4550     10.2340     12.0797     15.4869    145.6889
  1585.7500    103.3730      9.8206     11.5778     14.6403    142.4947
  1586.0000    103.2377      9.4638     11.1469     14.4884    144.7469
  1586.2500    103.1740      9.2153     10.7930     14.2465    151.8878
  1586.5000    103.7426      9.0157     10.3486     14.4053    148.1040
  1586.7500    104.9721      8.8336      9.9615     14.8452    143.4845
  1587.0000    105.5766      8.7571      9.6374     14.4445    152.8216
  1587.2500    105.8490      8.6320      9.3415     13.7658    155.3673
  1587.5000    105.7574      8.6388      9.0100     13.1088    152.2210
  1587.7500    105.7131      8.6730      8.7998     12.1611    161.1004
  1588.0000    106.0143      8.8458      8.6936     11.1902    148.5233
  1588.2500    106.8906      9.0171      8.8286     10.4308    144.1742
  1588.5000    108.0623      9.1934      9.0579     10.3353    141.5493
  1588.7500    109.3987      9.2694      9.4708     10.8185    130.1422
  1589.0000    111.5472      9.2382     10.1877     13.3449    123.0965
  1589.2500    114.5230      9.2779     10.8314     21.5732    112.4128
  1589.5000    117.6852      9.4666     11.3375     39.6372    100.5560
  1589.7500    120.3966      9.6489     11.5613     53.5483    111.6099
  1590.0000    123.0358     10.1305     11.4632     35.8165    127.0079
  1590.2500    125.5790     10.7490     11.2488     19.8443    129.8313
  1590.5000    127.2540     11.3522     11.3522     14.9561    127.0137
  1590.7500    128.1047     11.9313     11.6514     14.7911    126.2129
  1591.0000    129.0352     12.9638     12.3766     16.7582    124.9227
  1591.2500    129.8067     14.1269     13.6485     20.0637    121.7586
  1591.5000    130.7134     15.3622     15.0386     23.8262    113.0012
  1591.7500    130.9507     16.3359     16.8596     27.2955    108.4386
  1592.0000    130.5960     16.7698     18.5773     30.3858     94.4705
  1592.2500    130.8197     17.1980     20.4926     36.7490     91.3458
  1592.5000    131.6634     17.8326     22.1526     55.5229     83.9465
  1592.7500    132.0270     18.4030     24.4696     86.2526     80.1992
  1593.0000    131.5848     19.5910     26.2238    114.6301     82.2268
  1593.2500    131.1340     21.2080     27.1031    116.3827     92.6309
  1593.5000    131.0641     22.2594     27.8685     79.4509    101.6300
  1593.7500    130.8524     22.9675     29.3187     46.1193     98.8475
