~Version Information
VERS.                      2.0: CWLS Log ASCII Standard - VERSION 2.0
WRAP.                       NO: One line per depth step
~Well Information Block
STRT.FT               390.0000: 
STOP.FT              2768.7000: 
STEP.FT                 0.1000: 
NULL.                -999.2500: 
COMP.          Pioneer Natural Resources: COMPANY
WELL.              Lynch 43-30: WELL
FLD.           Purgatoire River: FIELD
LOC.           1438' FSL & 429' FEL: LOCATION
PROV.                 Colorado: PROVINCE
CNTY.               Las Animas: COUNTRY
SRVC.                Patterson: SERVICE COMPANY
DATE.          Wed Oct 27 08:22:00 2004: LOG DATE
UWI.           05 071 08170 00: UNIQUE WELL ID
~Curve Information Block
DEPT.FT            0 000 00 00: Depth
DCAL.in                       : CDL Caliper
DPOR.pu                       : CDL Density Porosity
NPOR.pu                       : Neutron Porosity
RHOB.g/cc                     : CDL Bulk Density
RHOC.g/cc                     : CDL Density Correction
GR.GAPI                       : Gamma Ray
~Parameter Information Block
~A  Depth       DCAL        DPOR        NPOR        RHOB        RHOC         GR     
# ...
  1177.2000      8.0552     13.2498     27.8671      2.4314     -0.0336     99.2754
  1177.3000      8.0552     14.7712     27.8899      2.4063     -0.0694    101.6183
  1177.4000      8.0552     15.1545     28.4874      2.4000     -0.0882    102.6956
  1177.5000      8.0700     14.1319     29.0768      2.4168      0.0266    106.1019
  1177.6000      8.0700     12.8997     29.2305      2.4372      0.0185    111.9345
  1177.7000      8.0700     12.1032     29.0549      2.4503      0.0471    116.3972
  1177.8000      8.0801     11.6438     28.6266      2.4579      0.0671    114.8108
  1177.9000      8.0801     11.4780     28.2033      2.4606      0.1499    109.7290
  1178.0000      8.1062     12.0954     28.0190      2.4504      0.1417    109.3588
  1178.1000      8.1062     14.0114     27.9703      2.4188      0.0961    117.3966
  1178.2000      8.1062     16.6198     27.8075      2.3758      0.0248    130.1173
  1178.3000      8.1126     18.1096     27.1765      2.3512      0.0120    137.5004
  1178.4000      8.1126     17.4147     26.0905      2.3627      0.0663    132.5295
  1178.5000      8.1071     15.6647     24.7719      2.3915      0.1374    122.3091
  1178.6000      8.1071     14.0622     23.3032      2.4180      0.1163    116.2176
  1178.7000      8.1071     11.8536     22.1239      2.4544      0.1436    116.6651
  1178.8000      8.1046      8.7545     21.7498      2.5056      0.2626    122.6121
  1178.9000      8.1046      6.4640     21.9611      2.5433      0.2769    129.3009
  1179.0000      8.1118      6.0034     22.2477      2.5509      0.2171    132.5822
  1179.1000      8.1118      6.1740     22.6190      2.5481      0.1189    133.5328
  1179.2000      8.1118      5.7118     23.0935      2.5558      0.1696    132.9193
  1179.3000      8.1593      5.2402     23.4431      2.5635      0.1477    129.9310
  1179.4000      8.1593      5.4427     23.9603      2.5602      0.0979    124.7855
  1179.5000      8.1526      5.9269     24.5682      2.5522      0.1096    116.9045
  1179.6000      8.1526      6.4857     24.5847      2.5430      0.0701    109.0731
  1179.7000      8.1526      6.8824     24.4491      2.5364      0.0451    106.8692
  1179.8000      8.0867      6.6041     25.0520      2.5410      0.0246    110.1680
  1179.9000      8.0867      5.6805     26.1346      2.5563      0.0190    116.0063
  1180.0000      8.1037      5.1016     27.0082      2.5658      0.0673    120.8065
  1180.1000      8.1037      5.6207     27.3776      2.5573      0.0194    122.3315
  1180.2000      8.1037      6.1709     27.2816      2.5482     -0.0379    124.4039
  1180.3000      8.1037      5.7366     27.0266      2.5553      0.0171    128.0711
  1180.4000      8.1037      5.0151     26.9317      2.5673      0.0009    129.4554
  1180.5000      8.1053      4.7516     27.1002      2.5716      0.0206    128.4574
  1180.6000      8.1053      4.7675     27.4034      2.5713      0.0006    127.6805
  1180.7000      8.1053      4.8190     27.5640      2.5705      0.0091    127.0930
  1180.8000      8.1064      5.4551     27.4168      2.5600      0.0207    125.4356
  1180.9000      8.1064      6.4202     27.1487      2.5441     -0.0307    122.4619
  1181.0000      8.1059      6.2093     27.1326      2.5475     -0.0467    120.6001
  1181.1000      8.1059      4.7430     27.2965      2.5717      0.0091    120.6999
  1181.2000      8.1059      3.7831     27.2258      2.5876      0.0502    119.3822
  1181.3000      8.1085      4.4573     27.0535      2.5765      0.0469    115.6649
  1181.4000      8.1085      6.0678     27.1642      2.5499     -0.0206    109.9905
  1181.5000      8.1078      7.3747     27.4018      2.5283     -0.0073    104.5774
  1181.6000      8.1078      7.7987     27.4085      2.5213     -0.0050    103.7807
  1181.7000      8.1078      7.5255     27.1866      2.5258     -0.0195    107.5460
  1181.8000      8.1071      7.3730     26.9886      2.5283     -0.0107    112.6643
  1181.9000      8.1071      7.7642     26.9530      2.5219     -0.0490    116.4509
  1182.0000      8.1087      8.5033     26.8934      2.5097     -0.0041    117.5104
  1182.1000      8.1087      9.3514     26.6337      2.4957     -0.0262    115.5479
  1182.2000      8.1087      9.5298     26.7566      2.4928     -0.0048    112.4295
  1182.3000      8.1011      8.6648     27.6647      2.5070     -0.0218    111.9973
  1182.4000      8.1011      7.5512     28.5857      2.5254     -0.0241    113.8618
  1182.5000      8.1050      6.9776     28.6713      2.5349      0.0038    113.9280
  1182.6000      8.1050      7.4421     28.1533      2.5272      0.0379    112.6153
  1182.7000      8.1050      9.1198     27.9364      2.4995      0.0208    112.6311
  1182.8000      8.1074     11.1397     28.2091      2.4662     -0.0351    113.4811
  1182.9000      8.1074     12.2735     28.3855      2.4475     -0.0192    115.0180
  1183.0000      8.1066     12.2576     28.3061      2.4478     -0.0143    117.8647
  1183.1000      8.1066     11.7299     28.1705      2.4565     -0.0133    122.5503
  1183.2000      8.1066     11.2767     27.7633      2.4639      0.0226    127.8770
  1183.3000      8.1061     10.9010     27.0417      2.4701     -0.0187    131.2406
  1183.4000      8.1061     10.3164     26.5885      2.4798      0.0076    130.0919
  1183.5000      8.1091      9.8028     26.4068      2.4883      0.0295    124.5913
  1183.6000      8.1091     10.0835     26.0886      2.4836      0.0411    118.7512
  1183.7000      8.1091     10.7962     25.7915      2.4719      0.0213    114.4729
  1183.8000      8.1054     10.2411     25.8691      2.4810     -0.0025    114.9194
  1183.9000      8.1054      7.7482     26.4212      2.5222      0.0699    121.6680
  1184.0000      8.1083      4.3185     27.3588      2.5787      0.0865    127.6024
  1184.1000      8.1083      0.4318     28.1711      2.6429      0.1225    127.1916
  1184.2000      8.1083     -3.7256     28.3222      2.7115      0.1595    123.7936
  1184.3000      8.1066     -7.0978     28.1433      2.7671      0.1774    122.0492
  1184.4000      8.1066     -8.1642     28.3499      2.7847      0.2558    119.8254
  1184.5000      8.1048     -6.6647     29.0463      2.7600      0.1458    114.4149
  1184.6000      8.1048     -4.2944     29.9725      2.7209      0.0871    107.9345
  1184.7000      8.1048     -2.0763     31.0399      2.6843      0.0676    103.1767
  1184.8000      8.1073      0.2763     31.9608      2.6454     -0.0455    100.5690
  1184.9000      8.1073      2.5816     32.2476      2.6074     -0.0755     99.5041
  1185.0000      8.1075      4.5495     31.9325      2.5749     -0.1233    101.6250
  1185.1000      8.1075      6.4492     31.5157      2.5436     -0.0875    107.4423
  1185.2000      8.1075      7.9612     31.1479      2.5186     -0.1495    112.4827
  1185.3000      8.1154      7.6213     30.7791      2.5242     -0.0691    112.7340
  1185.4000      8.1154      5.4144     30.6020      2.5607      0.0681    110.3195
  1185.5000      8.1306      3.5842     30.5579      2.5909      0.1451    109.6544
  1185.6000      8.1306      4.0549     30.1709      2.5831      0.1739    111.4874
  1185.7000      8.1306      6.2687     29.4549      2.5466      0.1047    114.0679
  1185.8000      8.1216      7.8617     29.0366      2.5203      0.0783    117.6074
  1185.9000      8.1216      7.6820     29.0476      2.5232      0.1259    121.2483
  1186.0000      8.1357      6.7750     29.2175      2.5382      0.1623    123.5283
  1186.1000      8.1357      6.2379     29.6630      2.5471      0.1233    125.0707
  1186.2000      8.1357      6.0771     30.4275      2.5497      0.1244    124.6376
  1186.3000      8.1410      6.4195     30.9228      2.5441      0.1111    121.9085
  1186.4000      8.1410      7.8592     30.6588      2.5203      0.0765    119.8414
  1186.5000      8.1848     10.1240     29.9022      2.4830     -0.0064    121.3978
  1186.6000      8.1848     11.6097     29.1312      2.4584     -0.0408    125.5571
  1186.7000      8.1848     11.6375     28.4988      2.4580      0.0092    130.0169
