~Version Information
VERS.                      2.0: CWLS Log ASCII Standard - VERSION 2.0
WRAP.                       NO: One line per depth step
~Well Information Block
STRT.FT               -12.5000: 
STOP.FT              2742.5000: 
STEP.FT                 0.2500: 
NULL.                -999.2500: 
COMP.          Pioneer Natural Resources: COMPANY
WELL.            Rangely 22-28: WELL
FLD.           Purgatorie River: FIELD
LOC.           720' FSL & 1036' FEL--: LOCATION
PROV.                       CO: PROVINCE
CNTY.               Las Animas: COUNTRY
SRVC.                         : SERVICE COMPANY
DATE.          Wed Nov 10 08:59:10 2004: LOG DATE
UWI.                          : UNIQUE WELL ID
~Curve Information Block
DEPT.FT            0 000 00 00: Depth
GR.GAPI                       : Gamma Ray
CCL.                          : Casing Collar Locator
TT3.usec                      : CBL 3' Travel Time
AMP3.mV                       : CBL 3' Amplitude
~Parameter Information Block
~A  Depth        GR         CCL         TT3         AMP3    
# ...
   155.0000     62.0069      0.0000    788.8062      2.1023
   155.2500     59.6804      0.0000    740.9087      2.4958
   155.5000     58.5333      0.0000    699.1871      2.8011
   155.7500     59.0382      0.0000    669.0466      3.0211
   156.0000     60.1710      0.0000    649.4968      3.1569
   156.2500     61.0773      0.0000    635.9874      3.1766
   156.5000     62.0771      0.0000    624.0863      3.0398
   156.7500     64.1081      0.0000    611.4615      2.7502
   157.0000     67.7555      0.0000    598.6790      2.3741
   157.2500     72.9907      0.0000    588.8738      2.0047
   157.5000     79.3049      0.0000    585.7324      1.7105
   157.7500     85.6307      0.0000    590.7499      1.5128
   158.0000     90.4735      0.0000    601.5284      1.3977
   158.2500     92.8288      0.0000    612.3220      1.3402
   158.5000     93.1926      0.0000    617.1572      1.3223
   158.7500     93.2778      0.0000    613.7013      1.3368
   159.0000     94.2917      0.0000    604.6287      1.3815
   159.2500     95.6277      0.0000    595.4457      1.4469
   159.5000     95.7376      0.0000    590.8749      1.5133
   159.7500     94.1645      0.0000    592.3925      1.5572
   160.0000     91.9924      0.0000    598.1285      1.5621
   160.2500     90.3683      0.0000    604.7641      1.5248
   160.5000     89.4843      0.0000    609.6738      1.4567
   160.7500     89.2339      0.0000    611.6351      1.3806
   161.0000     89.9598      0.0000    610.2014      1.3233
   161.2500     91.9785      0.0000    605.2352      1.3098
   161.5000     94.7233      0.0000    597.3502      1.3623
   161.7500     96.7751      0.0000    588.3282      1.4950
   162.0000     96.6847      0.0000    580.3900      1.6968
   162.2500     93.8388      0.0000    574.6459      1.9192
   162.5000     88.8336      0.0000    570.1115      2.0989
   162.7500     83.0815      0.0000    563.7150      2.2026
   163.0000     77.9681      0.0000    551.1074      2.2432
   163.2500     74.4166      0.0000    528.6675      2.2464
   163.5000     73.0959      0.0000    496.4996      2.2178
   163.7500     74.5953      0.0000    459.7879      2.1504
   164.0000     78.9481      0.0000    426.2594      2.0527
   164.2500     85.0570      0.0000    401.8567      1.9502
   164.5000     91.0182      0.0000    388.4373      1.8662
   164.7500     95.3268      0.0000    384.0727      1.8110
   165.0000     97.7400      0.0000    384.5264      1.7839
   165.2500     98.9978      0.0000    385.5010      1.7792
   165.5000     99.8964      0.0000    385.0490      1.7894
   165.7500    100.7839      0.0000    384.2268      1.8085
   166.0000    101.8447      0.0000    385.1528      1.8338
   166.2500    103.4394      0.0000    388.5065      1.8631
   166.5000    105.7471      0.0000    393.1570      1.8918
   166.7500    108.1466      0.0000    397.8553      1.9143
   167.0000    109.2312      0.0000    402.7486      1.9277
   167.2500    107.6809      0.0000    409.2314      1.9310
   167.5000    103.3789      0.0000    418.8575      1.9214
   167.7500     97.7348      0.0000    432.6069      1.8947
   168.0000     92.5676      0.0000    450.6829      1.8536
   168.2500     88.4639      0.0000    472.1808      1.8166
   168.5000     84.5105      0.0000    494.9728      1.8130
   168.7500     79.7529      0.0000    516.9659      1.8647
   169.0000     74.3802      0.0000    538.0219      1.9718
   169.2500     69.2399      0.0000    559.9026      2.1149
   169.5000     64.8703      0.0000    583.5950      2.2667
   169.7500     61.4160      0.0000    606.7947      2.4010
   170.0000     58.9128      0.0000    624.2703      2.4969
   170.2500     57.1907      0.0000    630.7856      2.5423
   170.5000     55.8637      0.0000    624.2054      2.5346
   170.7500     54.9170      0.0000    606.8254      2.4779
   171.0000     55.3267      0.0000    584.4232      2.3806
   171.2500     58.7037      0.0000    563.7150      2.2536
   171.5000     65.9123      0.0000    549.8679      2.1086
   171.7500     75.9627      0.0000    545.4313      1.9579
   172.0000     86.3885      0.0000    550.4995      1.8170
   172.2500     94.8356      0.0000    562.7713      1.7042
   172.5000    100.4280      0.0000    577.4671      1.6327
   172.7500    103.7895      0.0000    588.9466      1.5988
   173.0000    105.8653      0.0000    595.2369      1.5822
   173.2500    106.5824      0.0000    602.4280      1.5664
   173.5000    104.6900      0.0000    622.5555      1.5623
   173.7500     99.1264      0.0000    663.4410      1.6086
   174.0000     90.5969     -2.0000    719.6748      1.7399
   174.2500     81.6543     -2.0000    775.0096      1.9449
   174.5000     74.8948      0.0000    814.0881      2.1532
   174.7500     70.9860      0.0000    832.2587      2.2714
   175.0000     68.7576      0.0000    835.9230      2.2358
   175.2500     67.0921      0.0000    834.2703      2.0323
   175.5000     66.0444      0.0000    830.2930      1.6919
   175.7500     66.0610      0.0000    820.2021      1.2885
   176.0000     66.8567      0.0000    800.7019      0.9250
   176.2500     67.5199      0.0000    774.0347      0.6834
   176.5000     67.4919      0.0000    745.9589      0.5855
   176.7500     67.1699      0.0000    721.5036      0.6068
   177.0000     67.3955      0.0000    702.5443      0.7071
   177.2500     68.3322      0.0000    687.2449      0.8398
   177.5000     69.0849      0.0000    671.8043      0.9576
   177.7500     68.5968      0.0000    653.6919      1.0369
   178.0000     66.8537      0.0000    633.5135      1.0871
   178.2500     65.0287      0.0000    614.5555      1.1250
   178.5000     64.3572      0.0000    601.0281      1.1538
   178.7500     65.1018      0.0000    595.8170      1.1731
   179.0000     66.7234      0.0000    598.7869      1.1968
   179.2500     68.5309      0.0000    606.6639      1.2493
   179.5000     69.7198      0.0000    614.4692      1.3487
   179.7500     69.4242      0.0000    617.7764      1.4942
   180.0000     67.5531      0.0000    614.8452      1.6663
   180.2500     65.2613      0.0000    607.5200      1.8347
   180.5000     64.0130      0.0000    600.0995      1.9744
   180.7500     64.3210      0.0000    596.7318      2.0824
   181.0000     65.4715      0.0000    598.8580      2.1859
   181.2500     66.2191      0.0000    604.3566      2.3339
   181.5000     65.8600      0.0000    609.2357      2.5742
   181.7500     64.7994      0.0000    610.9146      2.9277
   182.0000     63.8111      0.0000    610.5399      3.3736
   182.2500     62.8544      0.0000    612.2565      3.8587
   182.5000     61.2206      0.0000    620.5429      4.3249
   182.7500     58.7052      0.0000    638.2262      4.7297
   183.0000     55.8423      0.0000    665.6649      5.0461
   183.2500     53.0970      0.0000    700.3735      5.2541
   183.5000     50.6147      0.0000    737.8668      5.3428
   183.7500     48.6229      0.0000    773.4097      5.3209
   184.0000     47.3034      0.0000    802.1492      5.2234
   184.2500     46.4479      0.0000    818.6297      5.1038
   184.5000     45.8104      0.0000    819.5475      5.0108
   184.7500     45.4287      0.0000    807.6225      4.9688
   185.0000     45.2073      0.0000    790.4839      4.9766
   185.2500     44.6966      0.0000    775.2994      5.0221
   185.5000     43.5866      0.0000    765.4417      5.0916
   185.7500     41.9884      0.0000    761.1831      5.1672
   186.0000     40.1775      0.0000    761.4762      5.2264
   186.2500     38.6316      0.0000    765.0959      5.2528
   186.5000     38.4022      0.0000    771.8723      5.2458
   186.7500     40.8441      0.0000    783.5212      5.2168
   187.0000     46.4822      0.0000    802.2825      5.1786
   187.2500     54.2097      0.0000    827.2893      5.1317
   187.5000     61.8932      0.0000    852.1571      5.0599
   187.7500     68.0646      0.0000    867.5869      4.9465
   188.0000     73.0421      0.0000    867.9690      4.7977
   188.2500     78.2050      0.0000    855.8315      4.6415
