~Version Information
VERS.                      2.0: CWLS Log ASCII Standard - VERSION 2.0
WRAP.                       NO: One line per depth step
~Well Information Block
STRT.FT               555.5000: 
STOP.FT              2179.0000: 
STEP.FT                 0.2500: 
NULL.                -999.2500: 
COMP.          Petrogulf Corporation: COMPANY
WELL.            Montoya 6-14R: WELL
FLD.           Purgatorie River: FIELD
LOC.           867' FSL & 751' FWL: LOCATION
CNTY.               Las Animas: COUNTY
SRVC.                         : SERVICE COMPANY
DATE.          Mon Nov 15 07:02:23 2004: LOG DATE
UWI.           05 071 08242 00: UNIQUE WELL ID
STAT.                 Colorado: STATE
~Curve Information Block
DEPT.FT            0 000 00 00: Depth
SP.mV                         : DIL Spontaneous Potential
RILD.Ohm-m                    : DIL Deep Resistivity
RILM.Ohm-m                    : DIL Medium Resistivity
RLL3.Ohm-m                    : DIL Shallow Resistivity
GR.GAPI                       : Gamma Ray
~Parameter Information Block
~A  Depth        SP         RILD        RILM        RLL3         GR     
# ...
  2151.5000     24.0847     27.4123     30.6948     33.6213     12.9483
  2151.7500     23.9267     27.3602     30.6374     33.3190      8.9593
  2152.0000     23.8411     27.2705     30.5283     32.8455      4.1573
  2152.2500     23.8154     27.1446     30.3857     32.2556      2.1305
  2152.5000     23.8315     26.9812     30.2232     31.6152      0.6078
  2152.7500     23.8683     26.7769     30.0478     30.9934      0.2211
  2153.0000     23.9052     26.5265     29.8587     30.4551      0.0367
  2153.2500     23.9250     26.2251     29.6472     30.0566      0.0089
  2153.5000     23.9173     25.8684     29.3972     29.8406      0.0005
  2153.7500     23.8808     25.4545     29.0878     29.8294   -999.2500
  2154.0000     23.8241     24.9843     28.6961     30.0134   -999.2500
  2154.2500     23.7651     24.4615     28.2025     30.3375   -999.2500
  2154.5000     23.7280     23.8926     27.5950     30.6929   -999.2500
  2154.7500     23.7390     23.2859     26.8728     30.9232   -999.2500
  2155.0000     23.8209     22.6511     26.0486     30.8531   -999.2500
  2155.2500     23.9880     21.9979     25.1467     30.3359   -999.2500
  2155.5000     24.2428     21.3362     24.1994     29.3038   -999.2500
  2155.7500     24.5751     20.6760     23.2414     27.7996   -999.2500
  2156.0000     24.9633     20.0268     22.3051     25.9720   -999.2500
  2156.2500     25.3790     19.3980     21.4167     24.0338   -999.2500
  2156.5000     25.7911     18.7990     20.5951     22.2001   -999.2500
  2156.7500     26.1711     18.2383     19.8519     20.6319   -999.2500
  2157.0000     26.4963     17.7238     19.1926     19.4063   -999.2500
  2157.2500     26.7520     17.2618     18.6185     18.5194   -999.2500
  2157.5000     26.9313     16.8570     18.1287     17.9136   -999.2500
  2157.7500     27.0348     16.5124     17.7210     17.5136   -999.2500
  2158.0000     27.0688     16.2291     17.3931     17.2563   -999.2500
  2158.2500     27.0442     16.0066     17.1424     17.1067   -999.2500
  2158.5000     26.9756     15.8432     16.9660     17.0579   -999.2500
  2158.7500     26.8794     15.7362     16.8601     17.1191   -999.2500
  2159.0000     26.7729     15.6828     16.8197     17.2998   -999.2500
  2159.2500     26.6722     15.6793     16.8381     17.5953   -999.2500
  2159.5000     26.5896     15.7220     16.9066     17.9806   -999.2500
  2159.7500     26.5332     15.8071     17.0145     18.4130   -999.2500
  2160.0000     26.5036     15.9307     17.1497     18.8435   -999.2500
  2160.2500     26.4935     16.0902     17.2987     19.2298   -999.2500
  2160.5000     26.4867     16.2850     17.4479     19.5455   -999.2500
  2160.7500     26.4570     16.5184     17.5842     19.7828   -999.2500
  2161.0000     26.3676     16.8007     17.6960     19.9479   -999.2500
  2161.2500     26.1701     17.1051     17.7742     20.0517   -999.2500
  2161.5000     25.8049     17.5035     17.8129     20.1006   -999.2500
  2161.7500     25.2040     18.0885     17.8104     20.0910   -999.2500
  2162.0000     24.2979     18.8734     17.7686     20.0104   -999.2500
  2162.2500     23.0287     19.9355     17.6929     19.8448   -999.2500
  2162.5000     21.3646     21.3742     17.5916     19.5903   -999.2500
  2162.7500     19.3165     23.3178     17.4747     19.2621   -999.2500
  2163.0000     16.9465     25.9333     17.3522     18.8970   -999.2500
  2163.2500     14.3667     29.4370     17.2338     18.5460   -999.2500
  2163.5000     11.7252     34.1072     17.1283     18.2609   -999.2500
  2163.7500      9.1813     40.2887     17.0436     18.0795   -999.2500
  2164.0000      6.8773     48.3802     16.9877     18.0174   -999.2500
  2164.2500      4.9153     58.7835     16.9697     18.0668   -999.2500
  2164.5000      3.3446     71.7943     17.0016     18.2028   -999.2500
  2164.7500      2.1627     87.4376     17.1000     18.3930   -999.2500
  2165.0000      1.3267    107.2826     17.2883     18.6055   -999.2500
  2165.2500      0.7711    127.3458     17.5983     18.8163   -999.2500
  2165.5000      0.4241    147.9364     18.0723     19.0159   -999.2500
  2165.7500      0.2204    168.1741     18.7650     19.2148   -999.2500
  2166.0000      0.1081    187.6398     19.7469     19.4486   -999.2500
  2166.2500      0.0499    206.3664     21.1088     19.7776   -999.2500
  2166.5000      0.0216    224.5893     22.9678     20.2777   -999.2500
  2166.7500      0.0087    242.4572     25.4763     21.0223   -999.2500
  2167.0000      0.0031    259.8539     28.8302     22.0600   -999.2500
  2167.2500      0.0008    276.3703     33.2757     23.3944   -999.2500
  2167.5000   -999.2500    291.4199     39.1053     24.9767   -999.2500
  2167.7500   -999.2500    304.4393     46.6290     26.7132   -999.2500
  2168.0000   -999.2500   2579.7200     56.0978     28.4884   -999.2500
  2168.2500   -999.2500   3231.8850     67.5627     30.1908   -999.2500
  2168.5000   -999.2500   3915.0801     80.6883     31.7358   -999.2500
  2168.7500   -999.2500   4546.6836     94.6258     33.0761   -999.2500
  2169.0000   -999.2500   5057.0522    107.4353     34.1957   -999.2500
  2169.2500   -999.2500   5419.3218    119.8869     35.1167   -999.2500
  2169.5000   -999.2500   5648.7241    129.1397     35.8935   -999.2500
  2169.7500   -999.2500   5780.7588    135.7663     36.6200   -999.2500
  2170.0000   -999.2500   5851.0254    140.2014     37.4310   -999.2500
  2170.2500   -999.2500   5885.9805    143.1066     38.4814   -999.2500
  2170.5000   -999.2500   5902.3130    145.1156     39.8939   -999.2500
  2170.7500   -999.2500   5909.6660    146.7169     41.6768   -999.2500
  2171.0000   -999.2500 100000.0000    148.2374     43.6419   -999.2500
  2171.2500   -999.2500 100000.0000    149.8706     45.3662   -999.2500
  2171.5000   -999.2500 100000.0000    151.7067     46.2449   -999.2500
  2171.7500   -999.2500 100000.0000   1292.5762     45.6442   -999.2500
  2172.0000   -999.2500 100000.0000   1467.5944     43.1158   -999.2500
  2172.2500   -999.2500 100000.0000   1701.8361     38.5843   -999.2500
  2172.5000   -999.2500 100000.0000   2012.9543     32.4187   -999.2500
  2172.7500   -999.2500 100000.0000   2421.2339     25.3441   -999.2500
  2173.0000   -999.2500 100000.0000   2946.2231     18.2290   -999.2500
  2173.2500   -999.2500 100000.0000   3599.1941     11.8394   -999.2500
  2173.5000   -999.2500 100000.0000   4371.1182      6.6634   -999.2500
  2173.7500   -999.2500 100000.0000   5220.7036      2.8575   -999.2500
  2174.0000   -999.2500 100000.0000   6073.6152      0.3073   -999.2500
  2174.2500   -999.2500 100000.0000   6842.6479     -1.2543   -999.2500
  2174.5000   -999.2500   -999.2500   7461.4590     -2.1298   -999.2500
  2174.7500   -999.2500   -999.2500   7907.4189     -2.5798   -999.2500
  2175.0000   -999.2500   -999.2500   8198.3320     -2.7921   -999.2500
  2175.2500   -999.2500   -999.2500   8372.4180     -2.8843   -999.2500
  2175.5000   -999.2500   -999.2500   8469.1904     -2.9211   -999.2500
  2175.7500   -999.2500   -999.2500   8519.6348     -2.9349   -999.2500
  2176.0000   -999.2500   -999.2500   8544.4297   -999.2500   -999.2500
  2176.2500   -999.2500   -999.2500   8555.9873   -999.2500   -999.2500
  2176.5000   -999.2500   -999.2500   8561.0957   -999.2500   -999.2500
  2176.7500   -999.2500   -999.2500 100000.0000   -999.2500   -999.2500
  2177.0000   -999.2500   -999.2500 100000.0000   -999.2500   -999.2500
  2177.2500   -999.2500   -999.2500 100000.0000   -999.2500   -999.2500
  2177.5000   -999.2500   -999.2500 100000.0000   -999.2500   -999.2500
  2177.7500   -999.2500   -999.2500 100000.0000   -999.2500   -999.2500
  2178.0000   -999.2500   -999.2500 100000.0000   -999.2500   -999.2500
  2178.2500   -999.2500   -999.2500 100000.0000   -999.2500   -999.2500
  2178.5000   -999.2500   -999.2500 100000.0000   -999.2500   -999.2500
  2178.7500   -999.2500   -999.2500 100000.0000   -999.2500   -999.2500
  2179.0000   -999.2500   -999.2500 100000.0000   -999.2500   -999.2500
