~Version Information
VERS.                      2.0: CWLS Log ASCII Standard - VERSION 2.0
WRAP.                       NO: One line per depth step
~Well Information Block
STRT.FT               780.0000: 
STOP.FT              2866.2000: 
STEP.FT                 0.1000: 
NULL.                -999.2500: 
COMP.          Pioneer Natural Resources: COMPANY
WELL.            Sebring 42-29: WELL
FLD.           Purgatoire River: FIELD
LOC.           1751' FNL & 584' FEL--: LOCATION
PROV.                 Colorado: PROVINCE
CNTY.               Las Animas: COUNTRY
SRVC.                Patterson: SERVICE COMPANY
DATE.          Mon Aug 15 07:11:37 2005: LOG DATE
UWI.           05 071 08293 00: UNIQUE WELL ID
~Curve Information Block
DEPT.FT            0 000 00 00: Depth
DCAL.in                       : CDL Caliper
RHOB.g/cc                     : CDL Bulk Density
RHOC.g/cc                     : CDL Density Correction
DPOR.pu                       : CDL Density Porosity
NPOR.pu                       : Neutron Porosity
GR.GAPI                       : Gamma Ray
~Parameter Information Block
~A  Depth       DCAL        RHOB        RHOC        DPOR        NPOR         GR     
# ...
  2008.8000      7.6899      2.3133     -0.1033     20.4079     19.3287     93.7882
  2008.9000      7.6899      2.3313     -0.0746     19.3133     19.6303     87.7149
  2009.0000      7.6215      2.3810     -0.0385     16.3024     19.6526     79.6570
  2009.1000      7.6215      2.4489      0.0118     12.1875     19.4796     74.9084
  2009.2000      7.6215      2.5241      0.1309      7.6320     19.6994     76.8736
  2009.3000      7.6380      2.5793      0.1733      4.2836     20.4388     82.5879
  2009.4000      7.6380      2.5961      0.1671      3.2679     21.2418     86.3531
  2009.5000      7.6799      2.5808      0.1407      4.1942     21.8685     88.7690
  2009.6000      7.6799      2.5499      0.1282      6.0679     22.3940     93.5943
  2009.7000      7.6799      2.5200      0.0684      7.8798     22.8868    100.1490
  2009.8000      7.7039      2.5079      0.0733      8.6144     23.0705    106.3334
  2009.9000      7.7039      2.5222      0.0615      7.7459     22.9560    110.8598
  2010.0000      7.7342      2.5523      0.1028      5.9185     23.1410    113.0163
  2010.1000      7.7342      2.5775      0.0768      4.3957     23.8918    116.5558
  2010.2000      7.7342      2.5886      0.1171      3.7208     24.9333    124.5861
  2010.3000      7.7852      2.5925      0.0776      3.4849     25.6964    135.4261
  2010.4000      7.7852      2.5950      0.0904      3.3323     25.6760    144.5078
  2010.5000      7.8466      2.5861      0.1059      3.8745     25.2947    146.2948
  2010.6000      7.8466      2.5608      0.0869      5.4034     25.0650    141.0838
  2010.7000      7.8466      2.5424     -0.0121      6.5219     24.9962    134.5965
  2010.8000      7.8908      2.5449      0.0487      6.3705     24.9618    133.1183
  2010.9000      7.8908      2.5417      0.0876      6.5657     24.8500    139.6016
  2011.0000      7.9062      2.5163     -0.0049      8.1023     25.1734    148.9326
  2011.1000      7.9062      2.4947     -0.0109      9.4138     26.3603    151.5110
  2011.2000      7.9062      2.4900      0.0412      9.6972     27.8218    147.5422
  2011.3000      7.9049      2.4837      0.0465     10.0771     28.5097    148.9682
  2011.4000      7.9049      2.4685      0.0209     11.0024     28.1762    158.4362
  2011.5000      7.8939      2.4523      0.0671     11.9841     27.6287    164.9559
  2011.6000      7.8939      2.4341      0.0545     13.0873     27.4236    163.7231
  2011.7000      7.8939      2.4182      0.0124     14.0493     27.5609    158.6044
  2011.8000      7.8816      2.4229      0.0195     13.7635     27.7602    155.5092
  2011.9000      7.8816      2.4503      0.0693     12.1014     27.4146    158.1729
  2012.0000      7.8797      2.4815      0.0898     10.2118     26.4574    161.6624
  2012.1000      7.8797      2.5028      0.1170      8.9239     25.5916    159.2447
  2012.2000      7.8797      2.5101      0.1350      8.4807     24.9932    152.4721
  2012.3000      7.8815      2.5141      0.0559      8.2391     24.2737    146.6237
  2012.4000      7.8815      2.5375      0.0959      6.8163     23.6883    141.5059
  2012.5000      7.8838      2.5776      0.1605      4.3893     23.2968    134.3126
  2012.6000      7.8838      2.6064      0.1430      2.6424     22.5929    128.1944
  2012.7000      7.8838      2.6080      0.1023      2.5426     21.9206    125.9009
  2012.8000      7.8836      2.5861      0.0353      3.8721     21.9164    125.6830
  2012.9000      7.8836      2.5506      0.0420      6.0213     22.3494    124.6846
  2013.0000      7.8746      2.5127      0.0193      8.3242     22.5299    121.6205
  2013.1000      7.8746      2.4880     -0.0256      9.8207     22.3114    116.2480
  2013.2000      7.8746      2.4849      0.0253     10.0085     22.3176    108.7691
  2013.3000      7.8560      2.4959      0.0237      9.3391     22.8687    102.6881
  2013.4000      7.8560      2.5071      0.0619      8.6616     23.5996    100.8046
  2013.5000      7.8325      2.5103      0.0346      8.4663     23.9691    104.1382
  2013.6000      7.8325      2.5117      0.0394      8.3842     23.9292    110.7629
  2013.7000      7.8325      2.5172      0.0698      8.0482     24.0211    115.8167
  2013.8000      7.8103      2.5287      0.0338      7.3489     24.1680    118.7777
  2013.9000      7.8103      2.5436      0.0869      6.4515     24.2557    122.1295
  2014.0000      7.7916      2.5473      0.0749      6.2251     24.7394    126.7031
  2014.1000      7.7916      2.5358      0.0400      6.9197     25.3513    133.3291
  2014.2000      7.7916      2.5231      0.0408      7.6920     25.5271    142.2788
  2014.3000      7.7753      2.5198      0.0526      7.8885     25.6150    150.1395
  2014.4000      7.7753      2.5238      0.0883      7.6504     25.9056    150.0317
  2014.5000      7.7632      2.5236      0.1104      7.6628     26.1191    141.8881
  2014.6000      7.7632      2.5168      0.0508      8.0749     25.9685    135.7314
  2014.7000      7.7632      2.5108      0.0472      8.4381     25.3350    138.7040
  2014.8000      7.7563      2.5067      0.0506      8.6830     24.9481    145.6085
  2014.9000      7.7563      2.5015      0.0479      8.9989     25.2358    148.6373
  2015.0000      7.7506      2.4986      0.0587      9.1770     25.3960    150.5267
  2015.1000      7.7506      2.5015      0.0737      9.0001     25.2594    155.4504
  2015.2000      7.7506      2.5043      0.0579      8.8300     25.4208    162.6678
  2015.3000      7.7396      2.5075      0.0460      8.6377     25.5552    170.5387
  2015.4000      7.7396      2.5246      0.0547      7.5980     25.4775    173.4505
  2015.5000      7.7308      2.5587      0.0832      5.5357     25.7592    168.6667
  2015.6000      7.7308      2.5929      0.0920      3.4603     26.5091    162.4298
  2015.7000      7.7308      2.6112      0.1140      2.3510     27.1795    159.1847
  2015.8000      7.7594      2.6067      0.1224      2.6250     27.1684    155.7936
  2015.9000      7.7594      2.5886      0.0451      3.7217     26.6937    152.2516
  2016.0000      7.8312      2.5833      0.0380      4.0412     26.6121    149.5419
  2016.1000      7.8312      2.5947      0.0950      3.3532     26.9978    145.8708
  2016.2000      7.8312      2.6019      0.0801      2.9132     27.1832    144.9891
  2016.3000      7.8963      2.5986      0.0884      3.1165     26.8655    147.5473
  2016.4000      7.8963      2.5878      0.0882      3.7700     26.4930    146.8667
  2016.5000      7.9451      2.5754      0.0540      4.5198     26.4982    144.7346
  2016.6000      7.9451      2.5774      0.0280      4.3977     26.5891    149.4036
  2016.7000      7.9451      2.5934      0.1039      3.4320     26.1461    157.9990
  2016.8000      7.9916      2.5956      0.0957      3.2978     24.9908    157.9256
  2016.9000      7.9916      2.5696      0.0806      4.8741     23.7356    149.6394
  2017.0000      8.0175      2.5433     -0.0436      6.4682     23.1887    143.3100
  2017.1000      8.0175      2.5473      0.0364      6.2247     23.4881    142.0866
  2017.2000      8.0175      2.5659      0.0713      5.0955     23.9107    143.8658
  2017.3000      8.0241      2.5770      0.0305      4.4218     24.0327    143.7094
  2017.4000      8.0241      2.5838      0.0673      4.0118     24.1519    137.9590
  2017.5000      8.0307      2.5855      0.0477      3.9110     24.2100    131.9545
  2017.6000      8.0307      2.5782      0.0379      4.3537     23.9865    133.1292
  2017.7000      8.0307      2.5664      0.0446      5.0644     23.6485    138.0077
  2017.8000      8.0411      2.5593      0.0013      5.4989     23.0840    139.5850
  2017.9000      8.0411      2.5668      0.0498      5.0396     22.2419    137.1538
  2018.0000      8.0465      2.5870      0.0544      3.8195     21.8512    134.5776
  2018.1000      8.0465      2.6053      0.0791      2.7072     22.3645    132.4012
  2018.2000      8.0465      2.6144      0.0391      2.1591     23.0912    124.5137
  2018.3000      8.0460      2.6134      0.0597      2.2157     23.3275    113.5868
