~Version Information
VERS.                      2.0: CWLS Log ASCII Standard - VERSION 2.0
WRAP.                       NO: One line per depth step
~Well Information Block
STRT.FT               460.0000: 
STOP.FT               961.2500: 
STEP.FT                 0.2500: 
NULL.                -999.2500: 
COMP.          Pioneer Natural Resources: COMPANY
WELL.                Pug 33-19: WELL
FLD.           Purgatoire River: FIELD
LOC.           1381' FSL & 2140' FEL: LOCATION
PROV.                 Colorado: PROVINCE
CNTY.               Las Animas: COUNTRY
SRVC.                Patterson: SERVICE COMPANY
DATE.          Tue Dec 14 08:25:14 2004: LOG DATE
UWI.           05 071 08193 00: UNIQUE WELL ID
~Curve Information Block
DEPT.FT            0 000 00 00: Depth
SN.Ohm-m                      : IEL Short Normal
SP.mV                         : IEL Spontaneous Potential
DIR.Ohm-m                     : IEL Induction Resistivity
GR.GAPI                       : Gamma Ray
~Parameter Information Block
~A  Depth        SN          SP         DIR          GR     
# ...
   527.0000     11.1421      4.4426      9.6863    171.7336
   527.2500     11.1598      4.5487      9.6645    169.7845
   527.5000     11.2997      4.6354      9.7021    165.2944
   527.7500     11.5654      4.6983      9.8116    162.1701
   528.0000     11.9441      4.7335     10.0040    158.5716
   528.2500     12.4138      4.7371     10.2876    157.1618
   528.5000     12.9481      4.7054     10.6684    155.6264
   528.7500     13.5190      4.6366     11.1477    153.9020
   529.0000     14.0971      4.5340     11.7181    148.4822
   529.2500     14.6545      4.4093     12.3565    142.2970
   529.5000     15.1653      4.2834     13.0223    128.7791
   529.7500     15.6045      4.1845     13.6605    117.4916
   530.0000     15.9484      4.1415     14.2113     99.8337
   530.2500     16.1778      4.1751     14.6196     89.7383
   530.5000     16.2820      4.2897     14.8448     80.1815
   530.7500     16.2566      4.4719     14.8672     78.3290
   531.0000     16.1004      4.6946     14.6907     82.0572
   531.2500     15.8112      4.9265     14.3389     88.2905
   531.5000     15.3860      5.1412     13.8464    102.1123
   531.7500     14.8252      5.3236     13.2503    113.2902
   532.0000     14.1414      5.4714     12.5857    130.0028
   532.2500     13.3658      5.5928     11.8859    139.0123
   532.5000     12.5478      5.7036     11.1831    147.0715
   532.7500     11.7449      5.8229     10.5082    148.9544
   533.0000     11.0052      5.9673      9.8870    148.7101
   533.2500     10.3554      6.1468      9.3362    147.9644
   533.5000      9.7995      6.3605      8.8628    147.4442
   533.7500      9.3283      6.5978      8.4652    147.5952
   534.0000      8.9287      6.8416      8.1360    148.0688
   534.2500      8.5901      7.0745      7.8653    148.2867
   534.5000      8.3063      7.2835      7.6427    148.0706
   534.7500      8.0763      7.4623      7.4591    147.0683
   535.0000      7.9027      7.6106      7.3081    143.3405
   535.2500      7.7918      7.7321      7.1874    139.5423
   535.5000      7.7535      7.8321      7.0989    133.8758
   535.7500      7.7979      7.9160      7.0485    131.4439
   536.0000      7.9245      7.9879      7.0443    130.5754
   536.2500      8.1167      8.0498      7.0939    131.3500
   536.5000      8.3482      8.1013      7.2021    133.0283
   536.7500      8.5946      8.1389      7.3694    133.5511
   537.0000      8.8363      8.1581      7.5909    131.8568
   537.2500      9.0554      8.1547      7.8565    128.4094
   537.5000      9.2414      8.1271      8.1526    120.0015
   537.7500      9.4062      8.0778      8.4668    113.4834
   538.0000      9.5936      8.0133      8.7923    105.5172
   538.2500      9.8696      7.9438      9.1292    102.7620
   538.5000     10.2906      7.8820      9.4812    102.3163
   538.7500     10.8665      7.8400      9.8485    103.1340
   539.0000     11.5385      7.8257     10.2196    103.4993
   539.2500     12.1954      7.8396     10.5683    102.4835
   539.5000     12.7256      7.8726     10.8594     99.5660
   539.7500     13.0777      7.9082     11.0665     97.5667
   540.0000     13.2882      7.9274     11.1908     96.2328
   540.2500     13.4640      7.9146     11.2665     97.2309
   540.5000     13.7403      7.8622     11.3479    101.5608
   540.7500     14.2323      7.7722     11.4879    105.2124
   541.0000     14.9935      7.6550     11.7216    108.6974
   541.2500     15.9964      7.5274     12.0600    108.2622
   541.5000     17.1559      7.4084     12.4914    103.2693
   541.7500     18.3814      7.3156     12.9908     98.0250
   542.0000     19.6187      7.2621     13.5341     89.3469
   542.2500     20.8544      7.2544     14.1099     83.9817
   542.5000     22.0993      7.2924     14.7239     77.8236
   542.7500     23.3709      7.3710     15.3914     75.5911
   543.0000     24.6834      7.4824     16.1276     75.7972
   543.2500     26.0412      7.6176     16.9392     78.2768
   543.5000     27.4368      7.7673     17.8221     83.9608
   543.7500     28.8564      7.9227     18.7598     87.3163
   544.0000     30.2911      8.0750     19.7238     88.6100
   544.2500     31.7509      8.2162     20.6789     86.1180
   544.5000     33.2727      8.3403     21.5986     78.2949
   544.7500     34.9139      8.4434     22.4835     71.8294
   545.0000     36.7280      8.5247     23.3681     62.5928
   545.2500     38.7352      8.5853     24.3093     57.4117
   545.5000     40.9046      8.6268     25.3625     51.2474
   545.7500     43.1589      8.6507     26.5564     48.1116
   546.0000     45.3947      8.6591     27.8779     44.8373
   546.2500     47.5060      8.6567     29.2671     43.6119
   546.5000     49.3999      8.6539     30.6289     42.9089
   546.7500     51.0034      8.6674     31.8613     42.7687
   547.0000     52.2614      8.7186     32.8886     42.2078
   547.2500     53.1327      8.8299     33.6771     41.4031
   547.5000     53.5931      9.0189     34.2246     40.2778
   547.7500     53.6499      9.2938     34.5418     40.5027
   548.0000     53.3542      9.6518     34.6445     43.6382
   548.2500     52.7975     10.0791     34.5529     47.6580
   548.5000     52.0867     10.5551     34.2864     55.3992
   548.7500     51.3108     11.0559     33.8596     60.6932
   549.0000     50.5181     11.5578     33.2908     67.4687
   549.2500     49.7138     12.0397     32.6163     70.7828
   549.5000     48.8806     12.4830     31.8929     73.5052
   549.7500     48.0073     12.8714     31.1856     73.6131
   550.0000     47.1086     13.1904     30.5540     71.3540
   550.2500     46.2234     13.4290     30.0490     68.8012
   550.5000     45.4003     13.5826     29.7076     64.7580
   550.7500     44.6776     13.6560     29.5424     62.4344
   551.0000     44.0652     13.6646     29.5316     59.4688
   551.2500     43.5367     13.6317     29.6249     57.4830
   551.5000     43.0378     13.5815     29.7624     54.0549
   551.7500     42.5061     13.5325     29.8934     51.5871
   552.0000     41.8880     13.4930     29.9795     48.3789
   552.2500     41.1467     13.4611     29.9846     47.0386
   552.5000     40.2643     13.4302     29.8664     46.5086
   552.7500     39.2388     13.3952     29.5810     47.0260
   553.0000     38.0805     13.3585     29.0988     48.9676
   553.2500     36.8074     13.3299     28.4192     51.2098
   553.5000     35.4363     13.3213     27.5722     56.7585
   553.7500     33.9759     13.3398     26.6059     62.4457
   554.0000     32.4244     13.3825     25.5677     74.1807
   554.2500     30.7770     13.4373     24.4908     83.4012
   554.5000     29.0355     13.4889     23.3918     96.7177
   554.7500     27.2160     13.5265     22.2785    103.6669
   555.0000     25.3539     13.5478     21.1590    109.7597
   555.2500     23.5027     13.5597     20.0450    111.0646
   555.5000     21.7221     13.5749     18.9475    110.1854
   555.7500     20.0575     13.6080     17.8701    108.6239
   556.0000     18.5288     13.6710     16.8083    106.2324
   556.2500     17.1362     13.7715     15.7567    105.3384
   556.5000     15.8749     13.9108     14.7190    105.9759
   556.7500     14.7443     14.0850     13.7113    107.8023
   557.0000     13.7446     14.2866     12.7592    111.8368
   557.2500     12.8694     14.5071     11.8903    114.7253
   557.5000     12.1076     14.7395     11.1276    118.7453
   557.7500     11.4477     14.9783     10.4846    121.2136
   558.0000     10.8811     15.2187      9.9637    124.5324
   558.2500     10.4008     15.4551      9.5563    126.2323
   558.5000      9.9988     15.6821      9.2459    127.7088
   558.7500      9.6645     15.8957      9.0112    128.1441
   559.0000      9.3849     16.0952      8.8299    128.5408
   559.2500      9.1493     16.2843      8.6839    128.7885
   559.5000      8.9544     16.4700      8.5622    129.0386
   559.7500      8.8045     16.6613      8.4632    129.0682
   560.0000      8.7057     16.8669      8.3917    128.8619
   560.2500      8.6627     17.0927      8.3546    128.3524
