~Version Information
VERS.                      2.0: CWLS Log ASCII Standard - VERSION 2.0
WRAP.                       NO: One line per depth step
~Well Information Block
STRT.FT                -7.5000: 
STOP.FT              2339.2500: 
STEP.FT                 0.2500: 
NULL.                -999.2500: 
COMP.          Pioneer Natural Resources: COMPANY
WELL.            Harrier 44-33: WELL
FLD.           Purgatorie River: FIELD
LOC.           456' FSL & 930' FEL--: LOCATION
PROV.                       CO: PROVINCE
CNTY.               Las Animas: COUNTRY
SRVC.          Patterson Wireline: SERVICE COMPANY
DATE.          Wed Jun 29 11:08:51 2005: LOG DATE
UWI.           05 071 08398 00: UNIQUE WELL ID
~Curve Information Block
DEPT.FT            0 000 00 00: Depth
CCL.                          : Casing Collar Locator
TT3.usec                      : CBL 3' Travel Time
AMP3.mV                       : CBL 3' Amplitude
GR.GAPI                       : Gamma Ray
~Parameter Information Block
~A  Depth       CCL         TT3         AMP3         GR     
# ...
  1533.5000      0.0000    645.7343      5.2159    100.1284
  1533.7500      0.0000    630.2209      5.2597    100.5613
  1534.0000      0.0000    605.7747      5.3002    100.8147
  1534.2500      0.0000    577.4592      5.3299    100.8692
  1534.5000      0.0000    553.1425      5.3444    102.0549
  1534.7500      0.0000    539.4249      5.3430    105.6904
  1535.0000      0.0000    539.5912      5.3346    111.1342
  1535.2500      0.0000    553.9756      5.3323    115.7191
  1535.5000      0.0000    579.9351      5.3334    116.7343
  1535.7500      0.0000    611.2539      5.3097    113.4889
  1536.0000      0.0000    639.9144      5.2358    107.6982
  1536.2500      0.0000    660.5671      5.1285    102.2079
  1536.5000      0.0000    673.7365      5.0448     99.3370
  1536.7500      0.0000    684.7021      5.0334     99.9498
  1537.0000      0.0000    699.3471      5.0957    103.6263
  1537.2500      0.0000    720.2942      5.1969    109.5583
  1537.5000      0.0000    745.2653      5.3002    117.2185
  1537.7500      0.0000    767.7847      5.3875    126.0330
  1538.0000      0.0000    779.5641      5.4569    134.6852
  1538.2500      0.0000    774.0401      5.5114    141.5041
  1538.5000      0.0000    750.2759      5.5488    145.9545
  1538.7500      0.0000    715.0107      5.5592    149.2940
  1539.0000      0.0000    679.7995      5.5337    153.2958
  1539.2500      0.0000    654.2673      5.4737    158.5656
  1539.5000      0.0000    641.3994      5.3922    164.4595
  1539.7500      0.0000    638.6023      5.2997    170.2768
  1540.0000      0.0000    642.0484      5.1929    175.9417
  1540.2500      0.0000    649.6303      5.0565    181.5230
  1540.5000      0.0000    660.4008      4.8773    186.2536
  1540.7500      0.0000    672.6204      4.6611    188.1410
  1541.0000      0.0000    684.0313      4.4360    184.9213
  1541.2500      0.0000    694.1274      4.2408    175.7455
  1541.5000      0.0000    704.7072      4.1073    161.9184
  1541.7500      0.0000    717.6734      4.0457    146.1493
  1542.0000      0.0000    732.8394      4.0370    131.3720
  1542.2500      0.0000    747.7379      4.0420    119.6975
  1542.5000      0.0000    758.7534      4.0314    111.4156
  1542.7500      0.0000    762.6316      4.0059    104.9285
  1543.0000      0.0000    758.0331      3.9846     98.5590
  1543.2500      0.0000    746.7396      3.9837     92.6702
  1543.5000      0.0000    733.6395      4.0160     89.3712
  1543.7500      0.0000    725.0495      4.0947     89.9285
  1544.0000      0.0000    726.0488      4.2227     92.9480
  1544.2500      0.0000    738.2838      4.3884     95.3014
  1544.5000      0.0000    759.2961      4.5806     94.6255
  1544.7500      0.0000    783.5806      4.7932     91.0370
  1545.0000      0.0000    805.1367      5.0085     86.8624
  1545.2500      0.0000    820.2024      5.1914     85.0989
  1545.5000      0.0000    828.0453      5.3114     88.0017
  1545.7500      0.0000    829.1616      5.3625     96.2853
  1546.0000      0.0000    822.8346      5.3600    108.7154
  1546.2500      0.0000    806.4522      5.3255    122.4994
  1546.5000      0.0000    777.3157      5.2828    134.9502
  1546.7500      0.0000    735.6285      5.2548    145.0373
  1547.0000      0.0000    686.3979      5.2554    153.0819
  1547.2500      0.0000    638.9039      5.2828    159.2858
  1547.5000      0.0000    603.8304      5.3241    163.1218
  1547.7500      0.0000    588.9284      5.3576    164.0798
  1548.0000      0.0000    594.8925      5.3524    162.4414
  1548.2500      0.0000    614.4668      5.2782    159.0874
  1548.5000      0.0000    636.5075      5.1241    154.8549
  1548.7500      0.0000    651.9535      4.9178    150.4927
  1549.0000      0.0000    657.0001      4.7285    147.0462
  1549.2500      0.0000    652.6010      4.6303    145.6564
  1549.5000      0.0000    642.4726      4.6452    146.7416
  1549.7500     -2.0000    630.2173      4.7279    149.5428
  1550.0000      0.0000    616.1710      4.8089    152.4948
  1550.2500      0.0000    596.8746      4.8507    154.0797
  1550.5000      0.0000    569.3688      4.8716    153.8447
  1550.7500      0.0000    537.6838      4.9201    152.8844
  1551.0000      0.0000    514.9944      5.0184    152.9606
  1551.2500      0.0000    516.8792      5.1344    154.5891
  1551.5000      0.0000    549.7305      5.2182    155.9483
  1551.7500      0.0000    604.3184      5.2542    154.0991
  1552.0000      0.0000    660.4350      5.2643    147.5884
  1552.2500      0.0000    699.0149      5.2758    137.8336
  1552.5000      0.0000    712.7184      5.2978    128.0085
  1552.7500      0.0000    707.9276      5.3191    120.9907
  1553.0000      0.0000    698.3362      5.3231    118.3346
  1553.2500      0.0000    695.8279      5.3035    120.2998
  1553.5000      0.0000    704.3846      5.2682    125.9605
  1553.7500      0.0000    719.4618      5.2286    133.3171
  1554.0000      0.0000    731.8969      5.1934    140.2265
  1554.2500      0.0000    733.3920      5.1715    145.9852
  1554.5000      0.0000    721.3070      5.1712    151.6884
  1554.7500      0.0000    700.7474      5.1920    158.4479
  1555.0000      0.0000    681.3829      5.2255    165.4982
  1555.2500      0.0000    670.1425      5.2678    170.6449
  1555.5000      0.0000    666.8231      5.3240    172.5046
  1555.7500      0.0000    666.9321      5.3912    172.0369
  1556.0000      0.0000    667.1151      5.4407    171.8453
  1556.2500      0.0000    666.7423      5.4384    173.8610
  1556.5000      0.0000    665.9105      5.3806    177.5908
  1556.7500      0.0000    663.9546      5.2964    180.7041
  1557.0000      0.0000    660.5123      5.2106    181.1849
  1557.2500      0.0000    657.6099      5.1223    178.7302
  1557.5000      0.0000    659.4013      5.0328    174.4060
  1557.7500      0.0000    668.4229      4.9713    169.5190
  1558.0000      0.0000    682.4061      4.9694    164.8659
  1558.2500      0.0000    696.0174      5.0125    160.5245
  1558.5000      0.0000    705.3878      5.0440    155.7173
  1558.7500      0.0000    710.1420      5.0261    149.1329
  1559.0000      0.0000    711.9442      4.9777    140.2592
  1559.2500      0.0000    712.4465      4.9421    130.6038
  1559.5000      0.0000    712.5350      4.9348    123.1363
  1559.7500      0.0000    712.5280      4.9402    120.4039
  1560.0000      0.0000    712.3264      4.9519    122.9252
  1560.2500      0.0000    711.0566      4.9959    128.9836
  1560.5000      0.0000    706.2583      5.1000    135.9835
  1560.7500      0.0000    693.6082      5.2407    142.2047
  1561.0000      0.0000    668.7142      5.3419    147.0925
  1561.2500      0.0000    631.0561      5.3446    150.0365
  1561.5000      0.0000    586.6819      5.2686    149.8166
  1561.7500      0.0000    545.6926      5.1877    145.7176
  1562.0000      0.0000    515.9406      5.1473    138.6373
  1562.2500      0.0000    499.1198      5.1287    130.6328
  1562.5000      0.0000    492.3460      5.0929    123.4149
  1562.7500      0.0000    492.0617      5.0306    117.4047
  1563.0000      0.0000    496.0337      4.9584    112.2166
  1563.2500      0.0000    502.7865      4.8932    107.7807
  1563.5000      0.0000    510.5005      4.8430    104.6344
  1563.7500      0.0000    517.0607      4.8122    103.1508
  1564.0000      0.0000    520.9661      4.8078    103.0060
  1564.2500      0.0000    521.9225      4.8351    103.6909
  1564.5000      0.0000    520.7574      4.8804    105.2302
  1564.7500      0.0000    519.0683      4.9036    108.1004
  1565.0000      0.0000    518.5427      4.8649    112.3735
  1565.2500      0.0000    519.9211      4.7708    116.9734
  1565.5000      0.0000    522.5269      4.6805    119.9249
  1565.7500      0.0000    525.0301      4.6552    119.5261
  1566.0000      0.0000    526.5844      4.7039    115.4447
  1566.2500      0.0000    527.1835      4.7839    108.9769
  1566.5000      0.0000    527.3948      4.8461    102.5825
  1566.7500      0.0000    528.2485      4.8775     98.8727
