~Version Information
VERS.                      2.0: CWLS Log ASCII Standard - VERSION 2.0
WRAP.                       NO: One line per depth step
~Well Information Block
STRT.FT               500.0000: 
STOP.FT              2732.5000: 
STEP.FT                 0.2500: 
NULL.                -999.2500: 
COMP.          Pioneer Natural Resources: COMPANY
WELL.          Dude Canyon 22-32: WELL
FLD.           Purgatoire River: FIELD
LOC.           1662' FNL & 2446' FWL----: LOCATION
PROV.                 Colorado: PROVINCE
CNTY.               Las Animas: COUNTRY
SRVC.                Patterson: SERVICE COMPANY
DATE.          Thu Mar 10 07:15:42 2005: LOG DATE
UWI.           05 071 08257 00: UNIQUE WELL ID
~Curve Information Block
DEPT.FT            0 000 00 00: Depth
DIR.Ohm-m                     : IEL Induction Resistivity
GR.GAPI                       : Gamma Ray
SN.Ohm-m                      : IEL Short Normal
SP.mV                         : IEL Spontaneous Potential
~Parameter Information Block
~A  Depth       DIR          GR          SN          SP     
# ...
  2275.5000      9.0368    137.0216      8.7323   -114.5812
  2275.7500      8.9259    135.5501      8.3706   -115.0782
  2276.0000      8.7890    129.4822      8.0857   -115.5458
  2276.2500      8.6622    123.7293      8.0000   -115.9801
  2276.5000      8.5771    114.5650      8.2087   -116.3565
  2276.7500      8.5548    109.1629      8.7424   -116.6230
  2277.0000      8.6061    102.7292      9.5440   -116.7016
  2277.2500      8.7315     99.2502     10.4707   -116.5004
  2277.5000      8.9228     94.8532     11.3330   -115.9347
  2277.7500      9.1665     92.8406     11.9601   -114.9494
  2278.0000      9.4493     92.1608     12.2685   -113.5345
  2278.2500      9.7666     93.2144     12.3167   -111.7245
  2278.5000     10.1278     95.6548     12.3193   -109.5856
  2278.7500     10.5560     96.8995     12.5979   -107.1951
  2279.0000     11.0791     97.2880     13.4652   -104.6244
  2279.2500     11.7179     96.5204     15.0871   -101.9342
  2279.5000     12.4715     94.6692     17.3936    -99.1806
  2279.7500     13.3067     93.9916     20.0966    -96.4288
  2280.0000     14.1564     95.7357     22.8157    -93.7636
  2280.2500     14.9341     99.1793     25.2348    -91.2887
  2280.5000     15.5634    106.5175     27.1915    -89.1149
  2280.7500     16.0116    111.4308     28.6701    -87.3399
  2281.0000     16.3038    117.1420     29.7410    -86.0298
  2281.2500     16.5128    119.7486     30.5063    -85.2085
  2281.5000     16.7321    122.0430     31.0722    -84.8582
  2281.7500     17.0511    122.0284     31.5421    -84.9252
  2282.0000     17.5403    118.2202     32.0132    -85.3270
  2282.2500     18.2444    112.9179     32.5685    -85.9574
  2282.5000     19.1747    102.8743     33.2622    -86.6891
  2282.7500     20.2991     96.8506     34.0972    -87.3797
  2283.0000     21.5318     90.6194     35.0011    -87.8839
  2283.2500     22.7319     87.2314     35.8220    -88.0712
  2283.5000     23.7210     79.6195     36.3674    -87.8462
  2283.7500     24.3263     71.8852     36.4842    -87.1629
  2284.0000     24.4398     58.3049     36.1254    -86.0296
  2284.2500     24.0614     50.1133     35.3359    -84.5035
  2284.5000     23.2878     41.9341     34.1702    -82.6795
  2284.7500     22.2538     40.0265     32.6311    -80.6773
  2285.0000     21.0746     43.1014     30.7001    -78.6292
  2285.2500     19.8261     49.0048     28.4212    -76.6680
  2285.5000     18.5590     62.1151     25.9449    -74.9125
  2285.7500     17.3165     72.1233     23.4895    -73.4537
  2286.0000     16.1411     86.2240     21.2589    -72.3423
  2286.2500     15.0688     93.8427     19.3771    -71.5853
  2286.5000     14.1231    102.0088     17.8703    -71.1515
  2286.7500     13.3131    105.9413     16.6915    -70.9844
  2287.0000     12.6374    111.7973     15.7664    -71.0169
  2287.2500     12.0882    116.6856     15.0325    -71.1805
  2287.5000     11.6550    125.4176     14.4538    -71.4079
  2287.7500     11.3242    131.1910     14.0129    -71.6302
  2288.0000     11.0794    137.5758     13.6961    -71.7734
  2288.2500     10.9033    139.2684     13.4851    -71.7589
  2288.5000     10.7812    137.3250     13.3562    -71.5081
  2288.7500     10.7041    133.5715     13.2822    -70.9517
  2289.0000     10.6675    126.1109     13.2346    -70.0389
  2289.2500     10.6679    120.6738     13.1890    -68.7478
  2289.5000     10.6979    111.6840     13.1310    -67.0928
  2289.7500     10.7448    104.9549     13.0618    -65.1295
  2290.0000     10.7927     95.1487     12.9944    -62.9523
  2290.2500     10.8270     90.2547     12.9421    -60.6829
  2290.5000     10.8374     86.5547     12.9073    -58.4507
  2290.7500     10.8194     85.9879     12.8789    -56.3701
  2291.0000     10.7712     86.5670     12.8351    -54.5223
  2291.2500     10.6917     87.6565     12.7510    -52.9488
  2291.5000     10.5786     90.8607     12.6082    -51.6578
  2291.7500     10.4305     94.2878     12.4028    -50.6386
  2292.0000     10.2499    101.0290     12.1454    -49.8785
  2292.2500     10.0458    106.0499     11.8560    -49.3730
  2292.5000      9.8329    113.2519     11.5591    -49.1276
  2292.7500      9.6283    117.2349     11.2815    -49.1509
  2293.0000      9.4477    121.6137     11.0507    -49.4443
  2293.2500      9.3024    123.7667     10.8896    -49.9949
  2293.5000      9.1988    126.2211     10.8073    -50.7738
  2293.7500      9.1384    126.9018     10.7932    -51.7405
  2294.0000      9.1180    125.4546     10.8201    -52.8493
  2294.2500      9.1316    123.0195     10.8563    -54.0552
  2294.5000      9.1705    118.6699     10.8791    -55.3158
  2294.7500      9.2258    115.9740     10.8809    -56.5922
  2295.0000      9.2892    112.5076     10.8677    -57.8481
  2295.2500      9.3544    110.7826     10.8498    -59.0515
  2295.5000      9.4180    110.1281     10.8354    -60.1766
  2295.7500      9.4795    111.5578     10.8272    -61.2067
  2296.0000      9.5416    115.8617     10.8256    -62.1349
  2296.2500      9.6088    118.4571     10.8310    -62.9631
  2296.5000      9.6851    118.1662     10.8450    -63.7011
  2296.7500      9.7721    114.0975     10.8676    -64.3657
  2297.0000      9.8674    104.0107     10.8968    -64.9817
  2297.2500      9.9673     97.2417     10.9313    -65.5816
  2297.5000     10.0677     91.3184     10.9730    -66.2029
  2297.7500     10.1648     91.2669     11.0268    -66.8818
  2298.0000     10.2541     95.9782     11.0965    -67.6444
  2298.2500     10.3293    100.8986     11.1817    -68.5001
  2298.5000     10.3844    108.9702     11.2781    -69.4385
  2298.7500     10.4182    113.9255     11.3815    -70.4307
  2299.0000     10.4370    119.0214     11.4947    -71.4335
  2299.2500     10.4552    120.2457     11.6317    -72.3930
  2299.5000     10.4930    119.7491     11.8133    -73.2495
  2299.7500     10.5721    119.1534     12.0558    -73.9413
  2300.0000     10.7126    119.2270     12.3603    -74.4116
  2300.2500     10.9289    119.7557     12.7072    -74.6149
  2300.5000     11.2276    120.3741     13.0542    -74.5212
  2300.7500     11.6055    120.4950     13.3443    -74.1152
  2301.0000     12.0509    120.4912     13.5328    -73.3904
  2301.2500     12.5480    120.1152     13.6291    -72.3426
  2301.5000     13.0835    117.1895     13.7303    -70.9668
  2301.7500     13.6499    112.6622     14.0101    -69.2636
  2302.0000     14.2431    102.6467     14.6461    -67.2509
  2302.2500     14.8542     95.5938     15.7134    -64.9753
  2302.5000     15.4610     87.7059     17.1151    -62.5160
  2302.7500     16.0251     85.3677     18.6127    -59.9765
  2303.0000     16.4977     86.8198     19.9456    -57.4683
  2303.2500     16.8321     90.7382     20.9541    -55.0906
  2303.5000     16.9985     99.2553     21.6198    -52.9171
  2303.7500     16.9959    105.3615     22.0230    -50.9909
  2304.0000     16.8583    113.4063     22.2745    -49.3290
  2304.2500     16.6501    117.3085     22.4704    -47.9311
  2304.5000     16.4504    119.7800     22.6762    -46.7884
  2304.7500     16.3316    118.7498     22.9304    -45.8885
  2305.0000     16.3446    113.8351     23.2572    -45.2169
  2305.2500     16.5159    109.4408     23.6816    -44.7565
  2305.5000     16.8537    103.3571     24.2388    -44.4848
  2305.7500     17.3562    100.5320     24.9762    -44.3711
  2306.0000     18.0170     98.7392     25.9451    -44.3737
  2306.2500     18.8262     99.1195     27.1908    -44.4378
  2306.5000     19.7721    101.2828     28.7450    -44.4976
  2306.7500     20.8451    102.6911     30.6257    -44.4802
  2307.0000     22.0434    101.9976     32.8432    -44.3157
  2307.2500     23.3727     98.5502     35.4051    -43.9468
  2307.5000     24.8373    104.6797     38.3047    -43.3385
  2307.7500     26.4217     97.1041     41.4873    -42.4851
  2308.0000     28.0766     87.9914     44.8249    -41.4124
  2308.2500     29.7172     83.9253     48.1400    -40.1764
  2308.5000     31.2416     91.1543     51.2746    -38.8571
  2308.7500     32.5599     88.7102     54.1434    -37.5471
