~Version Information
VERS.                      2.0: CWLS Log ASCII Standard - VERSION 2.0
WRAP.                       NO: One line per depth step
~Well Information Block
STRT.FT               554.1000: 
STOP.FT              2173.5000: 
STEP.FT                 0.1000: 
NULL.                -999.2500: 
COMP.          Petrogulf Corporation: COMPANY
WELL.            Montoya 6-14R: WELL
FLD.           Purgatorie River: FIELD
LOC.           867' FSL & 751' FWL: LOCATION
CNTY.               Las Animas: COUNTY
SRVC.                         : SERVICE COMPANY
DATE.          Mon Nov 15 06:14:10 2004: LOG DATE
UWI.           05 071 08242 00: UNIQUE WELL ID
STAT.                 Colorado: STATE
~Curve Information Block
DEPT.FT            0 000 00 00: Depth
DCAL.in                       : CDL Caliper
RHOB.g/cc                     : CDL Bulk Density
RHOC.g/cc                     : CDL Density Correction
DPOR.pu                       : CDL Density Porosity
GR.GAPI                       : Gamma Ray
NPOR.pu                       : Neutron Porosity
~Parameter Information Block
~A  Depth       DCAL        RHOB        RHOC        DPOR         GR         NPOR    
# ...
  2051.7000      7.8821      2.5226      0.0600      7.7213     69.4217     20.2114
  2051.8000      7.8933      2.5370      0.0885      6.8480     68.0642     20.1762
  2051.9000      7.8933      2.5431      0.1121      6.4811     68.2512     19.7631
  2052.0000      7.8701      2.5356      0.0750      6.9345     69.4147     19.1832
  2052.1000      7.8701      2.5250      0.1120      7.5784     67.8453     18.8546
  2052.2000      7.8701      2.5194      0.1012      7.9131     64.3171     19.0292
  2052.3000      7.8446      2.5230      0.0670      7.6962     65.6243     19.1970
  2052.4000      7.8446      2.5419      0.0767      6.5493     74.2001     19.2520
  2052.5000      7.8357      2.5853      0.0530      3.9195     83.0821     19.7677
  2052.6000      7.8357      2.6472      0.1516      0.1724     85.2561     20.8209
  2052.7000      7.8357      2.6968      0.2095     -2.8381     83.9508     21.8475
  2052.8000      7.8403      2.7143      0.1868     -3.8968     86.4824     22.5451
  2052.9000      7.8403      2.7048      0.1917     -3.3214     92.5881     23.1177
  2053.0000      7.8526      2.6829      0.1484     -1.9911    100.3973     23.9676
  2053.1000      7.8526      2.6593      0.1606     -0.5647    109.7643     25.0499
  2053.2000      7.8526      2.6392      0.0730      0.6527    117.0634     25.8328
  2053.3000      7.8657      2.6294      0.0923      1.2462    122.6864     26.2496
  2053.4000      7.8657      2.6279      0.0529      1.3413    127.4784     26.6383
  2053.5000      7.8728      2.6195      0.0987      1.8483    126.8757     27.0608
  2053.6000      7.8728      2.5980      0.0783      3.1531    123.0586     27.3805
  2053.7000      7.8728      2.5760      0.0928      4.4851    124.8242     27.5962
  2053.8000      7.8757      2.5642      0.0974      5.1998    135.2752     27.7397
  2053.9000      7.8757      2.5582      0.1019      5.5613    146.8089     27.8943
  2054.0000      7.8905      2.5489      0.1006      6.1266    150.5842     28.0762
  2054.1000      7.8905      2.5350      0.0912      6.9688    148.6244     28.2184
  2054.2000      7.8905      2.5298      0.0329      7.2855    146.5346     28.0163
  2054.3000      7.8884      2.5458      0.1142      6.3180    143.1480     27.2727
  2054.4000      7.8884      2.5727      0.1365      4.6851    137.8000     26.4944
  2054.5000      7.8524      2.5923      0.1668      3.4990    137.1408     26.4427
  2054.6000      7.8524      2.5994      0.1591      3.0695    139.6192     27.0623
  2054.7000      7.8524      2.5998      0.1622      3.0454    135.2371     27.5644
  2054.8000      7.8328      2.5986      0.1692      3.1125    128.0825     27.1802
  2054.9000      7.8328      2.5985      0.1649      3.1200    127.6720     25.9471
  2055.0000      7.8385      2.6029      0.1327      2.8564    132.6195     24.6860
  2055.1000      7.8385      2.6103      0.1416      2.4047    135.8990     23.8697
  2055.2000      7.8385      2.6158      0.1214      2.0722    134.5659     23.2601
  2055.3000      7.8493      2.6212      0.1090      1.7438    129.6689     22.7975
  2055.4000      7.8493      2.6267      0.1279      1.4138    124.7486     22.8811
  2055.5000      7.8714      2.6245      0.1267      1.5433    124.7587     23.6452
  2055.6000      7.8714      2.6089      0.1074      2.4889    128.0105     24.6634
  2055.7000      7.8714      2.5820      0.0862      4.1229    128.4612     25.3071
  2055.8000      7.8886      2.5518      0.0897      5.9506    126.0450     25.3753
  2055.9000      7.8886      2.5305      0.0490      7.2448    124.4982     24.9067
  2056.0000      7.8838      2.5242      0.0505      7.6216    125.6086     24.1455
  2056.1000      7.8838      2.5270      0.0636      7.4544    127.7269     23.8953
  2056.2000      7.8838      2.5375      0.0402      6.8158    127.4029     24.2755
  2056.3000      7.8681      2.5645      0.0623      5.1847    123.5551     24.2659
  2056.4000      7.8681      2.6000      0.1174      3.0312    119.3022     23.7075
  2056.5000      7.8605      2.6242      0.0946      1.5652    116.7560     23.5382
  2056.6000      7.8605      2.6337      0.1072      0.9861    114.9832     23.9120
  2056.7000      7.8605      2.6328      0.1069      1.0435    113.9322     24.0257
  2056.8000      7.8604      2.6231      0.1080      1.6285    112.6258     23.7808
  2056.9000      7.8604      2.6117      0.1121      2.3234    109.7905     23.3620
  2057.0000      7.8676      2.6025      0.1234      2.8817    107.9763     22.6904
  2057.1000      7.8676      2.5894      0.1235      3.6707    107.8937     22.1045
  2057.2000      7.8676      2.5653      0.0938      5.1361    108.9231     22.0978
  2057.3000      7.8816      2.5315      0.0606      7.1838    112.1994     22.6503
  2057.4000      7.8816      2.4960      0.0358      9.3313    114.9082     23.1310
  2057.5000      7.8889      2.4668      0.0065     11.1002    116.7708     23.0577
  2057.6000      7.8889      2.4481      0.0296     12.2389    120.4079     22.4923
  2057.7000      7.8889      2.4413      0.0348     12.6507    123.7809     21.5211
  2057.8000      7.8827      2.4539      0.0292     11.8832    124.7967     20.7838
  2057.9000      7.8827      2.4902      0.0741      9.6834    124.3762     21.0894
  2058.0000      7.8708      2.5426      0.0908      6.5113    122.9387     21.7259
  2058.1000      7.8708      2.6048      0.1500      2.7388    118.5275     21.5459
  2058.2000      7.8708      2.6708      0.2028     -1.2606    113.2493     21.1665
  2058.3000      7.8602      2.7258      0.2427     -4.5917    111.0272     21.6341
  2058.4000      7.8602      2.7490      0.2598     -6.0011    108.0912     22.1764
  2058.5000      7.8552      2.7316      0.2357     -4.9446    102.4758     21.4609
  2058.6000      7.8552      2.6942      0.1368     -2.6804     98.6590     19.7661
  2058.7000      7.8552      2.6669      0.1121     -1.0234     98.6253     18.1359
  2058.8000      7.8622      2.6544      0.0848     -0.2685     99.7126     17.0199
  2058.9000      7.8622      2.6479      0.0736      0.1289     97.9602     16.6424
  2059.0000      7.8735      2.6414      0.0913      0.5204     92.6361     16.9999
  2059.1000      7.8735      2.6324      0.0633      1.0673     87.5965     17.8119
  2059.2000      7.8735      2.6154      0.0947      2.0993     84.3251     18.8341
  2059.3000      7.8767      2.5900      0.0467      3.6387     81.4192     19.3921
  2059.4000      7.8767      2.5752      0.0287      4.5348     79.4525     19.1751
  2059.5000      7.8745      2.5809      0.0462      4.1889     78.4105     18.7142
  2059.6000      7.8745      2.5876      0.0576      3.7819     77.2586     18.0008
  2059.7000      7.8745      2.5787      0.0473      4.3238     79.1881     17.4219
  2059.8000      7.8605      2.5641      0.0280      5.2085     85.7991     17.9290
  2059.9000      7.8605      2.5631      0.0219      5.2663     93.9660     19.4596
  2060.0000      7.8480      2.5768      0.0489      4.4338    101.6488     21.0150
  2060.1000      7.8480      2.5838      0.0801      4.0097    108.7328     21.9269
  2060.2000      7.8480      2.5653      0.0802      5.1307    114.2562     22.8340
  2060.3000      7.8720      2.5235      0.0532      7.6683    116.3816     24.1189
  2060.4000      7.8720      2.4725      0.0321     10.7574    119.6571     24.7097
  2060.5000      7.9430      2.4290      0.0081     13.3916    130.3313     24.2683
  2060.6000      7.9430      2.4056      0.0069     14.8121    141.4762     24.3187
  2060.7000      7.9430      2.4059      0.0060     14.7920    143.8611     25.4918
  2060.8000      7.9849      2.4292      0.0544     13.3839    143.5382     26.7470
  2060.9000      7.9849      2.4690      0.1112     10.9700    149.3797     27.5119
  2061.0000      7.9463      2.5096      0.1488      8.5077    157.7409     27.9229
  2061.1000      7.9463      2.5380      0.1457      6.7863    162.5348     28.2189
  2061.2000      7.9463      2.5552      0.1667      5.7461    162.4597     28.4211
