~Version Information
VERS.                      2.0: CWLS Log ASCII Standard - VERSION 2.0
WRAP.                       NO: One line per depth step
~Well Information Block
STRT.FT               250.0000: 
STOP.FT              1687.7000: 
STEP.FT                 0.1000: 
NULL.                -999.2500: 
COMP.          Pioneer Natural Resources: COMPANY
WELL.          Moneypenny 31-36: WELL
FLD.           Purgatoire River: FIELD
LOC.           280' FNL & 1976' FEL: LOCATION
PROV.                 Colorado: PROVINCE
CNTY.               Las Animas: COUNTRY
SRVC.                Patterson: SERVICE COMPANY
DATE.          Fri Oct 01 13:54:40 2004: LOG DATE
UWI.           05 071 08183 00: UNIQUE WELL ID
~Curve Information Block
DEPT.FT            0 000 00 00: Depth
DCAL.in                       : CDL Caliper
RHOB.g/cc                     : CDL Bulk Density
RHOC.g/cc                     : CDL Density Correction
DPOR.pu                       : CDL Density Porosity
NPOR.pu                       : Neutron Porosity
GR.GAPI                       : Gamma Ray
~Parameter Information Block
~A  Depth       DCAL        RHOB        RHOC        DPOR        NPOR         GR     
   250.0000      2.1749      1.8889      0.2848     46.1296     43.6388     77.8816
   250.1000      2.1749      1.8983      0.2689     45.5593     43.3464     76.8859
   250.2000      2.1749      1.8995      0.2951     45.4865     42.9466     73.6795
   250.3000      2.1761      1.8878      0.2824     46.1953     42.7866     69.1770
   250.4000      2.1761      1.8706      0.2607     47.2336     42.7195     67.8626
   250.5000      2.1670      1.8618      0.2413     47.7681     42.3269     70.5320
   250.6000      2.1670      1.8636      0.2644     47.6603     41.7221     72.7532
   250.7000      2.1670      1.8664      0.2474     47.4893     41.3069     73.8861
   250.8000      2.1562      1.8660      0.2574     47.5181     41.1300     75.9429
   250.9000      2.1562      1.8663      0.2569     47.4959     41.1153     78.5879
   251.0000      2.1675      1.8731      0.2509     47.0844     41.2628     80.5026
   251.1000      2.1675      1.8864      0.2867     46.2806     41.5079     79.8098
   251.2000      2.1675      1.9013      0.2636     45.3784     41.7130     75.9541
   251.3000      2.1770      1.9105      0.3109     44.8205     41.7416     72.3470
   251.4000      2.1770      1.9079      0.2852     44.9748     41.5928     70.6435
   251.5000      2.1719      1.8984      0.2750     45.5500     41.3987     68.7434
   251.6000      2.1719      1.8898      0.2658     46.0708     41.3105     66.9217
   251.7000      2.1719      1.8839      0.2686     46.4322     41.4123     66.5056
   251.8000      2.1645      1.8809      0.2687     46.6092     41.5777     65.5869
   251.9000      2.1645      1.8804      0.2765     46.6443     41.5325     63.4843
   252.0000      2.1660      1.8779      0.2779     46.7919     41.1649     62.0658
   252.1000      2.1660      1.8729      0.2776     47.0942     40.6767     61.3389
   252.2000      2.1660      1.8717      0.2581     47.1668     40.5356     61.7271
   252.3000      2.1726      1.8772      0.2903     46.8338     40.9602     63.8930
   252.4000      2.1726      1.8838      0.2789     46.4353     41.6131     65.0843
   252.5000      2.1767      1.8876      0.2894     46.2080     42.1022     64.1810
   252.6000      2.1767      1.8869      0.2913     46.2460     42.3005     66.0635
   252.7000      2.1767      1.8812      0.2877     46.5922     42.3484     72.4745
   252.8000      2.1757      1.8737      0.2861     47.0474     42.4114     76.6892
   252.9000      2.1757      1.8664      0.2856     47.4926     42.5071     76.0144
   253.0000      2.1748      1.8586      0.2702     47.9609     42.7563     74.2044
   253.1000      2.1748      1.8513      0.2635     48.4065     43.1825     70.3075
   253.2000      2.1748      1.8434      0.2680     48.8844     43.4767     63.8872
   253.3000      2.1742      1.8363      0.2476     49.3121     43.4466     61.1731
   253.4000      2.1742      1.8359      0.2606     49.3384     43.3177     62.9930
   253.5000      2.1756      1.8406      0.2799     49.0562     43.3218     63.7203
   253.6000      2.1756      1.8435      0.2833     48.8776     43.5292     63.6838
   253.7000      2.1756      1.8434      0.2788     48.8845     44.0501     67.2944
   253.8000      2.1807      1.8442      0.2699     48.8391     44.6416     72.1242
   253.9000      2.1807      1.8488      0.2847     48.5582     44.7722     72.6275
   254.0000      2.1823      1.8540      0.2916     48.2438     44.5293     69.8598
   254.1000      2.1823      1.8542      0.2974     48.2275     44.3842     67.8012
   254.2000      2.1823      1.8501      0.2801     48.4817     44.2720     69.2056
   254.3000      2.1773      1.8465      0.2858     48.6942     44.0493     74.3732
   254.4000      2.1773      1.8483      0.2760     48.5875     43.9213     79.3712
   254.5000      2.1743      1.8571      0.2914     48.0562     43.8690     81.9387
   254.6000      2.1743      1.8675      0.3020     47.4227     43.8364     83.1192
   254.7000      2.1743      1.8756      0.2748     46.9359     43.9857     83.9746
   254.8000      2.1754      1.8838      0.2993     46.4390     44.2813     84.9702
   254.9000      2.1754      1.8908      0.2931     46.0121     44.4143     85.9184
   255.0000      2.1760      1.8928      0.3046     45.8880     44.2835     86.6188
   255.1000      2.1760      1.8909      0.2870     46.0074     44.2652     85.5526
   255.2000      2.1760      1.8890      0.2981     46.1195     44.5923     83.4463
   255.3000      2.1782      1.8884      0.2836     46.1589     44.7993     83.9225
   255.4000      2.1782      1.8860      0.2906     46.3021     44.4671     87.8586
   255.5000      2.1827      1.8817      0.2842     46.5638     43.7682     92.2632
   255.6000      2.1827      1.8783      0.2877     46.7701     43.0488     93.3879
   255.7000      2.1827      1.8700      0.2942     47.2701     42.3039     92.4685
   255.8000      2.1902      1.8477      0.2747     48.6265     41.4150     92.3166
   255.9000      2.1902      1.8139      0.2588     50.6754     40.4608     91.5616
   256.0000      2.3563      1.7733      0.2596     53.1348     39.3551     89.2054
   256.1000      2.3563      1.7149      0.2698     56.6744     37.8306     88.6454
   256.2000      2.3563      1.6267      0.2171     62.0167     35.8784     90.7009
   256.3000      4.2646      1.5362      0.1665     67.5047     33.5848     93.5181
   256.4000      4.2646      1.5269      0.1435     68.0688     31.3149     98.4715
   256.5000     11.6964      1.6806      0.2163     58.7524     29.6213    104.4998
   256.6000     11.6964      1.9586      0.5144     41.9008     28.3874    108.1683
   256.7000     11.6964      2.2251      0.6755     25.7499     27.0893    109.7530
   256.8000     19.1284      2.4129      0.7819     14.3704     25.5905    112.7647
   256.9000     19.1284      2.5300      0.8528      7.2752     24.5724    116.9787
   257.0000     15.8091      2.5747      0.8759      4.5656     24.5524    117.7250
   257.1000     15.8091      2.5504      0.7866      6.0346     24.8421    116.9609
   257.2000     15.8091      2.5101      0.4809      8.4779     24.8822    119.6746
   257.3000     10.5121      2.5143      0.5013      8.2241     24.7379    121.2020
   257.4000     10.5121      2.5601      0.5013      5.4483     24.3235    115.9331
   257.5000      9.2715      2.6141      0.4764      2.1777     23.8013    110.8248
   257.6000      9.2715      2.6636      0.4761     -0.8237     23.4543    114.4348
   257.7000      9.2715      2.6978      0.4900     -2.8961     23.1966    121.5391
   257.8000      9.3311      2.6969      0.4490     -2.8453     22.7948    123.0906
   257.9000      9.3311      2.6588      0.3683     -0.5320     22.2614    122.2589
   258.0000      9.4533      2.5985      0.3119      3.1207     21.9742    126.2572
   258.1000      9.4533      2.5290      0.2420      7.3348     21.9455    131.8918
   258.2000      9.4533      2.4582      0.1900     11.6264     21.9092    132.1765
   258.3000      9.5297      2.3902      0.1421     15.7449     21.7461    126.9830
   258.4000      9.5297      2.3249      0.1002     19.7024     21.3649    120.1622
   258.5000      9.5589      2.2795     -0.0023     22.4558     21.0219    114.9489
   258.6000      9.5589      2.2871      0.0442     21.9923     21.0207    113.2183
   258.7000      9.5589      2.3476      0.1421     18.3246     21.2328    112.9827
   258.8000      9.5641      2.4247      0.1928     13.6569     21.3277    111.3375
   258.9000      9.5641      2.4922      0.2401      9.5653     21.2039    108.4137
   259.0000      9.5638      2.5463      0.2622      6.2830     21.1245    106.0645
   259.1000      9.5638      2.5835      0.3152      4.0291     21.3322    107.8636
   259.2000      9.5638      2.6020      0.2651      2.9084     21.5052    112.9376
   259.3000      9.5618      2.6133      0.2528      2.2255     21.3023    116.8647
   259.4000      9.5618      2.6080      0.2680      2.5480     21.0306    120.6643
   259.5000      9.5469      2.5536      0.2392      5.8420     21.0076    123.7188
