~Version Information
VERS.                      2.0: CWLS Log ASCII Standard - VERSION 2.0
WRAP.                       NO: One line per depth step
~Well Information Block
STRT.FT               -11.2500: 
STOP.FT              1597.0000: 
STEP.FT                 0.2500: 
NULL.                -999.2500: 
COMP.          Petrogulf Corporation: COMPANY
WELL.          Great Plains 22-21R: WELL
FLD.           Purgatorie River: FIELD
LOC.           73' FNL & 1992' FWL--: LOCATION
PROV.                       CO: PROVINCE
CNTY.               Las Animas: COUNTRY
SRVC.          Patterson Wireline: SERVICE COMPANY
DATE.          Fri Sep 09 09:02:35 2005: LOG DATE
UWI.           05 071 08343 00: UNIQUE WELL ID
~Curve Information Block
DEPT.FT            0 000 00 00: Depth
CCL.                          : Casing Collar Locator
TT3.usec                      : CBL 3' Travel Time
AMP3.mV                       : CBL 3' Amplitude
GR.GAPI                       : Gamma Ray
~Parameter Information Block
~A  Depth       CCL         TT3         AMP3         GR     
# ...
   189.7500      0.0000    447.0544     20.4791     47.9864
   190.0000      0.0000    398.0327     20.5770     44.9209
   190.2500      0.0000    377.2062     20.6177     43.4125
   190.5000      0.0000    370.0008     20.6387     43.0191
   190.7500      0.0000    367.1997     20.6744     43.7969
   191.0000      0.0000    365.0424     20.7596     46.2530
   191.2500      0.0000    362.5638     20.9244     50.6174
   191.5000      0.0000    359.5134     21.1857     56.3249
   191.7500      0.0000    355.5854     21.5466     62.4384
   192.0000      0.0000    350.7332     21.9948     68.6133
   192.2500      0.0000    345.3034     22.4936     75.3334
   192.5000      0.0000    339.5284     22.9868     82.8784
   192.7500      0.0000    333.1614     23.4324     90.2957
   193.0000      0.0000    326.0117     23.8304     95.9046
   193.2500      0.0000    318.6953     24.2041     98.7117
   193.5000      0.0000    312.4919     24.5565     98.8771
   193.7500      0.0000    308.4527     24.8532     97.0804
   194.0000      0.0000    306.8759     25.0474     94.2393
   194.2500      0.0000    307.5581     25.1155     91.8141
   194.5000      0.0000    310.1577     25.0720     91.5187
   194.7500      0.0000    314.2242     24.9568     94.1744
   195.0000      0.0000    319.1635     24.8076     99.0302
   195.2500      0.0000    324.3760     24.6378    104.3657
   195.5000      0.0000    329.3162     24.4400    108.4777
   195.7500      0.0000    333.4356     24.2103    110.0101
   196.0000      0.0000    336.3320     23.9607    108.0561
   196.2500      0.0000    338.0075     23.7058    102.6590
   196.5000      0.0000    338.8375     23.4446     95.1000
   196.7500      0.0000    339.2672     23.1664     87.1868
   197.0000      0.0000    339.5787     22.8719     80.1220
   197.2500      0.0000    339.8633     22.5858     74.1971
   197.5000      0.0000    340.0983     22.3465     69.3541
   197.7500      0.0000    340.2310     22.1848     65.5343
   198.0000      0.0000    340.2532     22.1101     62.6001
   198.2500      0.0000    340.2176     22.1138     60.5148
   198.5000      0.0000    340.1904     22.1878     59.7104
   198.7500      0.0000    340.1867     22.3372     60.8536
   199.0000      0.0000    340.1642     22.5666     64.0284
   199.2500      0.0000    340.0750     22.8498     68.2490
   199.5000      0.0000    339.8836     23.1266     71.8852
   199.7500      0.0000    339.4796     23.3414     73.6657
   200.0000      0.0000    338.5102     23.4895     73.4575
   200.2500      0.0000    336.3402     23.6154     72.1580
   200.5000      0.0000    332.4169     23.7657     70.8064
   200.7500      0.0000    326.9913     23.9464     69.6919
   201.0000      0.0000    321.4251     24.1221     68.2975
   201.2500      0.0000    317.3184     24.2453     66.1793
   201.5000      0.0000    315.0831     24.2924     63.7217
   201.7500      0.0000    313.6713     24.2775     61.6671
   202.0000      0.0000    311.8861     24.2287     60.1673
   202.2500      0.0000    309.6129     24.1526     58.8662
   202.5000      0.0000    307.6151     24.0331     57.7129
   202.7500      0.0000    306.6234     23.8613     57.0263
   203.0000      0.0000    307.0358     23.6555     56.7674
   203.2500      0.0000    309.2267     23.4465     56.3291
   203.5000      0.0000    313.5788     23.2545     55.1986
   203.7500      0.0000    319.9237     23.0804     53.4113
   204.0000      0.0000    327.1042     22.9158     51.1660
   204.2500      0.0000    333.4532     22.7551     48.4912
   204.5000      0.0000    337.8538     22.6004     45.6838
   204.7500      0.0000    340.2755     22.4599     43.7972
   205.0000      0.0000    341.3807     22.3417     44.1800
   205.2500      0.0000    341.8571     22.2440     47.2130
   205.5000      0.0000    342.1133     22.1508     51.4362
   205.7500      0.0000    342.3654     22.0376     54.2622
   206.0000      0.0000    342.8560     21.8851     54.0043
   206.2500      0.0000    344.0995     21.6887     51.2980
   206.5000      0.0000    346.9947     21.4569     48.4342
   206.7500      0.0000    352.9553     21.2049     47.4015
   207.0000      0.0000    364.1390     20.9504     48.6225
   207.2500      0.0000    383.9189     20.7094     51.2973
   207.5000      0.0000    415.8231     20.4918     54.5683
   207.7500      0.0000    458.7481     20.2889     58.2870
   208.0000      0.0000    502.7613     20.0450     62.7439
   208.2500      0.0000    535.8266     19.6324     67.7222
   208.5000      0.0000    559.3980     18.8900     72.0199
   208.7500      0.0000    592.2369     17.7519     74.1183
   209.0000      0.0000    653.3347     16.3689     73.3736
   209.2500      0.0000    743.9033     15.0715     70.6272
   209.5000      0.0000    847.0699     14.1706     67.7121
   209.7500      0.0000    938.0688     13.7706     66.1530
   210.0000      0.0000    993.6023     13.7549     66.0992
   210.2500      0.0000   1000.5880     13.9261     66.5925
   210.5000      0.0000    964.2407     14.1469     66.9615
   210.7500      0.0000    907.1940     14.3734     67.6739
   211.0000      0.0000    855.8373     14.6045     69.5885
   211.2500      0.0000    822.7316     14.8402     72.6270
   211.5000      0.0000    799.2634     15.1067     75.5242
   211.7500      0.0000    765.5792     15.5032     76.8992
   212.0000      0.0000    709.1603     16.1642     76.2624
   212.2500      0.0000    633.9794     17.1166     74.1807
   212.5000      0.0000    553.9828     18.1868     71.9732
   212.7500      0.0000    482.7367     19.1069     70.9556
   213.0000      0.0000    429.3190     19.7157     71.2821
   213.2500      0.0000    398.6937     20.0356     71.6343
   213.5000      0.0000    394.4445     20.1830     70.5441
   213.7500      0.0000    422.6591     20.2511     67.9385
   214.0000      0.0000    490.9935     20.2728     65.2561
   214.2500      0.0000    599.2128     20.2520     64.3395
   214.5000      0.0000    730.4421     20.1997     66.3017
   214.7500      0.0000    854.2524     20.1405     70.9996
   215.0000      0.0000    938.8286     20.0969     77.1469
   215.2500      0.0000    960.8596     20.0786     82.8529
   215.5000      0.0000    911.2543     20.0828     86.3903
   215.7500      0.0000    800.9391     20.1002     87.0389
   216.0000      0.0000    661.7773     20.1216     85.6153
   216.2500      0.0000    533.1815     20.1436     84.0629
   216.5000      0.0000    441.1653     20.1690     84.0260
   216.7500      0.0000    388.9113     20.2018     85.7262
   217.0000      0.0000    364.6031     20.2422     88.3506
   217.2500      0.0000    354.3145     20.2874     91.0622
   217.5000      0.0000    349.0509     20.3353     93.0922
   217.7500      0.0000    345.2122     20.3875     93.3596
   218.0000      0.0000    342.2312     20.4477     90.9622
   218.2500      0.0000    340.2684     20.5193     86.1556
   218.5000      0.0000    339.1811     20.6007     80.4660
   218.7500      0.0000    338.6122     20.6839     75.8064
   219.0000      0.0000    338.2701     20.7551     73.5530
   219.2500      0.0000    338.0328     20.7997     74.2537
   219.5000      0.0000    337.8867     20.8093     77.8373
   219.7500      0.0000    337.8405     20.7850     83.7599
   220.0000      0.0000    337.8871     20.7340     90.8388
   220.2500      0.0000    338.0186     20.6639     97.2261
   220.5000      0.0000    338.2455     20.5806    101.0086
   220.7500      0.0000    338.5929     20.4915    101.0844
   221.0000      0.0000    339.0799     20.4062     97.7500
   221.2500      0.0000    339.7267     20.3333     92.8267
   221.5000      0.0000    340.6408     20.2782     88.9760
   221.7500      0.0000    342.1901     20.2425     88.0410
   222.0000      0.0000    345.0888     20.2233     89.8110
   222.2500      0.0000    350.0702     20.2137     92.6154
   222.5000      0.0000    357.1415     20.2056     94.7318
   222.7500      0.0000    365.1351     20.1945     94.9619
   223.0000      0.0000    372.2750     20.1815     92.7889
