~Version Information
VERS.                      2.0: CWLS Log ASCII Standard - VERSION 2.0
WRAP.                       NO: One line per depth step
~Well Information Block
STRT.FT               -10.0000: 
STOP.FT              2544.2500: 
STEP.FT                 0.2500: 
NULL.                -999.2500: 
COMP.          Pioneer Natural Resources: COMPANY
WELL.            Cortina 23-25: WELL
FLD.           Purgatorie River: FIELD
LOC.           2344' FWL  & 2526' FSL------: LOCATION
PROV.                       CO: PROVINCE
CNTY.               Las Animas: COUNTRY
SRVC.          Patterson Wireline: SERVICE COMPANY
DATE.          Fri Apr 01 11:50:55 2005: LOG DATE
UWI.           05 071 08340 00: UNIQUE WELL ID
~Curve Information Block
DEPT.FT            0 000 00 00: Depth
CCL.                          : Casing Collar Locator
TT3.usec                      : CBL 3' Travel Time
AMP3.mV                       : CBL 3' Amplitude
GR.GAPI                       : Gamma Ray
~Parameter Information Block
~A  Depth       CCL         TT3         AMP3         GR     
# ...
  1497.5000      0.0000    815.3611      9.1979    153.3180
  1497.7500      0.0000    812.4492      9.0313    156.1299
  1498.0000      0.0000    807.2693      8.8672    154.5643
  1498.2500      0.0000    799.5378      8.7855    148.7032
  1498.5000      0.0000    790.0145      8.8638    140.3695
  1498.7500      0.0000    780.3987      9.0967    132.3115
  1499.0000      0.0000    772.6776      9.3728    126.3059
  1499.2500      0.0000    768.3242      9.5422    122.0252
  1499.5000      0.0000    767.6284      9.5011    118.0251
  1499.7500      0.0000    769.6816      9.2286    113.7109
  1500.0000      0.0000    773.2699      8.7831    110.0415
  1500.2500      0.0000    777.7743      8.2838    108.5077
  1500.5000      0.0000    782.9385      7.8658    109.9075
  1500.7500      0.0000    787.8074      7.6185    113.9768
  1501.0000      0.0000    790.3456      7.5587    119.5578
  1501.2500      0.0000    788.7079      7.6696    124.9646
  1501.5000      0.0000    783.1288      7.9431    128.7250
  1501.7500      0.0000    776.2748      8.3572    130.4050
  1502.0000      0.0000    771.3823      8.8266    130.6841
  1502.2500      0.0000    769.9370      9.2219    130.7591
  1502.5000      0.0000    771.0974      9.4514    131.9993
  1502.7500      0.0000    772.9873      9.5080    135.7298
  1503.0000      0.0000    774.1188      9.4349    142.3026
  1503.2500      0.0000    773.6468      9.2733    150.0639
  1503.5000      0.0000    770.9069      9.0684    156.0179
  1503.7500      0.0000    765.3774      8.8966    158.1222
  1504.0000      0.0000    757.3426      8.8326    156.7251
  1504.2500      0.0000    748.3599      8.8764    153.6646
  1504.5000      0.0000    740.6053      8.9547    150.5873
  1504.7500      0.0000    735.5250      9.0077    148.2337
  1505.0000      0.0000    733.1211      9.0310    146.5232
  1505.2500      0.0000    732.4149      9.0239    145.0216
  1505.5000      0.0000    732.3422      8.9623    143.8129
  1505.7500      0.0000    732.2707      8.8585    143.8484
  1506.0000      0.0000    732.0105      8.7986    145.9586
  1506.2500      0.0000    731.6182      8.8652    149.6992
  1506.5000      0.0000    731.3086      9.0414    153.4776
  1506.7500      0.0000    731.5639      9.2373    155.6233
  1507.0000      0.0000    733.1933      9.4028    155.3400
  1507.2500      0.0000    736.8843      9.5662    153.1030
  1507.5000      0.0000    742.4350      9.7520    150.3529
  1507.7500      0.0000    748.6320      9.9155    148.4286
  1508.0000      0.0000    754.3290      9.9903    147.4882
  1508.2500      0.0000    759.3754      9.9698    146.5575
  1508.5000      0.0000    764.1068      9.8962    144.7478
  1508.7500      0.0000    768.4521      9.7693    142.2767
  1509.0000      0.0000    772.1692      9.5181    140.1546
  1509.2500      0.0000    775.2781      9.1110    139.0673
  1509.5000      0.0000    777.0739      8.6689    138.8558
  1509.7500      0.0000    775.0052      8.3897    138.9405
  1510.0000      0.0000    765.5934      8.3535    139.0359
  1510.2500      0.0000    747.0950      8.4663    139.3830
  1510.5000      2.0000    720.9534      8.6063    140.3618
  1510.7500      2.0000    690.1514      8.7557    142.0384
  1511.0000      0.0000    656.9471      8.9690    144.1257
  1511.2500      0.0000    624.1183      9.2752    146.2221
  1511.5000      0.0000    598.1393      9.6419    147.9380
  1511.7500      0.0000    586.8076     10.0004    148.7871
  1512.0000      0.0000    590.5221     10.2957    147.9480
  1512.2500      0.0000    598.5753     10.5504    144.3163
  1512.5000      0.0000    598.3320     10.8546    137.4895
  1512.7500      0.0000    585.9713     11.2479    129.0540
  1513.0000      0.0000    564.3140     11.6536    122.2018
  1513.2500      0.0000    534.1541     11.9723    119.4883
  1513.5000      0.0000    494.8332     12.1813    121.1405
  1513.7500      0.0000    452.1429     12.3140    125.4196
  1514.0000      0.0000    419.8727     12.3996    130.2379
  1514.2500      0.0000    412.9654     12.4501    134.5190
  1514.5000      0.0000    440.2013     12.4734    138.2447
  1514.7500      0.0000    499.9293     12.4826    141.2870
  1515.0000      0.0000    578.7602     12.4966    142.8261
  1515.2500      0.0000    656.2136     12.5199    142.2892
  1515.5000      0.0000    714.8840     12.5231    140.3197
  1515.7500      0.0000    747.7713     12.4712    138.3554
  1516.0000      0.0000    756.3024     12.3712    137.3804
  1516.2500      0.0000    743.9454     12.2717    137.1300
  1516.5000      0.0000    714.4617     12.2232    136.5064
  1516.7500      0.0000    675.8796     12.2589    134.8210
  1517.0000      0.0000    642.4209     12.3927    132.5654
  1517.2500      0.0000    628.7766     12.5931    130.8349
  1517.5000      0.0000    641.0113     12.7679    130.1762
  1517.7500      0.0000    672.5955     12.8175    130.4421
  1518.0000      0.0000    708.9305     12.7186    131.7526
  1518.2500      0.0000    735.8769     12.5451    134.7910
  1518.5000      0.0000    744.1175     12.4035    139.7204
  1518.7500      0.0000    727.3809     12.3529    145.3193
  1519.0000      0.0000    681.8623     12.3788    149.6491
  1519.2500      0.0000    611.6196     12.4256    151.3169
  1519.5000      0.0000    532.7849     12.4432    150.0673
  1519.7500      0.0000    467.5255     12.4087    146.6957
  1520.0000      0.0000    431.9653     12.3380    142.5514
  1520.2500      0.0000    430.4394     12.2847    138.6618
  1520.5000      0.0000    456.9709     12.2949    135.1476
  1520.7500      0.0000    496.1722     12.3531    131.6181
  1521.0000      0.0000    525.3030     12.3973    128.0390
  1521.2500      0.0000    526.1634     12.3847    124.9529
  1521.5000      0.0000    500.2935     12.3193    122.6703
  1521.7500      0.0000    469.5282     12.2263    120.3112
  1522.0000      0.0000    460.1896     12.1296    116.0558
  1522.2500      0.0000    487.2038     12.0474    108.8941
  1522.5000      0.0000    548.0723     11.9919    100.1281
  1522.7500      0.0000    625.1879     11.9599     92.5656
  1523.0000      0.0000    695.0201     11.9177     88.1122
  1523.2500      0.0000    741.1343     11.8171     86.5391
  1523.5000      0.0000    761.7409     11.6468     86.2182
  1523.7500      0.0000    765.8981     11.4483     85.1495
  1524.0000      0.0000    763.9677     11.2723     81.6457
  1524.2500      0.0000    761.4185     11.1422     75.4440
  1524.5000      0.0000    758.7616     11.0572     68.5123
  1524.7500      0.0000    754.7521     10.9934     63.8374
  1525.0000      0.0000    749.1694     10.9110     63.0117
  1525.2500      0.0000    743.3188     10.8003     65.4038
  1525.5000      0.0000    738.7026     10.7142     69.4363
  1525.7500      0.0000    735.8326     10.7230     73.7965
  1526.0000      0.0000    734.2745     10.8477     77.3995
  1526.2500      0.0000    733.3678     11.0550     79.1614
  1526.5000      0.0000    732.7155     11.2931     78.3842
  1526.7500      0.0000    732.2217     11.4989     75.1620
  1527.0000      0.0000    731.9264     11.6048     70.2786
  1527.2500      0.0000    731.8458     11.5953     64.8287
  1527.5000      0.0000    731.9177     11.5521     59.9946
  1527.7500      0.0000    732.0391     11.5988     57.1313
  1528.0000      0.0000    732.0881     11.7840     57.6413
  1528.2500      0.0000    731.8516     12.0333     61.9898
  1528.5000      0.0000    730.8679     12.2205     68.6027
  1528.7500      0.0000    728.4014     12.2727     74.3858
  1529.0000      0.0000    723.8843     12.2014     76.9262
  1529.2500      0.0000    717.8254     12.0592     76.1450
  1529.5000      0.0000    712.3075     11.8989     73.7419
  1529.7500      0.0000    710.0159     11.7654     71.3542
  1530.0000      0.0000    712.2211     11.6901     69.4700
  1530.2500      0.0000    717.7098     11.6858     67.7670
  1530.5000      0.0000    723.8447     11.7592     65.9972
  1530.7500      0.0000    728.5137     11.9151     64.4026
