~Version Information
VERS.                      2.0: CWLS Log ASCII Standard - VERSION 2.0
WRAP.                       NO: One line per depth step
~Well Information Block
STRT.FT               234.0000: 
STOP.FT              1773.2000: 
STEP.FT                 0.1000: 
NULL.                -999.2500: 
COMP.          Pioneer Natural Resources: COMPANY
WELL.             Tami J 23-18: WELL
FLD.           Purgatorie River: FIELD
LOC.           2250' FSL & 2400' FWL: LOCATION
PROV.                 Colorado: PROVINCE
CNTY.               Las Animas: COUNTRY
SRVC.                         : SERVICE COMPANY
DATE.          Mon Dec 13 07:02:50 2004: LOG DATE
UWI.           05 071 08073 00: UNIQUE WELL ID
~Curve Information Block
DEPT.FT            0 000 00 00: Depth
LTEN.lb                       : Surface Line Tension
DCAL.in                       : CDL Caliper
RHOB.g/cc                     : CDL Bulk Density
RHOC.g/cc                     : CDL Density Correction
DPOR.pu                       : CDL Density Porosity
GR.GAPI                       : Gamma Ray
NPOR.pu                       : Neutron Porosity
~Parameter Information Block
~A  Depth       LTEN        DCAL        RHOB        RHOC        DPOR         GR         NPOR    
# ...
  1561.2000   1135.7014      8.2548      1.3135      0.1929     80.9997     43.6767      7.7827
  1561.3000   1096.1005      8.3137      1.2985      0.1517     81.9101     46.6973      8.3562
  1561.4000   1096.1005      8.3137      1.3007      0.1779     81.7743     44.8952      9.0790
  1561.5000   1093.5935      8.4043      1.3194      0.1876     80.6451     38.9638      9.9867
  1561.6000   1093.5935      8.4043      1.3521      0.2027     78.6588     33.6423     11.2141
  1561.7000   1093.5935      8.4043      1.3956      0.2510     76.0228     31.5145     13.0042
  1561.8000   1177.0120      8.5469      1.4484      0.2586     72.8262     32.0046     15.1040
  1561.9000   1177.0120      8.5469      1.5215      0.2153     68.3922     33.6253     16.9539
  1562.0000   1149.5886      8.6627      1.6179      0.2544     62.5521     35.5656     18.5879
  1562.1000   1149.5886      8.6627      1.7174      0.2528     56.5214     37.4214     20.3665
  1562.2000   1149.5886      8.6627      1.8157      0.2355     50.5626     40.0541     22.2395
  1562.3000   1081.1481      8.5369      1.9382      0.2414     43.1371     44.3767     23.6056
  1562.4000   1081.1481      8.5369      2.0890      0.2682     33.9997     49.8717     24.2386
  1562.5000   1173.0476      8.1959      2.2252      0.3100     25.7429     58.0187     24.5807
  1562.6000   1173.0476      8.1959      2.3149      0.2488     20.3101     69.1321     24.9840
  1562.7000   1173.0476      8.1959      2.3802      0.1776     16.3530     78.6776     25.3889
  1562.8000   1104.5994      7.9524      2.4470      0.1977     12.3038     85.7171     25.4341
  1562.9000   1104.5994      7.9524      2.5005      0.1873      9.0635     93.5175     25.0773
  1563.0000   1132.9047      7.8600      2.5206      0.1455      7.8430    103.0025     24.6828
  1563.1000   1132.9047      7.8600      2.5140      0.0946      8.2420    114.9175     24.4058
  1563.2000   1132.9047      7.8600      2.5038      0.0407      8.8623    127.0481     24.3869
  1563.3000   1069.6583      7.8295      2.5026      0.0828      8.9349    132.1078     24.6258
  1563.4000   1069.6583      7.8295      2.5032      0.0704      8.8962    129.3565     24.7696
  1563.5000   1167.2222      7.8213      2.4948      0.0955      9.4049    127.4571     24.6723
  1563.6000   1167.2222      7.8213      2.4751      0.0374     10.5980    130.0133     24.4403
  1563.7000   1167.2222      7.8213      2.4550      0.0178     11.8163    132.3248     24.1464
  1563.8000   1159.1025      7.8192      2.4446      0.0073     12.4514    133.2474     23.9873
  1563.9000   1159.1025      7.8192      2.4442      0.0182     12.4732    133.7061     24.0803
  1564.0000   1100.7529      7.8194      2.4480      0.0348     12.2449    133.4043     24.2884
  1564.1000   1100.7529      7.8194      2.4427      0.0736     12.5632    135.4986     24.5341
  1564.2000   1100.7529      7.8194      2.4274      0.0439     13.4913    139.0777     24.8582
  1564.3000   1146.4193      7.8197      2.4207      0.0450     13.8947    138.0680     25.1492
  1564.4000   1146.4193      7.8197      2.4346      0.0565     13.0525    130.9129     25.0250
  1564.5000   1081.9431      7.8181      2.4676      0.0841     11.0526    117.6977     24.5262
  1564.6000   1081.9431      7.8181      2.5174      0.0968      8.0371    102.9494     24.1316
  1564.7000   1081.9431      7.8181      2.5821      0.1339      4.1135     96.4681     23.9526
  1564.8000   1119.4109      7.8161      2.6528      0.2009     -0.1697    100.2113     23.7999
  1564.9000   1119.4109      7.8161      2.7040      0.3029     -3.2755    106.2322     23.6086
  1565.0000   1135.1604      7.8145      2.7119      0.2563     -3.7513    107.4914     23.4205
  1565.1000   1135.1604      7.8145      2.6843      0.2556     -2.0776    102.7924     23.1659
  1565.2000   1135.1604      7.8145      2.6478      0.1719      0.1334     95.8622     22.7398
  1565.3000   1115.2860      7.8129      2.6237      0.1042      1.5927     92.1932     22.2055
  1565.4000   1115.2860      7.8129      2.6170      0.1091      1.9978     91.7604     21.7162
  1565.5000   1172.1044      7.8119      2.6193      0.0660      1.8585     88.7701     21.4615
  1565.6000   1172.1044      7.8119      2.6242      0.0736      1.5662     82.4287     21.5605
  1565.7000   1172.1044      7.8119      2.6295      0.0559      1.2415     78.5442     21.6701
  1565.8000   1111.5217      7.8124      2.6297      0.1250      1.2278     81.3571     21.2931
  1565.9000   1111.5217      7.8124      2.6030      0.1916      2.8503     88.0732     20.5898
  1566.0000   1177.3315      7.8128      2.5404      0.1117      6.6442     92.5569     20.1322
  1566.1000   1177.3315      7.8128      2.4762      0.0579     10.5352     94.1336     20.2175
  1566.2000   1177.3315      7.8128      2.4440      0.0459     12.4829     96.5040     20.5228
  1566.3000   1133.8180      7.8132      2.4455      0.0311     12.3924     99.7802     20.6078
  1566.4000   1133.8180      7.8132      2.4714      0.0428     10.8212     99.1168     20.5487
  1566.5000   1181.6371      7.8135      2.5182      0.0980      7.9877     95.1769     20.6079
  1566.6000   1181.6371      7.8135      2.5770      0.1830      4.4221     94.7616     20.8111
  1566.7000   1181.6371      7.8135      2.6215      0.2542      1.7263     97.5291     20.9828
  1566.8000   1201.1646      7.8140      2.6240      0.2411      1.5733     97.7056     20.9347
  1566.9000   1201.1646      7.8140      2.5840      0.2330      3.9981     95.9438     20.8748
  1567.0000   1191.8298      7.8193      2.5278      0.1488      7.4053     99.4891     21.3156
  1567.1000   1191.8298      7.8193      2.4890      0.0656      9.7552    110.8556     22.2773
  1567.2000   1191.8298      7.8193      2.4823      0.1179     10.1617    124.0060     23.1623
  1567.3000   1193.4683      7.8322      2.4983      0.0840      9.1919    132.6320     23.4383
  1567.4000   1193.4683      7.8322      2.5278      0.1132      7.4046    134.7669     23.3269
  1567.5000   1202.1685      7.8430      2.5569      0.1539      5.6444    131.4880     23.1173
  1567.6000   1202.1685      7.8430      2.5604      0.1650      5.4287    125.5816     22.6773
  1567.7000   1202.1685      7.8430      2.5361      0.1396      6.9010    121.9870     22.1261
  1567.8000   1184.8287      7.8473      2.5124      0.0961      8.3388    121.6957     21.9154
  1567.9000   1184.8287      7.8473      2.5066      0.1111      8.6924    121.8283     22.1187
  1568.0000   1181.2803      7.8479      2.5126      0.1012      8.3261    120.6197     22.2764
  1568.1000   1181.2803      7.8479      2.5271      0.1117      7.4486    114.3571     22.1732
  1568.2000   1181.2803      7.8479      2.5511      0.1120      5.9945    102.1488     22.2005
  1568.3000   1218.4645      7.8479      2.5784      0.1151      4.3371     92.0987     22.5695
  1568.4000   1218.4645      7.8479      2.5976      0.1484      3.1740     89.6438     22.8925
  1568.5000   1145.4633      7.8479      2.6069      0.1091      2.6141     88.9737     22.7639
  1568.6000   1145.4633      7.8479      2.6132      0.1327      2.2297     86.5040     22.2893
  1568.7000   1145.4633      7.8479      2.6145      0.1272      2.1511     86.4921     21.8495
  1568.8000   1220.5355      7.8475      2.6103      0.1037      2.4044     89.8361     21.7047
  1568.9000   1220.5355      7.8475      2.6088      0.1026      2.4993     90.2374     21.7994
  1569.0000   1131.0402      7.8471      2.6109      0.0932      2.3706     84.6719     21.8892
  1569.1000   1131.0402      7.8471      2.6097      0.0612      2.4453     78.4231     21.8939
  1569.2000   1131.0402      7.8471      2.5995      0.1096      3.0580     78.0751     21.8509
  1569.3000   1214.3827      7.8468      2.5813      0.0933      4.1654     85.0916     21.6851
  1569.4000   1214.3827      7.8468      2.5632      0.0584      5.2580     94.0008     21.4821
  1569.5000   1196.4508      7.8468      2.5559      0.0600      5.7025     98.7552     21.6175
