~Version Information
VERS.                      2.0: CWLS Log ASCII Standard - VERSION 2.0
WRAP.                       NO: One line per depth step
~Well Information Block
STRT.FT              1882.7500: 
STOP.FT              2400.5000: 
STEP.FT                 0.2500: 
NULL.                -999.2500: 
COMP.          Pioneer Natural Resources: COMPANY
WELL.          Flying Horse 12-11: WELL
FLD.           Purgatoire River: FIELD
LOC.           2,428' FNL & 308' FWL------: LOCATION
PROV.                 Colorado: PROVINCE
CNTY.               Las Animas: COUNTRY
SRVC.                         : SERVICE COMPANY
DATE.          Fri Jun 10 06:52:30 2005: LOG DATE
UWI.                          : UNIQUE WELL ID
~Curve Information Block
DEPT.FT            0 000 00 00: Depth
CCL.                          : Casing Collar Locator
TT3.usec                      : CBL 3' Travel Time
AMP3.mV                       : CBL 3' Amplitude
AMP5.mV                       : CBL 5' Amplitude
GR.GAPI                       : Gamma Ray
~Parameter Information Block
~A  Depth       CCL         TT3         AMP3        AMP5         GR     
# ...
  2022.7500      0.0000    258.8504     65.0247     91.4377    142.6460
  2023.0000      0.0000    258.8459     64.8629     91.4377    143.9211
  2023.2500      0.0000    258.8402     64.7075     91.4377    143.7893
  2023.5000      0.0000    258.8345     64.6435     90.8284    142.3405
  2023.7500      0.0000    258.8290     64.7342     91.1766    140.3351
  2024.0000      0.0000    258.8225     64.9603     91.0025    138.2254
  2024.2500      0.0000    258.8148     65.2308     91.2636    135.9214
  2024.5000      0.0000    258.8087     65.4571     90.2191    133.4158
  2024.7500      0.0000    258.8094     65.6093     89.8709    131.1654
  2025.0000      0.0000    258.8222     65.7046     91.0895    129.7397
  2025.2500      0.0000    258.8487     65.7656     91.3507    129.1888
  2025.5000      0.0000    258.8839     65.8025     91.3507    128.8154
  2025.7500      0.0000    258.9151     65.8200     91.5248    127.5233
  2026.0000      0.0000    258.9267     65.8261     91.5248    124.3902
  2026.2500      0.0000    258.9091     65.8298     91.6989    119.0514
  2026.5000      0.0000    258.8672     65.8356     91.0895    111.8772
  2026.7500      0.0000    258.8194     65.8469     91.7859    103.8317
  2027.0000      0.0000    258.7856     65.8676     91.9600     95.8227
  2027.2500      0.0000    258.7733     65.8961     91.2636     87.8836
  2027.5000      0.0000    258.7737     65.9206     91.3507     79.1701
  2027.7500      0.0000    258.7730     65.9295     91.3507     69.0767
  2028.0000      0.0000    258.7678     65.9251     91.2636     58.3253
  2028.2500      0.0000    258.7671     65.9240     91.2636     48.7781
  2028.5000      0.0000    258.7804     65.9407     91.0025     42.3077
  2028.7500      0.0000    258.8046     65.9710     92.2211     39.9100
  2029.0000      0.0000    258.8238     65.9931     90.7413     41.4074
  2029.2500      0.0000    258.8235     65.9892     91.5248     45.3914
  2029.5000      0.0000    258.8011     65.9622     91.3507     49.5834
  2029.7500      0.0000    258.7649     65.9282     91.7859     51.9339
  2030.0000      0.0000    258.7304     65.8919     91.6118     51.7037
  2030.2500      0.0000    258.7151     65.8271     90.0450     49.4006
  2030.5000      0.0000    258.7317     65.6704     87.6947     45.8325
  2030.7500      0.0000    258.7806     65.3320     86.3890     41.5755
  2031.0000      0.0000    258.8486     64.7380     85.2574     37.3339
  2031.2500      0.0000    258.9147     63.9000     85.5185     34.3169
  2031.5000      0.0000    258.9609     62.9559     86.5631     33.7972
  2031.7500      0.0000    258.9806     62.1308     86.7372     36.1703
  2032.0000      0.0000    258.9796     61.6343     88.3040     40.5322
  2032.2500      0.0000    258.9680     61.5714     90.5672     45.2555
  2032.5000      0.0000    258.9527     61.9184     90.7413     49.0513
  2032.7500      0.0000    258.9360     62.5505     90.2191     51.6037
  2033.0000      0.0000    258.9223     63.2802     91.3507     53.2732
  2033.2500      0.0000    258.9204     63.8968     91.6989     54.2472
  2033.5000      0.0000    258.9391     64.2160     92.1341     54.1216
  2033.7500      0.0000    258.9785     64.1312     91.6118     52.3525
  2034.0000      0.0000    259.0291     63.6455     92.2211     49.0367
  2034.2500      0.0000    259.0778     62.8782     91.8729     45.2634
  2034.5000      0.0000    259.1147     62.0352     91.1766     42.7384
  2034.7500      0.0000    259.1336     61.3414     91.2636     42.8053
  2035.0000      0.0000    259.1306     60.9620     90.5672     45.4901
  2035.2500      0.0000    259.1047     60.9648     88.1299     49.4556
  2035.5000      0.0000    259.0606     61.3283     85.9538     52.9699
  2035.7500      0.0000    259.0111     61.9622     86.0408     54.9241
  2036.0000      0.0000    258.9735     62.7261     85.4315     55.1059
  2036.2500      0.0000    258.9599     63.4698     84.6481     53.8547
  2036.5000      0.0000    258.9678     64.0896     84.9963     51.6633
  2036.7500      0.0000    258.9834     64.5504     87.0854     49.0362
  2037.0000      0.0000    258.9947     64.8617     89.7838     46.5169
  2037.2500      0.0000    258.9993     65.0472     89.6968     44.5376
  2037.5000      0.0000    259.0009     65.1367     89.9579     43.0359
  2037.7500      0.0000    259.0010     65.1629     89.6968     41.4067
  2038.0000      0.0000    258.9948     65.1492     90.3061     39.1577
  2038.2500      0.0000    258.9748     65.1018     91.0895     36.5663
  2038.5000      0.0000    258.9409     65.0187     91.0025     34.5348
  2038.7500      0.0000    258.9067     64.9019     89.8709     33.9453
  2039.0000      0.0000    258.8936     64.7563     89.4356     35.2440
  2039.2500      0.0000    258.9149     64.5804     90.2191     38.3193
  2039.5000      0.0000    258.9639     64.3704     90.8284     42.4284
  2039.7500      0.0000    259.0162     64.1396     89.6968     46.3437
  2040.0000      0.0000    259.0447     63.9265     88.9134     48.9051
  2040.2500      0.0000    259.0366     63.7717     89.5227     49.5931
  2040.5000      0.0000    258.9977     63.6833     89.6968     48.6324
  2040.7500      0.0000    258.9453     63.6302     88.3911     46.6859
  2041.0000      0.0000    258.8998     63.5741     88.4781     44.5590
  2041.2500      0.0000    258.8814     63.5007     88.7393     43.0465
  2041.5000      0.0000    258.9084     63.4106     87.7818     42.7979
  2041.7500      0.0000    259.0060     63.2833     88.6522     44.2039
  2042.0000      0.0000    259.3046     63.0477     85.1704     47.3086
  2042.2500      0.0000    260.2968     62.5503     78.4678     51.7290
  2042.5000      0.0000    263.1527     61.4677     62.4512     56.8400
  2042.7500      0.0000    269.5732     59.2615     83.7776     62.3211
  2043.0000      0.0000    280.4106     55.4107     47.3922     68.4460
  2043.2500      0.0000    293.4990     49.9424     58.0989     75.5555
  2043.5000      0.0000    303.3587     43.7791     59.0564     83.1652
  2043.7500      0.0000    304.7870     38.3831     64.3662     89.7150
  2044.0000      0.0000    297.4307     34.8813     64.3662     93.5256
  2044.2500      0.0000    286.0274     33.4419     63.8440     94.4513
  2044.5000      0.0000    276.1081     33.4004     65.4108     94.6511
  2044.7500     -2.0000    270.3605     33.8718     66.0201     97.1486
  2045.0000     -2.0000    268.8028     34.2374     65.8460    103.1801
  2045.2500      0.0000    270.7883     34.2415     65.5849    111.1306
  2045.5000      0.0000    275.7481     33.9574     64.5403    118.2369
  2045.7500      0.0000    282.1998     33.8895     64.5403    122.9464
  2046.0000      0.0000    287.0708     35.0024     64.5403    125.3625
  2046.2500      0.0000    287.2229     38.2246     64.7144    125.9898
  2046.5000      0.0000    282.1008     43.5671     64.8885    124.9391
  2046.7500      0.0000    274.3047     49.8224     64.5403    122.4864
  2047.0000      0.0000    267.2511     55.3830     43.9103    119.6625
  2047.2500      0.0000    262.7055     59.3444     58.2730    117.8835
  2047.5000      0.0000    260.4859     61.7576     91.4377    118.2574
  2047.7500      0.0000    259.6336     63.0936     82.2108    121.0930
  2048.0000      0.0000    259.3652     63.7488     86.4761    125.4290
  2048.2500      0.0000    259.2847     63.9584     81.4274    129.1773
  2048.5000      0.0000    259.2442     63.8823     86.6502    130.6875
  2048.7500      0.0000    259.2025     63.6358     86.4761    130.3455
  2049.0000      0.0000    259.1550     63.2757     84.3869    129.9611
  2049.2500      0.0000    259.1111     62.8036     82.8201    130.5873
  2049.5000      0.0000    259.0815     62.2016     81.8626    131.5982
  2049.7500      0.0000    259.0742     61.4618     78.9030    131.8995
  2050.0000      0.0000    259.0925     60.5851     77.8585    131.4058
  2050.2500      0.0000    259.1347     59.5731     75.4212    130.9452
  2050.5000      0.0000    259.1975     58.4425     73.5061    130.9673
