~Version Information
VERS.                      2.0: CWLS Log ASCII Standard - VERSION 2.0
WRAP.                       NO: One line per depth step
~Well Information Block
STRT.FT               870.0000: 
STOP.FT              2517.5000: 
STEP.FT                 0.1000: 
NULL.                -999.2500: 
COMP.          Pioneer Natural Resources: COMPANY
WELL.              Tiaga 23-14: WELL
FLD.           Purgatoire River: FIELD
LOC.           2168' FSL & 2030' FWL: LOCATION
PROV.                 Colorado: PROVINCE
CNTY.               Las Animas: COUNTRY
SRVC.                         : SERVICE COMPANY
DATE.          Sat May 07 09:09:05 2005: LOG DATE
UWI.           05 071 08329 00: UNIQUE WELL ID
~Curve Information Block
DEPT.FT            0 000 00 00: Depth
LTEN.lb                       : Surface Line Tension
DCAL.in                       : CDL Caliper
RHOC.g/cc                     : CDL Density Correction
DPOR.pu                       : CDL Density Porosity
GR.GAPI                       : Gamma Ray
NPOR.pu                       : Neutron Porosity
~Parameter Information Block
~A  Depth       LTEN        DCAL        RHOC        DPOR         GR         NPOR    
# ...
  1743.6000   1098.7070      7.9400      0.0047     10.5112     55.4162     18.4630
  1743.7000   1098.7070      7.9400      0.0081      9.3160     54.6416     18.2959
  1743.8000   1016.5925      7.9524      0.0535      7.6607     53.3441     18.3048
  1743.9000   1016.5925      7.9524      0.0251      6.7018     51.5168     18.7735
  1744.0000   1048.2234      7.9718      0.0576      6.3915     49.8082     19.3192
  1744.1000   1048.2234      7.9718      0.0313      6.3232     49.2990     19.1640
  1744.2000   1048.2234      7.9718      0.0721      6.4915     49.9750     18.6608
  1744.3000    993.5596      7.9491      0.0783      6.9804     51.0523     18.4321
  1744.4000    993.5596      7.9491      0.0316      7.3806     53.0915     18.4106
  1744.5000   1023.0681      7.9503      0.0737      7.0687     56.8767     18.2755
  1744.6000   1023.0681      7.9503      0.0782      6.4393     62.3694     17.5938
  1744.7000   1023.0681      7.9503      0.0448      6.5814     66.8803     16.4288
  1744.8000    980.4183      7.9497      0.0355      7.7925     66.0070     15.3381
  1744.9000    980.4183      7.9497      0.0560      9.6174     60.1688     14.6249
  1745.0000   1020.9882      7.9399     -0.0297     11.1516     54.9812     14.5291
  1745.1000   1020.9882      7.9399     -0.0039     11.1676     52.4714     15.3260
  1745.2000   1020.9882      7.9399      0.0339      9.5762     49.5426     16.6111
  1745.3000   1068.7721      7.9557      0.0215      7.1290     45.6491     17.2130
  1745.4000   1068.7721      7.9557      0.0634      4.2934     43.4320     16.6668
  1745.5000   1095.0424      7.9608      0.1270      1.9915     43.1961     16.1671
  1745.6000   1095.0424      7.9608      0.1092      1.7591     44.3152     16.6071
  1745.7000   1095.0424      7.9608      0.0455      3.8140     46.4918     17.3657
  1745.8000   1072.8218      7.9511      0.0642      6.1998     48.1636     17.6520
  1745.9000   1072.8218      7.9511      0.0521      7.0838     47.6260     17.1629
  1746.0000   1069.1593      7.9466     -0.0289      6.5361     46.1828     16.1956
  1746.1000   1069.1593      7.9466      0.0133      5.3934     46.4155     15.7958
  1746.2000   1069.1593      7.9466      0.0842      3.9203     48.0282     16.5233
  1746.3000   1062.7672      7.9478      0.1060      2.0536     49.9643     17.7761
  1746.4000   1062.7672      7.9478      0.0660     -0.2941     52.3058     18.8771
  1746.5000   1057.8472      7.9521      0.0740     -2.9568     54.5712     19.6595
  1746.6000   1057.8472      7.9521      0.1188     -4.1320     57.6253     20.2345
  1746.7000   1057.8472      7.9521      0.1156     -1.9389     64.3335     21.1380
  1746.8000   1069.6866      7.9496      0.0199      2.7601     75.5629     22.5814
  1746.9000   1069.6866      7.9496     -0.0061      7.1815     87.9801     23.9824
  1747.0000   1076.8767      7.9507      0.0025     10.0012     97.7223     24.7834
  1747.1000   1076.8767      7.9507     -0.0617     12.3990    106.6961     25.1740
  1747.2000   1076.8767      7.9507     -0.0807     14.9772    120.2470     26.0438
  1747.3000   1055.7909      7.9534     -0.0050     16.7817    134.5965     27.7779
  1747.4000   1055.7909      7.9534      0.0610     17.4258    140.4451     29.4097
  1747.5000   1071.2787      7.9458      0.0482     17.1323    138.6707     29.7688
  1747.6000   1071.2787      7.9458      0.0759     15.8844    135.7629     29.0663
  1747.7000   1071.2787      7.9458      0.0855     13.6935    133.8996     28.3542
  1747.8000   1040.4320      7.9841      0.1638     11.1458    132.1619     28.3447
  1747.9000   1040.4320      7.9841      0.1147      9.3708    129.3149     29.0069
  1748.0000   1079.8818      8.0632      0.1052      8.4832    127.8030     29.8246
  1748.1000   1079.8818      8.0632      0.1604      7.6445    130.3138     30.0324
  1748.2000   1079.8818      8.0632      0.1307      6.8540    131.6734     29.3949
  1748.3000   1051.4323      8.0685      0.0914      6.7320    128.4015     28.5798
  1748.4000   1051.4323      8.0685      0.1066      7.7574    126.4282     27.9821
  1748.5000   1089.2815      8.1204      0.0407      9.4658    128.3656     27.5673
  1748.6000   1089.2815      8.1204      0.0095      9.7579    130.5510     27.2302
  1748.7000   1089.2815      8.1204      0.0884      7.7076    132.7640     26.8725
  1748.8000   1053.5490      8.0619      0.1444      5.5386    134.3605     26.8145
  1748.9000   1053.5490      8.0619      0.0918      5.4821    131.6421     27.1346
  1749.0000   1112.4908      8.0596      0.0810      8.0561    125.9720     27.1129
  1749.1000   1112.4908      8.0596      0.0272     13.0884    120.2336     26.4508
  1749.2000   1112.4908      8.0596      0.0132     19.2824    113.7342     25.9760
  1749.3000   1048.2339      8.0554     -0.0095     24.4342    106.6949     26.5029
  1749.4000   1048.2339      8.0554     -0.0176     27.9925     99.9495     27.9251
  1749.5000   1069.3622      8.0785      0.0336     33.0385     93.8578     29.4489
  1749.6000   1069.3622      8.0785      0.0010     42.8214     90.4607     30.1580
  1749.7000   1069.3622      8.0785     -0.1212     54.8902     89.1375     30.1213
  1749.8000   1037.7421      8.0902     -0.1378     63.3229     86.8126     30.4179
  1749.9000   1037.7421      8.0902     -0.0234     66.0847     84.9117     31.6346
  1750.0000   1066.0985      8.1684      0.0050     65.5713     87.0590     33.2944
  1750.1000   1066.0985      8.1684     -0.0126     63.2778     92.7475     34.2676
  1750.2000   1066.0985      8.1684      0.0562     58.4307     99.4943     33.8652
  1750.3000   1030.5952      8.4305      0.1775     51.4276    106.8941     33.2476
  1750.4000   1030.5952      8.4305      0.1578     44.8418    113.4644     33.5990
  1750.5000   1062.7532      8.7432      0.1138     40.3973    118.6234     34.2785
  1750.6000   1062.7532      8.7432      0.1308     37.2909    124.0903     34.5467
  1750.7000   1062.7532      8.7432      0.0929     33.9146    129.1566     34.6671
  1750.8000   1016.3085      8.9947      0.0719     30.0943    130.3801     34.3717
  1750.9000   1016.3085      8.9947      0.0107     26.7871    127.7793     33.3100
  1751.0000   1055.8350      8.7014      0.0410     24.4639    127.0031     32.2495
  1751.1000   1055.8350      8.7014      0.1070     23.7521    127.2338     32.0105
  1751.2000   1055.8350      8.7014      0.0341     25.4939    123.8184     32.5244
  1751.3000   1006.0901      8.3035     -0.0258     29.0033    117.7097     32.7545
  1751.4000   1006.0901      8.3035     -0.0206     32.7812    111.8115     32.4278
  1751.5000   1039.0804      8.2640     -0.0168     36.2441    105.5285     32.6096
  1751.6000   1039.0804      8.2640     -0.0113     39.5533     98.8510     33.2018
  1751.7000   1039.0804      8.2640     -0.0332     42.9776     95.3293     33.0814
  1751.8000    985.6629      8.3077     -0.0058     46.8684     95.5603     32.2466
  1751.9000    985.6629      8.3077     -0.0953     50.9788     95.0344     31.5776
  1752.0000   1066.8440      8.3464     -0.0841     54.3245     90.4957     31.6221
  1752.1000   1066.8440      8.3464     -0.0604     57.3052     83.1537     32.2079
  1752.2000   1066.8440      8.3464     -0.0375     61.7918     75.8060     33.1006
  1752.3000    966.6374      8.3245     -0.0787     67.8917     71.2029     33.8398
  1752.4000    966.6374      8.3245     -0.0401     73.6030     70.6274     33.7808
  1752.5000   1082.1826      8.2457     -0.0475     77.4098     72.4519     33.3902
  1752.6000   1082.1826      8.2457     -0.0328     79.0529     73.0674     33.4005
  1752.7000   1082.1826      8.2457     -0.0230     78.6340     71.7175     33.5742
  1752.8000   1083.3767      8.2580     -0.0169     75.4722     70.2702     33.2876
  1752.9000   1083.3767      8.2580      0.0154     68.6958     69.7391     32.5423
  1753.0000   1034.3727      8.3160      0.1342     59.7071     71.3070     31.8070
  1753.1000   1034.3727      8.3160      0.1820     51.7331     76.0257     31.4796
