~Version Information
VERS.                      2.0: CWLS Log ASCII Standard - VERSION 2.0
WRAP.                       NO: One line per depth step
~Well Information Block
STRT.FT               425.0000: 
STOP.FT              2461.0000: 
STEP.FT                 0.2500: 
NULL.                -999.2500: 
COMP.          Evergreen Operating Corporation: COMPANY
WELL.              Nomad 32-10: WELL
FLD.           Purgatorie River: FIELD
LOC.           2281' FNL & 1585' FEL: LOCATION
PROV.                 Colorado: PROVINCE
CNTY.               Las Animas: COUNTRY
SRVC.                Patterson: SERVICE COMPANY
DATE.          Thu Aug 12 02:01:07 2004: LOG DATE
UWI.           05 071 08127 00: UNIQUE WELL ID
~Curve Information Block
DEPT.FT            0 000 00 00: Depth
SN.Ohm-m                      : IEL Short Normal
SP.mV                         : IEL Spontaneous Potential
DIR.Ohm-m                     : IEL Induction Resistivity
GR.GAPI                       : Gamma Ray
~Parameter Information Block
~A  Depth        SN          SP         DIR          GR     
# ...
   961.0000   2000.0000   2000.0000     25.0626     92.2691
   961.2500   2000.0000   2000.0000     24.9916    101.0263
   961.5000   2000.0000   2000.0000     24.9663    114.3804
   961.7500   2000.0000   2000.0000     24.8892    121.8876
   962.0000   2000.0000   2000.0000     24.6735    128.8948
   962.2500   2000.0000   2000.0000     24.2842    130.2726
   962.5000   2000.0000   2000.0000     23.7596    128.4851
   962.7500   2000.0000   2000.0000     23.1914    126.1062
   963.0000   2000.0000   2000.0000     22.6728    122.7502
   963.2500   2000.0000   2000.0000     22.2531    120.8510
   963.5000   2000.0000   2000.0000     21.9264    117.3609
   963.7500   2000.0000   2000.0000     21.6577    113.8544
   964.0000   2000.0000   2000.0000     21.4250    106.7650
   964.2500   2000.0000   2000.0000     21.2418    101.7574
   964.5000   2000.0000   2000.0000     21.1403     96.5847
   964.7500   2000.0000   2000.0000     21.1344     96.2429
   965.0000   2000.0000   2000.0000     21.2013    101.3747
   965.2500   2000.0000   2000.0000     21.2933    107.7679
   965.5000   2000.0000   2000.0000     21.3715    118.8280
   965.7500   2000.0000   2000.0000     21.4333    125.4004
   966.0000   2000.0000   2000.0000     21.5129    132.5167
   966.2500   2000.0000   2000.0000     21.6531    135.6114
   966.5000   2000.0000   2000.0000     21.8703    138.7041
   966.7500   2000.0000   2000.0000     22.1373    139.8264
   967.0000   2000.0000   2000.0000     22.3971    139.4996
   967.2500   2000.0000   2000.0000     22.6012    137.8032
   967.5000   2000.0000   2000.0000     22.7377    133.6501
   967.7500   2000.0000   2000.0000     22.8308    130.1885
   968.0000   2000.0000   2000.0000     22.9197    123.9364
   968.2500   2000.0000   2000.0000     23.0429    118.9737
   968.5000   2000.0000   2000.0000     23.2330    111.1111
   968.7500   2000.0000   2000.0000     23.5107    106.6269
   969.0000   2000.0000   2000.0000     23.8708    102.7475
   969.2500   2000.0000   2000.0000     24.2661    102.3360
   969.5000   2000.0000   2000.0000     24.6084    104.0057
   969.7500   2000.0000   2000.0000     24.7973    105.8285
   970.0000   2000.0000   2000.0000     24.7641    109.0922
   970.2500   2000.0000   2000.0000     24.4976    111.8130
   970.5000   2000.0000   2000.0000     24.0367    117.0448
   970.7500   2000.0000   2000.0000     23.4402    121.3316
   971.0000   2000.0000   2000.0000     22.7620    128.8757
   971.2500   2000.0000   2000.0000     22.0404    134.2124
   971.5000   2000.0000   2000.0000     21.2989    140.6460
   971.7500   2000.0000   2000.0000     20.5507    142.4526
   972.0000   2000.0000   2000.0000     19.8031    140.5886
   972.2500   2000.0000   2000.0000     19.0570    137.2758
   972.5000   2000.0000   2000.0000     18.3064    132.3009
   972.7500   2000.0000   2000.0000     17.5468    130.4620
   973.0000   2000.0000   2000.0000     16.7913    130.6061
   973.2500   2000.0000   2000.0000     16.0828    132.1490
   973.5000   2000.0000   2000.0000     15.4851    135.3718
   973.7500   2000.0000   2000.0000     15.0538    137.5162
   974.0000   2000.0000   2000.0000     14.8106    140.2629
   974.2500   2000.0000   2000.0000     14.7366    141.9708
   974.5000   2000.0000   2000.0000     14.7875    144.9383
   974.7500   2000.0000   2000.0000     14.9186    147.1353
   975.0000   2000.0000   2000.0000     15.1001    149.8498
   975.2500   2000.0000   2000.0000     15.3111    150.6656
   975.5000   2000.0000   2000.0000     15.5232    149.6666
   975.7500   2000.0000   2000.0000     15.6946    147.3176
   976.0000   2000.0000   2000.0000     15.7874    141.6991
   976.2500   2000.0000   2000.0000     15.7978    137.3806
   976.5000   2000.0000   2000.0000     15.7723    131.7447
   976.7500   2000.0000   2000.0000     15.7904    129.1282
   977.0000   2000.0000   2000.0000     15.9292    126.8145
   977.2500   2000.0000   2000.0000     16.2320    125.9515
   977.5000   2000.0000   2000.0000     16.6956    125.1732
   977.7500   2000.0000   2000.0000     17.2740    124.9208
   978.0000   2000.0000   2000.0000     17.8971    124.8874
   978.2500   2000.0000   2000.0000     18.4980    125.0683
   978.5000   2000.0000   2000.0000     19.0319    125.8388
   978.7500   2000.0000   2000.0000     19.4780    126.9091
   979.0000   2000.0000   2000.0000     19.8291    129.3611
   979.2500   2000.0000   2000.0000     20.0854    131.0913
   979.5000   2000.0000   2000.0000     20.2619    132.4842
   979.7500   2000.0000   2000.0000     20.3949    132.1014
   980.0000   2000.0000   2000.0000     20.5362    130.2362
   980.2500   2000.0000   2000.0000     20.7358    129.3288
   980.5000   2000.0000   2000.0000     21.0249    130.2092
   980.7500   2000.0000   2000.0000     21.4103    132.1870
   981.0000   2000.0000   2000.0000     21.8791    135.0077
   981.2500   2000.0000   2000.0000     22.4085    135.1515
   981.5000   2000.0000   2000.0000     22.9744    131.4104
   981.7500   2000.0000   2000.0000     23.5578    126.8828
   982.0000   2000.0000   2000.0000     24.1487    119.7561
   982.2500   2000.0000   2000.0000     24.7503    116.3675
   982.5000   2000.0000   2000.0000     25.3807    114.5503
   982.7500   2000.0000   2000.0000     26.0645    115.1879
   983.0000   2000.0000   2000.0000     26.8121    117.2679
   983.2500   2000.0000   2000.0000     27.5988    118.3816
   983.5000   2000.0000   2000.0000     28.3635    118.7227
   983.7500   2000.0000   2000.0000     29.0394    118.1735
   984.0000   2000.0000   2000.0000     29.5975    116.7441
   984.2500   2000.0000   2000.0000     30.0577    115.3900
   984.5000   2000.0000   2000.0000     30.4562    112.4273
   984.7500   2000.0000   2000.0000     30.7962    110.0389
   985.0000   2000.0000   2000.0000     31.0309    106.9161
   985.2500   2000.0000   2000.0000     31.1020    105.5184
   985.5000   2000.0000   2000.0000     31.0126    104.0256
   985.7500   2000.0000   2000.0000     30.8785    103.0262
   986.0000   2000.0000   2000.0000     30.9043    101.6500
   986.2500   2000.0000   2000.0000     31.2900    101.3138
   986.5000   2000.0000   2000.0000     32.1309    102.0580
   986.7500   2000.0000   2000.0000     33.3632    102.8612
   987.0000   2000.0000   2000.0000     34.7840    102.9663
   987.2500   2000.0000   2000.0000     36.1489    101.7689
   987.5000   2000.0000   2000.0000     37.2949     98.3698
   987.7500   2000.0000   2000.0000     38.1990     95.6046
   988.0000   2000.0000   2000.0000     38.9395     91.4738
   988.2500   2000.0000   2000.0000     39.6159     88.7790
   988.5000   2000.0000   2000.0000     40.2941     84.4392
   988.7500   2000.0000   2000.0000     40.9941     81.3085
   989.0000   2000.0000   2000.0000     41.7089     77.0573
   989.2500   2000.0000   2000.0000     42.4253     75.1505
   989.5000   2000.0000   2000.0000     43.1349     73.8819
   989.7500   2000.0000   2000.0000     43.8211     73.5850
   990.0000   2000.0000   2000.0000     44.4478     72.9497
   990.2500   2000.0000   2000.0000     44.9626     72.2278
   990.5000   2000.0000   2000.0000     45.3144     71.0864
   990.7500   2000.0000   2000.0000     45.4739     70.5721
   991.0000   2000.0000   2000.0000     45.4451     70.3461
   991.2500   2000.0000   2000.0000     45.2710     70.4683
   991.5000   2000.0000   2000.0000     45.0346     70.6652
   991.7500   2000.0000   2000.0000     44.8385     70.5397
   992.0000   2000.0000   2000.0000     44.7650     69.8457
   992.2500   2000.0000   2000.0000     44.8143     69.2710
   992.5000   2000.0000   2000.0000     44.8744     68.6930
   992.7500   2000.0000   2000.0000     44.7376     68.4604
   993.0000   2000.0000   2000.0000     44.1750     67.7236
   993.2500   2000.0000   2000.0000     43.0559     66.6662
   993.5000   2000.0000   2000.0000     41.4708     64.5297
   993.7500   2000.0000   2000.0000     39.7595     63.3284
   994.0000   2000.0000   2000.0000     38.3783     62.6120
   994.2500   2000.0000   2000.0000     37.6868     62.7581
