~Version Information
VERS.                      2.0: CWLS Log ASCII Standard - VERSION 2.0
WRAP.                       NO: One line per depth step
~Well Information Block
STRT.FT               745.0000: 
STOP.FT              2945.7000: 
STEP.FT                 0.1000: 
NULL.                -999.2500: 
COMP.          Pioneer Natural Resources: COMPANY
WELL.          Old Yeller 31-32: WELL
FLD.           Purgatoire River: FIELD
LOC.           1832' FEL & 793' FNL--: LOCATION
STAT.                 Colorado: State
CNTY.               Las Animas: COUNTY
CTRY. USA : Country
SECT. 32 : Section
TOWN. 32S : Township
RANG. 67W : Range
SRVC.                Patterson: SERVICE COMPANY
DATE.          Mon Aug 29 11:12:35 2005: LOG DATE
API.           05 071 08356 00: UNIQUE WELL ID
~Curve Information Block
DEPT.FT            0 000 00 00: Depth
DCAL.in                       : CDL Caliper
RHOB.g/cc                     : CDL Bulk Density
RHOC.g/cc                     : CDL Density Correction
DPOR.pu                       : CDL Density Porosity
NPOR.pu                       : Neutron Porosity
GR.GAPI                       : Gamma Ray
~Parameter Information Block
~A  Depth       DCAL        RHOB        RHOC        DPOR        NPOR         GR     
# ...
  2914.6000      7.6754      2.5794      0.0548      4.2777     19.1607   -999.2500
  2914.7000      7.6754      2.5965      0.0837      3.2437     18.9986   -999.2500
  2914.8000      7.6742      2.5887      0.0658      3.7153     18.7695   -999.2500
  2914.9000      7.6742      2.5586      0.0052      5.5424     18.4320   -999.2500
  2915.0000      7.6734      2.5308      0.0103      7.2234     18.1491   -999.2500
  2915.1000      7.6734      2.5199     -0.0283      7.8863     18.1740   -999.2500
  2915.2000      7.6734      2.5276     -0.0110      7.4165     18.4432   -999.2500
  2915.3000      7.6746      2.5465      0.0395      6.2743     18.7756   -999.2500
  2915.4000      7.6746      2.5588      0.0319      5.5285     19.2507   -999.2500
  2915.5000      7.6752      2.5613      0.0192      5.3733     19.8862   -999.2500
  2915.6000      7.6752      2.5616      0.0564      5.3592     20.3658   -999.2500
  2915.7000      7.6752      2.5615      0.0269      5.3628     20.4857   -999.2500
  2915.8000      7.6744      2.5713      0.0044      4.7679     20.4882   -999.2500
  2915.9000      7.6744      2.5926      0.0525      3.4774     20.5001   -999.2500
  2916.0000      7.6738      2.6025      0.0705      2.8759     20.2486   -999.2500
  2916.1000      7.6738      2.5863      0.0619      3.8592     19.6712   -999.2500
  2916.2000      7.6738      2.5557      0.0007      5.7157     18.8819   -999.2500
  2916.3000      7.6726      2.5313      0.0063      7.1937     17.9804   -999.2500
  2916.4000      7.6726      2.5236     -0.0085      7.6585     17.3776   -999.2500
  2916.5000      7.6702      2.5338     -0.0005      7.0418     17.3713   -999.2500
  2916.6000      7.6702      2.5559      0.0365      5.7005     17.8876   -999.2500
  2916.7000      7.6702      2.5801      0.0625      4.2389     18.4068   -999.2500
  2916.8000      7.6678      2.5990      0.0567      3.0898     18.3318   -999.2500
  2916.9000      7.6678      2.6057      0.1070      2.6873     17.8035   -999.2500
  2917.0000      7.6648      2.5938      0.0306      3.4062     17.3866   -999.2500
  2917.1000      7.6648      2.5658      0.0504      5.1007     17.3867   -999.2500
  2917.2000      7.6648      2.5347     -0.0027      6.9909     17.8074   -999.2500
  2917.3000      7.6601      2.5190      0.0225      7.9379     18.4131   -999.2500
  2917.4000      7.6601      2.5228      0.0288      7.7119     18.7802   -999.2500
  2917.5000      7.6594      2.5358      0.0033      6.9214     18.5880   -999.2500
  2917.6000      7.6594      2.5527      0.0559      5.8961     17.9403   -999.2500
  2917.7000      7.6594      2.5702      0.0412      4.8350     17.3025   -999.2500
  2917.8000      7.6652      2.5845      0.0604      3.9706     17.1739   -999.2500
  2917.9000      7.6652      2.5929      0.0221      3.4580     17.8069   -999.2500
  2918.0000      7.6701      2.5921      0.0784      3.5112     18.6113   -999.2500
  2918.1000      7.6701      2.5847      0.0228      3.9548     18.3996   -999.2500
  2918.2000      7.6701      2.5780      0.0646      4.3641     17.3220   -999.2500
  2918.3000      7.6700      2.5669      0.0405      5.0345     16.8066   -999.2500
  2918.4000      7.6700      2.5488      0.0286      6.1326     17.3732   -999.2500
  2918.5000      7.6690      2.5306      0.0497      7.2392     18.2393   -999.2500
  2918.6000      7.6690      2.5183      0.0021      7.9828     18.6582   -999.2500
  2918.7000      7.6690      2.5122      0.0639      8.3495     18.7837   -999.2500
  2918.8000      7.6704      2.5083      0.0250      8.5884     19.3605   -999.2500
  2918.9000      7.6704      2.5113      0.0128      8.4073     22.1638   -999.2500
  2919.0000      7.6722      2.5268      0.0159      7.4692     29.6654   -999.2500
  2919.1000      7.6722      2.5508      0.0135      6.0115     40.1552   -999.2500
  2919.2000      7.6722      2.5720      0.0766      4.7281     47.3829   -999.2500
  2919.3000      7.6734      2.5807      0.0571      4.1979     49.9647   -999.2500
  2919.4000      7.6734      2.5804      0.0543      4.2206     50.4689   -999.2500
  2919.5000      7.6729      2.5748      0.0904      4.5564     50.5220   -999.2500
  2919.6000      7.6729      2.5596      0.0691      5.4773     50.5250   -999.2500
  2919.7000      7.6729      2.5360      0.0435      6.9081   -999.2500   -999.2500
  2919.8000      7.6711      2.5236      0.0124      7.6598   -999.2500   -999.2500
  2919.9000      7.6711      2.5380      0.0258      6.7891   -999.2500   -999.2500
  2920.0000      7.6698      2.5603      0.0645      5.4366   -999.2500   -999.2500
  2920.1000      7.6698      2.5597      0.0662      5.4717   -999.2500   -999.2500
  2920.2000      7.6698      2.5363      0.0464      6.8905   -999.2500   -999.2500
  2920.3000      7.6687      2.5167      0.0093      8.0766   -999.2500   -999.2500
  2920.4000      7.6687      2.5201      0.0193      7.8723   -999.2500   -999.2500
  2920.5000      7.6680      2.5430      0.0558      6.4875   -999.2500   -999.2500
  2920.6000      7.6680      2.5726      0.0638      4.6886   -999.2500   -999.2500
  2920.7000      7.6680      2.5949      0.0994      3.3386   -999.2500   -999.2500
  2920.8000      7.6678      2.5944      0.0847      3.3686   -999.2500   -999.2500
  2920.9000      7.6678      2.5721      0.0776      4.7242   -999.2500   -999.2500
  2921.0000      7.6673      2.5465      0.0299      6.2753   -999.2500   -999.2500
  2921.1000      7.6673      2.5332      0.0486      7.0812   -999.2500   -999.2500
  2921.2000      7.6673      2.5317      0.0298      7.1684   -999.2500   -999.2500
  2921.3000      7.6683      2.5291      0.0635      7.3269   -999.2500   -999.2500
  2921.4000      7.6683      2.5184      0.0278      7.9734   -999.2500   -999.2500
  2921.5000      7.6693      2.5164     -0.0294      8.0957   -999.2500   -999.2500
  2921.6000      7.6693      2.5306      0.0457      7.2349   -999.2500   -999.2500
  2921.7000      7.6693      2.5416      0.0637      6.5668   -999.2500   -999.2500
  2921.8000      7.6682      2.5435      0.0200      6.4557   -999.2500   -999.2500
  2921.9000      7.6682      2.5468      0.0322      6.2543   -999.2500   -999.2500
  2922.0000      7.6678      2.5468      0.0514      6.2572   -999.2500   -999.2500
  2922.1000      7.6678      2.5373      0.0166      6.8297   -999.2500   -999.2500
  2922.2000      7.6678      2.5335     -0.0085      7.0602   -999.2500   -999.2500
  2922.3000      7.6686      2.5438      0.0518      6.4374   -999.2500   -999.2500
  2922.4000      7.6686      2.5552      0.0438      5.7472   -999.2500   -999.2500
  2922.5000      7.6697      2.5556      0.0734      5.7219   -999.2500   -999.2500
  2922.6000      7.6697      2.5476      0.0168      6.2090   -999.2500   -999.2500
  2922.7000      7.6697      2.5479     -0.0032      6.1889   -999.2500   -999.2500
  2922.8000      7.6697      2.5593      0.0568      5.4984   -999.2500   -999.2500
  2922.9000      7.6697      2.5583      0.0421      5.5593   -999.2500   -999.2500
  2923.0000      7.6688      2.5316      0.0518      7.1748   -999.2500   -999.2500
  2923.1000      7.6688      2.4931     -0.0116      9.5072   -999.2500   -999.2500
  2923.2000      7.6688      2.4656     -0.0301     11.1766   -999.2500   -999.2500
  2923.3000      7.6693      2.4585     -0.0130     11.6034   -999.2500   -999.2500
  2923.4000      7.6693      2.4686      0.0212     10.9958   -999.2500   -999.2500
  2923.5000      7.6698      2.4905      0.0218      9.6638   -999.2500   -999.2500
  2923.6000      7.6698      2.5222      0.0154      7.7470   -999.2500   -999.2500
  2923.7000      7.6698      2.5563      0.0187      5.6759   -999.2500   -999.2500
  2923.8000      7.6700      2.5747      0.0935      4.5644   -999.2500   -999.2500
  2923.9000      7.6700      2.5648      0.0523      5.1610   -999.2500   -999.2500
  2924.0000      7.6716      2.5475     -0.0089      6.2126   -999.2500   -999.2500
  2924.1000      7.6716      2.5518      0.0375      5.9487   -999.2500   -999.2500
