~Version Information
VERS.                      2.0: CWLS Log ASCII Standard - VERSION 2.0
WRAP.                       NO: One line per depth step
~Well Information Block
STRT.FT               583.0000: 
STOP.FT              1700.0000: 
STEP.FT                 0.1000: 
NULL.                -999.2500: 
COMP.          Pioneer Natural Resources: COMPANY
WELL.          Scott Canyon 11-18 Tr: WELL
FLD.           Purgatoire River: FIELD
LOC.           411' FNL & 580' FWL: LOCATION
PROV.                 Colorado: PROVINCE
CNTY.               Las Animas: COUNTRY
SRVC.                Patterson: SERVICE COMPANY
DATE.          Thu Feb 17 15:41:32 2005: LOG DATE
UWI.           05 071 08286 00: UNIQUE WELL ID
~Curve Information Block
DEPT.FT            0 000 00 00: Depth
DCAL.in                       : CDL Caliper
RHOB.g/cc                     : CDL Bulk Density
RHOC.g/cc                     : CDL Density Correction
DPOR.pu                       : CDL Density Porosity
GR.GAPI                       : Gamma Ray
NPOR.pu                       : Neutron Porosity
~Parameter Information Block
~A  Depth       DCAL        RHOB        RHOC        DPOR         GR         NPOR    
# ...
  1245.4000      7.9472      2.4893      0.0532      9.7374    123.7349     28.5961
  1245.5000      7.9417      2.4994      0.0198      9.1256    129.1067     28.4130
  1245.6000      7.9417      2.5038      0.0710      8.8599    130.8886     28.2507
  1245.7000      7.9417      2.5046      0.0439      8.8122    127.5950     28.4053
  1245.8000      7.9408      2.5099      0.0102      8.4920    124.5414     28.7260
  1245.9000      7.9408      2.5361      0.0586      6.9047    123.2808     29.0728
  1246.0000      7.9430      2.5854      0.0690      3.9129    122.7318     29.3724
  1246.1000      7.9430      2.6382      0.1390      0.7135    122.5781     29.4070
  1246.2000      7.9430      2.6747      0.0758     -1.4942    121.0316     29.4999
  1246.3000      7.9472      2.6898      0.1106     -2.4108    118.2039     29.8151
  1246.4000      7.9472      2.6813      0.0714     -1.8982    117.1880     29.7823
  1246.5000      7.9711      2.6531      0.0917     -0.1870    115.0138     29.2365
  1246.6000      7.9711      2.6234     -0.0029      1.6125    108.7137     28.5627
  1246.7000      7.9711      2.6108      0.0051      2.3777    103.5261     28.0528
  1246.8000      7.9408      2.6118     -0.0225      2.3127    104.2178     27.7957
  1246.9000      7.9408      2.6130     -0.0704      2.2442    109.9684     27.5828
  1247.0000      7.9492      2.6037     -0.0617      2.8059    116.3948     27.3829
  1247.1000      7.9492      2.5776     -0.0202      4.3902    119.0245     27.6758
  1247.2000      7.9492      2.5406      0.0109      6.6319    119.5755     28.5251
  1247.3000      7.9602      2.5086      0.0085      8.5696    121.8322     29.3303
  1247.4000      7.9602      2.4885      0.0298      9.7867    123.9407     29.3109
  1247.5000      7.9739      2.4784      0.0205     10.4028    125.6341     28.3731
  1247.6000      7.9739      2.4770      0.0004     10.4854    129.8667     27.2477
  1247.7000      7.9739      2.4812      0.0216     10.2317    134.5503     26.4448
  1247.8000      7.9590      2.4838      0.0070     10.0698    134.9334     25.9824
  1247.9000      7.9590      2.4869      0.0052      9.8840    132.9227     25.6883
  1248.0000      7.9531      2.5017      0.0168      8.9895    135.8658     25.2972
  1248.1000      7.9531      2.5252      0.0627      7.5667    145.5009     24.6478
  1248.2000      7.9531      2.5334      0.0776      7.0640    154.0537     24.0347
  1248.3000      7.9582      2.5182      0.0420      7.9888    155.5846     23.8346
  1248.4000      7.9582      2.5022     -0.0083      8.9565    153.3043     24.1304
  1248.5000      7.9304      2.4993      0.0345      9.1308    150.4719     24.8346
  1248.6000      7.9304      2.4959      0.0469      9.3422    145.3067     25.6073
  1248.7000      7.9304      2.4908     -0.0013      9.6500    139.6714     26.0293
  1248.8000      7.9261      2.5055      0.0193      8.7554    137.5533     26.0017
  1248.9000      7.9261      2.5374      0.0680      6.8245    135.9024     25.8419
  1249.0000      7.9064      2.5526      0.1150      5.9018    132.5267     25.7201
  1249.1000      7.9064      2.5371      0.0806      6.8450    129.0497     25.5545
  1249.2000      7.9064      2.5164      0.0308      8.0965    125.4626     25.4084
  1249.3000      7.8678      2.5100      0.0664      8.4879    123.1993     25.2385
  1249.4000      7.8678      2.5086      0.0682      8.5709    122.4657     25.1362
  1249.5000      7.8908      2.5083      0.0518      8.5896    121.1781     25.2925
  1249.6000      7.8908      2.5097      0.1273      8.5030    121.8285     25.3939
  1249.7000      7.8908      2.5063      0.0669      8.7097    126.2543     25.2197
  1249.8000      7.8910      2.5022      0.0560      8.9571    130.5214     25.2459
  1249.9000      7.8910      2.5106      0.0624      8.4500    131.1516     25.4777
  1250.0000      7.8768      2.5390      0.1027      6.7302    127.7368     25.5201
  1250.1000      7.8768      2.5787      0.1024      4.3221    122.5700     25.8976
  1250.2000      7.8768      2.6133      0.0867      2.2221    118.8887     26.9678
  1250.3000      7.8821      2.6349      0.1226      0.9167    117.5874     27.7356
  1250.4000      7.8821      2.6392      0.1266      0.6570    118.8121     27.5006
  1250.5000      7.9061      2.6186      0.0950      1.9031    124.0501     27.0487
  1250.6000      7.9061      2.5768      0.0337      4.4386    129.4982     26.9880
  1250.7000      7.9061      2.5406      0.0161      6.6296    128.5083     26.8182
  1250.8000      7.9138      2.5271      0.0109      7.4470    121.7235     26.3984
  1250.9000      7.9138      2.5248      0.0459      7.5899    114.8839     26.0127
  1251.0000      7.9327      2.5276      0.0239      7.4206    109.1093     25.7100
  1251.1000      7.9327      2.5448      0.0704      6.3772    103.0643     25.7151
  1251.2000      7.9327      2.5701      0.0462      4.8396    100.7138     26.0269
  1251.3000      7.9171      2.5837      0.0873      4.0212    104.8433     26.4373
  1251.4000      7.9171      2.5794      0.0460      4.2794    111.5807     26.9549
  1251.5000      7.9151      2.5665      0.0737      5.0625    115.6382     27.4548
  1251.6000      7.9151      2.5504      0.0398      6.0358    114.2895     27.7841
  1251.7000      7.9151      2.5419      0.0129      6.5515    107.3132     27.8982
  1251.8000      7.8826      2.5466      0.0728      6.2686     96.7526     27.4435
  1251.9000      7.8826      2.5489      0.0619      6.1284     88.6461     26.5550
  1252.0000      7.8969      2.5437      0.0494      6.4415     88.9195     26.0969
  1252.1000      7.8969      2.5419      0.0704      6.5544     95.5389     26.1884
  1252.2000      7.8969      2.5496      0.0767      6.0828    101.3053     25.9595
  1252.3000      7.8992      2.5713      0.0406      4.7696    103.3021     25.2902
  1252.4000      7.8992      2.6090      0.0594      2.4847    104.2963     24.9240
  1252.5000      7.9050      2.6469      0.1323      0.1868    105.2306     24.8091
  1252.6000      7.9050      2.6618      0.1227     -0.7152    104.6203     24.2948
  1252.7000      7.9050      2.6515      0.0974     -0.0910    103.7517     23.2802
  1252.8000      7.9083      2.6335      0.0833      0.9997    105.1084     22.4922
  1252.9000      7.9083      2.6192      0.1305      1.8695    108.1787     22.6915
  1253.0000      7.8990      2.6048      0.0797      2.7373    109.7456     23.8812
  1253.1000      7.8990      2.5913      0.0936      3.5553    109.2642     25.3462
  1253.2000      7.8990      2.5883      0.0804      3.7411    110.6736     26.1638
  1253.3000      7.9075      2.5976      0.0802      3.1756    113.5706     26.0112
  1253.4000      7.9075      2.6082      0.0584      2.5340    112.3742     25.3556
  1253.5000      7.9094      2.6091      0.0768      2.4785    108.3022     25.1078
  1253.6000      7.9094      2.6031      0.0445      2.8448    106.9454     25.6401
  1253.7000      7.9094      2.6039      0.0790      2.7958    108.9892     26.2341
  1253.8000      7.9020      2.6133      0.0918      2.2243    111.5022     26.1250
  1253.9000      7.9020      2.6161      0.1088      2.0559    110.8703     25.6598
  1254.0000      7.9058      2.6001      0.0752      3.0241    104.5440     25.5716
  1254.1000      7.9058      2.5693      0.0770      4.8899     96.1152     25.8701
  1254.2000      7.9058      2.5419      0.0169      6.5499     93.4389     26.2896
  1254.3000      7.8988      2.5309      0.0913      7.2159     98.8247     26.6190
  1254.4000      7.8988      2.5301      0.0562      7.2638    109.3752     26.7814
  1254.5000      7.8778      2.5385      0.0498      6.7581    119.3759     26.8823
  1254.6000      7.8778      2.5611      0.0804      5.3865    122.2987     26.7368
  1254.7000      7.8778      2.5956      0.0943      3.2990    117.5219     26.2535
  1254.8000      7.8578      2.6418      0.1084      0.4947    109.0000     26.1196
  1254.9000      7.8578      2.6929      0.1195     -2.5972    100.3237     26.6539
