~Version Information
VERS.                      2.0: CWLS Log ASCII Standard - VERSION 2.0
WRAP.                       NO: One line per depth step
~Well Information Block
STRT.FT                -9.2500: 
STOP.FT              2353.7500: 
STEP.FT                 0.2500: 
NULL.                -999.2500: 
COMP.          Petrogulf Corporation: COMPANY
WELL.             Kraft 17-23V: WELL
FLD.           Purgatorie River: FIELD
LOC.           1500' FSL & 1773' FWL--: LOCATION
PROV.                       CO: PROVINCE
CNTY.               Las Animas: COUNTRY
SRVC.          Patterson Wireline: SERVICE COMPANY
DATE.          Wed Dec 10 19:09:59 2003: LOG DATE
UWI.                          : UNIQUE WELL ID
~Curve Information Block
DEPT.FT            0 000 00 00: Depth
CCL.                          : Casing Collar Locator
TT3.usec                      : CBL 3' Travel Time
AMP3.mV                       : CBL 3' Amplitude
GR.GAPI                       : Gamma Ray
~Parameter Information Block
~A  Depth       CCL         TT3         AMP3         GR     
# ...
   761.2500      0.0000    818.0804      3.9091     58.9095
   761.5000      0.0000    832.1234      3.8261     60.0101
   761.7500      0.0000    846.9338      3.9122     61.6540
   762.0000      0.0000    859.6781      4.1198     64.2164
   762.2500      0.0000    869.0128      4.3327     67.6034
   762.5000      0.0000    875.0390      4.4313     70.8292
   762.7500      0.0000    878.1763      4.3502     72.7773
   763.0000      0.0000    878.5825      4.1118     73.3026
   763.2500      0.0000    876.9869      3.8249     73.3272
   763.5000      0.0000    875.3306      3.6373     73.8093
   763.7500      0.0000    875.4178      3.6565     74.7330
   764.0000      0.0000    876.9073      3.8847     75.1968
   764.2500      0.0000    877.5621      4.2151     74.4980
   764.5000      0.0000    875.7159      4.4953     73.0296
   764.7500      0.0000    871.8121      4.6079     72.0172
   765.0000      0.0000    867.2786      4.5212     72.3495
   765.2500      0.0000    862.7767      4.2974     73.7132
   765.5000      0.0000    858.2668      4.0605     74.9342
   765.7500      0.0000    854.1976      3.9321     75.1336
   766.0000      0.0000    851.6887      3.9646     74.4805
   766.2500      0.0000    851.5854      4.1205     73.9454
   766.5000      0.0000    853.7013      4.3076     74.5166
   766.7500      0.0000    856.9186      4.4362     76.5154
   767.0000      0.0000    859.9317      4.4560     79.3224
   767.2500      0.0000    861.9435      4.3577     81.8198
   767.5000      0.0000    862.3050      4.1520     83.3254
   767.7500      0.0000    859.3171      3.8509     84.0277
   768.0000      0.0000    850.3358      3.4708     84.5876
   768.2500      0.0000    834.4321      3.0531     85.5916
   768.5000      0.0000    815.2253      2.6816     87.1566
   768.7500      0.0000    800.2524      2.4635     88.6113
   769.0000      0.0000    796.6151      2.4648     88.7462
   769.2500      0.0000    806.5886      2.6443     86.8775
   769.5000      0.0000    826.2444      2.8634     83.6512
   769.7500      0.0000    847.6457      2.9882     80.4626
   770.0000      0.0000    863.8262      2.9931     77.9418
   770.2500      0.0000    873.3703      2.9533     75.2158
   770.5000      0.0000    880.0236      2.9350     71.0498
   770.7500      0.0000    887.6110      2.9225     65.6406
   771.0000      0.0000    896.1731      2.8697     60.7169
   771.2500      0.0000    902.6281      2.7937     57.8978
   771.5000      0.0000    903.2448      2.7759     57.5601
   771.7500      0.0000    895.3331      2.8691     59.2212
   772.0000      0.0000    878.6829      3.0294     62.1649
   772.2500      0.0000    856.6589      3.1481     65.4025
   772.5000      0.0000    834.9573      3.1386     67.6920
   772.7500      0.0000    818.0142      2.9955     68.4259
   773.0000      0.0000    806.7422      2.7928     68.5784
   773.2500      0.0000    800.4297      2.6349     70.1201
   773.5000      0.0000    799.6512      2.5934     74.0595
   773.7500      0.0000    805.4462      2.6698     79.4576
   774.0000      0.0000    816.0316      2.8093     84.6757
   774.2500      0.0000    826.4861      2.9418     88.9584
   774.5000      0.0000    832.3384      3.0142     92.4306
   774.7500      0.0000    832.1577      3.0006     95.2351
   775.0000      0.0000    826.6277      2.9016     97.3548
   775.2500      0.0000    817.0613      2.7351     98.9829
   775.5000      0.0000    805.3837      2.5271    100.4972
   775.7500      0.0000    794.0767      2.3135    101.9443
   776.0000      0.0000    785.2065      2.1446    102.6770
   776.2500      0.0000    779.7134      2.0716    101.6587
   776.5000      0.0000    778.0454      2.1197     98.3261
   776.7500      0.0000    781.4292      2.2738     93.2746
   777.0000      0.0000    791.5808      2.4798     88.0706
   777.2500      0.0000    807.8781      2.6603     84.4385
   777.5000      0.0000    824.8218      2.7500     83.5695
   777.7500      0.0000    834.0691      2.7381     85.8364
   778.0000      0.0000    830.6725      2.6668     90.6032
   778.2500      0.0000    817.5631      2.5797     96.0808
   778.5000      0.0000    803.4949      2.4810     99.8536
   778.7500      0.0000    796.1590      2.3549    100.2398
   779.0000      0.0000    796.5717      2.2156     97.4614
   779.2500      0.0000    799.2723      2.1208     93.4697
   779.5000      0.0000    798.0213      2.1289     90.5836
   779.7500      0.0000    791.9105      2.2443     90.1131
   780.0000      0.0000    785.9977      2.4075     91.7947
   780.2500      0.0000    785.8203      2.5352     94.1740
   780.5000      0.0000    791.6059      2.5703     95.6215
   780.7500      0.0000    797.8907      2.5066     95.3504
   781.0000      0.0000    798.4286      2.3799     93.9179
   781.2500      0.0000    791.3380      2.2453     92.9272
   781.5000      0.0000    780.0462      2.1548     93.9019
   781.7500      0.0000    770.0756      2.1402     97.0522
   782.0000      0.0000    765.2215      2.2054    101.1264
   782.2500      0.0000    765.3349      2.3353    104.5241
   782.5000      0.0000    766.4030      2.5102    106.3633
   782.7500      0.0000    764.1395      2.7104    106.5132
   783.0000      0.0000    759.2248      2.9062    105.1901
   783.2500      0.0000    758.1685      3.0500    102.8514
   783.5000      0.0000    767.7968      3.0891     99.9672
   783.7500      0.0000    788.9720      2.9997     96.5768
   784.0000      0.0000    815.6314      2.8133     92.5659
   784.2500      0.0000    839.4161      2.6048     88.7572
   784.5000      0.0000    855.1260      2.4512     87.0267
   784.7500     -2.0000    862.3098      2.3991     88.5604
   785.0000      0.0000    863.0880      2.4586     92.2763
   785.2500      0.0000    859.8796      2.6151     95.6568
   785.5000      0.0000    855.1595      2.8363     97.1113
   785.7500      0.0000    851.7397      3.0649     97.1670
   786.0000      0.0000    851.5319      3.2145     97.5570
   786.2500      0.0000    853.6208      3.1968     99.4684
   786.5000      0.0000    854.6228      2.9835    102.3112
   786.7500      0.0000    851.5736      2.6424    103.9043
   787.0000      0.0000    844.1451      2.2924    102.3355
   787.2500      0.0000    834.1714      2.0206     98.0787
   787.5000      0.0000    823.6528      1.8412     93.9387
   787.7500      0.0000    813.3480      1.7218     92.5189
   788.0000      0.0000    802.8451      1.6391     93.8444
   788.2500      0.0000    790.7687      1.6049     95.5738
   788.5000      0.0000    774.2416      1.6405     95.3543
   788.7500      0.0000    750.5639      1.7363     92.9430
   789.0000      0.0000    721.8760      1.8485     90.2517
   789.2500      0.0000    696.6057      1.9337     89.5108
   789.5000      0.0000    684.3074      1.9739     91.3708
   789.7500      0.0000    689.4025      1.9650     94.5254
   790.0000      0.0000    708.9608      1.8966     96.8854
   790.2500      0.0000    733.9711      1.7571     97.1808
   790.5000      0.0000    753.5285      1.5649     95.7231
   790.7500      0.0000    761.7063      1.3849     93.7807
   791.0000      0.0000    761.6887      1.2966     92.2968
   791.2500      0.0000    761.4780      1.3312     91.1920
   791.5000      0.0000    765.5582      1.4376     89.6463
   791.7500      0.0000    772.0714      1.5248     86.9122
   792.0000      0.0000    776.9793      1.5431     82.9998
   792.2500      0.0000    778.6210      1.5208     78.8007
   792.5000      0.0000    778.3910      1.5180     75.7085
   792.7500      0.0000    778.7705      1.5543     75.0152
   793.0000      0.0000    781.1252      1.5873     77.1927
   793.2500      0.0000    784.2177      1.5648     81.2829
   793.5000      0.0000    784.3110      1.4890     85.1103
   793.7500      0.0000    778.3445      1.4222     86.6630
   794.0000      0.0000    768.2695      1.4262     85.6391
   794.2500      0.0000    760.4539      1.4982     83.6187
   794.5000      0.0000    759.0029      1.5731     82.6867
