~Version Information
VERS.                      2.0: CWLS Log ASCII Standard - VERSION 2.0
WRAP.                       NO: One line per depth step
~Well Information Block
STRT.FT                -6.7500: 
STOP.FT               983.2500: 
STEP.FT                 0.2500: 
NULL.                -999.2500: 
COMP.          Pioneer Natural Resources: COMPANY
WELL.          Run-Away-Train 43-26: WELL
FLD.           Purgatorie River: FIELD
LOC.           1693' FSL & 1195' FWL------------: LOCATION
PROV.                       CO: PROVINCE
CNTY.               Las Animas: COUNTRY
SRVC.          Patterson Wireline: SERVICE COMPANY
DATE.          Thu Apr 14 12:30:00 2005: LOG DATE
UWI.           05 071 08188 00: UNIQUE WELL ID
~Curve Information Block
DEPT.FT            0 000 00 00: Depth
CCL.                          : Casing Collar Locator
TT3.usec                      : CBL 3' Travel Time
AMP3.mV                       : CBL 3' Amplitude
GR.GAPI                       : Gamma Ray
~Parameter Information Block
~A  Depth       CCL         TT3         AMP3         GR     
# ...
   395.2500      0.0000    760.4717      8.1742     92.5875
   395.5000      0.0000    761.3423      8.0717    100.8420
   395.7500      0.0000    762.6791      7.8775    106.8141
   396.0000      0.0000    763.0460      7.6089    109.8935
   396.2500      0.0000    761.2756      7.3224    110.6105
   396.5000      0.0000    757.8707      7.0652    109.4006
   396.7500      0.0000    755.4072      6.8378    106.3488
   397.0000      0.0000    757.0057      6.5988    101.9985
   397.2500      0.0000    764.3692      6.3118     97.7926
   397.5000      0.0000    777.0511      5.9875     95.2683
   397.7500      0.0000    792.8353      5.6776     94.9076
   398.0000      0.0000    808.7635      5.4305     96.0862
   398.2500      0.0000    822.5933      5.2621     98.1614
   398.5000      0.0000    833.5863      5.1589    101.2858
   398.7500      0.0000    841.7678      5.0928    105.7850
   399.0000      0.0000    846.9811      5.0356    110.7944
   399.2500      0.0000    849.4500      4.9750    114.0175
   399.5000      0.0000    850.8286      4.9190    113.4473
   399.7500      0.0000    853.4362      4.8745    109.3685
   400.0000      0.0000    858.1568      4.8229    104.1577
   400.2500      0.0000    863.7144      4.7278     99.9739
   400.5000      0.0000    868.0280      4.5677     97.0042
   400.7500      0.0000    869.5411      4.3618     93.9537
   401.0000      0.0000    867.1375      4.1707     89.7957
   401.2500      0.0000    859.5464      4.0630     84.8414
   401.5000      0.0000    845.7151      4.0651     80.2455
   401.7500      0.0000    826.2175      4.1381     76.7386
   402.0000      0.0000    804.2800      4.2024     73.9530
   402.2500      0.0000    785.0168      4.1904     71.0536
   402.5000      0.0000    773.2097      4.0867     68.0398
   402.7500      0.0000    771.6843      3.9315     66.2321
   403.0000      0.0000    780.5889      3.8022     67.0874
   403.2500      0.0000    796.0969      3.7821     70.4393
   403.5000      0.0000    810.2125      3.9065     74.2992
   403.7500      0.0000    815.9661      4.1228     76.8419
   404.0000      0.0000    814.9966      4.3245     78.3639
   404.2500      0.0000    817.3525      4.4445     80.7266
   404.5000      2.0000    831.8909      4.5167     85.0733
   404.7500      2.0000    858.0902      4.6328     90.8856
   405.0000      0.0000    886.8754      4.8321     97.2574
   405.2500      0.0000    906.4692      5.0509    103.9662
   405.5000      0.0000    907.6691      5.2033    110.6348
   405.7500      0.0000    888.0881      5.2748    115.7023
   406.0000      0.0000    854.6429      5.2869    117.3367
   406.2500      0.0000    820.5698      5.2105    115.3153
   406.5000      0.0000    797.4045      4.9908    111.3571
   406.7500      0.0000    789.1966      4.6389    107.6973
   407.0000      0.0000    793.6498      4.2431    105.6781
   407.2500      0.0000    806.4663      3.9028    105.2443
   407.5000      0.0000    823.3757      3.6798    105.1707
   407.7500      0.0000    840.0477      3.5924    104.0626
   408.0000      0.0000    852.5472      3.6172    101.5757
   408.2500      0.0000    858.1714      3.6947     98.6394
   408.5000      0.0000    855.4705      3.7573     96.4460
   408.7500      0.0000    844.3835      3.7690     95.5475
   409.0000      0.0000    827.6140      3.7426     96.0296
   409.2500      0.0000    811.0008      3.7202     97.9314
   409.5000      0.0000    800.2295      3.7371    100.8574
   409.7500      0.0000    796.3498      3.7943    103.5008
   410.0000      0.0000    795.7400      3.8678    104.2894
   410.2500      0.0000    794.9619      3.9395    102.6390
   410.5000      0.0000    794.1735      4.0054     99.2192
   410.7500      0.0000    794.4003      4.0616     95.1284
   411.0000      0.0000    792.0274      4.1043     91.3239
   411.2500      0.0000    778.2971      4.1373     88.7701
   411.5000      0.0000    747.0446      4.1662     88.2772
   411.7500      0.0000    703.6742      4.1909     89.5760
   412.0000      0.0000    663.6118      4.2030     90.8869
   412.2500      0.0000    639.0059      4.1880     90.0838
   412.5000      0.0000    628.5710      4.1353     86.4839
   412.7500      0.0000    623.2057      4.0456     81.3691
   413.0000      0.0000    618.7435      3.9219     76.8672
   413.2500      0.0000    618.4502      3.7691     74.4427
   413.5000      0.0000    625.3163      3.6068     74.2644
   413.7500      0.0000    638.1519      3.4696     75.6174
   414.0000      0.0000    654.8593      3.3867     77.5492
   414.2500      0.0000    674.2640      3.3648     79.0464
   414.5000      0.0000    694.2111      3.3846     79.1608
   414.7500      0.0000    711.3224      3.4145     77.6892
   415.0000      0.0000    723.3265      3.4351     75.5944
   415.2500      0.0000    730.2451      3.4446     74.1828
   415.5000      0.0000    733.4630      3.4450     73.9402
   415.7500      0.0000    734.5282      3.4377     74.6022
   416.0000      0.0000    734.7636      3.4311     76.1668
   416.2500      0.0000    735.2715      3.4397     79.1689
   416.5000      0.0000    736.6654      3.4742     83.7407
   416.7500      0.0000    738.6607      3.5331     88.7430
   417.0000      0.0000    740.3321      3.6046     92.2040
   417.2500      0.0000    741.2591      3.6757     92.7529
   417.5000      0.0000    742.1733      3.7459     90.7812
   417.7500      0.0000    744.3715      3.8326     88.1850
   418.0000      0.0000    748.7938      3.9550     86.7897
   418.2500      0.0000    755.4112      4.1083     86.9551
   418.5000      0.0000    762.5875      4.2602     87.7587
   418.7500      0.0000    767.4706      4.3760     88.3033
   419.0000      0.0000    768.4835      4.4414     88.5459
   419.2500      0.0000    767.4304      4.4717     89.0703
   419.5000      0.0000    767.9321      4.5046     90.5702
   419.7500      0.0000    771.6038      4.5714     93.5405
   420.0000      0.0000    776.5057      4.6778     97.9247
   420.2500      0.0000    779.8272      4.8151    102.8315
   420.5000      0.0000    781.9144      4.9738    106.8246
   420.7500      0.0000    786.6531      5.1440    108.8043
   421.0000      0.0000    797.0509      5.3182    108.7155
   421.2500      0.0000    811.0220      5.4892    107.4641
   421.5000      0.0000    822.1414      5.6432    106.2802
   421.7500      0.0000    824.0134      5.7646    105.9020
   422.0000      0.0000    813.9515      5.8502    105.7657
   422.2500      0.0000    794.3046      5.9132    104.0805
   422.5000      0.0000    771.0538      5.9699     99.5266
   422.7500      0.0000    749.3922      6.0277     93.0952
   423.0000      0.0000    728.5292      6.0892     87.6380
   423.2500      0.0000    700.6132      6.1590     85.2339
   423.5000      0.0000    656.3159      6.2419     85.1691
   423.7500      0.0000    593.8257      6.3461     84.7256
   424.0000      0.0000    523.2833      6.4878     81.9878
   424.2500      0.0000    460.9989      6.6772     77.7055
   424.5000      0.0000    418.2235      6.9063     74.2961
   424.7500      0.0000    395.5460      7.1589     73.3816
   425.0000      0.0000    386.5350      7.4067     74.5932
   425.2500      0.0000    384.2326      7.5998     76.5213
   425.5000      0.0000    384.3357      7.6990     78.4122
   425.7500      0.0000    384.9630      7.7143     80.8069
   426.0000      0.0000    385.4792      7.6778     84.6507
   426.2500      0.0000    385.7384      7.6045     89.9311
   426.5000      0.0000    385.7710      7.5166     95.1929
   426.7500      0.0000    385.6823      7.4681     98.2933
   427.0000      0.0000    385.5780      7.4986     97.6582
   427.2500      0.0000    385.5456      7.5918     93.2442
   427.5000      0.0000    385.6709      7.7087     86.7508
   427.7500      0.0000    386.0315      7.8302     80.7083
   428.0000      0.0000    386.6381      7.9483     76.8788
   428.2500      0.0000    387.3892      8.0439     75.4107
   428.5000      0.0000    388.1154      8.0893     75.5395
