~Version Information
VERS.                      2.0: CWLS Log ASCII Standard - VERSION 2.0
WRAP.                       NO: One line per depth step
~Well Information Block
STRT.FT               418.4000: 
STOP.FT              1170.0000: 
STEP.FT                 0.1000: 
NULL.                -999.2500: 
COMP.          Evergreen Operating Corporation: COMPANY
WELL.             Bernice 21-3: WELL
FLD.           Purgatoire River: FIELD
LOC.           201' FNL & 2575' FWL: LOCATION
PROV.                 Colorado: PROVINCE
CNTY.               Las Animas: COUNTRY
SRVC.                Patterson: SERVICE COMPANY
DATE.          Mon Jan 26 14:55:16 2004: LOG DATE
UWI.             05 071 07912 : UNIQUE WELL ID
~Curve Information Block
DEPT.FT            0 000 00 00: Depth
DCAL.in                       : CDL Caliper
RHOB.g/cc                     : CDL Bulk Density
RHOC.g/cc                     : CDL Density Correction
DPOR.pu                       : CDL Density Porosity
NPOR.pu                       : Neutron Porosity
GR.GAPI                       : Gamma Ray
~Parameter Information Block
~A  Depth       DCAL        RHOB        RHOC        DPOR        NPOR         GR     
# ...
   572.0000      8.1920      2.5571      0.0416      5.6300     22.7014    115.2190
   572.1000      8.1920      2.5602      0.0883      5.4412     22.0217    107.9780
   572.2000      8.1920      2.5563      0.0069      5.6773     21.7976    102.5514
   572.3000      8.1791      2.5588      0.0270      5.5252     21.7885     95.8597
   572.4000      8.1791      2.5627      0.0275      5.2888     22.0548     87.9669
   572.5000      8.1600      2.5568      0.0387      5.6504     22.6589     83.0976
   572.6000      8.1600      2.5446      0.0451      6.3891     23.3348     82.4163
   572.7000      8.1600      2.5327      0.0024      7.1108     23.7417     83.0486
   572.8000      8.1873      2.5284     -0.0459      7.3688     23.7631     82.7613
   572.9000      8.1873      2.5357     -0.0069      6.9275     23.6346     81.4218
   573.0000      8.1924      2.5417     -0.0044      6.5635     23.6447     80.5788
   573.1000      8.1924      2.5407     -0.0495      6.6228     23.7309     82.3055
   573.2000      8.1924      2.5449     -0.0118      6.3708     23.8048     84.0247
   573.3000      8.1898      2.5589     -0.0112      5.5198     24.0525     81.0907
   573.4000      8.1898      2.5771      0.0035      4.4195     24.5768     76.4730
   573.5000      8.1899      2.5908     -0.0145      3.5900     25.3154     75.9068
   573.6000      8.1899      2.5962      0.0025      3.2584     26.1984     78.8504
   573.7000      8.1899      2.5941     -0.0027      3.3855     26.9978     82.2433
   573.8000      8.1884      2.5819      0.0146      4.1299     27.5144     86.1036
   573.9000      8.1884      2.5609     -0.0131      5.3987     27.8676     89.8858
   574.0000      8.1878      2.5443     -0.0058      6.4052     28.1118     90.7757
   574.1000      8.1878      2.5373      0.0458      6.8298     28.2986     90.1164
   574.2000      8.1878      2.5286      0.0184      7.3561     28.6274     94.5659
   574.3000      8.1970      2.5103      0.0096      8.4640     28.8735    106.1154
   574.4000      8.1970      2.4822     -0.0063     10.1680     28.8749    118.5735
   574.5000      8.2092      2.4548     -0.0491     11.8322     29.0873    129.0225
   574.6000      8.2092      2.4425     -0.0587     12.5745     29.7636    139.4424
   574.7000      8.2092      2.4413     -0.0115     12.6464     30.5371    147.5395
   574.8000      8.2160      2.4437     -0.0335     12.5006     30.8832    148.9940
   574.9000      8.2160      2.4551      0.0262     11.8103     30.5240    144.7995
   575.0000      8.2125      2.4644      0.0650     11.2505     29.5184    143.6629
   575.1000      8.2125      2.4393      0.0650     12.7706     28.1708    151.6599
   575.2000      8.2125      2.3657      0.0495     17.2311     26.9703    160.6832
   575.3000      8.2064      2.2689     -0.0118     23.0993     26.3295    162.2259
   575.4000      8.2064      2.1890     -0.0536     27.9401     25.7897    160.3992
   575.5000      8.2409      2.1492     -0.0794     30.3525     24.5342    161.5036
   575.6000      8.2409      2.1478     -0.0371     30.4339     22.7539    161.5930
   575.7000      8.2409      2.1667      0.0118     29.2891     21.1652    154.7629
   575.8000      8.2602      2.1929      0.0483     27.7019     20.0330    148.2825
   575.9000      8.2602      2.2290      0.0749     25.5124     19.3129    151.4166
   576.0000      8.2490      2.2795      0.1467     22.4537     18.9939    159.5557
   576.1000      8.2490      2.3343      0.2473     19.1344     18.9956    161.8906
   576.2000      8.2490      2.3745      0.2587     16.6957     19.2565    153.1788
   576.3000      8.2243      2.4010      0.1409     15.0899     20.0006    139.3833
   576.4000      8.2243      2.4296      0.0850     13.3570     21.1520    130.4584
   576.5000      8.2161      2.4618      0.0831     11.4055     22.1574    127.2687
   576.6000      8.2161      2.4902      0.0637      9.6874     22.8652    125.7366
   576.7000      8.2161      2.5128      0.0620      8.3161     23.5922    126.3226
   576.8000      8.1677      2.5267      0.0546      7.4718     24.2489    129.3193
   576.9000      8.1677      2.5303      0.0301      7.2533     24.6087    129.3257
   577.0000      8.1618      2.5325      0.0057      7.1219     24.8651    122.3428
   577.1000      8.1618      2.5365      0.0326      6.8814     25.1627    111.9295
   577.2000      8.1618      2.5372      0.0020      6.8393     25.2745    104.1734
   577.3000      8.1748      2.5423      0.0187      6.5291     25.1487    103.5975
   577.4000      8.1748      2.5556      0.0077      5.7197     25.0568    108.5798
   577.5000      8.1604      2.5593      0.0475      5.4942     25.3131    110.2671
   577.6000      8.1604      2.5476      0.0023      6.2044     25.8415    105.3014
   577.7000      8.1604      2.5457      0.0019      6.3232     26.2508     98.9078
   577.8000      8.1562      2.5573      0.0344      5.6159     26.5074     95.1452
   577.9000      8.1562      2.5578      0.0035      5.5859     26.8214     93.9181
   578.0000      8.1581      2.5450      0.0054      6.3638     27.1642     92.8488
   578.1000      8.1581      2.5342      0.0070      7.0178     27.3907     92.3605
   578.2000      8.1581      2.5306      0.0329      7.2352     27.4193     96.1167
   578.3000      8.1634      2.5359     -0.0081      6.9168     27.4755    103.9505
   578.4000      8.1634      2.5548      0.0328      5.7697     27.6365    110.3292
   578.5000      8.1648      2.5804      0.0062      4.2201     27.5512    111.4456
   578.6000      8.1648      2.5964      0.0346      3.2493     27.2781    107.6382
   578.7000      8.1648      2.5963      0.0577      3.2562     27.3486    103.7382
   578.8000      8.1701      2.5929      0.0222      3.4621     27.6216    103.2294
   578.9000      8.1701      2.6001      0.0464      3.0224     27.5429    105.0930
   579.0000      8.1728      2.6103      0.0418      2.4072     27.3587    107.2310
   579.1000      8.1728      2.6137      0.0231      2.1981     27.4721    108.1745
   579.2000      8.1728      2.6127      0.0260      2.2630     27.6340    108.4793
   579.3000      8.1772      2.6120      0.0474      2.3029     27.5419    109.4139
   579.4000      8.1772      2.6136      0.0379      2.2077     27.2262    110.4321
   579.5000      8.1809      2.6124      0.0403      2.2776     26.9408    109.6790
   579.6000      8.1809      2.6002      0.0226      3.0188     26.9293    107.7641
   579.7000      8.1809      2.5759     -0.0038      4.4915     27.0389    106.4265
   579.8000      8.1789      2.5582     -0.0269      5.5627     26.9030    106.1952
   579.9000      8.1789      2.5705     -0.0100      4.8169     26.4582    107.8467
   580.0000      8.1811      2.6044      0.0387      2.7655     26.1096    110.5047
   580.1000      8.1811      2.6261      0.0373      1.4500     26.0284    111.1826
   580.2000      8.1811      2.6200      0.0383      1.8165     25.9178    109.8735
   580.3000      8.1792      2.6051     -0.0045      2.7238     25.8922    110.2326
   580.4000      8.1792      2.6036     -0.0089      2.8144     26.2294    112.8824
   580.5000      8.1784      2.6068      0.0174      2.6202     26.5508    112.9699
   580.6000      8.1784      2.5989      0.0132      3.0996     26.4783    108.5490
   580.7000      8.1784      2.5902     -0.0142      3.6265     26.0775    104.0719
   580.8000      8.1801      2.5949     -0.0123      3.3382     25.6183    103.5045
   580.9000      8.1801      2.6055      0.0409      2.6946     25.4407    105.5076
   581.0000      8.1821      2.6052      0.0406      2.7157     25.6770    106.4849
   581.1000      8.1821      2.5922      0.0215      3.5058     26.0564    106.0894
   581.2000      8.1821      2.5797     -0.0004      4.2623     26.2224    105.3825
   581.3000      8.1794      2.5776     -0.0132      4.3903     26.3241    103.4136
   581.4000      8.1794      2.5798     -0.0078      4.2547     26.4199     98.9539
   581.5000      8.1789      2.5760     -0.0058      4.4829     26.3484     93.3739
