~Version Information
VERS.                      2.0: CWLS Log ASCII Standard - VERSION 2.0
WRAP.                       NO: One line per depth step
~Well Information Block
STRT.FT               890.0000: 
STOP.FT              1589.0000: 
STEP.FT                 0.2500: 
NULL.                -999.2500: 
COMP.          Evergreen Operating Corporation: COMPANY
WELL.            Tomahawk 44-9: WELL
FLD.           Purgatorie River: FIELD
LOC.           434' FSL & 491' FEL: LOCATION
PROV.                 Colorado: PROVINCE
CNTY.               Las Animas: COUNTRY
SRVC.                         : SERVICE COMPANY
DATE.          Sat Sep 11 23:05:26 2004: LOG DATE
UWI.           05 071 08133 00: UNIQUE WELL ID
~Curve Information Block
DEPT.FT            0 000 00 00: Depth
LTEN.lb                       : Surface Line Tension
SN.Ohm-m                      : IEL Short Normal
SP.mV                         : IEL Spontaneous Potential
DIR.Ohm-m                     : IEL Induction Resistivity
GR.GAPI                       : Gamma Ray
~Parameter Information Block
~A  Depth       LTEN         SN          SP         DIR          GR     
# ...
  1114.0000    873.6749   2000.0000   2040.0000     18.0704     87.6654
  1114.2500    871.9565   2000.0000   2040.0000     19.7351     85.4063
  1114.5000    869.3183   2000.0000   2040.0000     21.5057     84.6232
  1114.7500    867.6308   2000.0000   2040.0000     23.4194     85.5156
  1115.0000    867.6526   2000.0000   2040.0000     25.4927     87.8113
  1115.2500    868.4177   2000.0000   2040.0000     27.6358     89.2854
  1115.5000    868.0599   2000.0000   2040.0000     29.6338     90.5105
  1115.7500    865.1476   2000.0000   2040.0000     31.2546     90.3833
  1116.0000    859.5615   2000.0000   2040.0000     32.3971     89.0396
  1116.2500    852.4147   2000.0000   2040.0000     33.0762     87.9998
  1116.5000    845.2865   2000.0000   2040.0000     33.2114     87.3765
  1116.7500    839.5681   2000.0000   2040.0000     32.4850     87.8452
  1117.0000    836.1876   2000.0000   2040.0000     30.5704     89.5491
  1117.2500    835.3861   2000.0000   2040.0000     27.5948     90.9556
  1117.5000    836.5969   2000.0000   2040.0000     24.2027     92.6244
  1117.7500    838.5544   2000.0000   2040.0000     21.0852     92.8869
  1118.0000    839.5320   2000.0000   2040.0000     18.6019     91.4968
  1118.2500    838.0638   2000.0000   2040.0000     16.7857     89.7729
  1118.5000    834.1458   2000.0000   2040.0000     15.5022     87.9451
  1118.7500    829.4803   2000.0000   2040.0000     14.5754     88.7159
  1119.0000    825.8772   2000.0000   2040.0000     13.8534     94.9255
  1119.2500    823.5623   2000.0000   2040.0000     13.2293    102.8597
  1119.5000    821.3080   2000.0000   2040.0000     12.6346    119.2172
  1119.7500    817.8005   2000.0000   2040.0000     12.0317    131.3099
  1120.0000    812.6306   2000.0000   2040.0000     11.4149    147.6723
  1120.2500    806.5742   2000.0000   2040.0000     10.8093    156.0135
  1120.5000    801.3639   2000.0000   2040.0000     10.2512    164.2349
  1120.7500    798.7515   2000.0000   2040.0000      9.7665    167.2633
  1121.0000    799.2361   2000.0000   2040.0000      9.3648    168.8036
  1121.2500    801.6953   2000.0000   2040.0000      9.0480    168.1206
  1121.5000    804.3236     10.0088   2040.0000      8.8167    165.2644
  1121.7500    805.8145      9.9679   2040.0000      8.6689    162.6942
  1122.0000    805.8076     10.0506   2040.0000      8.5951    158.5765
  1122.2500    804.6475     10.1931   2040.0000      8.5782    155.8851
  1122.5000    802.9156     10.3266    -51.1105      8.5972    152.2540
  1122.7500    800.9994     10.4080    -50.4661      8.6325    150.3947
  1123.0000    798.9132     10.4404    -49.8279      8.6680    149.1510
  1123.2500    796.5568     10.4648    -49.1569      8.6922    149.7343
  1123.5000    794.2272     10.5241    -48.4251      8.6982    152.7865
  1123.7500    792.6601     10.6252    -47.6494      8.6858    155.7535
  1124.0000    792.1781     10.7263    -46.9017      8.6619    160.1246
  1124.2500    791.8825     10.7547    -46.3034      8.6346    162.2638
  1124.5000    790.1946     10.6399    -45.9917      8.6038    163.8596
  1124.7500    786.3430     10.3439    -46.0843      8.5567    163.9702
  1125.0000    781.1008      9.8736    -46.6311      8.4738    163.2652
  1125.2500    776.1760      9.2737    -47.5971      8.3413    162.6563
  1125.5000    773.1125      8.6105    -48.8666      8.1610    162.3552
  1125.7500    772.4368      7.9583    -50.2676      7.9498    162.8880
  1126.0000    773.2006      7.3890    -51.6203      7.7345    164.6333
  1126.2500    773.2927      6.9581    -52.7732      7.5447    165.8757
  1126.5000    770.8792      6.6898    -53.6386      7.4068    166.7544
  1126.7500    766.0505      6.5734    -54.1955      7.3366    166.4149
  1127.0000    760.7665      6.5752    -54.4726      7.3361    164.8438
  1127.2500    756.7834      6.6584    -54.5278      7.3935    163.4131
  1127.5000    753.9686      6.7946    -54.4210      7.4886    160.8282
  1127.7500    750.9762      6.9635    -54.2104      7.5995    158.5573
  1128.0000    747.1681      7.1463    -53.9487      7.7092    153.7413
  1128.2500    743.4238      7.3215    -53.6979      7.8081    149.6406
  1128.5000    741.3357      7.4693    -53.5305      7.8926    143.6467
  1128.7500    741.9639      7.5807    -53.5278      7.9636    141.1991
  1129.0000    745.0806      7.6644    -53.7627      8.0241    141.6292
  1129.2500    749.1143      7.7420    -54.2836      8.0781    144.4972
  1129.5000    751.9390      7.8344    -55.0968      8.1269    150.5059
  1129.7500    752.1376      7.9498    -56.1519      8.1663    154.0560
  1130.0000    749.7821      8.0816    -57.3491      8.1863    156.8381
  1130.2500    746.2610      8.2145    -58.5447      8.1751    156.7161
  1130.5000    743.4803      8.3320    -59.5823      8.1255    154.1201
  1130.7500    742.8331      8.4213    -60.3239      8.0403    151.4869
  1131.0000    744.3543      8.4737    -60.6845      7.9333    147.9621
  1131.2500    746.7878      8.4822    -60.6591      7.8272    147.0102
  1131.5000    748.6367      8.4386    -60.3172      7.7487    148.6995
  1131.7500    749.1701      8.3364    -59.7863      7.7235    151.7144
  1132.0000    748.5934      8.1823    -59.2148      7.7692    158.0202
  1132.2500    747.6948      8.0082    -58.7341      7.8917    162.7516
  1132.5000    747.4089      7.8726    -58.4295      8.0828    169.5180
  1132.7500    748.2522      7.8439    -58.3349      8.3227    173.2462
  1133.0000    749.8846      7.9750    -58.4312      8.5845    177.1341
  1133.2500    751.3566      8.2848    -58.6615      8.8419    178.2918
  1133.5000    751.8463      8.7568    -58.9358      9.0787    176.5708
  1133.7500    751.0852      9.3523    -59.1417      9.2946    172.1800
  1134.0000    749.2180     10.0257    -59.1562      9.5025    160.5607
  1134.2500    746.5506     10.7325    -58.8616      9.7178    150.5121
  1134.5000    743.6110     11.4297    -58.1685      9.9489    134.4721
  1134.7500    741.2659     12.0714    -57.0405     10.1924    124.3406
  1135.0000    740.3468     12.6061    -55.5117     10.4326    111.7307
  1135.2500    740.9333     12.9765    -53.6884     10.6455    106.0043
  1135.5000    742.2916     13.1269    -51.7425     10.8068    102.4854
  1135.7500    743.7715     13.0193    -49.8817     10.8996    103.4440
  1136.0000    745.4515     12.6528    -48.3119     10.9142    108.4262
  1136.2500    747.7501     12.0735    -47.2018     10.8391    112.8724
  1136.5000    750.7307     11.3682    -46.6421     10.6606    119.4616
  1136.7500    753.8956     10.6410    -46.6315     10.3759    123.4620
  1137.0000    756.4432      9.9825    -47.0801     10.0088    129.4154
  1137.2500    757.7314      9.4458    -47.8348      9.6051    133.7902
  1137.5000    757.6636      9.0381    -48.7211      9.2115    141.0257
  1137.7500    756.7281      8.7295    -49.5837      8.8563    145.9084
  1138.0000    755.6711      8.4750    -50.3169      8.5469    152.3600
  1138.2500    755.0505      8.2396    -50.8642      8.2813    155.4979
  1138.5000    754.8423      8.0133    -51.2045      8.0595    157.6988
  1138.7500    754.4077      7.8095    -51.3238      7.8858    157.5246
  1139.0000    753.1550      7.6490    -51.1973      7.7642    156.0169
  1139.2500    751.3176      7.5440    -50.7870      7.6931    155.2070
  1139.5000    749.6483      7.4925    -50.0605      7.6676    155.2489
  1139.7500    748.2504      7.4831    -49.0222      7.6838    155.8398
  1140.0000    746.2254      7.5015    -47.7368      7.7404    156.2812
  1140.2500    742.8013      7.5336    -46.3361      7.8360    155.6599
  1140.5000    738.5787      7.5653    -45.0037      7.9641    153.1324
  1140.7500    735.4753      7.5838    -43.9379      8.1125    150.7202
  1141.0000    735.4969      7.5809    -43.3090      8.2635    147.0825
  1141.2500    739.2797      7.5569    -43.2286      8.3976    145.3141
  1141.5000    745.2917      7.5204    -43.7306      8.4983    144.2558
  1141.7500    750.5154      7.4824    -44.7642      8.5561    144.3915
