~Version Information
VERS.                      2.0: CWLS Log ASCII Standard - VERSION 2.0
WRAP.                       NO: One line per depth step
~Well Information Block
STRT.FT               768.0000: 
STOP.FT              2637.5000: 
STEP.FT                 0.2500: 
NULL.                -999.2500: 
COMP.          Pioneer Natural Resources: COMPANY
WELL.               Zink 44-10: WELL
FLD.           Purgatoire River: FIELD
LOC.           548' FSL & 473' FEL: LOCATION
PROV.                 Colorado: PROVINCE
CNTY.               Las Animas: COUNTRY
SRVC.                Patterson: SERVICE COMPANY
DATE.          Mon May 30 05:59:42 2005: LOG DATE
UWI.           05 071 08380 00: UNIQUE WELL ID
~Curve Information Block
DEPT.FT            0 000 00 00: Depth
SN.Ohm-m                      : IEL Short Normal
SP.mV                         : IEL Spontaneous Potential
DIR.Ohm-m                     : IEL Induction Resistivity
GR.GAPI                       : Gamma Ray
~Parameter Information Block
~A  Depth        SN          SP         DIR          GR     
   768.0000   2000.0000   2000.0000     64.4602    115.6800
   768.2500   2000.0000   2000.0000     64.0310    111.9030
   768.5000   2000.0000   2000.0000     63.9244    107.0829
   768.7500   2000.0000   2000.0000     64.0496    104.2752
   769.0000   2000.0000   2000.0000     64.2808    100.2374
   769.2500   2000.0000   2000.0000     64.4738     97.8100
   769.5000   2000.0000   2000.0000     64.5333     95.2304
   769.7500   2000.0000   2000.0000     64.4928     94.4794
   770.0000   2000.0000   2000.0000     64.5165     95.0850
   770.2500   2000.0000   2000.0000     64.8002     96.8687
   770.5000   2000.0000   2000.0000     65.4283    101.7671
   770.7500   2000.0000   2000.0000     66.2820    106.1605
   771.0000   2000.0000   2000.0000     67.0569    113.0912
   771.2500   2000.0000   2000.0000     67.3925    117.0282
   771.5000   2000.0000   2000.0000     67.0713    121.0237
   771.7500   2000.0000   2000.0000     66.1549    122.6845
   772.0000   2000.0000   2000.0000     64.9432    125.0727
   772.2500   2000.0000   2000.0000     63.7855    127.1330
   772.5000   2000.0000   2000.0000     62.9102    130.4858
   772.7500   2000.0000   2000.0000     62.3730    132.2405
   773.0000   2000.0000   2000.0000     62.1202    133.4734
   773.2500   2000.0000   2000.0000     62.0930    133.4023
   773.5000   2000.0000   2000.0000     62.2889    132.4662
   773.7500   2000.0000   2000.0000     62.7350    131.5962
   774.0000   2000.0000   2000.0000     63.4015    130.0599
   774.2500   2000.0000   2000.0000     64.1375    128.7562
   774.5000   2000.0000   2000.0000     64.7108    126.4079
   774.7500   2000.0000   2000.0000     64.9473    124.9488
   775.0000   2000.0000   2000.0000     64.8520    123.6632
   775.2500   2000.0000   2000.0000     64.5938    123.5501
   775.5000   2000.0000   2000.0000     64.3833    124.2109
   775.7500   2000.0000   2000.0000     64.3742    124.8615
   776.0000   2000.0000   2000.0000     64.6528    125.4532
   776.2500   2000.0000   2000.0000     65.2596    125.3849
   776.5000   2000.0000   2000.0000     66.1746    125.0379
   776.7500   2000.0000   2000.0000     67.2582    125.1048
   777.0000   2000.0000   2000.0000     68.2207    125.6619
   777.2500   2000.0000   2000.0000     68.7074    125.6603
   777.5000   2000.0000   2000.0000     68.5071    123.5629
   777.7500   2000.0000   2000.0000     67.7223    120.3407
   778.0000   2000.0000   2000.0000     66.7178    113.6308
   778.2500   2000.0000   2000.0000     65.8961    109.2433
   778.5000   2000.0000   2000.0000     65.5071    105.2642
   778.7500   2000.0000   2000.0000     65.6252    105.0271
   779.0000   2000.0000   2000.0000     66.2378    107.8172
   779.2500   2000.0000   2000.0000     67.3107    111.2226
   779.5000   2000.0000   2000.0000     68.7339    118.1826
   779.7500   2000.0000   2000.0000     70.1795    123.6208
   780.0000   2000.0000   2000.0000     71.0851    130.9184
   780.2500   2000.0000   2000.0000     70.9850    133.7458
   780.5000   2000.0000   2000.0000     69.9926    134.0576
   780.7500   2000.0000   2000.0000     68.8093    132.4619
   781.0000   2000.0000   2000.0000     68.1424    129.5466
   781.2500   2000.0000   2000.0000     68.1119    128.0158
   781.5000   2000.0000   2000.0000     68.0892    126.3759
   781.7500   2000.0000   2000.0000     67.0558    125.4599
   782.0000   2000.0000   2000.0000     64.3342    124.2561
   782.2500   2000.0000   2000.0000     60.0985    123.7247
   782.5000   2000.0000   2000.0000     55.2137    123.3736
   782.7500   2000.0000   2000.0000     50.7833    123.1056
   783.0000   2000.0000   2000.0000     47.8859    121.7971
   783.2500   2000.0000   2000.0000     47.5529    120.0517
   783.5000   2000.0000   2000.0000     50.9509    116.4730
   783.7500   2000.0000   2000.0000     59.6416    113.9738
   784.0000   2000.0000   2000.0000     75.0972    110.8232
   784.2500   2000.0000   2000.0000     94.8385    109.2161
   784.5000   2000.0000   2000.0000    106.3587    107.1927
   784.7500   2000.0000   2000.0000     99.8851    105.9345
   785.0000   2000.0000   2000.0000     85.2994    104.5461
   785.2500   2000.0000   2000.0000     73.3958    104.4565
   785.5000   2000.0000   2000.0000     66.4535    106.0888
   785.7500   2000.0000   2000.0000     63.4467    108.1635
   786.0000   2000.0000   2000.0000     63.0180    111.8917
   786.2500   2000.0000   2000.0000     63.6065    114.1279
   786.5000   2000.0000   2000.0000     62.4129    115.6433
   786.7500   2000.0000   2000.0000     55.6836    114.6629
   787.0000   2000.0000   2000.0000     43.5492    110.1089
   787.2500   2000.0000   2000.0000     31.4299    105.7667
   787.5000   2000.0000   2000.0000     23.0203     99.0836
   787.7500   2000.0000   2000.0000     18.4096     95.5172
   788.0000   2000.0000   2000.0000     16.8027     93.1104
   788.2500   2000.0000   2000.0000     18.2079     94.2209
   788.5000   2000.0000   2000.0000     25.5094    100.1541
   788.7500   2000.0000   2000.0000     70.6547    106.0743
   789.0000   2000.0000   2000.0000 100000.0000    115.0927
   789.2500   2000.0000   2000.0000 100000.0000    119.6414
   789.5000   2000.0000   2000.0000 100000.0000    123.1635
   789.7500   2000.0000   2000.0000 100000.0000    123.5736
   790.0000   2000.0000   2000.0000 100000.0000    122.2894
   790.2500   2000.0000   2000.0000     30.9532    120.6986
   790.5000   2000.0000   2000.0000      8.4364    117.7886
   790.7500   2000.0000   2000.0000      5.0610    115.5001
   791.0000   2000.0000   2000.0000      4.1601    110.9000
   791.2500   2000.0000   2000.0000      4.2284    106.7060
   791.5000   2000.0000   2000.0000      5.0708     99.1422
   791.7500   2000.0000   2000.0000      7.0119     94.0724
   792.0000   2000.0000   2000.0000     11.3883     87.7665
   792.2500   2000.0000   2000.0000     25.7913     84.6927
   792.5000   2000.0000   2000.0000 100000.0000     81.3057
   792.7500   2000.0000   2000.0000 100000.0000     79.3064
   793.0000   2000.0000   2000.0000 100000.0000     75.8655
   793.2500   2000.0000   2000.0000 100000.0000     73.1731
   793.5000   2000.0000   2000.0000 100000.0000     69.1760
   793.7500   2000.0000   2000.0000 100000.0000     62.6915
   794.0000   2000.0000   2000.0000 100000.0000     61.5555
   794.2500   2000.0000   2000.0000 100000.0000     61.9299
   794.5000   2000.0000   2000.0000    133.3466     63.5275
   794.7500   2000.0000   2000.0000     64.5768     60.1607
   795.0000   2000.0000   2000.0000     51.8326     61.7627
   795.2500   2000.0000   2000.0000     48.0659     62.6946
   795.5000   2000.0000   2000.0000     46.9760     63.9032
   795.7500   2000.0000   2000.0000     46.8013     59.6731
   796.0000   2000.0000   2000.0000     47.1121     61.2582
   796.2500   2000.0000   2000.0000     48.2444     63.3956
   796.5000   2000.0000   2000.0000     50.9823     69.1704
   796.7500   2000.0000   2000.0000     56.0756     68.4223
   797.0000   2000.0000   2000.0000     63.1921     77.0904
   797.2500   2000.0000   2000.0000     69.3247     82.8421
   797.5000   2000.0000   2000.0000     69.5815     90.5138
   797.7500   2000.0000   2000.0000     63.1020     86.2732
   798.0000   2000.0000   2000.0000     54.2419     91.6810
   798.2500   2000.0000   2000.0000     46.5416     95.1911
   798.5000   2000.0000   2000.0000     40.7499    100.3939
   798.7500   2000.0000   2000.0000     36.3808    103.6501
   799.0000   2000.0000   2000.0000     32.9100    108.1881
   799.2500   2000.0000   2000.0000     30.1513    111.3626
   799.5000   2000.0000   2000.0000     28.1675    116.9573
   799.7500   2000.0000   2000.0000     27.0435    120.8945
   800.0000   2000.0000   2000.0000     26.7381    125.3706
   800.2500   2000.0000   2000.0000     27.0437    126.5410
   800.5000   2000.0000   2000.0000     27.6171    125.2376
   800.7500   2000.0000   2000.0000     28.0909    122.5116
   801.0000   2000.0000   2000.0000     28.2357    116.3081
   801.2500   2000.0000   2000.0000     28.0440    111.7047
