~Version Information
VERS.                      2.0: CWLS Log ASCII Standard - VERSION 2.0
WRAP.                       NO: One line per depth step
~Well Information Block
STRT.FT               460.5000: 
STOP.FT              2197.0000: 
STEP.FT                 0.2500: 
NULL.                -999.2500: 
COMP.          Petrogulf Corporation: COMPANY
WELL.              Silva 1-43R: WELL
FLD.           Purgatorie River: FIELD
LOC.           1971' FSL & 526' FEL: LOCATION
CNTY.               Las Animas: COUNTY
SRVC.                Patterson: SERVICE COMPANY
DATE.          Sun Jun 18 03:37:26 2006: LOG DATE
UWI.           05 071 08372 00: UNIQUE WELL ID
STAT.                 Colorado: STATE
~Curve Information Block
DEPT.FT            0 000 00 00: Depth
SN.Ohm-m                      : IEL Short Normal
SP.mV                         : IEL Spontaneous Potential
DIR.Ohm-m                     : IEL Induction Resistivity
GR.GAPI                       : Gamma Ray
~Parameter Information Block
~A  Depth        SN          SP         DIR          GR     
# ...
   594.5000   2000.0000   2000.0000     40.1093    108.5897
   594.7500   2000.0000   2000.0000     40.2901    106.1114
   595.0000   2000.0000   2000.0000     39.6972    103.3329
   595.2500   2000.0000   2000.0000     38.4703    102.6310
   595.5000   2000.0000   2000.0000     36.7893    103.5715
   595.7500   2000.0000   2000.0000     34.8100    105.4866
   596.0000   2000.0000   2000.0000     32.6831    110.0746
   596.2500   2000.0000   2000.0000     30.5822    113.8169
   596.5000   2000.0000   2000.0000     28.6745    118.9033
   596.7500   2000.0000   2000.0000     27.0573    121.0856
   597.0000   2000.0000   2000.0000     25.7218    122.2246
   597.2500   2000.0000   2000.0000     24.5750    121.9061
   597.5000   2000.0000   2000.0000     23.5013    120.3762
   597.7500   2000.0000   2000.0000     22.4235    118.9170
   598.0000   2000.0000   2000.0000     21.3272    116.9576
   598.2500   2000.0000   2000.0000     20.2429    116.5252
   598.5000   2000.0000   2000.0000     19.2134    118.0528
   598.7500   2000.0000   2000.0000     18.2702    120.6175
   599.0000   2000.0000   2000.0000     17.4263    126.4222
   599.2500   2000.0000   2000.0000     16.6822    131.2286
   599.5000   2000.0000   2000.0000     16.0347    139.1009
   599.7500   2000.0000   2000.0000     15.4830    144.3194
   600.0000   2000.0000   2000.0000     15.0285    151.2416
   600.2500   2000.0000   2000.0000     14.6692    154.8204
   600.5000   2000.0000   2000.0000     14.3945    158.3185
   600.7500   2000.0000   2000.0000     14.1846    159.4879
   601.0000   2000.0000   2000.0000     14.0152    159.8038
   601.2500   2000.0000   2000.0000     13.8646    159.2235
   601.5000   2000.0000   2000.0000     13.7206    157.6269
   601.7500   2000.0000   2000.0000     13.5800    156.5564
   602.0000   2000.0000   2000.0000     13.4448    155.8815
   602.2500   2000.0000   2000.0000     13.3168    156.3672
   602.5000   2000.0000   2000.0000     13.1953    158.3580
   602.7500   2000.0000   2000.0000     13.0812    160.1164
   603.0000   2000.0000   2000.0000     12.9808    162.3410
   603.2500   2000.0000   2000.0000     12.9062    162.8489
   603.5000   2000.0000   2000.0000     12.8687    161.3690
   603.7500   2000.0000   2000.0000     12.8723    159.0305
   604.0000   2000.0000   2000.0000     12.9112    154.5212
   604.2500   2000.0000   2000.0000     12.9742    151.3589
   604.5000   2000.0000   2000.0000     13.0508    146.6911
   604.7500   2000.0000   2000.0000     13.1346    143.8246
   605.0000   2000.0000   2000.0000     13.2235    140.6768
   605.2500   2000.0000   2000.0000     13.3173    139.7707
   605.5000   2000.0000   2000.0000     13.4170    140.2372
   605.7500   2000.0000   2000.0000     13.5241    141.3948
   606.0000   2000.0000   2000.0000     13.6413    143.4284
   606.2500   2000.0000   2000.0000     13.7719    144.4383
   606.5000   2000.0000   2000.0000     13.9196    145.0904
   606.7500   2000.0000   2000.0000     14.0875    145.2295
   607.0000   2000.0000   2000.0000     14.2785    145.6122
   607.2500   2000.0000   2000.0000     14.4954    145.9395
   607.5000   2000.0000   2000.0000     14.7386    145.8923
   607.7500   2000.0000   2000.0000     15.0036    145.2841
   608.0000   2000.0000   2000.0000     15.2828    143.7918
   608.2500   2000.0000   2000.0000     15.5747    142.6206
   608.5000   2000.0000   2000.0000     15.8921    140.3963
   608.7500   2000.0000   2000.0000     16.2597    138.3047
   609.0000   2000.0000   2000.0000     16.6981    134.2579
   609.2500   2000.0000   2000.0000     17.2083    131.4173
   609.5000   2000.0000   2000.0000     17.7688    127.8840
   609.7500   2000.0000   2000.0000     18.3504    126.2383
   610.0000   2000.0000   2000.0000     18.9331    124.4655
   610.2500   2000.0000   2000.0000     19.5133    123.2806
   610.5000   2000.0000   2000.0000     20.0990    120.8539
   610.7500   2000.0000   2000.0000     20.7010    118.8119
   611.0000   2000.0000   2000.0000     21.3269    115.8005
   611.2500   2000.0000   2000.0000     21.9792    114.2551
   611.5000   2000.0000   2000.0000     22.6536    112.8088
   611.7500   2000.0000   2000.0000     23.3373    112.3295
   612.0000   2000.0000   2000.0000     24.0066    112.3688
   612.2500   2000.0000   2000.0000     24.6246    112.9484
   612.5000   2000.0000   2000.0000     25.1435    114.1842
   612.7500   2000.0000   2000.0000     25.5150    114.6883
   613.0000   2000.0000   2000.0000     25.7067    114.3003
   613.2500   2000.0000   2000.0000     25.7114    113.3684
   613.5000   2000.0000   2000.0000     25.5464    111.7061
   613.7500   2000.0000   2000.0000     25.2502    110.9090
   614.0000   2000.0000   2000.0000     24.8781    110.7844
   614.2500   2000.0000   2000.0000     24.4924    111.5398
   614.5000   2000.0000   2000.0000     24.1433    113.6397
   614.7500   2000.0000   2000.0000     23.8533    115.3497
   615.0000   2000.0000   2000.0000     23.6118    118.0349
   615.2500   2000.0000   2000.0000     23.3839    119.8909
   615.5000   2000.0000   2000.0000     23.1225    122.6954
   615.7500   2000.0000   2000.0000     22.7831    124.4000
   616.0000   2000.0000   2000.0000     22.3395    126.3600
   616.2500   2000.0000   2000.0000     21.7948    127.0455
   616.5000   2000.0000   2000.0000     21.1819    126.6776
   616.7500   2000.0000   2000.0000     20.5512    125.4185
   617.0000   2000.0000   2000.0000     19.9525    122.8347
   617.2500   2000.0000   2000.0000     19.4217    121.6326
   617.5000   2000.0000   2000.0000     18.9791    122.0725
   617.7500   2000.0000   2000.0000     18.6339    124.0074
   618.0000   2000.0000   2000.0000     18.3894    128.2941
   618.2500   2000.0000   2000.0000     18.2446    131.0315
   618.5000   2000.0000   2000.0000     18.1939    133.3407
   618.7500   2000.0000   2000.0000     18.2274    133.2914
   619.0000   2000.0000   2000.0000     18.3308    131.5639
   619.2500   2000.0000   2000.0000     18.4840    130.2602
   619.5000   2000.0000   2000.0000     18.6634    129.2023
   619.7500   2000.0000   2000.0000     18.8505    128.9468
   620.0000   2000.0000   2000.0000     19.0441    128.1228
   620.2500   2000.0000   2000.0000     19.2643    126.8545
   620.5000   2000.0000   2000.0000     19.5397    124.1175
   620.7500   2000.0000   2000.0000     19.8854    122.1618
   621.0000   2000.0000   2000.0000     20.2875    119.6316
   621.2500   2000.0000   2000.0000     20.7065    118.4739
   621.5000   2000.0000   2000.0000     21.0942    118.0100
   621.7500   2000.0000   2000.0000     21.4095    118.7805
   622.0000   2000.0000   2000.0000     21.6233    121.4231
   622.2500   2000.0000   2000.0000     21.7176    123.6513
   622.5000   2000.0000   2000.0000     21.6874    126.5118
   622.7500   2000.0000   2000.0000     21.5462    127.7895
   623.0000   2000.0000   2000.0000     21.3259    129.2571
   623.2500   2000.0000   2000.0000     21.0677    130.4655
   623.5000   2000.0000   2000.0000     20.8030    133.1026
   623.7500   2000.0000   2000.0000     20.5353    135.3274
   624.0000   2000.0000   2000.0000     20.2342    138.8849
   624.2500   2000.0000   2000.0000     19.8537    141.1232
   624.5000   2000.0000   2000.0000     19.3678    144.0510
   624.7500   2000.0000   2000.0000     18.7939    145.6960
   625.0000   2000.0000   2000.0000     18.1853    147.4824
   625.2500   2000.0000   2000.0000     17.6036    147.9711
   625.5000   2000.0000   2000.0000     17.0984    147.7721
   625.7500   2000.0000   2000.0000     16.7022    147.7090
   626.0000   2000.0000   2000.0000     16.4328    149.0528
   626.2500   2000.0000   2000.0000     16.2956    150.8867
   626.5000   2000.0000   2000.0000     16.2876    153.3315
   626.7500   2000.0000   2000.0000     16.4020    153.5538
   627.0000   2000.0000   2000.0000     16.6335    150.8163
   627.2500   2000.0000   2000.0000     16.9826    147.1267
   627.5000   2000.0000   2000.0000     17.4565    139.6114
   627.7500   2000.0000   2000.0000     18.0683    133.6556
