~Version Information
VERS.                      2.0: CWLS Log ASCII Standard - VERSION 2.0
WRAP.                       NO: One line per depth step
~Well Information Block
STRT.FT               930.0000: 
STOP.FT              2783.2500: 
STEP.FT                 0.2500: 
NULL.                -999.2500: 
COMP.          Pioneer Natural Resources: COMPANY
WELL.           Desoto 13-7TR: WELL
FLD.           Purgatoire River: FIELD
LOC.           1404' FSL & 1115' FWL: LOCATION
PROV.                 Colorado: PROVINCE
CNTY.               Las Animas: COUNTRY
SRVC.                Patterson: SERVICE COMPANY
DATE.          Fri Jan 14 11:02:13 2005: LOG DATE
UWI.           05 071 08216 00: UNIQUE WELL ID
~Curve Information Block
DEPT.FT            0 000 00 00: Depth
SN.Ohm-m                      : IEL Short Normal
SP.mV                         : IEL Spontaneous Potential
DIR.Ohm-m                     : IEL Induction Resistivity
GR.GAPI                       : Gamma Ray
~Parameter Information Block
~A  Depth        SN          SP         DIR          GR     
# ...
  1901.5000     33.1190    -38.6496     32.3485     53.5335
  1901.7500     33.5205    -38.7606     32.6879     55.5214
  1902.0000     33.9353    -38.8978     33.1652     59.6464
  1902.2500     34.3612    -39.0576     33.8196     62.3638
  1902.5000     34.8125    -39.2333     34.6673     64.9657
  1902.7500     35.3295    -39.4165     35.6740     65.1174
  1903.0000     35.9812    -39.6005     36.7550     62.7026
  1903.2500     36.8480    -39.7825     37.8096     59.7183
  1903.5000     37.9876    -39.9640     38.7619     54.6245
  1903.7500     39.4060    -40.1499     39.5700     51.7611
  1904.0000     41.0425    -40.3453     40.2095     49.1807
  1904.2500     42.7773    -40.5532     40.6694     48.4950
  1904.5000     44.4645    -40.7735     40.9693     48.2012
  1904.7500     45.9766    -41.0037     41.1560     48.1389
  1905.0000     47.2274    -41.2408     41.2447     48.2521
  1905.2500     48.1644    -41.4825     41.1329     48.6687
  1905.5000     48.7608    -41.7265     40.5626     50.0825
  1905.7500     49.0266    -41.9665     39.1967     51.6166
  1906.0000     49.0164    -42.1869     36.8094     54.6640
  1906.2500     48.8063    -42.3584     33.4778     56.7986
  1906.5000     48.4481    -42.4367     29.6079     58.9612
  1906.7500     47.9353    -42.3684     25.7513     59.1564
  1907.0000     47.2009    -42.1010     22.3685     57.8107
  1907.2500     46.1424    -41.5962     19.7233     56.6183
  1907.5000     44.6704    -40.8402     17.9472     56.0387
  1907.7500     42.7635    -39.8479     17.2152     57.1826
  1908.0000     40.4969    -38.6603     18.0923     61.8150
  1908.2500     38.0162    -37.3353     22.8393     66.8850
  1908.5000     35.4699    -35.9368     49.7762     77.0952
  1908.7500     32.9540    -34.5243 100000.0000     85.2115
  1909.0000     30.5042    -33.1463 100000.0000     98.2473
  1909.2500     28.1273    -31.8377 100000.0000    106.7153
  1909.5000     25.8348    -30.6201 100000.0000    117.8206
  1909.7500     23.6563    -29.5040 100000.0000    123.6765
  1910.0000     21.6338    -28.4928 100000.0000    129.7091
  1910.2500     19.8091    -27.5867 100000.0000    131.7903
  1910.5000     18.2198    -26.7860 100000.0000    132.2988
  1910.7500     16.8997    -26.0933 100000.0000    131.4567
  1911.0000     15.8735    -25.5148 100000.0000    129.6291
  1911.2500     15.1439    -25.0598 100000.0000    128.5964
  1911.5000     14.6821    -24.7413 100000.0000    128.0287
  1911.7500     14.4367    -24.5774 100000.0000    128.5955
  1912.0000     14.3561    -24.5935    230.5951    130.8369
  1912.2500     14.4101    -24.8251     13.4922    132.7935
  1912.5000     14.5855    -25.3194      7.1920    135.1614
  1912.7500     14.8579    -26.1332      5.4937    135.7823
  1913.0000     15.1670    -27.3275      5.3800    135.2539
  1913.2500     15.4272    -28.9581      7.0531    134.4779
  1913.5000     15.5605    -31.0666     17.4181    133.9406
  1913.7500     15.5193    -33.6772 100000.0000    134.5708
  1914.0000     15.2791    -36.8062 100000.0000    137.3584
  1914.2500     14.8113    -40.4907 100000.0000    140.1535
  1914.5000     14.0648    -44.8294 100000.0000    144.4287
  1914.7500     12.9819    -50.0231 100000.0000    146.4625
  1915.0000     11.5512    -56.3889      2.1972    147.5056
  1915.2500      9.8636    -64.3231      0.6181    146.9044
  1915.5000      8.1133    -74.2019      0.2142    144.3367
  1915.7500      6.5139    -86.2311      0.0698    141.4391
  1916.0000      5.1898   -100.2881      0.0253    134.5470
  1916.2500      4.1401   -115.8170      0.0122    127.6247
  1916.5000      3.3019   -131.8337      0.0082    113.2386
  1916.7500      2.6331   -147.0701      0.0073    101.5566
  1917.0000      2.1370   -160.2344      0.0082     83.5318
  1917.2500      1.8324   -170.3204      0.0111     73.0632
  1917.5000      1.7214   -176.8709      0.0175     61.8475
  1917.7500      1.7796   -180.1124      0.0321     57.5292
  1918.0000      1.9559   -180.9200      0.0677     54.5360
  1918.2500      2.1751   -180.6262      0.1543     53.7334
  1918.5000      2.3521   -180.7294      0.3444     52.5395
  1918.7500      2.4180   -182.5746      0.7465     51.1827
  1919.0000      2.3453   -187.0725      1.7773     48.4815
  1919.2500      2.1585   -194.5116      6.1648     46.7908
  1919.5000      1.9210   -204.4998 100000.0000     45.2063
  1919.7500      1.7036   -216.0547 100000.0000     44.7637
  1920.0000      1.5517   -227.8343 100000.0000     44.2518
  1920.2500      1.4735   -238.4648     14.2336     43.6167
  1920.5000      1.4501   -246.8848      2.2057     42.5741
  1920.7500      1.4542   -252.6068      0.8027     42.5469
  1921.0000      1.4642   -255.8119      0.3509     44.3434
  1921.2500      1.4691   -257.2439      0.1563     46.4135
  1921.5000      1.4671   -257.9368      0.0746     49.1283
  1921.7500      1.4610   -258.8722      0.0453     49.8409
  1922.0000      1.4536   -260.6773      0.0394     49.2368
  1922.2500      1.4442   -263.4618      0.0510     48.4189
  1922.5000      1.4278   -266.8278      0.0949     47.8685
  1922.7500      1.3990   -270.0282      0.2228     48.3358
  1923.0000      1.3573   -272.1964      0.5732     50.2399
  1923.2500      1.3093   -272.5604      1.9918     51.9090
  1923.5000      1.2650   -270.5813 100000.0000     53.7333
  1923.7500      1.2333   -265.9947 100000.0000     53.7395
  1924.0000      1.2209   -258.7792 100000.0000     51.6607
  1924.2500      1.2340   -249.0933 100000.0000     49.5338
  1924.5000      1.2804   -237.2140      3.1759     46.9332
  1924.7500      1.3617   -223.4937      1.3634     46.2841
  1925.0000      1.4609   -208.3263      0.8518     47.2260
  1925.2500      1.5463   -192.1077      0.6084     49.0197
  1925.5000      1.6045   -175.1872      0.4459     53.2605
  1925.7500      1.6714   -157.8224      0.3214     57.0706
  1926.0000      1.8169   -140.1602      0.2348     64.2693
  1926.2500      2.0973   -122.2622      0.1908     70.0719
  1926.5000      2.5388   -104.1731      0.1917     80.1962
  1926.7500      3.1841    -86.0045      0.2509     87.7588
  1927.0000      4.1428    -67.9975      0.4180     99.8046
  1927.2500      5.5494    -50.5337      0.8814    107.6231
  1927.5000      7.4219    -34.0859      3.3399    117.1957
  1927.7500      9.5508    -19.1280 100000.0000    121.1771
  1928.0000     11.5601     -6.0373 100000.0000    123.3552
  1928.2500     13.1119      4.9749 100000.0000    123.2083
  1928.5000     14.0749     13.8879 100000.0000    122.9737
  1928.7500     14.5335     20.8486 100000.0000    123.8646
  1929.0000     14.6771     26.1208 100000.0000    127.2083
  1929.2500     14.6851     30.0219 100000.0000    130.2339
  1929.5000     14.6680     32.8682    176.1413    134.0800
  1929.7500     14.6626     34.9367     11.3043    134.9601
  1930.0000     14.6567     36.4457      8.0258    132.5353
  1930.2500     14.6226     37.5537      8.2108    128.5583
  1930.5000     14.5427     38.3699     10.2606    120.3047
  1930.7500     14.4242     38.9717     14.8777    114.1280
  1931.0000     14.3062     39.4202     24.6452    105.2029
  1931.2500     14.2566     39.7703     46.9864    100.3187
  1931.5000     14.3472     40.0699    113.6646     96.0352
  1931.7500     14.6072     40.3548 100000.0000     95.7022
  1932.0000     14.9900     40.6432 100000.0000     98.7965
  1932.2500     15.3830     40.9354 100000.0000    102.7464
  1932.5000     15.6610     41.2200 100000.0000    110.5701
  1932.7500     15.7520     41.4855 100000.0000    116.4706
  1933.0000     15.6732     41.7292 100000.0000    124.9369
  1933.2500     15.5108     41.9602 100000.0000    129.4092
  1933.5000     15.3612     42.1962 100000.0000    133.3824
  1933.7500     15.2738     42.4551     58.8824    134.0499
  1934.0000     15.2343     42.7482     22.1114    132.1077
  1934.2500     15.1937     43.0752     14.8961    129.1197
  1934.5000     15.1164     43.4271     12.4574    123.7633
  1934.7500     15.0090     43.7894     11.7349    121.1591
