~Version Information
VERS.                      2.0: CWLS Log ASCII Standard - VERSION 2.0
WRAP.                       NO: One line per depth step
~Well Information Block
STRT.FT                -9.7500: 
STOP.FT              2374.2500: 
STEP.FT                 0.2500: 
NULL.                -999.2500: 
COMP.          Pioneer Natural Resources: COMPANY
WELL.            Chevron 13-13: WELL
FLD.           Purgatorie River: FIELD
LOC.           1560' FSL & 711' FWL--: LOCATION
CNTY.               Las Animas: COUNTY
SRVC.          Superior Well Services: SERVICE COMPANY
DATE.          Wed Apr 11 08:47:55 2007: LOG DATE
UWI.           05 071 08319 00: UNIQUE WELL ID
STAT.                       CO: STATE
~Curve Information Block
DEPT.FT            0 000 00 00: Depth
CCL.                          : Casing Collar Locator
TT3.usec                      : CBL 3' Travel Time
AMP3.mV                       : CBL 3' Amplitude
GR.GAPI                       : Gamma Ray
~Parameter Information Block
~A  Depth       CCL         TT3         AMP3         GR     
# ...
  2167.7500      0.0000    333.9776     19.5601     54.6944
  2168.0000      0.0000    324.3123     20.8796     56.9875
  2168.2500      0.0000    315.5419     22.3466     59.3915
  2168.5000      0.0000    308.2686     23.8602     60.9395
  2168.7500      0.0000    303.1581     25.3243     61.3108
  2169.0000      0.0000    300.1093     26.6904     60.7035
  2169.2500      0.0000    298.4433     27.9583     59.6175
  2169.5000      0.0000    297.4902     29.1601     58.7406
  2169.7500      0.0000    296.8789     30.3461     58.6740
  2170.0000      0.0000    296.4604     31.5643     59.4996
  2170.2500      0.0000    296.1641     32.8268     60.6922
  2170.5000      0.0000    295.9371     34.0758     61.5270
  2170.7500      0.0000    295.7486     35.1800     61.5709
  2171.0000      0.0000    295.6001     35.9895     60.8532
  2171.2500      0.0000    295.5060     36.4269     59.6129
  2171.5000      0.0000    295.4636     36.5491     57.9522
  2171.7500      0.0000    295.4462     36.5379     55.9034
  2172.0000      0.0000    295.4232     36.6174     53.8977
  2172.2500      0.0000    295.3883     36.9442     52.9458
  2172.5000      0.0000    295.3600     37.5442     53.9850
  2172.7500      0.0000    295.3546     38.3460     56.9952
  2173.0000      0.0000    295.3668     39.2573     61.0220
  2173.2500      0.0000    295.3805     40.1962     64.9890
  2173.5000      0.0000    295.3910     41.0735     68.1510
  2173.7500      0.0000    295.4051     41.7960     69.9828
  2174.0000      0.0000    295.3980     42.3210     70.2663
  2174.2500      0.0000    295.2292     42.7090     69.3915
  2174.5000      0.0000    294.5507     43.1043     68.2430
  2174.7500      0.0000    292.8578     43.6414     67.6867
  2175.0000      0.0000    289.8814     44.3461     68.0854
  2175.2500      0.0000    286.1781     45.1113     69.0681
  2175.5000      0.0000    283.1429     45.7680     69.8289
  2175.7500      0.0000    281.9963     46.1931     69.9963
  2176.0000      0.0000    282.7679     46.3630     70.1754
  2176.2500      0.0000    284.6150     46.3218     71.3395
  2176.5000      0.0000    286.9076     46.1244     73.7484
  2176.7500      0.0000    289.4742     45.8197     76.6901
  2177.0000      0.0000    292.0464     45.4420     79.0336
  2177.2500      0.0000    294.1676     44.9523     79.6890
  2177.5000      0.0000    295.7635     44.1479     77.9151
  2177.7500      0.0000    297.6032     42.6428     73.9018
  2178.0000      0.0000    301.5170     40.0139     69.0785
  2178.2500      0.0000    310.7136     36.0843     65.4146
  2178.5000      0.0000    330.1978     31.1397     64.3017
  2178.7500      0.0000    366.1866     25.8538     65.9357
  2179.0000      0.0000    422.6416     20.9393     69.1885
  2179.2500      0.0000    495.4985     16.8090     72.0043
  2179.5000      0.0000    570.6384     13.5018     72.7133
  2179.7500      0.0000    631.0267     10.8501     71.3722
  2180.0000      0.0000    667.8238      8.6785     69.4616
  2180.2500      0.0000    684.0103      6.8946     68.2379
  2180.5000      0.0000    688.1642      5.4783     67.8229
  2180.7500      0.0000    687.1216      4.4331     67.7438
  2181.0000      0.0000    684.2808      3.7371     67.5875
  2181.2500      0.0000    681.6012      3.3163     67.0192
  2181.5000      0.0000    680.7229      3.0642     65.7592
  2181.7500      0.0000    682.5723      2.8927     63.7688
  2182.0000      0.0000    687.0587      2.7615     61.2227
  2182.2500      2.0000    692.9108      2.6646     58.2991
  2182.5000     -2.0000    697.7499      2.6016     55.2779
  2182.7500      0.0000    699.4701      2.5668     52.7873
  2183.0000      0.0000    698.0305      2.5512     51.4618
  2183.2500      0.0000    695.2736      2.5442     51.1079
  2183.5000      0.0000    693.2645      2.5324     50.5961
  2183.7500      0.0000    693.4289      2.5038     48.9411
  2184.0000      0.0000    696.4063      2.4551     46.3344
  2184.2500      0.0000    701.3012      2.3942     43.9980
  2184.5000      0.0000    705.2101      2.3332     43.3096
  2184.7500      0.0000    704.6384      2.2804     45.0488
  2185.0000      0.0000    698.1386      2.2387     49.1366
  2185.2500      0.0000    687.6047      2.2116     55.0835
  2185.5000      0.0000    676.5090      2.2021     62.7739
  2185.7500      0.0000    666.8392      2.2075     72.5767
  2186.0000      0.0000    658.3718      2.2160     84.5615
  2186.2500      0.0000    650.6259      2.2125     97.7877
  2186.5000      0.0000    644.2360      2.1905    110.4499
  2186.7500      0.0000    640.1452      2.1565    120.6258
  2187.0000      0.0000    638.6473      2.1233    126.9670
  2187.2500      0.0000    639.9834      2.0984    129.0885
  2187.5000      0.0000    645.0677      2.0821    127.6001
  2187.7500      0.0000    654.3998      2.0699    123.6291
  2188.0000      0.0000    666.1870      2.0559    118.0461
  2188.2500      0.0000    676.4735      2.0349    111.1864
  2188.5000      0.0000    682.0026      2.0078    103.3653
  2188.7500      0.0000    683.2473      1.9833     95.4022
  2189.0000      0.0000    684.2209      1.9741     88.5007
  2189.2500      0.0000    688.4218      1.9897     83.7963
  2189.5000      0.0000    694.7263      2.0317     82.1772
  2189.7500      0.0000    698.2076      2.0921     84.2806
  2190.0000      0.0000    695.3477      2.1581     90.1451
  2190.2500      0.0000    687.2283      2.2237     98.7739
  2190.5000      0.0000    677.4855      2.2951    108.5180
  2190.7500      0.0000    669.2215      2.3840    118.0798
  2191.0000      0.0000    664.5721      2.4958    126.8876
  2191.2500      0.0000    664.9042      2.6264    134.5247
  2191.5000      0.0000    669.7866      2.7663    140.0284
  2191.7500      0.0000    676.7372      2.9056    141.9087
  2192.0000      0.0000    682.9600      3.0356    139.2449
  2192.2500      0.0000    687.0974      3.1477    133.1448
  2192.5000      0.0000    689.3013      3.2357    126.7801
  2192.7500      0.0000    690.3237      3.2984    123.1309
  2193.0000      0.0000    690.9022      3.3399    122.2847
  2193.2500      0.0000    691.7347      3.3673    121.3408
  2193.5000      0.0000    693.6178      3.3858    117.4133
  2193.7500      0.0000    697.2496      3.3987    110.5516
  2194.0000      0.0000    702.6552      3.4085    103.4690
  2194.2500      0.0000    708.8384      3.4155     98.8035
  2194.5000      0.0000    714.2587      3.4171     97.3267
  2194.7500      0.0000    717.7426      3.4098     98.5681
  2195.0000      0.0000    718.8250      3.3934    101.8106
  2195.2500      0.0000    717.3431      3.3707    105.7719
  2195.5000      0.0000    713.1711      3.3435    108.4910
  2195.7500      0.0000    706.6493      3.3110    108.9035
  2196.0000      0.0000    699.0623      3.2719    108.1068
  2196.2500      0.0000    692.2415      3.2278    107.9595
  2196.5000      0.0000    687.5042      3.1828    108.6773
  2196.7500      0.0000    685.0454      3.1425    108.6934
  2197.0000      0.0000    684.2545      3.1120    106.8215
  2197.2500      0.0000    684.3803      3.0939    103.8013
  2197.5000      0.0000    684.9071      3.0877    101.4729
  2197.7500      0.0000    685.5847      3.0912    100.8398
  2198.0000      0.0000    686.3333      3.1016    101.3162
  2198.2500      0.0000    687.1407      3.1168    101.7967
  2198.5000      0.0000    687.9720      3.1344    102.1014
  2198.7500      0.0000    688.7388      3.1504    103.0642
  2199.0000      0.0000    689.3525      3.1596    105.3207
  2199.2500      0.0000    689.8000      3.1584    108.5313
  2199.5000      0.0000    690.1469      3.1482    111.8473
  2199.7500      0.0000    690.4588      3.1344    114.5629
  2200.0000      0.0000    690.7172      3.1218    116.2029
  2200.2500      0.0000    690.7867      3.1095    116.5761
  2200.5000      0.0000    690.4362      3.0920    115.8664
  2200.7500      0.0000    689.3739      3.0674    114.2325
  2201.0000      0.0000    687.2308      3.0403    111.4092
