~Version Information
VERS.                      2.0: CWLS Log ASCII Standard - VERSION 2.0
WRAP.                       NO: One line per depth step
~Well Information Block
STRT.FT              1727.9000: 
STOP.FT              1961.0000: 
STEP.FT                 0.1000: 
NULL.                -999.2500: 
COMP.          Petrogulf Corporation: COMPANY
WELL.              Royal 8-33R: WELL
FLD.           Purgatorie River: FIELD
LOC.           2401' FSL & 2270' FEL: LOCATION
CNTY.               Las Animas: COUNTY
SRVC.                         : SERVICE COMPANY
DATE.          Mon Apr 26 06:57:24 2004: LOG DATE
UWI.           05 071 08041 00: UNIQUE WELL ID
STAT.                 Colorado: STATE
~Curve Information Block
DEPT.FT            0 000 00 00: Depth
DCAL.in                       : CDL Caliper
RHOB.g/cc                     : CDL Bulk Density
RHOC.g/cc                     : CDL Density Correction
DPOR.pu                       : CDL Density Porosity
GR.GAPI                       : Gamma Ray
~Parameter Information Block
~A  Depth       DCAL        RHOB        RHOC        DPOR         GR     
# ...
  1918.3000      7.8665      2.5644      0.0373      5.1887     80.1307
  1918.4000      7.8665      2.5957      0.0873      3.2906     86.1968
  1918.5000      7.8799      2.6183      0.1563      1.9190     77.4460
  1918.6000      7.8799      2.6181      0.1011      1.9355     64.5762
  1918.7000      7.8799      2.6115      0.1108      2.3356     61.9346
  1918.8000      7.8680      2.6126      0.1274      2.2640     64.7209
  1918.9000      7.8680      2.6167      0.1311      2.0164     60.1589
  1919.0000      7.8514      2.6166      0.1270      2.0247     48.1311
  1919.1000      7.8514      2.6028      0.1281      2.8630     39.8701
  1919.2000      7.8514      2.5803      0.1154      4.2272     40.5658
  1919.3000      7.8494      2.5792      0.0471      4.2919     44.9249
  1919.4000      7.8494      2.6114      0.0621      2.3420     46.1955
  1919.5000      7.8572      2.6420      0.1236      0.4863     45.5787
  1919.6000      7.8572      2.6404      0.1202      0.5839     50.1654
  1919.7000      7.8572      2.6208      0.0576      1.7710     59.8795
  1919.8000      7.8665      2.5986      0.0984      3.1148     68.7190
  1919.9000      7.8665      2.5618      0.0832      5.3478     73.9918
  1920.0000      7.8705      2.5112      0.0120      8.4092     72.9492
  1920.1000      7.8705      2.4798     -0.0386     10.3176     67.9407
  1920.2000      7.8705      2.4921      0.0252      9.5726     69.4913
  1920.3000      7.8705      2.5272      0.1164      7.4452     79.8848
  1920.4000      7.8705      2.5471      0.0982      6.2344     90.4442
  1920.5000      7.8667      2.5471      0.0521      6.2348     93.7209
  1920.6000      7.8667      2.5376      0.0827      6.8116     89.0267
  1920.7000      7.8667      2.5075      0.0991      8.6379     83.5948
  1920.8000      7.8609      2.4678     -0.0576     11.0428     79.5317
  1920.9000      7.8609      2.4608      0.0168     11.4684     69.5840
  1921.0000      7.8631      2.4918      0.0462      9.5872     59.7261
  1921.1000      7.8631      2.5377      0.0450      6.8034     57.4444
  1921.2000      7.8631      2.5769      0.0809      4.4309     58.8011
  1921.3000      7.8566      2.5807      0.1414      4.1987     58.4850
  1921.4000      7.8566      2.5422     -0.0224      6.5315     58.7119
  1921.5000      7.8551      2.4834      0.0374     10.0946     63.7814
  1921.6000      7.8551      2.4245     -0.0230     13.6644     70.6166
  1921.7000      7.8551      2.4000     -0.0893     15.1528     75.5012
  1921.8000      7.8567      2.4319      0.0232     13.2207     76.1052
  1921.9000      7.8567      2.4870      0.0406      9.8768     70.8876
  1922.0000      7.8485      2.5174      0.0464      8.0351     67.7353
  1922.1000      7.8485      2.5034      0.0586      8.8840     73.0063
  1922.2000      7.8485      2.4664     -0.0147     11.1245     83.8598
  1922.3000      7.8513      2.4427      0.0152     12.5625     90.8249
  1922.4000      7.8513      2.4387     -0.0158     12.8041     83.9553
  1922.5000      7.8668      2.4496     -0.1188     12.1461     69.4480
  1922.6000      7.8668      2.4759     -0.0287     10.5517     59.9633
  1922.7000      7.8668      2.5065      0.0010      8.6958     55.9167
  1922.8000      7.8712      2.5310     -0.0331      7.2137     55.3798
  1922.9000      7.8712      2.5466      0.0241      6.2668     61.8123
  1923.0000      7.8678      2.5489      0.0679      6.1260     72.4732
  1923.1000      7.8678      2.5351      0.0409      6.9658     82.1359
  1923.2000      7.8678      2.5062     -0.0028      8.7164     87.1088
  1923.3000      7.8677      2.4711      0.0429     10.8422     80.0596
  1923.4000      7.8677      2.4535     -0.0363     11.9094     63.8965
  1923.5000      7.8639      2.4748     -0.0130     10.6177     51.5753
  1923.6000      7.8639      2.5194      0.0564      7.9126     50.4952
  1923.7000      7.8639      2.5551      0.0386      5.7510     58.1711
  1923.8000      7.8638      2.5632      0.0921      5.2613     65.8633
  1923.9000      7.8638      2.5291      0.0783      7.3248     68.3038
  1924.0000      7.8665      2.4796      0.0136     10.3248     66.0475
  1924.1000      7.8665      2.4713     -0.0190     10.8279     61.3989
  1924.2000      7.8665      2.5048     -0.0076      8.7975     61.0137
  1924.3000      7.8650      2.5396      0.0714      6.6925     67.6722
  1924.4000      7.8650      2.5499      0.0744      6.0648     72.7764
  1924.5000      7.8660      2.5417      0.0643      6.5635     72.0387
  1924.6000      7.8660      2.5446     -0.0058      6.3901     70.8339
  1924.7000      7.8660      2.5635      0.1289      5.2442     70.5594
  1924.8000      7.8674      2.5709      0.0585      4.7956     67.6943
  1924.9000      7.8674      2.5720     -0.0155      4.7303     64.7304
  1925.0000      7.8630      2.5851      0.0588      3.9311     65.1980
  1925.1000      7.8630      2.5900      0.0749      3.6335     66.5470
  1925.2000      7.8630      2.5744      0.0952      4.5816     71.5338
  1925.3000      7.8630      2.5569      0.0493      5.6443     79.9092
  1925.4000      7.8630      2.5458      0.0488      6.3137     83.5699
  1925.5000      7.8533      2.5380      0.0200      6.7891     82.2103
  1925.6000      7.8533      2.5398      0.0895      6.6758     80.7600
  1925.7000      7.8533      2.5508      0.0624      6.0097     77.4447
  1925.8000      7.8507      2.5510      0.0963      6.0027     70.4304
  1925.9000      7.8507      2.5322      0.0172      7.1384     66.9025
  1926.0000      7.8489      2.5241     -0.0065      7.6314     67.2803
  1926.1000      7.8489      2.5392      0.0652      6.7182     63.0136
  1926.2000      7.8489      2.5474      0.0956      6.2156     52.1261
  1926.3000      7.8520      2.5392      0.0443      6.7163     40.9221
  1926.4000      7.8520      2.5456      0.0027      6.3270     36.7739
  1926.5000      7.8629      2.5852      0.0735      3.9277     43.1475
  1926.6000      7.8629      2.6293      0.0726      1.2552     57.7678
  1926.7000      7.8629      2.6395      0.0716      0.6340     72.3922
  1926.8000      7.8625      2.6124      0.0774      2.2814     78.0200
  1926.9000      7.8625      2.5806      0.0117      4.2064     75.0138
  1927.0000      7.8615      2.5702      0.0568      4.8341     73.6073
  1927.1000      7.8615      2.5729      0.1134      4.6746     77.9115
  1927.2000      7.8615      2.5727      0.0804      4.6845     78.2030
  1927.3000      7.8503      2.5748      0.0689      4.5583     69.7399
  1927.4000      7.8503      2.5849      0.1113      3.9430     64.0848
  1927.5000      7.8595      2.5972      0.1146      3.1996     71.0194
  1927.6000      7.8595      2.6109      0.1001      2.3721     81.5060
  1927.7000      7.8595      2.6243      0.1243      1.5570     85.5254
  1927.8000      7.8630      2.6239      0.1273      1.5827     82.5049
  1927.9000      7.8630      2.6113      0.0322      2.3429     75.4084
  1928.0000      7.8712      2.6142      0.0549      2.1706     73.4195
  1928.1000      7.8712      2.6452      0.0950      0.2902     76.8635
  1928.2000      7.8712      2.6739      0.1864     -1.4483     75.5479
  1928.3000      7.8714      2.6570      0.0723     -0.4247     70.3721
  1928.4000      7.8714      2.5958      0.0745      3.2841     73.2664
  1928.5000      7.8569      2.5337     -0.0368      7.0460     82.8524
  1928.6000      7.8569      2.5110      0.0018      8.4220     87.5320
  1928.7000      7.8569      2.5221     -0.0464      7.7530     87.3936
  1928.8000      7.8491      2.5319      0.0581      7.1551     89.7975
  1928.9000      7.8491      2.5368     -0.0654      6.8589     90.4401
  1929.0000      7.8509      2.5470      0.0587      6.2447     84.0053
  1929.1000      7.8509      2.5418      0.0247      6.5546     75.8394
  1929.2000      7.8509      2.5202     -0.0282      7.8657     68.3161
  1929.3000      7.8707      2.4983      0.0136      9.1963     58.0665
  1929.4000      7.8707      2.4726     -0.0227     10.7523     53.5645
