~Version Information
VERS.                      2.0: CWLS Log ASCII Standard - VERSION 2.0
WRAP.                       NO: One line per depth step
~Well Information Block
STRT.FT               185.2500: 
STOP.FT              2109.7500: 
STEP.FT                 0.2500: 
NULL.                -999.2500: 
COMP.    Petrogulf Corporation: COMPANY
WELL.             State 16-44V: WELL
FLD.          Purgatorie River: FIELD
LOC.       320' FSL & 320' FEL: LOCATION
PROV.                 Colorado: PROVINCE
CNTY.               Las Animas: COUNTRY
SRVC.                Patterson: SERVICE COMPANY
DATE. Thu Aug 11 12:58:04 2005: LOG DATE
UWI.               071-08263  : UNIQUE WELL ID
~Curve Information Block
DEPT.FT            0 000 00 00: Depth
GR.GAPI                       : Gamma Ray
CCL.                          : Casing Collar Locator
TT3.usec                      : CBL 3' Travel Time
AMP3.mV                       : CBL 3' Amplitude
~Parameter Information Block
~A  Depth        GR         CCL         TT3         AMP3    
   185.2500   -999.2500   -999.2500   -999.2500   -999.2500
   185.5000   -999.2500   -999.2500   -999.2500   -999.2500
   185.7500   -999.2500   -999.2500   -999.2500   -999.2500
   186.0000   -999.2500   -999.2500   -999.2500   -999.2500
   186.2500   -999.2500   -999.2500   -999.2500   -999.2500
   186.5000   -999.2500   -999.2500   -999.2500   -999.2500
   186.7500   -999.2500   -999.2500   -999.2500   -999.2500
   187.0000   -999.2500   -999.2500   -999.2500   -999.2500
   187.2500   -999.2500   -999.2500   -999.2500   -999.2500
   187.5000   -999.2500   -999.2500   -999.2500   -999.2500
   187.7500   -999.2500   -999.2500   1200.0000      0.7586
   188.0000   -999.2500   -999.2500   1200.0000      0.7518
   188.2500   -999.2500   -999.2500   1200.0000      0.7479
   188.5000   -999.2500   -999.2500   1200.0000      0.7444
   188.7500   -999.2500   -999.2500   1200.0000      0.7410
   189.0000   -999.2500   -999.2500   1200.0000      0.7408
   189.2500   -999.2500   -999.2500   1200.0000      0.7472
   189.5000   -999.2500   -999.2500   1200.0000      0.7635
   189.7500   -999.2500   -999.2500   1200.0000      0.7833
   190.0000   -999.2500   -999.2500   1200.0000      0.7918
   190.2500   -999.2500   -999.2500   1200.0000      0.7870
   190.5000   -999.2500   -999.2500   1200.0000      0.7825
   190.7500   -999.2500   -999.2500   1200.0000      0.7850
   191.0000   -999.2500   -999.2500   1200.0000      0.7873
   191.2500   -999.2500   -999.2500   1200.0000      0.7863
   191.5000   -999.2500   -999.2500   1200.0000      0.7909
   191.7500   -999.2500   -999.2500   1200.0000      0.8028
   192.0000   -999.2500   -999.2500   1200.0000      0.8087
   192.2500   -999.2500   -999.2500   1200.0000      0.8025
   192.5000   -999.2500   -999.2500   1200.0000      0.7909
   192.7500   -999.2500   -999.2500   1200.0000      0.7746
   193.0000   -999.2500   -999.2500   1200.0000      0.7482
   193.2500   -999.2500   -999.2500   1200.0000      0.7137
   193.5000   -999.2500   -999.2500   1200.0000      0.6854
   193.7500   -999.2500   -999.2500   1200.0000      0.6802
   194.0000   -999.2500      0.0000   1200.0000      0.6999
   194.2500   -999.2500      0.0000   1200.0000      0.7297
   194.5000   -999.2500      0.0000   1200.0000      0.7583
   194.7500   -999.2500      0.0000   1200.0000      0.7817
   195.0000   -999.2500      0.0000   1200.0000      0.7878
   195.2500   -999.2500      0.0000   1200.0000      0.7667
   195.5000   -999.2500      0.0000   1200.0000      0.7338
   195.7500   -999.2500      0.0000   1200.0000      0.7184
   196.0000   -999.2500      0.0000   1200.0000      0.7282
   196.2500   -999.2500      0.0000   1200.0000      0.7416
   196.5000   -999.2500      0.0000   1200.0000      0.7361
   196.7500   -999.2500      0.0000   1200.0000      0.7117
   197.0000   -999.2500      0.0000   1200.0000      0.6875
   197.2500   -999.2500      0.0000   1200.0000      0.6817
   197.5000   -999.2500      0.0000   1200.0000      0.6954
   197.7500   -999.2500      0.0000   1200.0000      0.7160
   198.0000   -999.2500      0.0000   1200.0000      0.7326
   198.2500   -999.2500      0.0000   1200.0000      0.7399
   198.5000   -999.2500      0.0000   1200.0000      0.7454
   198.7500    104.5349      0.0000   1200.0000      0.7646
   199.0000    105.8124      0.0000   1200.0000      0.7958
   199.2500    106.2838      0.0000   1200.0000      0.8175
   199.5000    107.0009      0.0000   1200.0000      0.8158
   199.7500    109.4920      0.0000   1200.0000      0.7911
   200.0000    114.2058      0.0000   1200.0000      0.7510
   200.2500    119.7823      0.0000   1200.0000      0.7163
   200.5000    124.1185      0.0000   1200.0000      0.7078
   200.7500    125.7650      0.0000   1200.0000      0.7170
   201.0000    124.2629      0.0000   1200.0000      0.7233
   201.2500    119.8741      0.0000   1200.0000      0.7238
   201.5000    113.5917      0.0000   1200.0000      0.7282
   201.7500    107.3652      0.0000   1200.0000      0.7410
   202.0000    103.7921      0.0000   1200.0000      0.7525
   202.2500    104.7469      0.0000   1200.0000      0.7450
   202.5000    109.7765      0.0000   1200.0000      0.7150
   202.7500    116.0637      0.0000   1200.0000      0.6842
   203.0000    120.4751      0.0000   1200.0000      0.6751
   203.2500    121.8077      0.0000   1200.0000      0.6870
   203.5000    121.0213      0.0000   1200.0000      0.7049
   203.7500    119.4606      0.0000   1200.0000      0.7173
   204.0000    117.3848      0.0000   1200.0000      0.7235
   204.2500    114.5069      0.0000   1200.0000      0.7286
   204.5000    111.3079      0.0000   1200.0000      0.7349
   204.7500    109.0011      0.0000   1200.0000      0.7398
   205.0000    108.2851      0.0000   1200.0000      0.7376
   205.2500    108.7077      0.0000   1200.0000      0.7266
   205.5000    109.3800      0.0000   1200.0000      0.7099
   205.7500    109.9904      0.0000   1200.0000      0.6844
   206.0000    110.9437      0.0000   1200.0000      0.6494
   206.2500    112.7744      0.0000   1200.0000      0.6190
   206.5000    115.7647      0.0000   1200.0000      0.6091
   206.7500    120.0424      0.0000   1200.0000      0.6214
   207.0000    125.5627      0.0000   1200.0000      0.6421
   207.2500    131.4954      0.0000   1200.0000      0.6590
   207.5000    135.8218      0.0000   1200.0000      0.6746
   207.7500    136.4482      0.0000   1200.0000      0.6888
   208.0000    133.1876      0.0000   1200.0000      0.6916
   208.2500    128.2216      0.0000   1200.0000      0.6807
   208.5000    124.2143      0.0000   1200.0000      0.6638
   208.7500    122.0716      0.0000   1200.0000      0.6472
   209.0000    120.6793      0.0000   1200.0000      0.6439
   209.2500    118.7554      0.0000   1200.0000      0.6710
   209.5000    116.5861      0.0000   1200.0000      0.7227
   209.7500    115.6069      0.0000   1200.0000      0.7704
   210.0000    116.4639      0.0000   1200.0000      0.7973
   210.2500    118.0337      0.0000   1200.0000      0.8086
   210.5000    118.4133      0.0000   1200.0000      0.8118
   210.7500    116.5050      0.0000   1200.0000      0.8068
   211.0000    112.6769      0.0000   1200.0000      0.7938
   211.2500    108.2804      0.0000   1200.0000      0.7777
   211.5000    104.6556      0.0000   1200.0000      0.7631
   211.7500    102.2157      0.0000   1200.0000      0.7516
   212.0000    100.0562      0.0000   1200.0000      0.7436
   212.2500     96.5167      0.0000   1200.0000      0.7408
   212.5000     90.4631      0.0000   1200.0000      0.7475
   212.7500     82.2358      0.0000   1200.0000      0.7654
   213.0000     73.5929      0.0000   1200.0000      0.7898
   213.2500     66.7792      0.0000   1200.0000      0.8137
   213.5000     63.0881      0.0000   1199.9451      0.8320
   213.7500     61.8212      0.0000   1199.2872      0.8456
   214.0000     60.7243      0.0000   1194.3221      0.8952
   214.2500     57.7705      0.0000   1170.0292      1.2232
   214.5000     52.7980      0.0000   1092.5886      2.5712
   214.7500     47.7163      0.0000    930.6797      6.1025
   215.0000     45.2668      0.0000    706.8975     12.2240
   215.2500     47.3282      0.0000    500.7114     19.3716
   215.5000     53.9584     -2.0000    373.1323     25.1814
   215.7500     63.6823      2.0000    319.8037     28.8160
   216.0000     74.5878      0.0000    304.5135     30.9803
   216.2500     85.2947      0.0000    300.7871     32.5363
   216.5000     95.0750      0.0000    298.0339     34.3252
   216.7500    103.2498      0.0000    293.9201     37.2041
   217.0000    108.9136      0.0000    290.5427     40.8995
   217.2500    111.5893      0.0000    290.4704     44.1292
   217.5000    111.9591      0.0000    292.6592     46.3145
   217.7500    111.5006      0.0000    294.4409     47.6234
   218.0000    111.3457      0.0000    295.0312     48.3048
   218.2500    111.6638      0.0000    295.0314     48.7525
   218.5000    111.9833      0.0000    294.9015     49.2861
