~Version Information
 VERS.                                  2.0 : CWLS LAS VERSION
 WRAP.                                   NO : WRAPING MODE
 SWARE .                 MController 2.5.0J : SOFTWARE VERSION
~Well Information
 WELL.                         State 16-43R : WELL
 COMP.                Petrogulf Corporation : COMPANY
 FLD.                      Purgatoire River : FIELD
 LOC.                NE/SE Sec 16 T33S R67W : LOCATION
 DATE.                             08/09/05 : DATE(S) LOGGED
 SRVC.       BLANCO Geological Services LLC : SERVICE COMPANY
 STAT.                                   CO : STATE
 CNTY.                           Las Animas : COUNTY
 CTRY.                                  USA : COUNTRY
 API.                       05-071-08338-00 : API NUMBER
 STRT.FT                               0.00 : START DEPTH
 STOP.FT                            1565.00 : STOP DEPTH
 STEP.FT                               1.00 : DEPTH INCREMENT
 NULL.                                -9999 : NULL VALUE
~Curve information
 DEPTH.FT                                   :
 ROP.MIN/FT                                 :
 GAS.UNITS                                  :
~ASCII Log data
# ...
       600.0         0.43        830.7 
       601.0         0.52        829.5 
       602.0         0.37        831.1 
       603.0         0.30        832.3 
       604.0         0.23        830.4 
       605.0         0.33        824.4 
       606.0         0.30        826.6 
       607.0         0.33        828.5 
       608.0         0.30        829.2 
       609.0         0.27        821.9 
       610.0         0.23        813.0 
       611.0         0.33        816.5 
       612.0         0.35        817.4 
       613.0         0.23        815.8 
       614.0         0.33        812.3 
       615.0       670.07       6097.7 
       616.0        31.62        119.1 
       617.0         0.70        139.4 
       618.0         0.70         67.2 
       619.0         0.43         15.1 
       620.0         0.40          6.3 
       621.0         0.37          2.9 
       622.0         0.35          1.6 
       623.0         0.27          1.4 
       624.0         0.27          1.5 
       625.0         0.37          1.7 
       626.0         2.07          4.4 
       627.0         0.25          3.4 
       628.0         0.30          3.1 
       629.0         0.27          3.2 
       630.0         0.27          3.1 
       631.0         0.27          2.8 
       632.0         0.30          2.7 
       633.0         0.30          2.7 
       634.0         0.37          3.0 
       635.0         0.37          2.8 
       636.0         0.33          2.6 
       637.0         0.33          3.0 
       638.0         0.32          2.6 
       639.0         0.37          2.3 
       640.0         0.37          2.4 
       641.0         0.33          2.7 
       642.0         0.40          3.6 
       643.0         0.43          4.3 
       644.0         0.30          4.4 
       645.0         0.30          3.9 
       646.0         0.32          2.7 
       647.0         0.27          1.9 
       648.0         0.30          1.6 
       649.0         0.30          1.4 
       650.0         0.27          1.5 
       651.0         0.37          2.4 
       652.0         0.27          2.1 
       653.0         0.23          2.5 
       654.0         0.33          2.3 
       655.0         0.30          2.5 
       656.0         2.85          3.8 
       657.0         0.37          3.1 
       658.0         0.48          3.0 
       659.0         0.37          2.7 
       660.0         0.37          2.9 
       661.0         0.30          3.1 
       662.0         0.33          3.0 
       663.0         0.33          3.1 
       664.0         0.37          3.4 
       665.0         0.47          3.3 
       666.0         0.37          3.4 
       667.0         0.32          3.3 
       668.0         0.33          3.1 
       669.0         0.33          2.9 
       670.0         0.37          2.9 
       671.0         0.57         40.6 
       672.0         0.63         56.7 
       673.0         0.48         55.3 
       674.0         0.20         48.8 
       675.0         0.13         46.8 
       676.0         0.17         45.1 
       677.0         0.30         43.2 
       678.0         0.37         40.9 
       679.0         0.37         38.2 
       680.0         0.27         35.0 
       681.0         0.30         30.4 
       682.0         0.27         34.7 
       683.0         0.30         39.2 
       684.0         0.30         44.1 
       685.0         0.28         54.1 
       686.0         1.90        110.9 
       687.0         0.30         40.9 
       688.0         0.27         34.6 
       689.0         0.13         30.9 
       690.0         0.10         30.0 
       691.0         0.13         29.3 
       692.0         0.20         29.1 
       693.0         0.22         29.4 
       694.0         0.27         29.2 
       695.0         0.30         28.4 
       696.0         0.30         27.0 
       697.0         0.47         25.4 
       698.0         0.30         24.0 
       699.0         0.33         23.6 
       700.0         0.30         23.9 
       701.0         0.40         23.8 
       702.0         0.40         23.6 
       703.0         0.35         23.9 
       704.0         0.27         23.6 
       705.0         0.30         23.1 
       706.0         0.33         22.9 
       707.0         0.27         21.9 
       708.0         0.20         21.8 
       709.0         0.23         21.2 
       710.0         0.23         19.9 
       711.0         0.20         17.8 
       712.0         0.20         18.9 
       713.0         0.20         21.1 
       714.0         0.23         26.5 
       715.0         0.23         30.4 
       716.0         0.25         33.7 
       717.0         0.23         36.2 
       718.0         1.47        120.2 
       719.0         0.27         47.7 
       720.0         0.33         36.2 
       721.0         0.27         26.3 
       722.0         0.27         23.0 
       723.0         0.23         20.8 
       724.0         0.25         19.8 
       725.0         0.23         18.7 
       726.0         0.30         17.9 
       727.0         0.33         17.2 
       728.0         0.27         17.1 
       729.0         0.33         17.0 
       730.0         0.27         16.9 
       731.0         0.27         16.5 
       732.0         0.27         16.8 
       733.0         0.30         17.1 
       734.0         0.30         17.4 
       735.0         0.35         17.6 
       736.0         0.27         16.8 
       737.0         0.37         21.8 
       738.0         0.33         29.0 
       739.0         0.20         31.4 
       740.0         0.27         33.8 
       741.0         0.20         33.9 
       742.0         0.23         32.6 
       743.0         0.17         29.7 
       744.0         0.17         28.0 
       745.0         0.17         27.0 
       746.0         0.23         26.5 
       747.0         0.17         25.4 
       748.0         3.22        120.3 
       749.0         0.23         32.6 
       750.0         0.42         36.4 
       751.0         0.37         35.7 
       752.0         0.27         33.2 
       753.0         0.23         31.3 
       754.0         0.17         30.0 
       755.0         0.20         29.5 
       756.0         0.23         29.5 
       757.0         0.27         29.7 
       758.0         0.20         29.6 
       759.0         0.27         28.9 
       760.0         0.27         28.1 
       761.0         0.27         28.0 
       762.0         0.35         27.1 
       763.0         0.37         25.9 
       764.0         0.27         25.2 
       765.0         0.27         25.1 
       766.0         0.27         24.7 
       767.0         0.30         24.4 
       768.0         0.27         25.0 
       769.0         0.30         25.0 
       770.0         0.23         24.5 
       771.0         0.32         24.4 
       772.0         0.27         24.6 
       773.0         0.23         24.1 
       774.0         0.23         23.7 
       775.0         0.37         21.4 
       776.0         0.43         32.8 
       777.0         0.40         54.9 
       778.0         1.92         98.7 
       779.0         0.43         30.1 
       780.0         0.40         24.9 
       781.0         0.30         22.4 
       782.0         0.25         21.0 
       783.0         0.27         20.3 
       784.0         0.30         20.1 
       785.0         0.30         31.0 
       786.0         0.30         54.4 
       787.0         0.30         73.0 
       788.0         0.20         77.9 
       789.0         0.23         82.8 
       790.0         0.20         87.4 
       791.0         0.20         88.0 
       792.0         0.13         87.2 
       793.0         0.17         84.7 
       794.0         0.17         80.5 
       795.0         0.17         75.9 
       796.0         0.18         71.6 
       797.0         0.20         67.3 
       798.0         0.17         64.6 
       799.0         0.23         62.7 
