~Version Information
VERS.                      2.0: CWLS Log ASCII Standard - VERSION 2.0
WRAP.                       NO: One line per depth step
~Well Information Block
STRT.FT               860.0000: 
STOP.FT              2733.7000: 
STEP.FT                 0.1000: 
NULL.                -999.2500: 
COMP.          Pioneer Natural Resources: COMPANY
WELL.          Beacon 11-18 Tr: WELL
FLD.           Purgatoire River: FIELD
LOC.           409' FNL & 203' FWL: LOCATION
PROV.                 Colorado: PROVINCE
CNTY.               Las Animas: COUNTRY
SRVC.                Patterson: SERVICE COMPANY
DATE.          Mon Jan 17 07:36:09 2005: LOG DATE
UWI.           05 071 08251 00: UNIQUE WELL ID
~Curve Information Block
DEPT.FT            0 000 00 00: Depth
DCAL.in                       : CDL Caliper
RHOB.g/cc                     : CDL Bulk Density
RHOC.g/cc                     : CDL Density Correction
DPOR.pu                       : CDL Density Porosity
NPOR.pu                       : Neutron Porosity
GR.GAPI                       : Gamma Ray
~Parameter Information Block
~A  Depth       DCAL        RHOB        RHOC        DPOR        NPOR         GR     
# ...
  1839.2000      7.9136      2.4505      0.1118     12.0902     15.2940     40.5229
  1839.3000      7.8952      2.4562      0.1175     11.7450     15.7088     36.7355
  1839.4000      7.8952      2.4481      0.1350     12.2392     15.4106     34.3498
  1839.5000      7.8675      2.4144      0.1239     14.2774     14.8370     34.6569
  1839.6000      7.8675      2.3619      0.0678     17.4581     14.7839     37.5751
  1839.7000      7.8675      2.3197      0.0619     20.0179     15.0379     40.4560
  1839.8000      7.8345      2.3019      0.0423     21.0943     14.9903     40.4426
  1839.9000      7.8345      2.2990      0.0739     21.2703     15.2754     40.4525
  1840.0000      7.7955      2.3010      0.0331     21.1488     16.4798     44.8316
  1840.1000      7.7955      2.3107      0.0694     20.5648     17.4769     50.3114
  1840.2000      7.7955      2.3318      0.1228     19.2844     17.2594     52.5474
  1840.3000      7.7588      2.3568      0.1483     17.7684     16.6379     52.1767
  1840.4000      7.7588      2.3691      0.1761     17.0266     16.4380     50.3807
  1840.5000      7.7184      2.3590      0.1607     17.6349     16.8107     48.5398
  1840.6000      7.7184      2.3394      0.1311     18.8254     17.4078     48.3326
  1840.7000      7.7184      2.3343      0.1327     19.1324     17.5918     49.8435
  1840.8000      7.6773      2.3552      0.1307     17.8677     17.1686     51.9865
  1840.9000      7.6773      2.3919      0.2290     15.6438     16.5892     53.8326
  1841.0000      7.6527      2.4312      0.1986     13.2616     16.2753     55.7013
  1841.1000      7.6527      2.4760      0.2435     10.5433     16.5312     57.8191
  1841.2000      7.6527      2.5309      0.2547      7.2193     17.4439     57.7098
  1841.3000      7.6583      2.5869      0.3013      3.8212     18.2764     53.1875
  1841.4000      7.6583      2.6319      0.2846      1.0962     18.3948     49.2267
  1841.5000      7.7021      2.6606      0.2913     -0.6454     18.2386     52.8374
  1841.6000      7.7021      2.6692      0.2822     -1.1665     18.2917     60.9947
  1841.7000      7.7021      2.6614      0.2354     -0.6921     18.7509     65.4396
  1841.8000      7.7596      2.6500      0.2236     -0.0020     19.4047     64.8729
  1841.9000      7.7596      2.6392      0.2257      0.6563     19.8588     63.1523
  1842.0000      7.7986      2.6285      0.1785      1.3009     19.9912     62.4756
  1842.1000      7.7986      2.6266      0.1462      1.4205     19.8206     63.6501
  1842.2000      7.7986      2.6355      0.1258      0.8773     19.6307     66.6675
  1842.3000      7.8253      2.6429      0.1380      0.4305     19.9616     71.0776
  1842.4000      7.8253      2.6473      0.0695      0.1624     20.3870     75.6277
  1842.5000      7.8477      2.6580      0.1218     -0.4852     20.1705     77.6268
  1842.6000      7.8477      2.6619      0.1267     -0.7213     20.0244     76.4866
  1842.7000      7.8477      2.6513      0.0763     -0.0780     20.5024     76.1746
  1842.8000      7.8610      2.6445      0.0742      0.3317     20.9390     77.5765
  1842.9000      7.8610      2.6460      0.0753      0.2408     20.4013     78.0035
  1843.0000      7.8739      2.6422      0.0687      0.4707     19.1915     80.6245
  1843.1000      7.8739      2.6349      0.0236      0.9170     18.4769     87.4574
  1843.2000      7.8739      2.6332      0.0657      1.0203     18.3084     92.8953
  1843.3000      7.9187      2.6292      0.0974      1.2606     18.1331     93.5849
  1843.4000      7.9187      2.6185      0.0886      1.9088     17.9545     91.2784
  1843.5000      7.9941      2.6132      0.0699      2.2326     17.9315     86.0742
  1843.6000      7.9941      2.6112      0.1246      2.3522     18.2187     77.3408
  1843.7000      7.9941      2.5980      0.0519      3.1489     18.7616     70.6484
  1843.8000      8.0395      2.5766      0.0523      4.4469     19.1688     71.6026
  1843.9000      8.0395      2.5578      0.0638      5.5886     19.3940     78.6070
  1844.0000      8.0468      2.5510      0.0239      6.0000     19.4468     84.6426
  1844.1000      8.0468      2.5634      0.0858      5.2470     19.2084     85.3036
  1844.2000      8.0468      2.5886      0.1077      3.7192     19.1624     84.0817
  1844.3000      8.0477      2.6118      0.1343      2.3122     19.6666     84.8430
  1844.4000      8.0477      2.6206      0.0957      1.7843     20.4403     84.9806
  1844.5000      8.0541      2.6131      0.1029      2.2380     20.9560     80.2967
  1844.6000      8.0541      2.6069      0.0619      2.6140     20.4016     72.8946
  1844.7000      8.0541      2.6211      0.0704      1.7498     18.9268     69.3552
  1844.8000      8.0585      2.6380      0.1363      0.7249     17.6800     71.0032
  1844.9000      8.0585      2.6272      0.0703      1.3848     16.9531     73.7842
  1845.0000      8.0545      2.5956      0.0497      3.2983     16.5697     76.6528
  1845.1000      8.0545      2.5642      0.0682      5.2029     16.6568     79.5800
  1845.2000      8.0545      2.5448      0.0372      6.3742     17.2415     80.1667
  1845.3000      8.0443      2.5479      0.0470      6.1900     17.8535     77.3285
  1845.4000      8.0443      2.5700      0.0735      4.8498     18.1090     73.9161
  1845.5000      8.0343      2.6065      0.0509      2.6342     18.4213     75.2013
  1845.6000      8.0343      2.6551      0.0748     -0.3098     19.4033     79.2963
  1845.7000      8.0343      2.6906      0.1382     -2.4596     21.1075     80.1644
  1845.8000      8.0218      2.6940      0.0672     -2.6653     22.9264     79.4704
  1845.9000      8.0218      2.6872      0.1035     -2.2523     24.1278     82.4291
  1846.0000      7.9932      2.6901      0.1412     -2.4282     24.5087     88.5949
  1846.1000      7.9932      2.6929      0.1416     -2.5982     24.6551     93.7957
  1846.2000      7.9932      2.6919      0.0901     -2.5396     25.0800     98.8293
  1846.3000      7.9511      2.7006      0.0673     -3.0662     25.5419    107.9416
  1846.4000      7.9511      2.7168      0.1108     -4.0471     25.8915    119.3411
  1846.5000      7.9222      2.7225      0.1302     -4.3964     26.7603    129.8711
  1846.6000      7.9222      2.7208      0.0745     -4.2917     28.1836    139.3399
  1846.7000      7.9222      2.7272      0.0650     -4.6799     28.7666    144.7556
  1846.8000      7.9361      2.7275      0.1108     -4.7000     28.2270    142.9876
  1846.9000      7.9361      2.6984      0.1101     -2.9326     27.7548    137.1912
  1847.0000      7.9831      2.6563      0.0737     -0.3802     27.3732    137.6749
  1847.1000      7.9831      2.6346      0.0777      0.9321     26.8637    149.6614
  1847.2000      7.9831      2.6317      0.0894      1.1063     27.0650    160.7779
  1847.3000      8.0371      2.6263      0.0823      1.4391     27.9846    160.7128
  1847.4000      8.0371      2.6138      0.0612      2.1967     28.7714    155.1691
  1847.5000      8.0869      2.5997      0.0654      3.0483     29.0132    145.6138
  1847.6000      8.0869      2.5818      0.1139      4.1358     28.6450    131.4281
  1847.7000      8.0869      2.5555      0.1053      5.7288     28.3129    125.2942
  1847.8000      8.1272      2.5345      0.0586      7.0014     28.5843    133.0600
  1847.9000      8.1272      2.5395      0.0829      6.6944     28.5013    141.5938
  1848.0000      8.1539      2.5638      0.1330      5.2257     27.1220    143.2795
  1848.1000      8.1539      2.5899      0.0498      3.6452     25.5561    144.0576
  1848.2000      8.1539      2.6158      0.1282      2.0719     25.5594    146.8067
  1848.3000      8.1642      2.6380      0.0774      0.7297     26.8958    151.5036
  1848.4000      8.1642      2.6441      0.1618      0.3567     27.8625    157.6852
  1848.5000      8.1603      2.6259      0.1198      1.4599     28.1510    161.7487
  1848.6000      8.1603      2.6001      0.1096      3.0257     28.6462    160.3401
  1848.7000      8.1603      2.5887      0.1126      3.7161     29.1664    154.0829
