~Version Information
VERS.                      2.0: CWLS Log ASCII Standard - VERSION 2.0
WRAP.                       NO: One line per depth step
~Well Information Block
STRT.FT               665.0000: 
STOP.FT              1972.0000: 
STEP.FT                 0.2500: 
NULL.                -999.2500: 
COMP.          Petrogulf Corporation: COMPANY
WELL.          Great Plains 22-21V: WELL
FLD.           Purgatorie River: FIELD
LOC.           63' FNL & 1895' FWL: LOCATION
PROV.                 Colorado: PROVINCE
CNTY.               Las Animas: COUNTRY
SRVC.                Patterson: SERVICE COMPANY
DATE.          Thu Sep 01 07:36:33 2005: LOG DATE
UWI.                          : UNIQUE WELL ID
~Curve Information Block
DEPT.FT            0 000 00 00: Depth
SP.mV                         : DIL Spontaneous Potential
RILD.Ohm-m                    : DIL Deep Resistivity
RILM.Ohm-m                    : DIL Medium Resistivity
RLL3.Ohm-m                    : DIL Shallow Resistivity
GR.GAPI                       : Gamma Ray
~Parameter Information Block
~A  Depth        SP         RILD        RILM        RLL3         GR     
   665.0000   2000.0000      6.9952 100000.0000   2000.0000     55.2392
   665.2500   2000.0000      7.0495 100000.0000   2000.0000     52.4105
   665.5000   2000.0000      7.2201 100000.0000   2000.0000     76.4840
   665.7500   2000.0000      7.5425 100000.0000   2000.0000     79.2267
   666.0000   2000.0000      7.9746 100000.0000   2000.0000     60.9490
   666.2500   2000.0000      8.7308 100000.0000   2000.0000     60.8135
   666.5000   2000.0000     10.0939 100000.0000   2000.0000     68.8104
   666.7500   2000.0000     10.3968 100000.0000   2000.0000     75.3271
   667.0000   2000.0000      9.1361 100000.0000   2000.0000     71.1218
   667.2500   2000.0000      8.1956 100000.0000   2000.0000     66.3017
   667.5000   2000.0000      7.9478 100000.0000   2000.0000     73.7070
   667.7500   2000.0000      7.8758 100000.0000   2000.0000     63.0296
   668.0000   2000.0000      7.8753 100000.0000   2000.0000     77.0912
   668.2500   2000.0000      7.7432 100000.0000   2000.0000     64.4925
   668.5000   2000.0000      7.5920 100000.0000   2000.0000     59.6528
   668.7500   2000.0000      7.5240 100000.0000   2000.0000     58.1795
   669.0000   2000.0000      7.5521 100000.0000   2000.0000     61.0397
   669.2500   2000.0000      7.4360 100000.0000   2000.0000     55.6591
   669.5000   2000.0000      7.5178 100000.0000   2000.0000     39.2297
   669.7500   2000.0000      7.7077 100000.0000   2000.0000     47.9532
   670.0000   2000.0000      7.5858 100000.0000   2000.0000     57.8787
   670.2500   2000.0000      7.5492 100000.0000   2000.0000     70.4719
   670.5000   2000.0000      7.6745 100000.0000   2000.0000     72.6419
   670.7500   2000.0000      8.1371 100000.0000   2000.0000     74.0596
   671.0000   2000.0000     10.8085 100000.0000   2000.0000     79.3472
   671.2500   2000.0000     13.8111 100000.0000   2000.0000     84.9198
   671.5000   2000.0000     13.6188 100000.0000   2000.0000     77.4801
   671.7500   2000.0000     11.5114 100000.0000   2000.0000     76.5891
   672.0000   2000.0000      9.1952 100000.0000   2000.0000     81.7741
   672.2500   2000.0000      7.8493 100000.0000   2000.0000     86.3892
   672.5000   2000.0000      7.2545 100000.0000   2000.0000     93.6332
   672.7500   2000.0000      7.1977 100000.0000   2000.0000     82.0887
   673.0000   2000.0000      7.3096 100000.0000   2000.0000     77.0815
   673.2500   2000.0000      7.4048 100000.0000   2000.0000     70.0501
   673.5000   2000.0000      7.4610 100000.0000   2000.0000     76.9200
   673.7500   2000.0000      7.4496 100000.0000   2000.0000     81.2109
   674.0000   2000.0000      7.3560 100000.0000   2000.0000     72.3007
   674.2500   2000.0000      7.3721 100000.0000   2000.0000     62.4188
   674.5000   2000.0000      7.5995 100000.0000   2000.0000     60.1493
   674.7500   2000.0000      7.7473 100000.0000   2000.0000     68.0426
   675.0000   2000.0000      7.7597 100000.0000   2000.0000     66.7712
   675.2500   2000.0000      7.8079 100000.0000   2000.0000     74.6127
   675.5000   2000.0000      7.5408 100000.0000   2000.0000     72.6689
   675.7500   2000.0000      7.5261 100000.0000   2000.0000     78.4440
   676.0000   2000.0000      7.2290 100000.0000   2000.0000     74.6786
   676.2500   2000.0000      6.8423 100000.0000   2000.0000     72.3707
   676.5000   2000.0000      6.6273 100000.0000   2000.0000     66.9076
   676.7500   2000.0000      7.3604 100000.0000   2000.0000     65.9491
   677.0000   2000.0000      8.8643 100000.0000   2000.0000     75.5950
   677.2500   2000.0000      9.9372 100000.0000   2000.0000     81.9289
   677.5000   2000.0000     10.1385 100000.0000   2000.0000     68.5458
   677.7500   2000.0000      9.6230 100000.0000   2000.0000     71.2310
   678.0000   2000.0000      9.3175 100000.0000   2000.0000     66.7996
   678.2500   2000.0000      9.4372 100000.0000   2000.0000     72.9524
   678.5000   2000.0000      9.3845 100000.0000   2000.0000     87.2407
   678.7500   2000.0000      8.9590 100000.0000   2000.0000     89.9333
   679.0000   2000.0000      8.5513 100000.0000   2000.0000     79.2364
   679.2500   2000.0000      9.3074 100000.0000   2000.0000     79.2535
   679.5000   2000.0000     12.1927 100000.0000   2000.0000     84.6800
   679.7500   2000.0000     19.1187 100000.0000   2000.0000     79.8204
   680.0000   2000.0000     25.8534 100000.0000   2000.0000     84.1286
   680.2500   2000.0000     16.8110 100000.0000   2000.0000     87.8043
   680.5000   2000.0000     10.6265 100000.0000   2000.0000     97.4312
   680.7500   2000.0000      8.5874 100000.0000   2000.0000    103.8203
   681.0000   2000.0000      7.9638 100000.0000   2000.0000     77.8198
   681.2500   2000.0000      7.9073 100000.0000   2000.0000     74.7463
   681.5000   2000.0000      8.0176 100000.0000   2000.0000     77.6739
   681.7500   2000.0000      8.0897 100000.0000   2000.0000     72.5388
   682.0000   2000.0000      8.0710 100000.0000   2000.0000     67.0161
   682.2500   2000.0000      7.8196 100000.0000   2000.0000     62.5699
   682.5000   2000.0000      9.9539 100000.0000   2000.0000     61.5549
   682.7500   2000.0000    121.3750 100000.0000   2000.0000     59.4457
   683.0000   2000.0000 100000.0000 100000.0000   2000.0000     74.0742
   683.2500   2000.0000 100000.0000 100000.0000   2000.0000     78.6111
   683.5000   2000.0000     10.4366 100000.0000   2000.0000     79.5198
   683.7500   2000.0000      4.0097 100000.0000   2000.0000     84.5631
   684.0000   2000.0000      3.6709 100000.0000   2000.0000     71.3788
   684.2500   2000.0000      4.6580 100000.0000   2000.0000     71.5871
   684.5000   2000.0000      5.7045 100000.0000   2000.0000     90.1637
   684.7500   2000.0000      6.4342 100000.0000   2000.0000     97.1129
   685.0000   2000.0000      7.2699 100000.0000   2000.0000    103.2540
   685.2500   2000.0000      9.5522 100000.0000   2000.0000     95.0458
   685.5000   2000.0000     28.9303 100000.0000   2000.0000     95.0399
   685.7500   2000.0000 100000.0000 100000.0000   2000.0000     90.0692
   686.0000   2000.0000      5.5682 100000.0000   2000.0000     76.9589
   686.2500   2000.0000      1.9031 100000.0000   2000.0000     85.1039
   686.5000   2000.0000      1.1256 100000.0000   2000.0000     89.1782
   686.7500   2000.0000      1.4593     33.9638   2000.0000     92.7079
   687.0000   2000.0000      3.2889      2.6039   2000.0000    107.1029
   687.2500   2000.0000      7.6692      2.5727   2000.0000    107.8772
   687.5000   2000.0000     15.9255      4.7813   2000.0000     96.2690
   687.7500   2000.0000     29.5119     14.7324   2000.0000     88.3889
   688.0000   2000.0000     47.0583     14.6666   2000.0000     95.2039
   688.2500   2000.0000     80.9590     11.5303   2000.0000     96.9780
   688.5000   2000.0000 100000.0000     10.6939   2000.0000    100.5376
   688.7500   2000.0000 100000.0000     10.6801   2000.0000     89.6435
   689.0000   2000.0000 100000.0000     10.9563   2000.0000     98.5172
   689.2500   2000.0000 100000.0000     12.4604   2000.0000    109.3239
   689.5000   2000.0000     16.8102     23.0826   2000.0000     94.8473
   689.7500   2000.0000     11.9656 100000.0000   2000.0000     97.4387
   690.0000   2000.0000     13.2644 100000.0000   2000.0000     87.9964
   690.2500   2000.0000     14.9760     37.4144   2000.0000     78.6063
   690.5000   2000.0000     15.5951     18.4348   2000.0000     90.9179
   690.7500   2000.0000     16.4035     16.5865   2000.0000    112.0279
   691.0000   2000.0000     16.8569     16.4965   2000.0000    106.2451
   691.2500   2000.0000     16.9434     16.8801   2000.0000    101.3169
   691.5000   2000.0000     17.0939     17.1729   2000.0000     88.5271
   691.7500   2000.0000     19.6355     16.0817   2000.0000     80.9068
   692.0000   2000.0000     22.4837     13.6108   2000.0000     91.0841
   692.2500   2000.0000     19.0688     12.6738   2000.0000     90.5251
   692.5000   2000.0000     16.9318     11.5324   2000.0000     83.0559
   692.7500   2000.0000     16.1465     10.7457   2000.0000     80.9182
