~Version Information
VERS.                      2.0: CWLS Log ASCII Standard - VERSION 2.0
WRAP.                       NO: One line per depth step
~Well Information Block
STRT.FT              2246.0000: 
STOP.FT              2472.6000: 
STEP.FT                 0.1000: 
NULL.                -999.2500: 
COMP.          Petrogulf Corporation: COMPANY
WELL.           Schedler 9-23V: WELL
FLD.           Purgatorie River: FIELD
LOC.           2185' FSL & 2328' FWL: LOCATION
CNTY.               Las Animas: COUNTY
SRVC.                         : SERVICE COMPANY
DATE.          Thu Jul 10 10:29:30 2003: LOG DATE
UWI.           05 071 07876 00: UNIQUE WELL ID
STAT.                 Colorado: STATE
~Curve Information Block
DEPT.FT            0 000 00 00: Depth
DCAL.in                       : CDL Caliper
RHOB.g/cc                     : CDL Bulk Density
RHOC.g/cc                     : CDL Density Correction
DPOR.pu                       : CDL Density Porosity
GR.GAPI                       : Gamma Ray
NPOR.pu                       : Neutron Porosity
~Parameter Information Block
~A  Depth       DCAL        RHOB        RHOC        DPOR         GR         NPOR    
# ...
  2322.8000      8.0370      2.5069      0.0885      8.6713     94.2939     27.1521
  2322.9000      8.0370      2.5013      0.0856      9.0146     96.0510     27.3937
  2323.0000      8.0596      2.4956      0.0832      9.3547     97.8375     27.6282
  2323.1000      8.0596      2.4902      0.0814      9.6832     99.6047     27.8548
  2323.2000      8.0596      2.4851      0.0802      9.9926    101.3033     28.0743
  2323.3000      8.0671      2.4804      0.0797     10.2765    102.8869     28.2890
  2323.4000      8.0671      2.4763      0.0798     10.5299    104.3152     28.5015
  2323.5000      8.0688      2.4726      0.0805     10.7496    105.5539     28.7134
  2323.6000      8.0688      2.4696      0.0819     10.9345    106.5770     28.9247
  2323.7000      8.0688      2.4671      0.0839     11.0853    107.3691     29.1331
  2323.8000      8.0701      2.4651      0.0863     11.2052    107.9237     29.3343
  2323.9000      8.0701      2.4636      0.0891     11.2991    108.2484     29.5217
  2324.0000      8.0731      2.4623      0.0922     11.3739    108.3656     29.6884
  2324.1000      8.0731      2.4613      0.0953     11.4379    108.3165     29.8266
  2324.2000      8.0731      2.4602      0.0984     11.5003    108.1552     29.9307
  2324.3000      8.0765      2.4591      0.1012     11.5711    107.9507     29.9962
  2324.4000      8.0765      2.4576      0.1036     11.6606    107.7788     30.0216
  2324.5000      8.0767      2.4557      0.1053     11.7788    107.7111     30.0080
  2324.6000      8.0767      2.4531      0.1063     11.9353    107.8078     29.9597
  2324.7000      8.0767      2.4497      0.1065     12.1394    108.1071     29.8834
  2324.8000      8.0758      2.4454      0.1056     12.4002    108.6191     29.7884
  2324.9000      8.0758      2.4400      0.1039     12.7266    109.3280     29.6856
  2325.0000      8.0831      2.4334      0.1012     13.1283    110.1922     29.5869
  2325.1000      8.0831      2.4253      0.0978     13.6156    111.1567     29.5039
  2325.2000      8.0831      2.4157      0.0938     14.2005    112.1561     29.4468
  2325.3000      8.1001      2.4042      0.0894     14.8969    113.1272     29.4240
  2325.4000      8.1001      2.3906      0.0848     15.7207    114.0073     29.4401
  2325.5000      8.1160      2.3746      0.0801     16.6893    114.7375     29.4966
  2325.6000      8.1160      2.3560      0.0754     17.8209    115.2593     29.5911
  2325.7000      8.1160      2.3343      0.0707     19.1337    115.5144     29.7181
  2325.8000      8.1228      2.3094      0.0660     20.6437    115.4455     29.8700
  2325.9000      8.1228      2.2810      0.0610     22.3627    114.9966     30.0378
  2326.0000      8.1252      2.2491      0.0556     24.2960    114.1207     30.2134
  2326.1000      8.1252      2.2137      0.0494     26.4405    112.7872     30.3901
  2326.2000      8.1252      2.1751      0.0422     28.7821    110.9846     30.5638
  2326.3000      8.1257      2.1336      0.0341     31.2952    108.7243     30.7330
  2326.4000      8.1257      2.0900      0.0251     33.9419    106.0382     30.8990
  2326.5000      8.1257      2.0449      0.0156     36.6723    102.9775     31.0645
  2326.6000      8.1257      1.9995      0.0064     39.4263     99.6102     31.2323
  2326.7000      8.1257      1.9548     -0.0018     42.1358     96.0171     31.4049
  2326.8000      8.1273      1.9120     -0.0081     44.7282     92.2917     31.5832
  2326.9000      8.1273      1.8724     -0.0116     47.1296     88.5417     31.7668
  2327.0000      8.1295      1.8371     -0.0118     49.2686     84.8862     31.9536
  2327.1000      8.1295      1.8072     -0.0081     51.0800     81.4535     32.1405
  2327.2000      8.1295      1.7836     -0.0008     52.5079     78.3752     32.3235
  2327.3000      8.1364      1.7671      0.0101     53.5076     75.7759     32.4980
  2327.4000      8.1364      1.7582      0.0238     54.0478     73.7599     32.6584
  2327.5000      8.1730      1.7572      0.0395     54.1111     72.4004     32.7984
  2327.6000      8.1730      1.7640      0.0562     53.6942     71.7315     32.9103
  2327.7000      8.1730      1.7787      0.0730     52.8075     71.7429     32.9857
  2327.8000      8.3010      1.8007      0.0890     51.4743     72.3847     33.0157
  2327.9000      8.3010      1.8295      0.1036     49.7295     73.5743     32.9921
  2328.0000      8.6272      1.8643      0.1163     47.6182     75.2072     32.9091
  2328.1000      8.6272      1.9043      0.1268     45.1943     77.1650     32.7637
  2328.2000      8.6272      1.9484      0.1350     42.5186     79.3296     32.5573
  2328.3000      9.0114      1.9957      0.1409     39.6570     81.5867     32.2948
  2328.4000      9.0114      2.0448      0.1449     36.6783     83.8311     31.9852
  2328.5000      8.9246      2.0947      0.1471     33.6517     85.9703     31.6394
  2328.6000      8.9246      2.1444      0.1477     30.6448     87.9285     31.2694
  2328.7000      8.9246      2.1926      0.1469     27.7209     89.6482     30.8864
  2328.8000      8.3966      2.2386      0.1447     24.9359     91.0944     30.4997
  2328.9000      8.3966      2.2814      0.1412     22.3373     92.2556     30.1163
  2329.0000      8.0392      2.3206      0.1365     19.9618     93.1431     29.7406
  2329.1000      8.0392      2.3557      0.1309     17.8345     93.7901     29.3748
  2329.2000      8.0392      2.3865      0.1244     15.9687     94.2458     29.0195
  2329.3000      7.9542      2.4130      0.1174     14.3663     94.5692     28.6750
  2329.4000      7.9542      2.4352      0.1102     13.0192     94.8190     28.3415
  2329.5000      7.9434      2.4535      0.1030     11.9110     95.0522     28.0197
  2329.6000      7.9434      2.4682      0.0961     11.0192     95.3146     27.7113
  2329.7000      7.9434      2.4798      0.0895     10.3173     95.6427     27.4185
  2329.8000      7.9386      2.4887      0.0833      9.7768     96.0586     27.1442
  2329.9000      7.9386      2.4954      0.0777      9.3697     96.5725     26.8911
  2330.0000      7.9353      2.5004      0.0725      9.0693     97.1792     26.6616
  2330.1000      7.9353      2.5040      0.0679      8.8515     97.8598     26.4575
  2330.2000      7.9353      2.5065      0.0637      8.6955     98.5815     26.2801
  2330.3000      7.9324      2.5084      0.0600      8.5838     99.3001     26.1300
  2330.4000      7.9324      2.5097      0.0568      8.5021     99.9640     26.0073
  2330.5000      7.9279      2.5108      0.0539      8.4390    100.5219     25.9117
  2330.6000      7.9279      2.5116      0.0514      8.3859    100.9279     25.8429
  2330.7000      7.9279      2.5125      0.0492      8.3357    101.1516     25.7998
  2330.8000      7.9217      2.5133      0.0473      8.2834    101.1800     25.7810
  2330.9000      7.9217      2.5143      0.0457      8.2250    101.0221     25.7839
  2331.0000      7.9169      2.5154      0.0443      8.1574    100.7053     25.8043
  2331.1000      7.9169      2.5167      0.0432      8.0784    100.2707     25.8364
  2331.2000      7.9169      2.5182      0.0425      7.9865     99.7643     25.8725
  2331.3000      7.9145      2.5200      0.0422      7.8804     99.2297     25.9037
  2331.4000      7.9145      2.5220      0.0423      7.7597     98.7007     25.9208
  2331.5000      7.9149      2.5242      0.0429      7.6239     98.1972     25.9158
  2331.6000      7.9149      2.5267      0.0440      7.4733     97.7215     25.8832
  2331.7000      7.9149      2.5294      0.0454      7.3079     97.2609     25.8213
  2331.8000      7.9168      2.5324      0.0470      7.1282     96.7920     25.7331
  2331.9000      7.9168      2.5356      0.0488      6.9347     96.2830     25.6258
  2332.0000      7.9178      2.5390      0.0506      6.7283     95.6994     25.5095
  2332.1000      7.9178      2.5426      0.0524      6.5102     95.0096     25.3958
  2332.2000      7.9178      2.5464      0.0542      6.2818     94.1877     25.2954
  2332.3000      7.9183      2.5502      0.0559      6.0456     93.2169     25.2157
