~Version Information
 VERS.                                  2.0 : CWLS LAS VERSION
 WRAP.                                   NO : WRAPING MODE
 SWARE .                 MController 2.5.0J : SOFTWARE VERSION
~Well Information
 WELL.                       Costello 44-24 : WELL
 COMP.    Pioneer Natural Resources USA Inc : COMPANY
 FLD.                      Purgatoire River : FIELD
 LOC.                SE/SE Sec 24 T32S R67W : LOCATION
 DATE.                            7/10/2005 : DATE(S) LOGGED
 SRVC.       BLANCO Geological Services LLC : SERVICE COMPANY
 STAT.                                   CO : STATE
 CNTY.                           Las Animas : COUNTY
 CTRY.                                  USA : COUNTRY
 API.                       05-071-08413-00 : API NUMBER
 STRT.FT                             305.00 : START DEPTH
 STOP.FT                            2545.00 : STOP DEPTH
 STEP.FT                               1.00 : DEPTH INCREMENT
 NULL.                                 999 : NULL VALUE
~Curve information
 DEPTH.FT                                   :
 ROP.MIN/FT                                 :
 GAS.UNITS                                  :
~ASCII Log data
# ...
      2305.0         0.37        944.4 
      2306.0         9.15       2977.5 
      2307.0         0.82       1472.2 
      2308.0         0.37       1514.4 
      2309.0         0.40       1481.1 
      2310.0         0.30       1421.4 
      2311.0         0.27       1356.0 
      2312.0         0.27       1312.8 
      2313.0         0.27       1297.6 
      2314.0         0.27       1236.7 
      2315.0         0.27       1190.3 
      2316.0         0.30       1156.7 
      2317.0         0.32       1112.3 
      2318.0         0.23       1102.4 
      2319.0         0.23       1101.8 
      2320.0         0.23       1068.1 
      2321.0         0.20       1048.8 
      2322.0         0.23       1009.1 
      2323.0         0.23       1020.5 
      2324.0         0.23       1043.1 
      2325.0         0.23       1057.0 
      2326.0         0.23       1059.9 
      2327.0         0.20       1059.9 
      2328.0         0.23       1058.6 
      2329.0         0.27       1050.7 
      2330.0         0.30       1039.3 
      2331.0         0.38       1031.6 
      2332.0         0.33       1020.2 
      2333.0         0.30       1009.4 
      2334.0         0.30        995.1 
      2335.0         0.33        993.6 
      2336.0         5.47       1375.7 
      2337.0         0.27       1265.2 
      2338.0         0.13       1303.6 
      2339.0         0.37       1475.7 
      2340.0         0.37       1490.3 
      2341.0         0.23       1485.2 
      2342.0         0.23       1395.4 
      2343.0         0.30       1340.8 
      2344.0         0.27       1271.0 
      2345.0         0.20       1231.3 
      2346.0         0.23       1191.3 
      2347.0         0.30       1159.6 
      2348.0         0.20       1133.2 
      2349.0         0.25       1086.9 
      2350.0         0.20       1065.9 
      2351.0         0.20       1051.3 
      2352.0         0.20       1042.4 
      2353.0         0.23       1030.7 
      2354.0         0.20       1028.8 
      2355.0         0.17       1020.2 
      2356.0         0.10       1020.2 
      2357.0         0.13       1016.7 
      2358.0         0.17       1010.1 
      2359.0         0.10       1010.1 
      2360.0         0.17       1001.5 
      2361.0         0.20       1001.5 
      2362.0         0.23        997.7 
      2363.0         0.27        971.0 
      2364.0         0.30        975.8 
      2365.0         0.17        975.8 
      2366.0         3.67       1460.4 
      2367.0         0.60       1368.4 
      2368.0         0.50       1257.3 
      2369.0         0.50       1475.0 
      2370.0         0.50       1509.6 
      2371.0         0.43       1441.7 
      2372.0         0.30       1323.3 
      2373.0         0.38       1207.2 
      2374.0         0.27       1132.3 
      2375.0         0.23       1151.3 
      2376.0         0.20       1163.7 
      2377.0         0.33       1162.7 
      2378.0         0.33       1120.8 
      2379.0         0.30       1115.1 
      2380.0         0.27       1104.3 
      2381.0         0.30       1089.4 
      2382.0         0.20       1085.9 
      2383.0         0.17       1053.9 
      2384.0         0.13       1053.9 
      2385.0         0.23       1040.5 
      2386.0         0.28        971.3 
      2387.0         0.23        959.0 
      2388.0         0.17        959.0 
      2389.0         0.23        992.6 
      2390.0         0.27        990.1 
      2391.0         0.23        996.4 
      2392.0         0.17        993.9 
      2393.0         0.33        983.1 
      2394.0         0.37        962.1 
      2395.0         0.37        943.7 
      2396.0         3.92       1495.7 
      2397.0         0.10       1561.0 
      2398.0         0.22       1589.0 
      2399.0         0.10       1499.5 
      2400.0         0.20       1499.5 
      2401.0         0.27       1484.9 
      2402.0         0.23       1462.0 
      2403.0         0.30       1591.5 
      2404.0         0.30       1687.7 
      2405.0         0.27       1654.4 
      2406.0         0.23       1563.9 
      2407.0         0.30       1480.1 
      2408.0         0.27       1464.6 
      2409.0         0.27       1325.2 
      2410.0         0.27       1257.6 
      2411.0         0.23       1190.7 
      2412.0         0.25       1160.2 
      2413.0         0.20       1124.0 
      2414.0         0.23       1111.9 
      2415.0         0.27       1110.7 
      2416.0         0.27       1108.5 
      2417.0         0.30       1101.2 
      2418.0         0.17       1093.2 
      2419.0         0.20       1078.6 
      2420.0         0.23       1070.4 
      2421.0         0.20       1052.6 
      2422.0         0.17       1041.5 
      2423.0         0.20       1037.7 
      2424.0         0.37       1032.3 
      2425.0         0.42       1014.5 
      2426.0         0.23       1004.4 
      2427.0         3.98       1533.4 
      2428.0         0.40       1695.6 
      2429.0         0.33       1552.5 
      2430.0         0.30       1522.6 
      2431.0         0.23       1532.2 
      2432.0         0.33       1612.8 
      2433.0         0.30       1609.6 
      2434.0         0.27       1554.7 
      2435.0         0.28       1480.4 
      2436.0         0.50       1450.9 
      2437.0         0.37       1281.4 
      2438.0         0.33       1182.1 
      2439.0         0.23       1045.0 
      2440.0         0.27        996.4 
      2441.0         0.23        986.3 
      2442.0         0.20        992.3 
      2443.0         0.17       1027.2 
      2444.0         0.20       1027.2 
      2445.0         0.20       1073.9 
      2446.0         0.33       1084.3 
      2447.0         0.38       1086.2 
      2448.0         0.30       1086.6 
      2449.0         0.23       1048.5 
      2450.0         0.23       1026.9 
      2451.0         0.23       1026.9 
      2452.0         0.27       1013.2 
      2453.0         0.23       1000.9 
      2454.0         0.27        993.2 
      2455.0         0.23        985.3 
      2456.0         4.70       1669.3 
      2457.0         0.43       1504.9 
      2458.0         0.37       1543.6 
      2459.0         0.37       1593.4 
      2460.0         0.30       1590.6 
      2461.0         0.33       1468.7 
      2462.0         0.30       1431.2 
      2463.0         0.27       1320.1 
      2464.0         0.27       1287.1 
      2465.0         0.27       1209.1 
      2466.0         0.28       1166.2 
      2467.0         0.23       1128.1 
      2468.0         0.27       1063.7 
      2469.0         0.23       1046.6 
      2470.0         0.23       1041.2 
      2471.0         0.23       1041.2 
      2472.0         0.27       1045.6 
      2473.0         0.23       1050.1 
      2474.0         0.30       1050.4 
      2475.0         0.30       1039.3 
      2476.0         0.30       1037.0 
      2477.0         0.23       1021.8 
      2478.0         0.27       1019.6 
      2479.0         0.28       1010.7 
      2480.0         0.30       1005.0 
      2481.0         0.27       1004.4 
      2482.0         0.27        999.0 
      2483.0         0.30        985.3 
      2484.0         0.30        981.5 
      2485.0         1.43        977.1 
      2486.0         2.82       1243.7 
      2487.0         0.40       1254.1 
      2488.0         0.37       1402.0 
      2489.0         0.35       1488.0 
      2490.0         0.33       1484.6 
      2491.0         0.33       1432.2 
      2492.0         0.33       1350.6 
      2493.0         0.33       1270.6 
      2494.0         0.30       1157.3 
      2495.0         0.33       1144.0 
      2496.0         0.30       1063.7 
      2497.0         0.33       1060.5 
      2498.0         0.33       1051.3 
      2499.0         0.32       1044.7 
      2500.0         0.33       1037.0 
      2501.0         0.33       1024.0 
      2502.0         0.37       1012.9 
      2503.0         0.37       1001.5 
      2504.0         0.40        982.1 
