~Version Information
VERS.                      2.0: CWLS Log ASCII Standard - VERSION 2.0
WRAP.                       NO: One line per depth step
~Well Information Block
STRT.FT                 1.5000: 
STOP.FT              1895.2500: 
STEP.FT                 0.2500: 
NULL.                -999.2500: 
COMP.          Petrogulf Corporation: COMPANY
WELL.             State 16-32R: WELL
FLD.           Purgatorie River: FIELD
LOC.           1849' FNL & 1677' FEL: LOCATION
CNTY.               Las Animas: COUNTY
SRVC.                         : SERVICE COMPANY
DATE.          Thu May 20 08:40:19 2004: LOG DATE
UWI.           05 071 08033 00: UNIQUE WELL ID
STAT.                 Colorado: STATE
~Curve Information Block
DEPT.FT            0 000 00 00: Depth
GR.GAPI                       : Gamma Ray
CCL.                          : Casing Collar Locator
TT3.usec                      : CBL 3' Travel Time
AMP3.mV                       : CBL 3' Amplitude
~Parameter Information Block
~A  Depth        GR         CCL         TT3         AMP3    
# ...
   738.5000     72.6091      0.0000    286.6757     37.3091
   738.7500     68.7523      0.0000    286.6479     37.8262
   739.0000     63.6658      0.0000    286.5914     38.5938
   739.2500     58.7677      0.0000    286.4960     39.7536
   739.5000     55.2024      0.0000    286.3361     41.1871
   739.7500     53.6555      0.0000    286.1275     42.5765
   740.0000     54.1351      0.0000    285.9380     43.6681
   740.2500     55.9172      0.0000    285.8452     44.3988
   740.5000     58.1469      0.0000    285.8848     44.7446
   740.7500     60.6038      0.0000    286.0159     44.7216
   741.0000     63.5906      0.0000    286.1429     44.5082
   741.2500     67.0464      0.0000    286.2004     44.3340
   741.5000     70.2433      0.0000    286.2086     44.1917
   741.7500     72.6107      0.0000    286.2350     43.6395
   742.0000     74.5113      0.0000    286.3134     42.1067
   742.2500     76.7874      0.0000    286.4103     39.5424
   742.5000     79.6623      0.0000    286.4643     36.5226
   742.7500     82.4573      0.0000    286.4517     33.7215
   743.0000     84.3401      0.0000    286.4181     31.5710
   743.2500     85.1363      0.0000    286.4302     30.3857
   743.5000     85.4192      0.0000    286.4891     30.3366
   743.7500     85.9500      0.0000    286.5504     31.0058
   744.0000     87.0053      0.0000    286.6234     31.3972
   744.2500     88.2234      0.0000    286.7624     30.7599
   744.5000     89.0314      0.0000    286.9649     29.1682
   744.7500     89.0089      0.0000    287.1473     27.2978
   745.0000     87.7938      0.0000    287.2189     25.8942
   745.2500     85.1244      0.0000    287.1466     25.3737
   745.5000     81.3615      0.0000    286.9494     25.7178
   745.7500     77.5641      0.0000    286.6804     26.5877
   746.0000     74.5874      0.0000    286.4123     27.5901
   746.2500     72.4188      0.0000    286.2025     28.5731
   746.5000     70.7229      0.0000    286.0953     29.5035
   746.7500     69.6631      0.0000    286.1233     30.1337
   747.0000     69.7816      0.0000    286.2531     30.1721
   747.2500     71.3411      0.0000    286.3727     29.6975
   747.5000     74.2408      0.0000    286.3693     29.1921
   747.7500     78.4955      0.0000    286.2162     29.1789
   748.0000     84.2679      0.0000    285.9803     29.7967
   748.2500     91.2054      0.0000    285.7519     30.6987
   748.5000     97.9619      0.0000    285.5946     31.3659
   748.7500    102.6621      0.0000    285.5470     31.4318
   749.0000    103.9512      0.0000    285.6086     30.8366
   749.2500    101.6534      0.0000    285.7097     29.8984
   749.5000     96.6375      0.0000    285.7455     29.1357
   749.7500     90.3580      0.0000    285.6700     28.8931
   750.0000     84.4987      0.0000    285.5295     29.1614
   750.2500     80.5939      0.0000    285.3866     29.6886
   750.5000     79.3502      0.0000    285.2537     30.2301
   750.7500     79.9688      0.0000    285.1266     30.7067
   751.0000     80.4653      0.0000    285.0325     31.1506
   751.2500     79.3269      0.0000    285.0075     31.5815
   751.5000     76.9476      0.0000    285.0706     31.9319
   751.7500     75.0804      0.0000    285.2397     32.0795
   752.0000     74.9015      0.0000    285.5415     31.9889
   752.2500     75.8260      0.0000    286.0415     31.6336
   752.5000     76.1036      0.0000    286.9589     30.7427
   752.7500     74.4372      0.0000    288.6202     29.0592
   753.0000     71.1179      0.0000    291.2550     26.8150
   753.2500     67.6021      0.0000    296.5424     24.6678
   753.5000     65.0820      0.0000    313.1295     23.1685
   753.7500     63.7734      0.0000    359.9307     22.2373
   754.0000     63.4953      0.0000    449.3978     21.4282
   754.2500     64.3624      2.0000    558.2283     20.5570
   754.5000     66.6600      0.0000    634.8465     19.7353
   754.7500     70.3113      0.0000    642.8798     19.1069
   755.0000     74.7063      0.0000    585.7722     18.7652
   755.2500     79.1159      0.0000    505.7562     18.7410
   755.5000     83.2133      0.0000    456.9436     18.8189
   755.7500     86.9503      0.0000    459.9116     18.4337
   756.0000     89.9616      0.0000    489.9958     17.4850
   756.2500     91.5654      0.0000    509.1426     16.9438
   756.5000     91.5458      0.0000    499.1553     17.5272
   756.7500     90.6125      0.0000    460.5715     18.6604
   757.0000     89.8391      0.0000    402.6588     19.4719
   757.2500     89.8232      0.0000    348.5713     19.7417
   757.5000     90.4712      0.0000    317.3244     19.7104
   757.7500     91.3082      0.0000    306.8456     19.6150
   758.0000     91.8495      0.0000    308.5140     19.4957
   758.2500     91.9434      0.0000    316.2681     19.2995
   758.5000     91.9420      0.0000    324.1504     19.0017
   758.7500     92.4056      0.0000    328.7247     18.6195
   759.0000     93.5864      0.0000    330.5107     18.2861
   759.2500     95.2544      0.0000    331.0526     18.2390
   759.5000     96.9517      0.0000    330.8819     18.6084
   759.7500     98.3476      0.0000    329.2892     19.2883
   760.0000     99.4198      0.0000    324.4529     20.0606
   760.2500    100.2264      0.0000    315.1228     20.8211
   760.5000    100.4628      0.0000    303.4763     21.6458
   760.7500     99.5321      0.0000    294.0678     22.6639
   761.0000     97.2651      0.0000    289.0756     23.9626
   761.2500     94.3601      0.0000    287.1919     25.5322
   761.5000     91.8425      0.0000    286.4981     27.1884
   761.7500     90.1455      0.0000    286.0865     28.6870
   762.0000     88.8274      0.0000    285.7306     29.9344
   762.2500     87.2372      0.0000    285.4234     30.9362
   762.5000     85.4693      0.0000    285.2329     31.6164
   762.7500     84.5179      0.0000    285.2082     31.8612
   763.0000     85.3215      0.0000    285.3152     31.7025
   763.2500     87.7538      0.0000    285.4650     31.3583
   763.5000     90.7989      0.0000    285.5732     31.1435
   763.7500     93.5630      0.0000    285.5984     31.3673
   764.0000     95.7746      0.0000    285.5580     32.1180
   764.2500     97.3617      0.0000    285.5071     33.0669
   764.5000     97.9530      0.0000    285.4943     33.7528
   764.7500     97.0484      0.0000    285.5247     34.0649
   765.0000     94.6020      0.0000    285.5591     34.2015
   765.2500     91.2184      0.0000    285.5583     34.3872
   765.5000     87.8597      0.0000    285.5351     34.8244
   765.7500     85.6000      0.0000    285.5442     35.6265
   766.0000     85.3107      0.0000    285.6037     36.6133
   766.2500     86.8380      0.0000    285.6747     37.3104
   766.5000     88.6674      0.0000    285.7171     37.3505
   766.7500     89.2269      0.0000    285.7208     36.7742
   767.0000     88.4492      0.0000    285.7132     35.7424
   767.2500     87.4326      0.0000    285.7511     34.2479
   767.5000     86.9023      0.0000    285.8565     32.4238
   767.7500     86.5875      0.0000    285.9883     30.7538
   768.0000     85.7921      0.0000    286.1188     29.5579
   768.2500     84.1831      0.0000    286.2638     28.6601
   768.5000     82.2993      0.0000    286.4057     27.8540
   768.7500     81.4128      0.0000    286.4891     27.2362
   769.0000     82.4929      0.0000    286.5234     26.8747
   769.2500     85.1169      0.0000    286.6935     26.5565
   769.5000     87.6698      0.0000    287.8415     25.9966
   769.7500     88.7990      0.0000    292.9666     25.0360
   770.0000     88.5343      0.0000    308.1331     23.6691
   770.2500     88.0101      0.0000    337.3259     22.1083
   770.5000     88.2956      0.0000    373.4489     20.8274
   770.7500     89.4226      0.0000    401.3320     20.3457
   771.0000     90.4249      0.0000    411.2039     20.8331
   771.2500     90.4456      0.0000    401.1433     22.0223
   771.5000     89.8142      0.0000    373.1582     23.5077
   771.7500     89.8524      0.0000    337.0453     24.9910
