~Version Information
VERS.                      2.0: CWLS Log ASCII Standard - VERSION 2.0
WRAP.                       NO: One line per depth step
~Well Information Block
STRT.FT               -16.5000: 
STOP.FT              1695.5000: 
STEP.FT                 0.2500: 
NULL.                -999.2500: 
COMP.          Pioneer Natural Resources: COMPANY
WELL.          Rancher 12-35 Tr: WELL
FLD.           Purgatorie River: FIELD
LOC.           2242' FNL & 308' FWL SWNW 35 32S 67W: LOCATION
PROV.                       CO: PROVINCE
CNTY.               Las Animas: COUNTRY
SRVC.                         : SERVICE COMPANY
DATE.         Fri Jul 08 09:39:00 2005: LOG DATE
UWI.                071 08430 : UNIQUE WELL ID
~Curve Information Block
DEPT.FT            0 000 00 00: Depth
CCL.                          : Casing Collar Locator
TT3.usec                      : CBL 3' Travel Time
AMP3.mV                       : CBL 3' Amplitude
GR.GAPI                       : Gamma Ray
~Parameter Information Block
~A  Depth       CCL         TT3         AMP3         GR     
# ...
   553.0000      0.0000    831.3784      8.0729    143.6904
   553.2500      0.0000    851.0137      7.5978    147.0191
   553.5000      0.0000    864.4817      6.9715    151.6191
   553.7500      0.0000    871.6997      6.3452    156.1858
   554.0000      0.0000    874.7143      5.8525    159.4983
   554.2500      0.0000    875.6951      5.5097    160.1610
   554.5000      0.0000    875.9435      5.2417    157.4198
   554.7500      0.0000    875.9922      4.9947    152.1684
   555.0000      0.0000    875.9984      4.7804    146.5666
   555.2500      0.0000    875.9890      4.6217    142.5753
   555.5000      3.0000    875.9500      4.5083    140.8564
   555.7500      2.4088    875.8131      4.4075    140.5837
   556.0000      0.0000    875.4216      4.3012    140.0725
   556.2500      0.0000    874.5185      4.2194    138.1264
   556.5000      0.0000    872.8829      4.2389    135.2055
   556.7500      0.0000    870.6716      4.4231    133.0835
   557.0000      0.0000    868.6842      4.7454    133.2489
   557.2500      0.0000    868.0104      5.1015    135.8068
   557.5000      0.0000    869.1074      5.4092    139.6849
   557.7500      0.0000    871.3128      5.6773    143.3945
   558.0000      0.0000    873.4244      5.9672    145.7148
   558.2500      0.0000    874.5656      6.2990    146.2617
   558.5000      0.0000    874.3421      6.5991    145.5818
   558.7500      0.0000    872.5180      6.7501    144.5866
   559.0000      0.0000    869.1084      6.7083    143.9516
   559.2500      0.0000    864.9991      6.5649    144.0223
   559.5000      0.0000    862.0291      6.4759    145.0033
   559.7500      0.0000    861.7086      6.5279    147.0589
   560.0000      0.0000    863.6138      6.6803    150.2293
   560.2500      0.0000    865.4519      6.8306    154.1414
   560.5000      0.0000    865.0657      6.9234    157.8016
   560.7500      0.0000    862.3970      6.9917    159.9351
   561.0000      0.0000    859.3992      7.1034    159.6201
   561.2500      0.0000    857.9740      7.2754    156.5703
   561.5000      0.0000    858.1216      7.4419    151.1552
   561.7500      0.0000    858.3159      7.5027    144.6117
   562.0000      0.0000    857.4587      7.4036    139.0115
   562.2500      0.0000    856.0741      7.1771    136.2525
   562.5000      0.0000    855.7037      6.9218    136.7577
   562.7500      0.0000    857.2983      6.7393    139.5232
   563.0000      0.0000    860.0986      6.6693    143.3701
   563.2500      0.0000    862.2078      6.6731    147.6646
   563.5000      0.0000    862.4727      6.6852    151.8677
   563.7500      0.0000    861.6183      6.6852    155.1036
   564.0000      0.0000    861.4333      6.7100    156.5896
   564.2500      0.0000    863.1129      6.7967    156.2790
   564.5000      0.0000    866.4260      6.9236    155.0061
   564.7500      0.0000    870.1501      7.0164    154.1443
   565.0000      0.0000    873.1037      7.0047    154.7553
   565.2500      0.0000    874.8516      6.8784    156.6229
   565.5000      0.0000    875.6388      6.7073    158.2678
   565.7500      0.0000    875.9078      6.6074    158.3018
   566.0000      0.0000    875.9629      6.6649    156.8567
   566.2500      0.0000    875.8889      6.8719    155.4318
   566.5000      0.0000    875.5429      7.1344    155.3026
   566.7500      0.0000    874.4733      7.3406    156.5856
   567.0000      0.0000    871.9384      7.4308    158.8835
   567.2500      0.0000    867.3482      7.4241    161.9446
   567.5000      0.0000    861.1656      7.4006    165.1607
   567.7500      0.0000    855.4240      7.4588    166.9961
   568.0000      0.0000    852.8015      7.6567    165.6012
   568.2500      0.0000    854.6190      7.9639    160.1809
   568.5000      0.0000    859.6288      8.2715    151.8844
   568.7500      0.0000    864.8361      8.4660    143.5100
   569.0000      0.0000    867.3210      8.5033    138.0846
   569.2500      0.0000    865.4681      8.4248    137.0804
   569.5000      0.0000    859.4828      8.3089    139.4972
   569.7500      0.0000    851.5907      8.2039    142.6948
   570.0000      0.0000    845.2098      8.0999    144.4632
   570.2500      0.0000    842.8880      7.9584    144.4204
   570.5000      0.0000    844.7152      7.7631    143.5731
   570.7500      0.0000    848.5836      7.5405    143.0955
   571.0000      0.0000    851.5209      7.3422    143.7894
   571.2500      0.0000    851.2713      7.2170    146.0590
   571.5000      0.0000    847.9421      7.1996    149.6569
   571.7500      0.0000    844.5260      7.3052    153.5036
   572.0000      0.0000    844.8959      7.5165    156.2789
   572.2500      0.0000    850.3257      7.7759    157.4867
   572.5000      0.0000    857.9244      8.0027    157.9244
   572.7500      0.0000    862.4946      8.1263    159.0712
   573.0000      0.0000    859.4988      8.1179    161.7594
   573.2500      0.0000    846.9741      8.0097    164.9621
   573.5000      0.0000    826.7504      7.8820    166.1018
   573.7500      0.0000    804.7360      7.8098    163.3833
   574.0000      0.0000    788.5330      7.8118    157.8287
   574.2500      0.0000    783.1816      7.8469    152.3521
   574.5000      0.0000    788.8414      7.8503    149.0509
   574.7500      0.0000    802.1882      7.7729    147.7759
   575.0000      0.0000    819.1490      7.6169    146.5598
   575.2500      0.0000    836.3600      7.4518    142.9295
   575.5000      0.0000    851.2881      7.3808    135.7753
   575.7500      0.0000    862.1852      7.4763    126.7520
   576.0000      0.0000    868.0981      7.7442    119.3245
   576.2500      0.0000    868.3348      8.1321    115.7284
   576.5000      0.0000    861.7161      8.5437    114.8133
   576.7500      0.0000    847.1409      8.8559    113.0192
   577.0000      0.0000    825.9650      8.9589    107.5649
   577.2500      0.0000    803.8536      8.8055     98.8754
   577.5000      0.0000    789.0512      8.4388     90.0136
   577.7500      0.0000    787.5464      7.9893     83.8924
   578.0000      0.0000    799.2941      7.6310     81.2761
   578.2500      0.0000    818.7336      7.4887     81.2493
   578.5000      0.0000    838.7537      7.5514     82.7597
   578.7500      0.0000    854.4958      7.6810     85.1599
   579.0000      0.0000    864.3547      7.7234     87.8240
   579.2500      0.0000    868.5934      7.6223     90.1406
   579.5000      0.0000    867.4257      7.4463     92.0281
   579.7500      0.0000    860.0485      7.3096     94.0296
   580.0000      0.0000    845.5698      7.2620     96.5546
   580.2500      0.0000    825.5501      7.2604     99.1541
   580.5000      0.0000    805.3560      7.2516    100.9022
   580.7500      0.0000    791.4656      7.2543    101.5187
   581.0000      0.0000    786.8879      7.3378    101.8128
   581.2500      0.0000    790.3591      7.5328    102.8422
   581.5000      0.0000    799.8720      7.7820    104.7955
   581.7500      0.0000    814.6456      7.9769    106.9819
   582.0000      0.0000    832.9672      8.0357    108.9615
   582.2500      0.0000    850.7365      7.9479    111.2615
   582.5000      0.0000    863.9104      7.7681    114.7681
   582.7500      0.0000    871.3422      7.5870    119.7643
   583.0000      0.0000    874.5209      7.4918    125.7542
   583.2500      0.0000    875.5164      7.5131    131.8412
   583.5000      0.0000    875.6860      7.5988    137.2107
   583.7500      0.0000    875.6288      7.6505    141.4306
   584.0000      0.0000    875.5341      7.5908    144.1699
   584.2500      0.0000    875.4213      7.4042    144.8004
   584.5000      0.0000    875.1271      7.1447    142.8324
   584.7500      0.0000    874.0431      6.9203    138.7197
   585.0000      0.0000    870.6647      6.8468    133.7918
   585.2500      0.0000    862.4632      6.9819    129.2635
   585.5000      0.0000    847.0178      7.2871    125.4507
   585.7500      0.0000    824.3735      7.6447    122.0446
   586.0000      0.0000    798.4570      7.9175    119.2260
   586.2500      0.0000    775.4700      8.0216    118.2662
