~Version Information
 VERS.                                  2.0 : CWLS LAS VERSION
 WRAP.                                   NO : WRAPING MODE
 SWARE .                 MController 2.5.0J : SOFTWARE VERSION
~Well Information
 WELL.                        MOO MOO 31-36 : WELL
 COMP.    PIONEER NATURAL RESOURCES USA INC : COMPANY
 FLD.                      PURGATOIRE RIVER : FIELD
 LOC.                NW/NE SEC 36 T32S R67W : LOCATION
 DATE.                             06/16/05 : DATE(S) LOGGED
 SRVC.       BLANCO GEOLOGICAL SERVICES LLC : SERVICE COMPANY
 STAT.                             COLORADO : STATE
 CNTY.                           LAS ANIMAS : COUNTY
 CTRY.                                  USA : COUNTRY
 API.                       05-071-08395-00 : API NUMBER
 STRT.FT                             303.00 : START DEPTH
 STOP.FT                            2275.00 : STOP DEPTH
 STEP.FT                               1.00 : DEPTH INCREMENT
 NULL.                                -9999 : NULL VALUE
~Curve information
 DEPTH.FT                                   :
 ROP.MIN/FT                                 :
 GAS.UNITS                                  :
~ASCII Log data
# ...
       903.0         0.33        338.3 
       904.0         0.27        276.3 
       905.0         0.30        213.9 
       906.0         0.27        170.5 
       907.0         0.27        142.4 
       908.0         0.37        120.4 
       909.0         0.23        111.0 
       910.0         0.27        104.6 
       911.0         0.23        100.5 
       912.0         0.25         96.1 
       913.0         0.30         91.9 
       914.0         0.23         89.7 
       915.0         0.17         88.6 
       916.0         0.13         88.3 
       917.0         0.10         87.3 
       918.0         0.07         87.0 
       919.0         0.13         86.8 
       920.0         0.17         86.6 
       921.0         0.13         85.8 
       922.0         0.10         85.2 
       923.0         0.20         83.2 
       924.0         0.20         87.2 
       925.0         0.27        119.9 
       926.0         0.97        223.2 
       927.0         0.12        220.3 
       928.0         0.20        237.9 
       929.0         0.30        350.7 
       930.0         0.33       1331.0 
       931.0         0.23       1651.3 
       932.0         0.23       1826.3 
       933.0         0.40       1666.0 
       934.0         0.37       1328.4 
       935.0         0.30       1097.7 
       936.0         0.27        945.9 
       937.0         0.33        835.7 
       938.0         0.27        788.3 
       939.0         0.25        749.0 
       940.0         0.30        725.4 
       941.0         0.27        693.7 
       942.0         0.30        668.8 
       943.0         0.20        659.7 
       944.0         0.20        649.9 
       945.0         0.17        651.5 
       946.0         0.10        642.7 
       947.0         0.20        633.8 
       948.0         0.27        629.3 
       949.0         0.27        620.1 
       950.0         0.13        604.1 
       951.0         0.23        620.8 
       952.0         0.27        642.0 
       953.0         0.17        653.8 
       954.0         0.18        591.3 
       955.0         0.37        688.2 
       956.0         0.90        687.2 
       957.0         0.17        746.4 
       958.0         0.53       1286.2 
       959.0         0.37       1897.0 
       960.0         0.37       2369.0 
       961.0         0.30       2168.5 
       962.0         0.28       1793.6 
       963.0         0.43       1280.9 
       964.0         0.33       1036.2 
       965.0         0.23        944.3 
       966.0         0.23        880.8 
       967.0         0.23        848.8 
       968.0         0.30        802.3 
       969.0         0.27        770.9 
       970.0         0.27        749.7 
       971.0         0.20        736.9 
       972.0         0.20        720.5 
       973.0         0.13        719.9 
       974.0         0.23        720.2 
       975.0         0.20        714.0 
       976.0         0.25        697.3 
       977.0         0.23        634.2 
       978.0         0.13        682.3 
       979.0         0.13        681.3 
       980.0         0.17        682.9 
       981.0         0.23        697.0 
       982.0         0.27        703.5 
       983.0         0.20        697.6 
       984.0         0.43        741.1 
       985.0         0.33        790.2 
       986.0         1.15       1066.3 
       987.0         0.23       1387.9 
       988.0         0.33       2017.0 
       989.0         0.37       2369.7 
       990.0         0.27       2189.4 
       991.0         0.23       1891.7 
       992.0         0.13       1734.7 
       993.0         0.13       1582.9 
       994.0         0.23       1345.1 
       995.0         0.30       1138.6 
       996.0         0.23       1022.2 
       997.0         0.27        945.3 
       998.0         0.23        884.8 
       999.0         0.25        914.9 
      1000.0         0.27        878.2 
      1001.0         0.17        888.0 
      1002.0         0.23        859.9 
      1003.0         0.30        844.2 
      1004.0         0.30        819.7 
      1005.0         0.27        821.0 
      1006.0         0.27        820.0 
      1007.0         0.23        830.1 
      1008.0         0.20        827.8 
      1009.0         0.20        822.6 
      1010.0         0.20        816.7 
      1011.0         0.20        810.2 
      1012.0         0.30        795.1 
      1013.0         0.25        798.4 
      1014.0         0.23        791.5 
      1015.0         0.23        790.2 
      1016.0         0.63        707.8 
      1017.0         0.27        787.9 
      1018.0         0.33       1119.7 
      1019.0         0.27       1472.7 
      1020.0         0.40       2206.1 
      1021.0         0.40       2497.0 
      1022.0         0.47       1893.7 
      1023.0         0.45       1347.0 
      1024.0         0.33       1069.3 
      1025.0         0.23        957.1 
      1026.0         0.20        914.5 
      1027.0         0.20        892.6 
      1028.0         0.30        879.5 
      1029.0         0.33        877.6 
      1030.0         0.27        865.1 
      1031.0         0.33        861.5 
      1032.0         0.37        834.1 
      1033.0         0.33        816.4 
      1034.0         0.32        804.6 
      1035.0         0.30        788.6 
      1036.0         0.20        783.7 
      1037.0         0.20        774.5 
      1038.0         0.20        719.6 
      1039.0         0.23        725.1 
      1040.0         0.27        726.4 
      1041.0         0.30        719.2 
      1042.0         0.23        730.0 
      1043.0         0.27        736.6 
      1044.0         0.33        739.5 
      1045.0         0.23        732.6 
      1046.0         0.95        697.6 
      1047.0         0.10        686.5 
      1048.0         0.13        681.3 
      1049.0         0.13        711.7 
      1050.0         0.33        967.9 
      1051.0         0.43       1527.0 
      1052.0         0.30       2077.2 
      1053.0         0.30       2324.2 
      1054.0         0.30       2104.7 
      1055.0         0.23       1809.3 
      1056.0         0.30       1486.1 
      1057.0         0.25       1266.5 
      1058.0         0.23       1111.5 
      1059.0         0.23        998.0 
      1060.0         0.20        941.0 
      1061.0         0.13        915.5 
      1062.0         0.13        893.6 
      1063.0         0.13        878.9 
      1064.0         0.20        861.9 
      1065.0         0.23        841.6 
      1066.0         0.33        803.3 
      1067.0         0.17        783.7 
      1068.0         0.17        799.1 
      1069.0         0.17        811.8 
      1070.0         0.17        839.0 
      1071.0         0.13        849.8 
      1072.0         0.13        851.1 
      1073.0         0.17        840.3 
      1074.0         0.10        755.2 
      1075.0         0.17        825.2 
      1076.0         1.98       1232.9 
      1077.0         0.30       1677.4 
      1078.0         0.23       2084.7 
      1079.0         0.27       2670.0 
      1080.0         0.27       2795.0 
      1081.0         0.23       2526.7 
      1082.0         0.22       2196.6 
      1083.0         0.27       1796.5 
      1084.0         0.20       1555.4 
      1085.0         0.20       1361.7 
      1086.0         0.20       1216.2 
      1087.0         0.17       1132.1 
      1088.0         0.27       1043.4 
      1089.0         0.17       1005.2 
      1090.0         0.20        969.5 
      1091.0         0.20        943.7 
      1092.0         0.23        899.5 
      1093.0         0.20        852.4 
      1094.0         0.17        833.1 
      1095.0         0.20        832.7 
      1096.0         0.20        841.9 
      1097.0         0.20        790.5 
      1098.0         0.22        842.6 
      1099.0         0.27        834.4 
      1100.0         0.27        828.8 
      1101.0         0.30        832.4 
      1102.0         0.23        815.1 
