~Version Information
VERS.                      2.0: CWLS Log ASCII Standard - VERSION 2.0
WRAP.                       NO: One line per depth step
~Well Information Block
STRT.FT                 0.0000: 
STOP.FT              2384.7500: 
STEP.FT                 0.2500: 
NULL.                -999.2500: 
COMP.          Petrogulf Corporation: COMPANY
WELL.           McDaniel 9-34V: WELL
FLD.           Purgatorie River: FIELD
LOC.           620' FSL & 1800' FEL: LOCATION
STAT.                 Colorado: State
CNTY.               Las Animas: COUNTY
CTRY. USA : Country
SECT. 9 : Section
TOWN. 33S : Township
RANG. 67W : Range
SRVC.                Patterson: SERVICE COMPANY
DATE.          Thu Nov 10 12:28:18 2005: LOG DATE
API. 05-071-08333                         : UNIQUE WELL ID
~Curve Information Block
DEPT.FT            0 000 00 00: Depth
AMP3.mV                       : CBL 3' Amplitude
CCL.                          : Casing Collar Locator
GR.GAPI                       : Gamma Ray
TT3.usec                      : CBL 3' Travel Time
~Parameter Information Block
~A  Depth       AMP3        CCL          GR         TT3     
# ...
   636.5000      3.0958      0.0000     57.7938    322.0269
   636.7500      3.2371      0.0000     58.5938    321.4354
   637.0000      3.4186      0.0000     59.7796    320.8594
   637.2500      3.5285      0.0000     59.9173    320.4029
   637.5000      3.5215      0.0000     58.5192    320.2083
   637.7500      3.4618      0.0000     56.4602    320.3683
   638.0000      3.4641      0.0000     54.9892    320.8387
   638.2500      3.5821      0.0000     54.7212    321.4457
   638.5000      3.7355      0.0000     55.4556    321.9995
   638.7500      3.7823      0.0000     56.6123    322.4045
   639.0000      3.6865      0.0000     57.8145    322.6692
   639.2500      3.5771      0.0000     59.2319    322.8394
   639.5000      3.6181      0.0000     61.5244    322.9462
   639.7500      3.8410      0.0000     65.4123    323.0120
   640.0000      4.1270      0.0000     70.9781    323.0632
   640.2500      4.3333      0.0000     77.2274    323.1187
   640.5000      4.4234      0.0000     82.6346    323.1938
   640.7500      4.4775      0.0000     86.3163    323.3069
   641.0000      4.5762      0.0000     88.4638    323.4683
   641.2500      4.7105      0.0000     89.6722    323.7069
   641.5000      4.8174      0.0000     90.2545    324.2433
   641.7500      4.8505      0.0000     90.3235    325.8840
   642.0000      4.8151      0.0000     90.1354    330.2084
   642.2500      4.7618      0.0000     89.8977    338.2433
   642.5000      4.7226      0.0000     89.3829    348.2704
   642.7500      4.6877      0.0000     88.2624    356.9242
   643.0000      4.6663      0.0000     86.9553    363.2982
   643.2500      4.7116      0.0000     86.6090    369.8351
   643.5000      4.8707      0.0000     87.8242    378.7467
   643.7500      5.1225      0.0000     89.7443    388.7487
   644.0000      5.3969      0.0000     90.8917    396.3921
   644.2500      5.6669      0.0000     90.6747    400.3390
   644.5000      5.9339      0.0000     89.6609    403.2819
   644.7500      6.1453      0.0000     88.6811    412.2627
   645.0000      6.2523      0.0000     88.2368    437.8643
   645.2500      6.3060      0.0000     88.5720    482.3975
   645.5000      6.4011      0.0000     89.6657    523.1652
   645.7500      6.5539      0.0000     91.0689    529.4169
   646.0000      6.7064      0.0000     92.1146    505.7062
   646.2500      6.8232      0.0000     92.4293    488.5180
   646.5000      6.9187      0.0000     92.0965    496.6246
   646.7500      6.9996      0.0000     91.2753    515.9033
   647.0000      7.0306      0.0000     89.8895    530.8138
   647.2500      6.9946      0.0000     87.7909    542.2206
   647.5000      6.9618      0.0000     84.9780    555.4478
   647.7500      7.0380      0.0000     81.5096    569.6358
   648.0000      7.2570      0.0000     77.4232    578.0483
   648.2500      7.5977      0.0000     72.8710    578.4048
   648.5000      8.0532      0.0000     68.2234    578.1534
   648.7500      8.5319      0.0000     64.0890    581.4943
   649.0000      8.7064      0.0000     61.3194    583.8439
   649.2500      8.2399      0.0000     60.7197    585.0640
   649.5000      7.2930      0.0000     62.4064    591.2176
   649.7500      6.4537      0.0000     65.5208    603.1429
   650.0000      6.0283      0.0000     68.7599    612.3753
   650.2500      5.8247     -2.0000     71.2430    611.5329
   650.5000      5.6134      2.0000     72.9577    604.7660
   650.7500      5.3747      0.0000     74.3856    599.6978
   651.0000      5.1616      0.0000     75.6542    598.1909
   651.2500      5.0029      0.0000     76.3455    599.6177
   651.5000      4.9096      0.0000     76.4292    602.6522
   651.7500      4.8672      0.0000     76.9847    604.1629
   652.0000      4.8594      0.0000     79.2833    601.8633
   652.2500      4.9689      0.0000     83.0990    597.0173
   652.5000      5.3066      0.0000     86.5496    592.7979
   652.7500      5.7405      0.0000     88.0348    590.7003
   653.0000      5.9933      0.0000     87.9966    589.8539
   653.2500      6.0251      0.0000     88.2502    588.0895
   653.5000      6.0143      0.0000     89.7336    580.3015
   653.7500      6.0804      0.0000     91.6494    556.4533
   654.0000      6.2309      0.0000     92.8719    509.4566
   654.2500      6.4389      0.0000     93.3346    449.6091
   654.5000      6.6628      0.0000     93.6508    399.3273
   654.7500      6.8534      0.0000     94.0986    370.3526
   655.0000      6.9806      0.0000     94.3955    358.5381
   655.2500      7.0425      0.0000     94.0737    354.4541
   655.5000      7.0439      0.0000     92.8464    350.2691
   655.7500      6.9982      0.0000     90.8073    344.9372
   656.0000      6.9536      0.0000     88.2893    344.3162
   656.2500      6.9383      0.0000     85.5695    351.9199
   656.5000      6.9087      0.0000     82.9489    362.7599
   656.7500      6.8320      0.0000     81.0196    370.1760
   657.0000      6.7281      0.0000     80.4516    374.8071
   657.2500      6.6121      0.0000     81.5127    381.2471
   657.5000      6.4942      0.0000     83.9557    389.8570
   657.7500      6.3863      0.0000     87.1569    396.9279
   658.0000      6.2851      0.0000     90.2360    399.9751
   658.2500      6.2124      0.0000     92.3884    398.6549
   658.5000      6.2158      0.0000     93.3942    391.9361
   658.7500      6.3001      0.0000     93.6624    379.0156
   659.0000      6.4322      0.0000     93.5045    362.9867
   659.2500      6.5884      0.0000     92.4633    348.6889
   659.5000      6.7349      0.0000     89.6961    338.0233
   659.7500      6.8341      0.0000     85.0926    330.9401
   660.0000      6.9080      0.0000     79.6580    327.1507
   660.2500      7.0164      0.0000     74.6333    325.6207
   660.5000      7.1723      0.0000     70.5548    325.0915
   660.7500      7.3105      0.0000     67.4272    324.8680
   661.0000      7.3481      0.0000     65.4907    324.7327
   661.2500      7.2780      0.0000     65.3688    324.6581
   661.5000      7.1500      0.0000     67.5082    324.6607
   661.7500      6.9952      0.0000     71.6323    324.7510
   662.0000      6.8404      0.0000     76.5832    324.8981
   662.2500      6.7117      0.0000     80.6704    325.0164
   662.5000      6.6085      0.0000     82.5988    325.0362
   662.7500      6.5612      0.0000     82.3494    324.9841
   663.0000      6.6248      0.0000     81.0770    324.9428
   663.2500      6.7679      0.0000     80.0625    324.9540
   663.5000      6.8997      0.0000     79.8512    325.0007
   663.7500      6.9768      0.0000     80.3734    325.0641
   664.0000      6.9966      0.0000     81.4736    325.1478
   664.2500      6.9786      0.0000     82.8780    325.2410
   664.5000      6.9710      0.0000     83.7851    325.3130
   664.7500      7.0099      0.0000     83.0535    325.3467
   665.0000      7.0871      0.0000     80.2835    325.3441
   665.2500      7.1547      0.0000     76.7036    325.3225
   665.5000      7.1605      0.0000     74.4373    325.3077
   665.7500      7.0934      0.0000     74.5363    325.3106
   666.0000      6.9813      0.0000     76.0916    325.3129
   666.2500      6.8741      0.0000     77.5437    325.2914
   666.5000      6.7962      0.0000     78.3782    325.2573
   666.7500      6.7041      0.0000     79.1009    325.2428
   667.0000      6.5737      0.0000     80.0727    325.2578
   667.2500      6.4498      0.0000     81.0396    325.3003
   667.5000      6.3454      0.0000     81.5605    325.3645
   667.7500      6.2191      0.0000     81.3840    325.4081
   668.0000      6.0717      0.0000     80.4807    325.3750
   668.2500      5.9552      0.0000     78.9399    325.2539
   668.5000      5.8701      0.0000     76.7819    325.0703
   668.7500      5.7653      0.0000     73.8815    324.8519
   669.0000      5.6451      0.0000     70.2478    324.6269
   669.2500      5.5710      0.0000     66.2894    324.4240
   669.5000      5.5780      0.0000     62.5938    324.2609
   669.7500      5.6571      0.0000     59.5628    324.1364
