~Version Information
VERS.                      2.0: CWLS Log ASCII Standard - VERSION 2.0
WRAP.                       NO: One line per depth step
~Well Information Block
STRT.FT               553.0000: 
STOP.FT              1576.5000: 
STEP.FT                 0.2500: 
NULL.                -999.2500: 
COMP.          Pioneer Natural Resources: COMPANY
WELL.           Telna 24-22 Tr: WELL
FLD.           Purgatoire River: FIELD
LOC.           748' FSL & 1931' FWL: LOCATION
PROV.                 Colorado: PROVINCE
CNTY.               Las Animas: COUNTRY
SRVC.                Patterson: SERVICE COMPANY
DATE.          Mon May 02 07:15:29 2005: LOG DATE
UWI.           05 071 08304 00: UNIQUE WELL ID
~Curve Information Block
DEPT.FT            0 000 00 00: Depth
DCAL.in                       : CDL Caliper
RHOB.g/cc                     : CDL Bulk Density
RHOC.g/cc                     : CDL Density Correction
DPOR.pu                       : CDL Density Porosity
GR.GAPI                       : Gamma Ray
NPOR.pu                       : Neutron Porosity
~Parameter Information Block
~A  Depth       DCAL        RHOB        RHOC        DPOR         GR         NPOR    
# ...
  1153.0000      7.9478      2.4329      0.0531     13.1583    120.8977     25.5457
  1153.2500      7.9461      2.3955     -0.0108     15.4234    126.1731     25.7669
  1153.5000      7.9464      2.3949     -0.0082     15.4578    126.8282     26.2267
  1153.7500      7.9476      2.4489     -0.0375     12.1905    123.8407     24.0469
  1154.0000      7.9466      2.5786      0.0829      4.3293    112.3331     24.3359
  1154.2500      7.9450      2.6008      0.0848      2.9813    105.2870     26.7268
  1154.5000      7.9445      2.5642      0.0806      5.1971    114.3356     23.9830
  1154.7500      7.9447      2.4911     -0.0083      9.6311    116.9375     22.9604
  1155.0000      7.9450      2.4113     -0.0572     14.4682    109.2692     24.7897
  1155.2500      7.9463      2.4348      0.0335     13.0398    112.4520     25.5442
  1155.5000      7.9516      2.4935      0.1039      9.4819    122.0740     25.2177
  1155.7500      7.9571      2.4894      0.1025      9.7317    116.5574     26.4590
  1156.0000      7.9561      2.4567      0.0531     11.7130    116.9031     28.5075
  1156.2500      7.9535      2.4464      0.0212     12.3389    118.6477     26.4964
  1156.5000      7.9528      2.4654      0.0288     11.1853    111.5654     25.6461
  1156.7500      7.9532      2.4760     -0.0013     10.5469    104.4744     27.0030
  1157.0000      7.9537      2.4797      0.0007     10.3219    116.1077     23.3112
  1157.2500      7.9536      2.4896      0.0148      9.7213    116.1083     24.5948
  1157.5000      7.9529      2.5340      0.0630      7.0333    112.1402     25.1513
  1157.7500      7.9530      2.4897      0.0629      9.7169    107.9453     25.2902
  1158.0000      7.9543      2.4047     -0.0218     14.8685     99.6980     26.8411
  1158.2500      7.9554      2.3385     -0.0408     18.8799     93.8965     26.5862
  1158.5000      7.9549      2.3612     -0.0454     17.5014    103.9988     24.9623
  1158.7500      7.9541      2.4547      0.0320     11.8362    110.0267     25.9222
  1159.0000      7.9539      2.6263      0.1457      1.4352    112.4297     25.3269
  1159.2500      7.9537      2.6954      0.1428     -2.7505    115.9458     24.7711
  1159.5000      7.9535      2.6499      0.0689      0.0058    127.8072     25.7536
  1159.7500      7.9541      2.6325      0.0547      1.0581    135.7263     25.4320
  1160.0000      7.9568      2.6182     -0.0126      1.9263    143.0172     27.8998
  1160.2500      7.9611      2.6272      0.1228      1.3813    138.6512     26.4102
  1160.5000      7.9634      2.5441      0.0290      6.4181    144.7782     26.6681
  1160.7500      7.9638      2.4954     -0.0605      9.3727    148.2403     27.5340
  1161.0000      7.9643      2.5012      0.0431      9.0171    147.2828     28.1989
  1161.2500      7.9652      2.4614      0.0393     11.4281    143.8130     27.1679
  1161.5000      7.9662      2.2589     -0.0971     23.7008    146.6120     27.3845
  1161.7500      7.9676      2.1671      0.0111     29.2654    135.0470     28.6991
  1162.0000      7.9692      2.0278     -0.1054     37.7090    148.3003     31.4061
  1162.2500      7.9700      2.0935     -0.0034     33.7267    145.2114     32.8430
  1162.5000      7.9699      2.2611      0.1310     23.5694    139.3415     30.3342
  1162.7500      7.9692      2.3147      0.1439     20.3216    138.9761     31.4623
  1163.0000      7.9689      2.2250     -0.0822     25.7584    135.7568     32.3238
  1163.2500      7.9691      2.2010     -0.0038     27.2151    130.7601     30.3813
  1163.5000      7.9694      2.0897      0.0199     33.9559    126.5272     28.7114
  1163.7500      7.9703      1.9333      0.0121     43.4336    111.6977     28.9460
  1164.0000      7.9724      1.6865     -0.0526     58.3919     98.3997     31.6565
  1164.2500      7.9754      1.5551     -0.0802     66.3555     92.3487     33.7141
  1164.5000      7.9799      1.4367      0.0739     73.5361     85.4750     33.6472
  1164.7500      7.9872      1.4079      0.0313     75.2780     78.2480     31.1374
  1165.0000      7.9955      1.4991     -0.0005     69.7517     75.0269     33.2844
  1165.2500      8.0216      1.6941      0.0975     57.9308     74.0653     33.7667
  1165.5000      8.0798      2.0263      0.0953     37.7979    109.0863     33.4129
  1165.7500      8.0772      2.2914      0.2317     21.7329    124.0068     33.5702
  1166.0000      7.9648      2.3941      0.0447     15.5074    133.7253     30.0280
  1166.2500      7.8739      2.3965     -0.0013     15.3615    136.6593     28.4281
  1166.5000      7.8467      2.4099      0.0179     14.5519    142.0632     29.8542
  1166.7500      7.8389      2.4466      0.0864     12.3258    145.3166     27.2408
  1167.0000      7.8342      2.4605      0.0885     11.4828    142.9411     26.7759
  1167.2500      7.8323      2.4983      0.1327      9.1928    150.2106     24.9704
  1167.5000      7.8345      2.5318      0.1241      7.1625    140.9944     27.4510
  1167.7500      7.8371      2.5472      0.1376      6.2326    133.1759     27.3520
  1168.0000      7.8392      2.4908      0.0904      9.6460    142.3528     24.9433
  1168.2500      7.8423      2.4762      0.0708     10.5345    156.7429     26.9804
  1168.5000      7.8478      2.4923      0.0679      9.5592    148.6881     25.3070
  1168.7500      7.8531      2.4868      0.0622      9.8888    138.2386     25.6487
  1169.0000      7.8505      2.4689     -0.0051     10.9729    127.8477     25.8022
  1169.2500      7.8428      2.5080      0.0637      8.6088    138.7424     25.7545
  1169.5000      7.8385      2.5001      0.0079      9.0844    135.0004     24.8998
  1169.7500      7.8374      2.4901      0.0513      9.6886    144.5472     23.9130
  1170.0000      7.8377      2.5077      0.0790      8.6228    150.9439     25.3023
  1170.2500      7.8394      2.4727      0.0571     10.7457    150.2486     25.8550
  1170.5000      7.8424      2.5099      0.0590      8.4894    143.6522     26.7838
  1170.7500      7.8474      2.5580      0.0645      5.5766    130.5972     24.2288
  1171.0000      7.8509      2.5790     -0.0069      4.3004    118.5460     25.4466
  1171.2500      7.8485      2.6639      0.0778     -0.8442    113.6454     26.2044
  1171.5000      7.8432      2.7587      0.0656     -6.5903    116.6589     28.3064
  1171.7500      7.8416      2.8276      0.0671    -10.7640    109.6811     27.1194
  1172.0000      7.8433      2.9048      0.1454    -15.4436    120.0373     28.4069
  1172.2500      7.8460      2.7719     -0.0227     -7.3908    122.3466     28.1145
  1172.5000      7.8500      2.5557     -0.1340      5.7160    120.2985     26.3392
  1172.7500      7.8602      2.4938     -0.0602      9.4673    123.6401     25.9684
  1173.0000      7.8767      2.4580      0.0246     11.6393    130.3167     26.2056
  1173.2500      7.8915      2.4293      0.0489     13.3739    129.8982     27.6316
  1173.5000      7.8937      2.3568      0.0399     17.7724    130.9646     26.9438
  1173.7500      7.8735      2.3226      0.0138     19.8448    130.3846     26.4561
  1174.0000      7.8533      2.3780      0.0994     16.4838    125.6437     26.8405
  1174.2500      7.8443      2.4309      0.1161     13.2802    122.4667     26.1411
  1174.5000      7.8420      2.6047      0.2251      2.7451    130.1416     30.0795
  1174.7500      7.8455      2.6537      0.1903     -0.2267    121.0091     30.3375
  1175.0000      7.8579      2.5675      0.1116      5.0008    127.4445     28.5815
  1175.2500      7.8773      2.5110     -0.0025      8.4215    136.0031     27.5214
  1175.5000      7.8817      2.4858     -0.0075      9.9508    133.3849     23.4210
  1175.7500      7.8624      2.4733     -0.0222     10.7096    127.2155     24.2829
  1176.0000      7.8416      2.4640      0.0172     11.2746    115.9065     24.4193
  1176.2500      7.8287      2.4603      0.0182     11.4952    112.8005     23.6497
  1176.5000      7.8206      2.5505      0.1473      6.0293    106.4882     21.3994
  1176.7500      7.8180      2.5414      0.1073      6.5806    103.8842     18.8189
