~Version Information
VERS.                      2.0: CWLS Log ASCII Standard - VERSION 2.0
WRAP.                       NO: One line per depth step
~Well Information Block
STRT.FT                 0.0000: 
STOP.FT              2159.0000: 
STEP.FT                 0.2500: 
NULL.                -999.2500: 
COMP.          Petrogulf Corporation: COMPANY
WELL.               Furu 6-23R: WELL
FLD.           Purgatoire River: FIELD
LOC.           2211' FSL & 1780' FWL: LOCATION
CNTY.               Las Animas: COUNTY
SRVC.                         : SERVICE COMPANY
DATE.          Fri Jul 14 16:00:32 2006: LOG DATE
UWI.           05 071 08266 00: UNIQUE WELL ID
STAT.                       CO: STATE
~Curve Information Block
DEPT.FT            0 000 00 00: Depth
GR.GAPI                       : Gamma Ray
CCL.                          : Casing Collar Locator
TT3.usec                      : CBL 3' Travel Time
AMP3.mV                       : CBL 3' Amplitude
~Parameter Information Block
~A  Depth        GR         CCL         TT3         AMP3    
# ...
  1407.0000    143.4592      0.0000    297.8632     47.0343
  1407.2500    139.7313      0.0000    297.8328     46.7082
  1407.5000    135.7942      0.0000    297.7613     46.5333
  1407.7500    131.4279      0.0000    297.6819     46.4812
  1408.0000    126.2075      0.0000    297.6259     46.5295
  1408.2500    120.8030      0.0000    297.6042     46.6670
  1408.5000    117.1249      0.0000    297.5993     46.8899
  1408.7500    116.6532      0.0000    297.5819     47.1914
  1409.0000    118.7031      0.0000    297.5359     47.5554
  1409.2500    120.8408      0.0000    297.4668     47.9576
  1409.5000    121.4161      0.0000    297.3884     48.3730
  1409.7500    121.5970      0.0000    297.3100     48.7832
  1410.0000    124.4701      0.0000    297.2368     49.1774
  1410.2500    131.8506      0.0000    297.1735     49.5488
  1410.5000    141.8286      0.0000    297.1241     49.8885
  1410.7500    149.4747      0.0000    297.0892     50.1836
  1411.0000    150.5677      0.0000    297.0634     50.4174
  1411.2500    145.1462      0.0000    297.0391     50.5743
  1411.5000    137.1716      0.0000    297.0176     50.6464
  1411.7500    130.5269      0.0000    297.0184     50.6418
  1412.0000    125.7784      0.0000    297.0655     50.5947
  1412.2500    120.8511      0.0000    297.1566     50.5623
  1412.5000    114.0928      0.0000    297.2485     50.6073
  1412.7500    106.2419      0.0000    297.2839     50.7661
  1413.0000     99.6177      0.0000    297.2348     51.0153
  1413.2500     95.8902      0.0000    297.1273     51.2572
  1413.5000     95.2284      0.0000    297.0317     51.3343
  1413.7500     97.4922      0.0000    297.0359     51.0692
  1414.0000    103.1202      0.0000    297.2263     50.3130
  1414.2500    112.1771      0.0000    297.6837     48.9864
  1414.5000    123.2289      0.0000    298.4732     47.1043
  1414.7500    133.7524      0.0000    299.5996     44.7826
  1415.0000    141.3571      0.0000    300.9361     42.2279
  1415.2500    144.5866      0.0000    302.2062     39.7050
  1415.5000    143.0847      0.0000    303.1038     37.4815
  1415.7500    137.4130      0.0000    303.4865     35.7611
  1416.0000    128.8841      0.0000    303.4485     34.6298
  1416.2500    119.5498      0.0000    303.2089     34.0491
  1416.5000    111.9253      2.0000    302.9271     33.9080
  1416.7500    108.1115     -1.8491    302.5648     34.1144
  1417.0000    108.7543      0.0000    301.8199     34.6796
  1417.2500    112.5992      0.0000    300.2068     35.7451
  1417.5000    116.9697      0.0000    297.3816     37.5276
  1417.7500    118.9663      0.0000    293.4782     40.2032
  1418.0000    116.7849      0.0000    288.9301     43.7822
  1418.2500    110.3041      0.0000    283.8849     48.0425
  1418.5000    100.7079      0.0000    278.1695     52.5632
  1418.7500     89.7458      0.0000    272.0381     56.8415
  1419.0000     79.1716      0.0000    266.4968     60.4354
  1419.2500     70.4570      0.0000    262.5925     63.0665
  1419.5000     64.6941      0.0000    260.7160     64.6434
  1419.7500     62.3874      0.0000    260.8239     65.2255
  1420.0000     63.0068      0.0000    263.0384     64.9631
  1420.2500     64.9584      0.0000    267.6451     64.0481
  1420.5000     66.5278      0.0000    274.3954     62.6842
  1420.7500     67.1105      0.0000    282.0142     61.0658
  1421.0000     67.4876      0.0000    288.7153     59.3613
  1421.2500     68.9706      0.0000    293.3190     57.6966
  1421.5000     72.4874      0.0000    295.7948     56.1488
  1421.7500     78.3792      0.0000    296.8390     54.7486
  1422.0000     86.4397      0.0000    297.1804     53.4889
  1422.2500     95.5896      0.0000    297.2552     52.3381
  1422.5000    103.7881      0.0000    297.2478     51.2552
  1422.7500    109.1506      0.0000    297.2230     50.2052
  1423.0000    111.4543      0.0000    297.2098     49.1693
  1423.2500    112.1194      0.0000    297.2334     48.1473
  1423.5000    112.5388      0.0000    297.3184     47.1534
  1423.7500    112.8722      0.0000    297.4767     46.2092
  1424.0000    112.7441      0.0000    297.6901     45.3403
  1424.2500    112.4559      0.0000    297.9054     44.5732
  1424.5000    112.7593      0.0000    298.0569     43.9325
  1424.7500    113.7572      0.0000    298.1042     43.4329
  1425.0000    114.7239      0.0000    298.0525     43.0738
  1425.2500    115.0147      0.0000    297.9370     42.8393
  1425.5000    114.7706      0.0000    297.7888     42.7045
  1425.7500    114.5503      0.0000    297.6210     42.6439
  1426.0000    114.4610      0.0000    297.4454     42.6347
  1426.2500    114.1330      0.0000    297.2916     42.6574
  1426.5000    113.6982      0.0000    297.2053     42.6988
  1426.7500    114.1758      0.0000    297.2191     42.7559
  1427.0000    116.4738      0.0000    297.3208     42.8418
  1427.2500    120.3701      0.0000    297.4507     42.9841
  1427.5000    124.9057      0.0000    297.5387     43.2170
  1427.7500    129.6728      0.0000    297.5516     43.5676
  1428.0000    135.2745      0.0000    297.5081     44.0469
  1428.2500    142.3773      0.0000    297.4541     44.6504
  1428.5000    150.5329      0.0000    297.4213     45.3670
  1428.7500    157.8518      0.0000    297.4037     46.1896
  1429.0000    161.5794      0.0000    297.3663     47.1217
  1429.2500    159.4460      0.0000    297.2800     48.1706
  1429.5000    151.3244      0.0000    297.1494     49.3330
  1429.7500    139.9028      0.0000    297.0068     50.5774
  1430.0000    129.4467      0.0000    296.8815     51.8365
  1430.2500    123.6063      0.0000    296.7799     53.0133
  1430.5000    123.9627      0.0000    296.6934     54.0011
  1430.7500    129.7787      0.0000    296.6194     54.7095
  1431.0000    138.6460      0.0000    296.5688     55.0852
  1431.2500    147.7461      0.0000    296.5543     55.1236
  1431.5000    155.1312      0.0000    296.5785     54.8658
  1431.7500    160.1329      0.0000    296.6303     54.3853
  1432.0000    162.6899      0.0000    296.6910     53.7663
  1432.2500    162.6114      0.0000    296.7416     53.0838
  1432.5000    159.8592      0.0000    296.7755     52.3900
  1432.7500    155.1959      0.0000    296.8044     51.7131
  1433.0000    149.7263      0.0000    296.8512     51.0657
  1433.2500    143.8710      0.0000    296.9319     50.4601
  1433.5000    137.5605      0.0000    297.0410     49.9235
  1433.7500    131.1987      0.0000    297.1520     49.5073
  1434.0000    125.4843      0.0000    297.2354     49.2856
  1434.2500    120.4221      0.0000    297.2803     49.3400
  1434.5000    115.4126      0.0000    297.2931     49.7359
  1434.7500    110.3115      0.0000    297.2758     50.4969
  1435.0000    105.8221      0.0000    297.2135     51.5887
  1435.2500    102.8743      0.0000    297.0867     52.9236
  1435.5000    101.9546      0.0000    296.8595     54.3830
  1435.7500    103.1733      0.0000    296.3928     55.8528
  1436.0000    106.7541      0.0000    295.2925     57.2552
  1436.2500    112.7837      0.0000    292.8609     58.5644
  1436.5000    119.7714      0.0000    288.4142     59.7995
  1436.7500    124.1167      0.0000    281.9537     61.0001
  1437.0000    122.4783      0.0000    274.5688     62.1959
  1437.2500    114.8029      0.0000    267.9229     63.3870
  1437.5000    104.3186      0.0000    263.1820     64.5422
  1437.7500     94.8562      0.0000    260.4608     65.6132
  1438.0000     88.6211      0.0000    259.1668     66.5568
  1438.2500     85.7626      0.0000    258.6266     67.3507
  1438.5000     85.0597      0.0000    258.4020     67.9962
  1438.7500     85.0172      0.0000    258.2843     68.5101
  1439.0000     84.9664      0.0000    258.1938     68.9135
  1439.2500     85.4977      0.0000    258.1085     69.2250
  1439.5000     87.6202      0.0000    258.0280     69.4621
  1439.7500     91.2263      0.0000    257.9587     69.6471
  1440.0000     94.5699      0.0000    257.9066     69.8107
  1440.2500     95.6436      0.0000    257.8752     69.9904
