~Version Information
VERS.                      2.0: CWLS Log ASCII Standard - VERSION 2.0
WRAP.                       NO: One line per depth step
~Well Information Block
STRT.FT               456.0000: 
STOP.FT              1700.7000: 
STEP.FT                 0.1000: 
NULL.                -999.2500: 
COMP.          Pioneer Natural Resources: COMPANY
WELL.                Mead 11-9: WELL
FLD.           Purgatoire River: FIELD
LOC.           1127' FNL & 668' FWL: LOCATION
PROV.                 Colorado: PROVINCE
CNTY.               Las Animas: COUNTRY
SRVC.                Patterson: SERVICE COMPANY
DATE.          Sat Feb 19 09:18:18 2005: LOG DATE
UWI.           05 071 08160 00: UNIQUE WELL ID
~Curve Information Block
DEPT.FT            0 000 00 00: Depth
DCAL.in                       : CDL Caliper
RHOB.g/cc                     : CDL Bulk Density
RHOC.g/cc                     : CDL Density Correction
DPOR.pu                       : CDL Density Porosity
GR.GAPI                       : Gamma Ray
NPOR.pu                       : Neutron Porosity
~Parameter Information Block
~A  Depth       DCAL        RHOB        RHOC        DPOR         GR         NPOR    
# ...
  1521.6000      7.8729      2.4445      0.0341     12.4573    128.9163     20.9874
  1521.7000      7.8729      2.4389      0.0264     12.7940    122.9320     21.4742
  1521.8000      7.8727      2.4441      0.0049     12.4807    116.5499     21.7074
  1521.9000      7.8727      2.4552      0.0448     11.8064    112.8909     21.5836
  1522.0000      7.8739      2.4712      0.0452     10.8349    114.1525     21.3524
  1522.1000      7.8739      2.4919      0.0438      9.5821    116.0301     21.5489
  1522.2000      7.8739      2.5048      0.1097      8.8003    117.8849     22.2297
  1522.3000      7.8800      2.4945      0.0817      9.4240    123.6036     22.7659
  1522.4000      7.8800      2.4721      0.0691     10.7821    128.8808     22.9967
  1522.5000      7.8916      2.4634      0.0464     11.3103    126.9058     23.0950
  1522.6000      7.8916      2.4746     -0.0006     10.6322    123.3096     22.8233
  1522.7000      7.8916      2.4843      0.0915     10.0430    128.9414     22.4238
  1522.8000      7.9031      2.4723      0.0444     10.7696    143.0048     22.6720
  1522.9000      7.9031      2.4557     -0.0151     11.7737    159.4168     23.3284
  1523.0000      7.9086      2.4588      0.0578     11.5861    175.0456     23.8645
  1523.1000      7.9086      2.4724      0.0289     10.7635    187.6215     24.4882
  1523.2000      7.9086      2.4829      0.0626     10.1273    197.9128     25.2976
  1523.3000      7.9133      2.4901      0.0614      9.6901    208.5023     25.8609
  1523.4000      7.9133      2.4953      0.0089      9.3735    220.6656     25.5785
  1523.5000      7.9240      2.4927      0.0790      9.5312    233.8544     24.4512
  1523.6000      7.9240      2.4746      0.0316     10.6297    243.9566     22.9874
  1523.7000      7.9240      2.4507      0.0583     12.0773    245.6543     21.8817
  1523.8000      7.9383      2.4362      0.0221     12.9597    240.3224     21.5001
  1523.9000      7.9383      2.4301      0.0304     13.3292    230.7869     21.4931
  1524.0000      7.9419      2.4246     -0.0105     13.6591    216.8393     21.4291
  1524.1000      7.9419      2.4167      0.0218     14.1421    199.9595     21.1620
  1524.2000      7.9419      2.4042      0.0036     14.8965    182.3967     20.6668
  1524.3000      7.9312      2.3911     -0.0124     15.6936    165.9728     20.1217
  1524.4000      7.9312      2.3949     -0.0338     15.4602    150.8042     20.0813
  1524.5000      7.9135      2.4242      0.0620     13.6858    139.3340     20.8224
  1524.6000      7.9135      2.4517      0.1013     12.0189    132.2586     21.7823
  1524.7000      7.9135      2.4518      0.0475     12.0126    124.8040     21.9765
  1524.8000      7.8970      2.4398      0.0370     12.7372    115.8130     20.9232
  1524.9000      7.8970      2.4382      0.0585     12.8351    107.6770     19.3386
  1525.0000      7.8836      2.4433      0.0624     12.5286    100.0037     18.4745
  1525.1000      7.8836      2.4462      0.0266     12.3539     90.0823     18.9038
  1525.2000      7.8836      2.4496      0.0413     12.1467     79.8811     20.0733
  1525.3000      7.8719      2.4606      0.0356     11.4770     75.1613     20.8882
  1525.4000      7.8719      2.4788      0.0707     10.3729     76.5589     20.9336
  1525.5000      7.8668      2.4930      0.0675      9.5128     78.3385     20.7140
  1525.6000      7.8668      2.4918      0.0907      9.5903     78.2023     20.7669
  1525.7000      7.8668      2.4722      0.0620     10.7735     78.5498     21.1833
  1525.8000      7.8758      2.4464      0.0328     12.3400     80.5463     21.8884
  1525.9000      7.8758      2.4297      0.0516     13.3500     86.6258     22.3860
  1526.0000      7.8856      2.4278      0.0465     13.4695     95.8956     22.2528
  1526.1000      7.8856      2.4394      0.0434     12.7614     99.4538     21.8390
  1526.2000      7.8856      2.4575      0.0529     11.6675     93.5967     21.3304
  1526.3000      7.8882      2.4683      0.0467     11.0138     86.4998     20.9814
  1526.4000      7.8882      2.4595      0.1045     11.5444     84.9255     21.0904
  1526.5000      7.8897      2.4380      0.0422     12.8506     87.2457     21.2574
  1526.6000      7.8897      2.4230      0.0379     13.7561     89.1257     21.3129
  1526.7000      7.8897      2.4178      0.0046     14.0744     89.6212     21.7904
  1526.8000      7.8946      2.4180      0.0185     14.0582     91.6399     22.4958
  1526.9000      7.8946      2.4254      0.0170     13.6123     94.7389     22.7798
  1527.0000      7.8981      2.4423      0.0089     12.5877     96.6792     22.6745
  1527.1000      7.8981      2.4649      0.0782     11.2164    100.4138     22.3171
  1527.2000      7.8981      2.4857      0.0449      9.9551    108.2947     21.9700
  1527.3000      7.8942      2.5023      0.0402      8.9526    120.0402     22.4296
  1527.4000      7.8942      2.5076      0.0728      8.6332    136.5290     23.5551
  1527.5000      7.8909      2.4969      0.0237      9.2816    155.7384     24.0257
  1527.6000      7.8909      2.4881      0.0108      9.8092    174.6567     23.6250
  1527.7000      7.8909      2.4946      0.0097      9.4174    193.2703     23.2719
  1527.8000      7.8941      2.5011      0.0730      9.0213    207.5084     23.2569
  1527.9000      7.8941      2.4934      0.0334      9.4895    214.5619     23.1393
  1528.0000      7.9014      2.4820      0.0038     10.1843    220.9927     22.9000
  1528.1000      7.9014      2.4820      0.0163     10.1801    234.1774     22.9479
  1528.2000      7.9014      2.4874      0.0604      9.8559    252.5163     23.1296
  1528.3000      7.9140      2.4810      0.0551     10.2437    269.8639     22.9317
  1528.4000      7.9140      2.4678      0.0057     11.0449    283.7068     22.4895
  1528.5000      7.9290      2.4676      0.0241     11.0519    290.1520     22.3544
  1528.6000      7.9290      2.4800      0.0350     10.3029    284.0091     22.5075
  1528.7000      7.9290      2.4857      0.0567      9.9602    269.6377     22.4148
  1528.8000      7.9451      2.4786      0.0121     10.3891    257.0692     22.0219
  1528.9000      7.9451      2.4732      0.0066     10.7177    247.5120     21.8071
  1529.0000      7.9528      2.4795      0.0208     10.3354    241.7551     21.7178
  1529.1000      7.9528      2.4911      0.0546      9.6322    241.4058     21.2876
  1529.2000      7.9528      2.5006      0.0293      9.0544    241.2254     20.4899
  1529.3000      7.9418      2.5121      0.0402      8.3552    238.5989     19.9408
  1529.4000      7.9418      2.5237      0.0880      7.6546    235.1579     20.0669
  1529.5000      7.9226      2.5192      0.0556      7.9286    230.7884     20.1769
  1529.6000      7.9226      2.5005     -0.0218      9.0594    224.4873     19.5115
  1529.7000      7.9226      2.4921      0.0094      9.5718    215.0910     18.5501
  1529.8000      7.9004      2.5024      0.0341      8.9466    201.4963     17.9364
  1529.9000      7.9004      2.5246      0.0214      7.5985    185.4880     17.5945
  1530.0000      7.8778      2.5562      0.0138      5.6878    172.3006     17.1674
  1530.1000      7.8778      2.5840      0.0945      4.0003    163.2919     16.7361
  1530.2000      7.8778      2.5978      0.0259      3.1632    154.3165     16.3157
  1530.3000      7.8549      2.6095      0.0747      2.4551    142.4124     15.6151
  1530.4000      7.8549      2.6233      0.0393      1.6177    129.9795     14.9339
  1530.5000      7.8289      2.6254      0.0909      1.4910    120.1682     14.6623
  1530.6000      7.8289      2.6115      0.0223      2.3335    113.4580     14.4540
  1530.7000      7.8289      2.6011      0.0237      2.9612    108.9148     14.0389
  1530.8000      7.7972      2.6017      0.0466      2.9281    104.1231     13.6004
  1530.9000      7.7972      2.5985      0.0195      3.1242    100.7618     13.3902
  1531.0000      7.7712      2.5848     -0.0170      3.9538    101.5363     13.5244
  1531.1000      7.7712      2.5608      0.0075      5.4038    100.7071     13.6044
