~Version Information
VERS.                      2.0: CWLS Log ASCII Standard - VERSION 2.0
WRAP.                       NO: One line per depth step
~Well Information Block
STRT.FT               260.0000: 
STOP.FT              1199.2000: 
STEP.FT                 0.1000: 
NULL.                -999.2500: 
COMP.          Evergreen Operating Corporation: COMPANY
WELL.             Justin 32-10: WELL
FLD.           Purgatorie River: FIELD
LOC.           2994' FNL & 1449' FEL: LOCATION
PROV.                 Colorado: PROVINCE
CNTY.               Las Animas: COUNTRY
SRVC.                         : SERVICE COMPANY
DATE.          Mon Aug 30 07:14:35 2004: LOG DATE
UWI.           05 071 08053 00: UNIQUE WELL ID
~Curve Information Block
DEPT.FT            0 000 00 00: Depth
LTEN.lb                       : Surface Line Tension
DCAL.in                       : CDL Caliper
RHOB.g/cc                     : CDL Bulk Density
RHOC.g/cc                     : CDL Density Correction
DPOR.pu                       : CDL Density Porosity
GR.GAPI                       : Gamma Ray
NPOR.pu                       : Neutron Porosity
~Parameter Information Block
~A  Depth       LTEN        DCAL        RHOB        RHOC        DPOR         GR         NPOR    
# ...
  1133.6000    997.0837      7.7999      2.5326      0.0750      7.1127    112.2426     17.7572
  1133.7000    997.0837      7.7999      2.5548      0.0954      5.7691    108.7430     17.1119
  1133.8000    950.3041      7.7825      2.5715      0.0894      4.7546    106.0938     16.0185
  1133.9000    950.3041      7.7825      2.5758      0.0694      4.4979    107.1229     14.9638
  1134.0000    950.7548      7.8003      2.5679      0.0609      4.9737    107.9550     13.9577
  1134.1000    950.7548      7.8003      2.5579      0.0672      5.5832    105.0188     13.1509
  1134.2000    950.7548      7.8003      2.5576      0.0463      5.5988    102.1693     12.8085
  1134.3000    993.9344      7.7762      2.5628      0.0979      5.2868    105.0892     12.8317
  1134.4000    993.9344      7.7762      2.5587      0.0627      5.5324    107.7737     12.9701
  1134.5000   1017.4880      7.7641      2.5426      0.0670      6.5116    101.5785     13.5110
  1134.6000   1017.4880      7.7641      2.5236      0.0473      7.6635     91.3709     14.3282
  1134.7000   1017.4880      7.7641      2.5166      0.0458      8.0855     83.3045     14.5111
  1134.8000    965.4614      7.7620      2.5244      0.0680      7.6101     76.2077     14.0704
  1134.9000    965.4614      7.7620      2.5250      0.0863      7.5744     71.0391     13.6450
  1135.0000    993.2307      7.7600      2.5012      0.0493      9.0209     70.2816     13.2781
  1135.1000    993.2307      7.7600      2.4696      0.0030     10.9361     69.6618     12.9134
  1135.2000    993.2307      7.7600      2.4536      0.0317     11.9040     63.5876     12.7989
  1135.3000   1011.0142      7.7988      2.4540      0.0292     11.8813     54.6830     13.2230
  1135.4000   1011.0142      7.7988      2.4628      0.0487     11.3433     48.5908     14.0603
  1135.5000    970.3549      7.8025      2.4735      0.0975     10.6949     46.7369     14.9324
  1135.6000    970.3549      7.8025      2.4767      0.0982     10.5007     49.6467     15.6803
  1135.7000    970.3549      7.8025      2.4695      0.1115     10.9397     56.4463     16.5246
  1135.8000   1006.3391      7.7941      2.4620      0.0806     11.3948     62.4259     17.6525
  1135.9000   1006.3391      7.7941      2.4656      0.0808     11.1776     64.1143     18.4932
  1136.0000    981.2726      7.8057      2.4774      0.0997     10.4622     63.3986     18.3403
  1136.1000    981.2726      7.8057      2.4800      0.1354     10.3017     63.6155     17.5123
  1136.2000    981.2726      7.8057      2.4613      0.1058     11.4368     65.2531     16.9620
  1136.3000    998.8238      7.7953      2.4322      0.0833     13.2016     69.0016     16.9230
  1136.4000    998.8238      7.7953      2.4131      0.0694     14.3553     76.3594     16.8210
  1136.5000    951.8422      7.7978      2.4117      0.0709     14.4418     83.8312     16.5397
  1136.6000    951.8422      7.7978      2.4216      0.0735     13.8407     83.9801     16.5619
  1136.7000    951.8422      7.7978      2.4352      0.1005     13.0201     76.1160     16.7648
  1136.8000    974.6035      7.8046      2.4513      0.0689     12.0437     67.5654     16.4904
  1136.9000    974.6035      7.8046      2.4687      0.1155     10.9855     63.9577     15.9235
  1137.0000    981.2662      7.8203      2.4748      0.1285     10.6199     62.4177     15.9658
  1137.1000    981.2662      7.8203      2.4611      0.0704     11.4514     58.9237     16.9786
  1137.2000    981.2662      7.8203      2.4336      0.0692     13.1138     56.9883     18.3860
  1137.3000    953.1862      7.8260      2.3977      0.0477     15.2920     59.7095     19.4544
  1137.4000    953.1862      7.8260      2.3671     -0.0042     17.1460     63.2148     19.9643
  1137.5000    995.4890      7.7991      2.3636     -0.0240     17.3582     63.9448     20.3223
  1137.6000    995.4890      7.7991      2.3806      0.0676     16.3262     63.3565     20.9378
  1137.7000    995.4890      7.7991      2.3909      0.0660     15.7026     62.8193     21.3821
  1137.8000   1027.2969      7.8056      2.3890      0.0426     15.8195     61.3642     21.1672
  1137.9000   1027.2969      7.8056      2.3901      0.0519     15.7532     59.6982     20.2895
  1138.0000   1003.3881      7.7995      2.3993      0.0760     15.1921     60.9974     19.3962
  1138.1000   1003.3881      7.7995      2.4070      0.0776     14.7301     62.6317     19.6610
  1138.2000   1003.3881      7.7995      2.4095      0.0637     14.5778     60.7274     20.7514
  1138.3000   1027.8843      7.8148      2.4127      0.0678     14.3825     60.3684     21.2724
  1138.4000   1027.8843      7.8148      2.4166      0.0799     14.1466     64.9768     21.2872
  1138.5000   1020.3922      7.8157      2.4223      0.0664     13.7983     69.7085     21.4050
  1138.6000   1020.3922      7.8157      2.4360      0.1167     12.9711     71.8929     21.6864
  1138.7000   1020.3922      7.8157      2.4491      0.1062     12.1774     72.9039     22.0268
  1138.8000    988.0665      7.8213      2.4503      0.1041     12.1021     69.9586     21.8167
  1138.9000    988.0665      7.8213      2.4435      0.0744     12.5139     62.2868     20.7535
  1139.0000   1003.0714      7.8248      2.4346      0.0981     13.0567     56.4725     19.6225
  1139.1000   1003.0714      7.8248      2.4175      0.0945     14.0933     56.2666     19.2317
  1139.2000   1003.0714      7.8248      2.3900      0.0652     15.7588     59.2887     19.7158
  1139.3000    988.6111      7.8238      2.3666      0.0277     17.1771     61.7461     20.6009
  1139.4000    988.6111      7.8238      2.3563      0.0549     17.7998     62.3198     21.0404
  1139.5000    971.9106      7.8604      2.3526      0.0291     18.0263     64.1515     20.7898
  1139.6000    971.9106      7.8604      2.3549      0.0464     17.8851     68.6424     20.5691
  1139.7000    971.9106      7.8604      2.3698      0.0692     16.9820     72.2623     20.6951
  1139.8000    969.3157      7.9889      2.3939      0.1195     15.5239     72.5039     20.8223
  1139.9000    969.3157      7.9889      2.4178      0.1190     14.0738     71.7931     20.9581
  1140.0000    984.9648      8.2613      2.4346      0.1677     13.0570     73.9015     21.1887
  1140.1000    984.9648      8.2613      2.4400      0.1544     12.7252     78.2187     21.2451
  1140.2000    984.9648      8.2613      2.4371      0.1507     12.9048     81.2010     21.1317
  1140.3000   1012.6909      8.5877      2.4309      0.1528     13.2771     80.6610     21.2079
  1140.4000   1012.6909      8.5877      2.4228      0.1707     13.7720     78.0262     21.9497
  1140.5000    996.0626      8.5764      2.4125      0.1430     14.3955     76.2980     23.0568
  1140.6000    996.0626      8.5764      2.4013      0.1253     15.0745     75.0968     23.4352
  1140.7000    996.0626      8.5764      2.3928      0.0856     15.5906     74.6520     22.8831
  1140.8000   1005.8211      7.7884      2.3918      0.0761     15.6478     78.3282     21.8006
  1140.9000   1005.8211      7.7884      2.3961      0.0802     15.3895     83.2505     20.5206
  1141.0000    981.4208      7.7207      2.3941      0.1357     15.5120     82.3732     19.5615
  1141.1000    981.4208      7.7207      2.3815      0.0724     16.2715     76.7642     19.3950
  1141.2000    981.4208      7.7207      2.3711      0.0743     16.9032     73.3064     19.7510
  1141.3000   1013.8104      7.7087      2.3733      0.0798     16.7718     73.9232     19.9666
  1141.4000   1013.8104      7.7087      2.3880      0.0761     15.8817     74.3289     19.7969
  1141.5000   1004.4213      7.6941      2.4117      0.0832     14.4403     74.6998     19.5093
  1141.6000   1004.4213      7.6941      2.4360      0.1444     12.9701     77.7228     19.6299
  1141.7000   1004.4213      7.6941      2.4527      0.1473     11.9561     79.9178     20.1765
  1141.8000   1043.3558      7.5747      2.4604      0.2026     11.4934     76.6472     20.6662
  1141.9000   1043.3558      7.5747      2.4558      0.2095     11.7693     69.0773     20.7536
