~Version Information
VERS.                      2.0: CWLS Log ASCII Standard - VERSION 2.0
WRAP.                       NO: One line per depth step
~Well Information Block
STRT.FT               260.0000: 
STOP.FT              1200.5000: 
STEP.FT                 0.2500: 
NULL.                -999.2500: 
COMP.          Evergreen Operating Corporation: COMPANY
WELL.             Justin 32-10: WELL
FLD.           Purgatorie River: FIELD
LOC.           2994' FNL & 1449' FEL: LOCATION
PROV.                 Colorado: PROVINCE
CNTY.               Las Animas: COUNTRY
SRVC.                         : SERVICE COMPANY
DATE.          Sun Aug 29 20:47:20 2004: LOG DATE
UWI.           05 071 08053 00: UNIQUE WELL ID
~Curve Information Block
DEPT.FT            0 000 00 00: Depth
LTEN.lb                       : Surface Line Tension
SN.Ohm-m                      : IEL Short Normal
SP.mV                         : IEL Spontaneous Potential
DIR.Ohm-m                     : IEL Induction Resistivity
GR.GAPI                       : Gamma Ray
~Parameter Information Block
~A  Depth       LTEN         SN          SP         DIR          GR     
# ...
   456.0000    621.9968   2000.0000   2000.0000     16.6494     89.3713
   456.2500    622.7064   2000.0000   2000.0000     17.1697     89.0106
   456.5000    623.0900   2000.0000   2000.0000     17.7185     91.6116
   456.7500    622.4901   2000.0000   2000.0000     18.2508     94.7873
   457.0000    620.4615   2000.0000   2000.0000     18.7413    100.2506
   457.2500    617.3992   2000.0000   2000.0000     19.1525    103.5053
   457.5000    614.6406   2000.0000   2000.0000     19.4261    106.6856
   457.7500    613.7191   2000.0000   2000.0000     19.5220    107.3453
   458.0000    615.1330   2000.0000   2000.0000     19.4640    106.3395
   458.2500    617.9916   2000.0000   2000.0000     19.3412    104.8494
   458.5000    621.0565   2000.0000   2000.0000     19.2644    102.3513
   458.7500    623.7026   2000.0000   2000.0000     19.3199    100.7784
   459.0000    625.5656   2000.0000   2000.0000     19.5426     98.5251
   459.2500    625.9556   2000.0000   2000.0000     19.9132     97.0844
   459.5000    624.2449   2000.0000   2000.0000     20.3780     95.2710
   459.7500    620.6889   2000.0000   2000.0000     20.8810     94.3925
   460.0000    616.6764   2000.0000   2000.0000     21.3843     93.3332
   460.2500    614.3414   2000.0000   2000.0000     21.8650     92.6640
   460.5000    615.6630   2000.0000   2000.0000     22.3072     92.1815
   460.7500    621.1409   2000.0000   2000.0000     22.7084     92.7488
   461.0000    629.0291   2000.0000   2000.0000     23.0948     95.1459
   461.2500    636.2872   2000.0000   2000.0000     23.5096     97.1937
   461.5000    640.7126   2000.0000   2000.0000     23.9818     99.5603
   461.7500    642.1683   2000.0000   2000.0000     24.5114    100.1901
   462.0000    641.9167   2000.0000   2000.0000     25.0873     99.6085
   462.2500    641.2601   2000.0000   2000.0000     25.7030     98.3943
   462.5000    640.8269   2000.0000   2000.0000     26.3304     96.0013
   462.7500    640.4289   2000.0000   2000.0000     26.8652     94.5673
   463.0000    639.1879   2000.0000   2000.0000     27.1289     93.3688
   463.2500    636.1550   2000.0000   2000.0000     26.9813     93.2010
   463.5000    631.1851   2000.0000   2000.0000     26.4655     93.1913
   463.7500    625.2300   2000.0000   2000.0000     25.8271     92.8932
   464.0000    619.6776   2000.0000   2000.0000     25.3906     91.8168
   464.2500    615.5255   2000.0000   2000.0000     25.4254     90.9240
   464.5000    613.2226   2000.0000   2000.0000     26.0731     89.7423
   464.7500    612.8192   2000.0000   2000.0000     27.3083     88.9865
   465.0000    613.7419   2000.0000   2000.0000     28.9066     87.4025
   465.2500    614.6030   2000.0000   2000.0000     30.4611     85.9776
   465.5000    613.9723   2000.0000   2000.0000     31.5189     84.0037
   465.7500    611.7863   2000.0000   2000.0000     31.7997     83.4555
   466.0000    609.8168   2000.0000   2000.0000     31.3302     84.3906
   466.2500    610.3264   2000.0000   2000.0000     30.3868     85.8810
   466.5000    614.1754   2000.0000   2000.0000     29.3332     87.9250
   466.7500    620.3942   2000.0000   2000.0000     28.4842     88.2478
   467.0000    627.3552   2000.0000   2000.0000     28.0361     86.6152
   467.2500    633.7648   2000.0000   2000.0000     28.0403     84.5692
   467.5000    638.6356   2000.0000   2000.0000     28.3863     81.5093
   467.7500    641.2879   2000.0000   2000.0000     28.8075     80.0632
   468.0000    641.9677   2000.0000   2000.0000     28.9742     78.7725
   468.2500    641.8698   2000.0000   2000.0000     28.6742     78.2139
   468.5000    641.7558   2000.0000   2000.0000     27.9494     77.8030
   468.7500    640.8600   2000.0000   2000.0000     27.0420     78.1687
   469.0000    637.9364   2000.0000   2000.0000     26.2228     80.3211
   469.2500    633.2156   2000.0000   2000.0000     25.6612     82.8775
   469.5000    628.5498   2000.0000   2000.0000     25.3915     87.7072
   469.7500    625.6708   2000.0000   2000.0000     25.3435     90.8784
   470.0000    624.9479   2000.0000   2000.0000     25.3873     94.3880
   470.2500    625.7724   2000.0000   2000.0000     25.3668     95.5292
   470.5000    627.5001   2000.0000   2000.0000     25.1187     95.5975
   470.7500    629.8906   2000.0000   2000.0000     24.5124     95.0274
   471.0000    632.9151   2000.0000   2000.0000     23.5213     94.3712
   471.2500    636.1531   2000.0000   2000.0000     22.2652     94.6433
   471.5000    638.3232   2000.0000   2000.0000     20.9524     96.5989
   471.7500    637.7974   2000.0000   2000.0000     19.7698     98.8436
   472.0000    633.9749   2000.0000   2000.0000     18.8133    103.0429
   472.2500    628.1027   2000.0000   2000.0000     18.0855    106.0968
   472.5000    622.4747   2000.0000   2000.0000     17.5264    110.8808
   472.7500    618.8375   2000.0000   2000.0000     17.0468    114.1298
   473.0000    617.6876   2000.0000   2000.0000     16.5624    118.6667
   473.2500    618.7565   2000.0000   2000.0000     16.0227    121.1377
   473.5000    621.5351   2000.0000   2000.0000     15.4261    123.5998
   473.7500    625.1798   2000.0000   2000.0000     14.8098    124.2942
   474.0000    628.4959   2000.0000   2000.0000     14.2274    124.1393
   474.2500    630.5878   2000.0000   2000.0000     13.7301    123.7926
   474.5000    631.5063   2000.0000   2000.0000     13.3543    124.2350
   474.7500    631.9551   2000.0000   2000.0000     13.1136    125.6431
   475.0000    632.1705   2000.0000   2000.0000     12.9960    129.2042
   475.2500    631.5021   2000.0000   2000.0000     12.9780    132.0623
   475.5000    629.5710   2000.0000   2000.0000     13.0505    136.3720
   475.7500    627.3170   2000.0000   2000.0000     13.2308    138.9303
   476.0000    626.0602   2000.0000   2000.0000     13.5417    141.2417
   476.2500    625.9019   2000.0000   2000.0000     13.9734    140.8021
   476.5000    625.8311   2000.0000   2000.0000     14.4630    136.0361
   476.7500    625.0157   2000.0000   2000.0000     14.9244    130.4524
   477.0000    623.1270   2000.0000   2000.0000     15.3094    120.5933
   477.2500    619.8381   2000.0000   2000.0000     15.6451    114.4054
   477.5000    615.1524   2000.0000   2000.0000     16.0089    107.1203
   477.7500    610.1765   2000.0000   2000.0000     16.4677    103.7745
   478.0000    606.7472   2000.0000   2000.0000     17.0289    100.4002
   478.2500    606.1932   2000.0000   2000.0000     17.6243     98.4445
   478.5000    608.7627   2000.0000   2000.0000     18.1411     94.5165
   478.7500    613.8773   2000.0000   2000.0000     18.4867     91.0315
   479.0000    620.5052   2000.0000   2000.0000     18.6339     85.8228
   479.2500    627.5655   2000.0000   2000.0000     18.5991     83.5925
   479.5000    634.2420   2000.0000   2000.0000     18.3912     83.2843
   479.7500    639.8751   2000.0000   2000.0000     17.9993     84.7940
   480.0000    643.6529   2000.0000   2000.0000     17.4278     88.1651
   480.2500    644.7274   2000.0000   2000.0000     16.7287     90.5637
   480.5000    642.7737   2000.0000   2000.0000     15.9859     94.6357
   480.7500    638.5672   2000.0000   2000.0000     15.2723     98.2297
   481.0000    634.0025   2000.0000   2000.0000     14.6234    105.3979
   481.2500    631.1334   2000.0000   2000.0000     14.0426    111.0123
   481.5000    630.6509   2000.0000   2000.0000     13.5227    119.4509
   481.7500    631.2669   2000.0000   2000.0000     13.0626    124.3614
   482.0000    631.1847   2000.0000   2000.0000     12.6684    129.8254
   482.2500    630.4418   2000.0000   2000.0000     12.3475    132.1569
   482.5000    631.1320   2000.0000   2000.0000     12.1057    134.4141
   482.7500    634.9262   2000.0000   2000.0000     11.9482    135.6195
   483.0000    641.1743   2000.0000   2000.0000     11.8789    137.2456
   483.2500    647.9540   2000.0000   2000.0000     11.8922    138.0285
   483.5000    654.1017   2000.0000   2000.0000     11.9677    138.5816
   483.7500    659.3820   2000.0000   2000.0000     12.0714    138.5890
