~Version Information
 VERS.                2.0:  CWLS LOG ASCII STANDARD -VERSION 2.0
 WRAP.                 NO:  ONE LINE PER DEPTH STEP
~WELL INFORMATION BLOCK
#MNEM.UNIT       DATA		            DESCRIPTION OF MNEMONIC
#---------    -------------            ------------------------
 STRT.FT  0.500                          :START DEPTH
 STOP.FT  1812.700                       :STOP DEPTH
 STEP.FT  0.100                          :STEP    UP_HOLE  
 NULL.    -999.25                        :NULL VALUE
 COMP.              EL PASO PRODUCTIONS  :COMPANY
 WELL.                     COREHOLE #38  :WELL
 FLD .                 PURGATOIRE RIVER  :FIELD
 LOC .      15   35S   65W               :LOCATION
 CNTY.                           COLFAX  :COUNTY
 STAT.                     NM            :STATE
 CTRY.                                   :
 SRVC.     O'DRISCOLL                    :SERVICE COMPANY
 DATE.   04/28/05                        :LOG DATE
 API .                                   :API NUMBER
 LIC .                                   :LICENSE NUMBER
~Curve Information Block
#MNEM.UNIT      API CODE     Curve Description
#---------    -------------  ------------------------
 DEPT     .FT        00 001 00 00          :  1  DEPTH   
 GAMMA    .API-GR    00 310 00 00          :  2                GAMMA
 TEMP     .DEG F     00 660 00 00          :  3                 TEMP
 RES(16N) .OHM-M     00 040 00 00          :  4             RES(16N)
 RES(64N) .OHM-M     00 060 00 00          :  5             RES(64N)
 RES      .OHM       00 000 00 00          :  6                  RES
 LATERAL  .OHM-M     00 070 00 00          :  7              LATERAL
 NEUTRON  .API-N     00 000 00 00          :  8              NEUTRON
 POR(NEU) .PERCENT   00 330 00 00          :  9             POR(NEU)
 SANGB    .DEG       00 631 00 00          : 10                SANGB
 DEL_TEMP .DEG F     00 000 00 00          : 11             DEL_TEMP
 SANG     .DEG       00 620 00 00          : 12                 SANG
 SP       .MV        00 010 00 00          : 13                   SP
 TIME     .MINUTES   00 000 00 00          : 14                 TIME
~Parameter Information Block
#MNEM.UNIT   Information     Description
#---------- ---------------  ------------------------
 FILE.      ORIGINAL           :File Type
 FIID.      9057A              :File Type Identifier
 VERS.      3.58G              :System Version
 SER .      1                  :System Serial Number
 TRUK.      .498775            :Truck Calibration Number
 TOOL.        1061             :Tool Serial Number
 TIME.      1335               :Time    HrHrMinMin
 LAT .       36 59'            :Latitude
 LON .       104 39'           :Longitude
 LMF .            GL           :Log Measured From
 DMF .            GL           :Driller Measured From
 PD  .            GL           :Permanent Data
 PDEV.                         :Elevation Permanent Data
 EKB .M                        :Elevation Kelly Bushing
 ELEV.DF                       :Elevation DF
 EGL .M        7777            :Elevation Ground Level
 DRDP.          1825           :Driller's Depth
 CASD.       10.               :Casing Diameter
 CASB.           300           :Casing Bottom
 CASX.         STEEL           :Casing Type
 CAST.                         :Casing Thickness
 TNOC.                         :Time Circulation Stopped
 LOGU.        108              :Logging Unit
 RECB.           R.SIPES       :Recorded By
 OSR1.          9139           :Other Services
 OSR2.                         :Other Services
 OSR3.                         :Other Services
 BS  .MM         3.5           :Bit Size
 MST .                         :Mean Surface Temperature
 TGRD.                         :Temperature Gradiant
 MAGN.            12           :Magnetic Declination
 MDEN.       2.7               :Density Matrix
 MATR.      SANDSTONE          :Neutron Matrix
 DTMT.            54           :Delta T Matrix
 DTFL.                         :Delta T Fluid
 MUDS.                         :Mud Sample Source
 MRS .                         :Mud Resistivity
 MTP .                         :Mud Temperature
 MFRS.                         :Resistivity Mud Filtrate
 MFTP.                         :Temperature Mud Filtrate
 MCRS.                         :Resistivity Mud Cake
 MCTP.                         :Temperature Mud Cake
 FTYP.                         :Fluid Type
 FD  .K/M3                     :Fluid Density
 DFV .S                        :Fluid Viscosity
 FPH .                         :Fuild PH
 ELCO.       50000             :Electron Cutoff
~Other Information
#MNEM.UNIT  Information      Description
#---------- ---------------  ------------------------
# -------------------------- 
~A DEPTH  GAMMA    TEMP  RES(16N) RES(64N) RES      LATERAL  NEUTRON  POR(NEU) SANGB  DEL_TEMP SANG   SP    TIME    
# ...
1677.500     92.1  92.5      1.6     11.8      7.6     -1.3    889.8  33.9  35.97  -0.02  1.59  -1319.5 0.20000 
1677.600     91.6  92.5      1.9     12.7      7.5     -2.7    946.1  33.5  33.41  0.03  1.56  -1319.5 0.20000 
1677.700     91.1  92.5      0.6     13.4      6.8     -5.9    991.4  33.4  33.19  0.00  1.56  -1319.3 0.20000 
1677.800     88.4  92.5     -1.7     14.1      7.1     -9.2   1030.5  33.4  33.25  -0.02  1.56  -1319.1 0.20000 
1677.900     86.3  92.5     -1.1     14.8      7.6     -7.4   1011.8  33.1  47.22  -0.02  1.56  -1319.1 0.20000 
1678.000     88.4  92.5      0.0     15.1      6.8     -5.5   1011.8  32.8  62.01  0.14  1.57  -1319.1 0.20000 
1678.100     87.3  92.5     -0.8     15.4      7.7     -5.3   1014.9  32.3  62.96  -0.13  1.59  -1319.3 0.20000 
1678.200     87.3  92.5     -2.1     15.7      7.3     -8.0   1011.8  32.3  63.41  0.00  1.59  -1319.4 0.20000 
1678.300     79.9  92.5      0.3     15.8      7.6     -5.7    996.1  32.4  49.92  0.03  1.59  -1319.4 0.20000 
1678.400     84.2  92.5      0.4     15.7      7.3     -4.5   1003.9  32.3  35.31  -0.01  1.59  -1319.4 0.20000 
1678.500     86.8  92.5     -0.8     15.2      7.2     -6.7   1018.0  32.3  35.63  -0.01  1.60  -1319.3 0.20000 
1678.600     87.3  92.5     -2.7     14.5      7.0     -9.0    978.9  32.2  35.67  -0.01  1.60  -1319.3 0.20000 
1678.700     90.5  92.5     -1.3     13.9      7.4     -5.4    983.6  31.9  31.00  0.01  1.60  -1319.3 0.20000 
1678.800     92.1  92.5     -0.2     13.4      7.2     -5.0    961.7  31.4  35.81  -0.01  1.52  -1319.3 0.20000 
1678.900     86.8  92.5     -0.8     13.1      7.0     -5.5    964.8  31.1  35.91  -0.01  1.52  -1319.3 0.20000 
1679.000     85.8  92.5     -1.3     12.2      6.8     -6.1    953.9  31.1  35.79  0.02  1.52  -1319.2 0.20000 
1679.100     86.3  92.5     -0.6     11.4      6.7     -5.6    991.4  30.8  46.56  0.09  1.52  -1319.2 0.20000 
1679.200     90.5  92.5      0.9     10.9      6.6     -2.9    999.2  30.7  47.69  -0.09  1.56  -1319.2 0.20000 
1679.300     93.2  92.5      0.3     10.4      6.9     -2.8   1085.3  30.2  47.58  -0.01  1.56  -1319.3 0.20000 
1679.400     88.4  92.5     -1.6      9.9      6.7     -4.9   1122.8  30.1  47.54  0.01  1.56  -1319.4 0.20000 
1679.500     81.5  92.5      0.5      9.7      6.6     -2.4   1161.9  29.5  20.77  -0.08  1.56  -1319.4 0.20000 
1679.600     83.6  92.5      3.0      9.2      6.7      1.0   1160.3  29.2   0.12  0.07  1.55  -1319.4 0.20000 
1679.700     81.5  92.5      2.2      8.8      6.6      2.1   1182.2  28.5  358.65 0.02  1.53  -1319.3 0.20000 
1679.800     80.5  92.5      0.0      8.2      6.9     -1.9   1130.6  28.3  358.66 -0.07  1.53  -1319.1 0.20000 
1679.900     81.0  92.5      0.5      7.6      6.9     -1.9   1144.7  28.1  25.13  0.05  1.53  -1319.1 0.20000 
1680.000     81.0  92.5      0.9      6.8      6.9     -1.9   1130.6  27.9  36.44  -0.04  1.54  -1319.1 0.20000 
1680.100     77.3  92.6     -0.4      6.4      6.9     -3.5   1158.7  27.8  34.66  -0.06  1.51  -1319.1 0.20000 
1680.200     72.0  92.6     -1.6      6.3      7.1     -4.5   1171.3  27.9  34.66  0.06  1.51  -1319.0 0.20000 
1680.300     72.0  92.6      0.3      5.9      7.3     -2.2   1204.1  28.0  34.03  -0.01  1.51  -1319.0 0.20000 
1680.400     73.6  92.6      0.7      5.6      6.8     -1.4   1177.5  27.8  31.25  0.03  1.55  -1319.0 0.20000 
1680.500     70.9  92.6      1.0      5.8      6.7      0.1   1172.8  27.6  30.88  -0.06  1.55  -1319.2 0.20000 
1680.600     69.9  92.6     -0.8      5.8      7.0     -3.1   1165.0  27.6  30.88  0.01  1.55  -1319.3 0.20000 
1680.700     76.8  92.6     -0.8      5.7      6.6     -0.9   1143.1  27.2  13.33  0.04  1.55  -1319.3 0.20000 
1680.800     73.1  92.6      1.2      5.4      7.0      0.0   1146.2  27.4   3.41  -0.03  1.52  -1319.3 0.20000 
1680.900     71.5  92.6      0.7      5.0      6.6     -0.9   1152.5  27.2   1.94  0.06  1.50  -1319.2 0.20000 
1681.000     72.9  92.6     -1.0      4.8      7.3     -2.6   1191.6  27.2   1.94  -0.10  1.50  -1319.1 0.20000 
1681.100     71.3  92.6      1.0      4.7      6.9      0.0   1197.8  27.0  33.58  0.04  1.50  -1319.1 0.20000 
1681.200     76.1  92.6      2.1      5.0      6.6      0.9   1205.7  26.8  48.64  -0.01  1.50  -1319.1 0.20000 
1681.300     78.2  92.6      0.2      5.4      6.7     -1.8   1219.7  26.4  45.96  -0.01  1.47  -1319.1 0.20000 
1681.400     79.2  92.6     -2.1      5.6      6.9     -4.9   1219.7  26.1  45.96  -0.01  1.47  -1319.1 0.20000 
1681.500     80.3  92.6     -0.1      6.4      6.9     -1.7   1207.2  25.9  40.22  0.01  1.47  -1319.1 0.20000 
1681.600     76.1  92.6      0.4      6.7      6.7     -0.3   1216.6  25.7  40.33  0.01  1.47  -1319.1 0.20000 
1681.700     80.3  92.6     -1.4      6.9      7.1     -3.5   1254.1  26.0  40.75  -0.04  1.48  -1319.2 0.20000 
1681.800     81.9  92.6     -1.6      7.1      7.0     -4.3   1268.2  26.0  40.77  0.05  1.48  -1319.3 0.20000 
1681.900     80.5  92.6     -1.4      7.4      7.1     -5.4   1319.8  26.0  36.59  -0.07  1.48  -1319.3 0.20000 
1682.000     82.6  92.6      0.2      7.6      6.9     -3.0   1333.9  26.0  26.23  0.05  1.49  -1319.3 0.20000 
1682.100     77.8  92.6     -0.2      7.6      7.1     -3.7   1344.8  26.0  26.63  -0.07  1.49  -1319.3 0.20000 
1682.200     78.3  92.6     -1.8      7.7      8.1     -6.0   1318.3  26.1  26.63  0.02  1.49  -1319.2 0.20000 
1682.300     77.8  92.6     -1.4      8.0      7.0     -5.0   1255.7  26.2  41.75  0.04  1.49  -1319.2 0.20000 
1682.400     76.8  92.6      0.5      8.5      7.1     -2.4   1205.7  26.5  55.48  0.03  1.49  -1319.2 0.20000 
1682.500     74.1  92.6      0.2      9.0      6.9     -1.7   1213.5  26.6  55.62  -0.07  1.50  -1319.2 0.20000 
1682.600     70.9  92.6     -1.0      9.2      7.0     -4.2   1186.9  26.8  55.60  0.01  1.50  -1319.2 0.20000 
1682.700     72.0  92.6     -3.0      9.0      8.1     -6.9   1179.1  27.1  50.63  0.03  1.50  -1319.2 0.20000 
1682.800     69.9  92.6     -0.3      8.7      7.6     -2.9   1216.6  27.6  54.94  -0.05  1.51  -1319.2 0.20000 
1682.900     70.4  92.6     -0.7      8.6      7.0     -3.1   1201.0  28.2  52.06  -0.01  1.50  -1319.3 0.20000 
1683.000     70.9  92.6     -1.6      8.5      7.0     -5.2   1141.5  28.5  52.07  0.01  1.50  -1319.3 0.20000 
1683.100     73.1  92.6     -1.4      8.5      7.3     -5.6   1141.5  28.5  50.50  -0.03  1.50  -1319.3 0.10000 
1683.200     70.9  92.6      1.2      8.4      7.9     -2.3   1146.2  28.6  36.80  0.10  1.52  -1319.3 0.20000 
1683.300     68.3  92.6     -0.6      8.5      6.8     -4.1   1127.5  29.2  34.95  -0.04  1.51  -1319.2 0.30000 
1683.400     69.3  92.6     -1.1      8.4      7.3     -4.0   1122.8  30.0  34.95  -0.00  1.51  -1319.0 0.20000 
1683.500     72.0  92.6     -0.9      8.3      7.3     -2.7   1107.1  30.5  34.63  -0.02  1.51  -1319.0 0.20000 
1683.600     68.8  92.6      1.0      8.4      7.2     -1.6   1091.5  31.0  53.51  0.00  1.50  -1319.0 0.10000 
1683.700     70.4  92.6     -0.3      8.4      6.7     -3.8   1085.3  31.5  52.47  0.01  1.49  -1319.1 0.20000 
1683.800     73.6  92.6     -1.1      8.5      6.7     -4.7   1061.8  31.7  52.47  -0.02  1.49  -1319.2 0.20000 
1683.900     76.2  92.6     -0.1      8.3      6.6     -2.7   1021.1  31.8  53.01  0.03  1.49  -1319.2 0.20000 
1684.000     76.2  92.6      1.6      7.7      7.0     -0.1   1003.9  32.7  51.89  -0.04  1.49  -1319.2 0.20000 
1684.100     77.8  92.6      0.2      7.5      6.4     -1.9    971.1  33.5  51.61  0.04  1.49  -1319.4 0.20000 
1684.200     79.4  92.6     -0.2      7.5      7.1     -3.0    913.2  33.8  51.61  -0.01  1.49  -1319.7 0.20000 
1684.300     78.3  92.6     -0.4      7.7      6.4     -3.4    899.2  34.2  59.75  0.00  1.49  -1319.7 0.20000 
1684.400     79.4  92.6      2.0      7.8      6.7      0.7    930.4  34.4  341.10 0.04  1.49  -1319.7 0.20000 
1684.500     76.8  92.6     -1.1      7.5      6.3     -5.0    952.3  34.6  340.25 -0.05  1.50  -1319.4 0.20000 
1684.600     80.5  92.6     -0.9      7.4      6.3     -4.0    919.5  35.1  340.25 -0.04  1.50  -1319.1 0.20000 
