~Version Information
VERS.                      2.0: CWLS Log ASCII Standard - VERSION 2.0
WRAP.                       NO: One line per depth step
~Well Information Block
STRT.FT               -12.5000: 
STOP.FT              2284.7500: 
STEP.FT                 0.2500: 
NULL.                -999.2500: 
COMP.          Pioneer Natural Resources: COMPANY
WELL.          Hill Climb 22-2: WELL
FLD.           Purgatorie River: FIELD
LOC.           1820' FNL & 2193' FWL--: LOCATION
PROV.                       CO: PROVINCE
CNTY.               Las Animas: COUNTRY
SRVC.                         : SERVICE COMPANY
DATE.          Fri Oct 22 11:44:16 2004: LOG DATE
UWI.                          : UNIQUE WELL ID
~Curve Information Block
DEPT.FT            0 000 00 00: Depth
GR.GAPI                       : Gamma Ray
CCL.                          : Casing Collar Locator
TT3.usec                      : CBL 3' Travel Time
AMP3.mV                       : CBL 3' Amplitude
~Parameter Information Block
~A  Depth        GR         CCL         TT3         AMP3    
   -12.5000   -999.2500   -999.2500   -999.2500   -999.2500
   -12.2500   -999.2500   -999.2500   -999.2500   -999.2500
   -12.0000   -999.2500   -999.2500   -999.2500   -999.2500
   -11.7500   -999.2500   -999.2500   -999.2500   -999.2500
   -11.5000   -999.2500   -999.2500   -999.2500   -999.2500
   -11.2500   -999.2500   -999.2500   -999.2500   -999.2500
   -11.0000   -999.2500   -999.2500    921.0000      0.9236
   -10.7500   -999.2500   -999.2500    921.0000      0.9732
   -10.5000   -999.2500   -999.2500    921.0000      1.0035
   -10.2500   -999.2500   -999.2500    921.0000      1.0274
   -10.0000   -999.2500   -999.2500    921.0000      1.0386
    -9.7500   -999.2500   -999.2500    921.0000      1.0287
    -9.5000   -999.2500   -999.2500    921.0000      1.0064
    -9.2500   -999.2500   -999.2500    921.0000      0.9939
    -9.0000   -999.2500   -999.2500    921.0000      1.0102
    -8.7500   -999.2500   -999.2500    921.0000      1.0591
    -8.5000   -999.2500   -999.2500    921.0000      1.1286
    -8.2500   -999.2500   -999.2500    921.0000      1.1985
    -8.0000   -999.2500   -999.2500    921.0000      1.2512
    -7.7500   -999.2500   -999.2500    921.0000      1.2763
    -7.5000   -999.2500   -999.2500    921.0000      1.2670
    -7.2500   -999.2500   -999.2500    921.0000      1.2195
    -7.0000   -999.2500   -999.2500    921.0000      1.1403
    -6.7500   -999.2500   -999.2500    921.0000      1.0507
    -6.5000   -999.2500   -999.2500    921.0000      0.9802
    -6.2500   -999.2500   -999.2500    921.0000      0.9524
    -6.0000   -999.2500   -999.2500    921.0000      0.9740
    -5.7500   -999.2500      0.0000    921.0000      1.0292
    -5.5000   -999.2500      0.0000    921.0000      1.0857
    -5.2500   -999.2500      0.0000    921.0000      1.1112
    -5.0000   -999.2500      0.0000    921.0000      1.0895
    -4.7500   -999.2500      0.0000    921.0000      1.0287
    -4.5000   -999.2500      0.0000    921.0000      0.9541
    -4.2500   -999.2500      0.0000    921.0000      0.8913
    -4.0000   -999.2500      0.0000    921.0000      0.8505
    -3.7500   -999.2500      0.0000    921.0000      0.8282
    -3.5000   -999.2500      0.0000    921.0000      0.8209
    -3.2500   -999.2500      0.0000    921.0000      0.8292
    -3.0000   -999.2500      0.0000    921.0000      0.8504
    -2.7500   -999.2500      0.0000    921.0000      0.8729
    -2.5000   -999.2500      0.0000    921.0000      0.8865
    -2.2500   -999.2500      0.0000    921.0000      0.8932
    -2.0000   -999.2500      0.0000    921.0000      0.9046
    -1.7500   -999.2500      0.0000    921.0000      0.9270
    -1.5000   -999.2500      0.0000    921.0000      0.9544
    -1.2500   -999.2500      0.0000    921.0000      0.9750
    -1.0000   -999.2500      0.0000    921.0000      0.9823
    -0.7500   -999.2500      0.0000    921.0000      0.9750
    -0.5000     82.3593      0.0000    921.0000      0.9525
    -0.2500     60.6039     -2.0000    921.0000      0.9150
     0.0000     43.7903     -2.0000    921.0000      0.8174
     0.2500     39.1650     -2.0000    921.0000      0.7780
     0.5000     35.9613      0.0000    921.0000      0.7521
     0.7500     33.7780      0.0000    921.0000      0.7355
     1.0000     32.9853      0.0000    921.0000      0.7227
     1.2500     33.8434      0.0000    921.0000      0.7140
     1.5000     35.9905      0.0000    921.0000      0.7159
     1.7500     38.8907      0.0000    921.0000      0.7373
     2.0000     42.4018      0.0000    921.0000      0.7836
     2.2500     46.5856      0.0000    921.0000      0.8518
     2.5000     51.1374      0.0000    921.0000      0.9276
     2.7500     55.4349      0.0000    921.0000      0.9858
     3.0000     59.3204      0.0000    921.0000      1.0011
     3.2500     63.5961      0.0000    921.0000      0.9668
     3.5000     69.3968      0.0000    921.0000      0.9022
     3.7500     76.9080      0.0000    921.0000      0.8370
     4.0000     84.8375      0.0000    921.0000      0.7909
     4.2500     91.5383      0.0000    921.0000      0.7673
     4.5000     96.5994      0.0000    921.0000      0.7587
     4.7500    100.6544      0.0000    921.0000      0.7543
     5.0000    103.4201      0.0000    921.0000      0.7481
     5.2500    102.9010      0.0000    921.0000      0.7450
     5.5000     97.6570      0.0000    920.9557      0.7580
     5.7500     89.5073      0.0000    920.6666      0.8058
     6.0000     82.6467      0.0000    919.1985      0.9742
     6.2500     79.7521      0.0000    913.3922      1.5846
     6.5000     79.7733      0.0000    895.5081      3.4356
     6.7500     79.7021      0.0000    852.6088      7.8390
     7.0000     77.8858      0.0000    772.4672     15.9951
     7.2500     75.3072      0.0000    655.8716     27.7621
     7.5000     73.8319      0.0000    523.7662     40.9869
     7.7500     73.6187      0.0000    407.2015     52.5621
     8.0000     72.6808      0.0000    327.1065     60.4529
     8.2500     69.2391      0.0000    284.2513     64.6540
     8.5000     64.3078      0.0000    266.4000     66.4261
     8.7500     61.4058      0.0000    260.6152     67.0604
     9.0000     63.3239      0.0000    259.1617     67.3138
     9.2500     69.3497      0.0000    258.8841     67.4889
     9.5000     75.8573      0.0000    258.8500     67.6616
     9.7500     79.5864      0.0000    258.8600     67.8213
    10.0000     80.4423      0.0000    258.8701     67.9451
    10.2500     81.1640      0.0000    258.8780     68.0308
    10.5000     84.3146      0.0000    258.8787     68.0994
    10.7500     89.7821      0.0000    258.8679     68.1731
    11.0000     95.2422      0.0000    258.8458     68.2635
    11.2500     98.5373      0.0000    258.8190     68.3758
    11.5000     99.1561      0.0000    258.7972     68.5172
    11.7500     97.8178      0.0000    258.7875     68.6931
    12.0000     95.3216      0.0000    258.7894     68.8949
    12.2500     92.0158      0.0000    258.7950     69.0948
    12.5000     88.3519      0.0000    258.7973     69.2613
    12.7500     85.7356      0.0000    258.7953     69.3798
    13.0000     86.1427      0.0000    258.7932     69.4566
    13.2500     90.2273      0.0000    258.7936     69.5028
    13.5000     96.0563      0.0000    258.7954     69.5235
    13.7500    100.5469      0.0000    258.7942     69.5181
    14.0000    102.1819      0.0000    258.7876     69.4834
    14.2500    101.6144      0.0000    258.7789     69.4169
    14.5000     99.9370      0.0000    258.7751     69.3263
    14.7500     97.5242      0.0000    258.7800     69.2370
    15.0000     94.7363      0.0000    258.7899     69.1830
    15.2500     92.6546      0.0000    258.7977     69.1838
    15.5000     92.3046      0.0000    258.7993     69.2253
    15.7500     93.4878      0.0000    258.7970     69.2639
    16.0000     95.1296      0.0000    258.7953     69.2588
    16.2500     96.8810      0.0000    258.7952     69.2116
    16.5000     99.6994      0.0000    258.7927     69.1725
    16.7500    104.5445      0.0000    258.7838     69.1998
    17.0000    110.8893      0.0000    258.7700     69.3171
    17.2500    116.6328      0.0000    258.7571     69.5048
    17.5000    119.3990      0.0000    258.7505     69.7165
    17.7500    118.4136      0.0000    258.7515     69.8968
    18.0000    115.4508      0.0000    258.7610     70.0021
    18.2500    113.2519      0.0000    258.7886     70.0224
    18.5000    112.6423      0.0000    258.8666     69.9725
    18.7500    111.8155      0.0000    259.1541     69.8199
    19.0000    108.7929      0.0000    260.1472     69.3899
    19.2500    103.9063      0.0000    262.8819     68.3258
    19.5000     99.3792      0.0000    268.5664     66.2675
    19.7500     96.7790      0.0000    277.1589     63.2772
    20.0000     95.2102      0.0000    285.9346     60.0782
    20.2500     92.0641      0.0000    290.5222     57.5514
    20.5000     85.7028      0.0000    288.5695     55.8905
    20.7500     77.2521      0.0000    281.9951     54.5649
