~Version Information
 VERS.                                  2.0 : CWLS LAS VERSION
 WRAP.                                   NO : WRAPING MODE
 SWARE .                 MController 2.5.0N : SOFTWARE VERSION
~Well Information
 WELL.                           Zink 44-10 : WELL
 COMP.    Pioneer Natural Resources USA Inc : COMPANY
 FLD.                      Purgatoire River : FIELD
 LOC.                SE/SE Sec 10 T32S R66W : LOCATION
 DATE.                              5/29/05 : DATE(S) LOGGED
 SRVC.       Blanco Geological Services LLC : SERVICE COMPANY
 STAT.                                   CO : STATE
 CNTY.                           Las Animas : COUNTY
 CTRY.                                  USA : COUNTRY
 API.                       05-071-08380-00 : API NUMBER
 STRT.FT                             620.00 : START DEPTH
 STOP.FT                            2635.00 : STOP DEPTH
 STEP.FT                               1.00 : DEPTH INCREMENT
 NULL.                                -9999 : NULL VALUE
~Curve information
 DEPTH.FT                                   :
 ROP.MIN/FT                                 :
 GAS.UNITS                                  :
~ASCII Log data
# ...
      1020.0         0.17        534.7 
      1021.0         0.20        517.7 
      1022.0         0.20        505.9 
      1023.0         0.17        494.5 
      1024.0         0.13        485.6 
      1025.0         0.17        481.4 
      1026.0         0.17        531.1 
      1027.0         0.22        474.2 
      1028.0         0.20        525.2 
      1029.0         0.13        466.0 
      1030.0         0.17        466.3 
      1031.0         0.17        467.3 
      1032.0         0.20        483.7 
      1033.0         0.17        478.4 
      1034.0         0.13        440.0 
      1035.0         0.17        440.0 
      1036.0         0.17        102.0 
      1037.0         0.20         97.4 
      1038.0         0.17         95.6 
      1039.0         0.17         94.3 
      1040.0         0.17         92.6 
      1041.0         0.17         91.4 
      1042.0         0.17         89.2 
      1043.0         0.17         98.5 
      1044.0         0.13        116.2 
      1045.0         0.13        146.0 
      1046.0         1.55        463.1 
      1047.0         0.37        270.7 
      1048.0         0.23        214.6 
      1049.0         0.27        199.6 
      1050.0         0.23        185.4 
      1051.0         0.23        175.2 
      1052.0         0.17        164.7 
      1053.0         0.13        160.0 
      1054.0         0.20        158.4 
      1055.0         0.10        154.3 
      1056.0         0.15        154.6 
      1057.0         0.20        153.0 
      1058.0         0.20        151.2 
      1059.0         0.17        150.5 
      1060.0         0.17        150.1 
      1061.0         0.17        149.6 
      1062.0         0.20        148.7 
      1063.0         0.17        144.9 
      1064.0         0.20        134.6 
      1065.0         0.17        100.8 
      1066.0         0.17         83.9 
      1067.0         0.17         77.7 
      1068.0         0.17         74.2 
      1069.0         0.17         72.8 
      1070.0         0.17         72.9 
      1071.0         0.17         71.3 
      1072.0         0.20         69.9 
      1073.0         0.17         67.6 
      1074.0         0.20         64.3 
      1075.0         0.18         69.0 
      1076.0         2.07        319.2 
      1077.0         0.40        214.1 
      1078.0         0.27        160.2 
      1079.0         0.20        135.4 
      1080.0         0.48        135.7 
      1081.0         0.27        103.0 
      1082.0         0.33        107.6 
      1083.0         0.23        110.1 
      1084.0         0.23        109.7 
      1085.0         0.23        115.0 
      1086.0         0.20        126.6 
      1087.0         0.23        129.4 
      1088.0         0.20        127.9 
      1089.0         0.13        125.1 
      1090.0         0.20        123.0 
      1091.0         0.23        127.9 
      1092.0         0.20        128.4 
      1093.0         0.20        126.9 
      1094.0         0.10        106.0 
      1095.0         0.17         87.2 
      1096.0         0.15         64.0 
      1097.0         0.17         54.1 
      1098.0         0.10         50.9 
      1099.0         0.20         49.0 
      1100.0         0.20         48.2 
      1101.0         0.20         48.3 
      1102.0         0.20         48.1 
      1103.0         0.20         48.7 
      1104.0         0.17         48.5 
      1105.0         0.23         48.2 
      1106.0         1.78         55.7 
      1107.0         0.33         65.4 
      1108.0         0.20         67.8 
      1109.0         0.27         69.4 
      1110.0         0.23         70.6 
      1111.0         0.27         71.0 
      1112.0         0.23         64.3 
      1113.0         0.20         55.9 
      1114.0         0.13         51.3 
      1115.0         0.20         49.6 
      1116.0         0.20         46.2 
      1117.0         0.20         42.2 
      1118.0         0.17         40.1 
      1119.0         0.17         39.0 
      1120.0         0.17         37.4 
      1121.0         0.13         35.5 
      1122.0         0.15         34.6 
      1123.0         0.13         35.9 
      1124.0         0.13         35.2 
      1125.0         0.17         34.0 
      1126.0         0.17         34.0 
      1127.0         0.27         34.7 
      1128.0         0.20         35.6 
      1129.0         0.17         36.2 
      1130.0         0.17         36.9 
      1131.0         0.17         37.6 
      1132.0         0.23         38.1 
      1133.0         0.20         37.6 
      1134.0         0.17         37.4 
      1135.0         0.20         36.6 
      1136.0         1.85         59.4 
      1137.0         0.27         71.9 
      1138.0         0.30         76.9 
      1139.0         0.23         79.9 
      1140.0         0.20         81.0 
      1141.0         0.20         81.0 
      1142.0         0.17         80.4 
      1143.0         0.10         78.5 
      1144.0         0.10         78.1 
      1145.0         0.10         77.5 
      1146.0         0.07         77.6 
      1147.0         0.10         77.6 
      1148.0         0.17         77.2 
      1149.0         0.20         76.4 
      1150.0         0.13         72.5 
      1151.0         0.08         69.7 
      1152.0         0.10         68.3 
      1153.0         0.10         68.5 
      1154.0         0.20         68.5 
      1155.0         0.23         63.6 
      1156.0         0.23         57.1 
      1157.0         0.20         52.8 
      1158.0         0.20         51.8 
      1159.0         0.17         51.7 
      1160.0         0.10         51.8 
      1161.0         0.17         51.7 
      1162.0         0.33         53.0 
      1163.0         0.23         52.9 
      1164.0         0.20         52.2 
      1165.0         0.20         50.2 
      1166.0         1.75         75.7 
      1167.0         0.23         81.7 
      1168.0         0.23         85.6 
      1169.0         0.20         86.7 
      1170.0         0.23         86.8 
      1171.0         0.23         84.7 
      1172.0         0.13         80.7 
      1173.0         0.10         77.6 
      1174.0         0.13         74.3 
      1175.0         0.20         69.7 
      1176.0         0.17         65.2 
      1177.0         0.17         62.3 
      1178.0         0.17         59.8 
      1179.0         0.18         60.6 
      1180.0         0.17         62.6 
      1181.0         0.17         64.0 
      1182.0         0.17         59.5 
      1183.0         0.17         53.0 
      1184.0         0.13         52.1 
      1185.0         0.17         52.3 
      1186.0         0.10         52.7 
      1187.0         0.10         53.1 
      1188.0         0.17         53.1 
      1189.0         0.13         53.7 
      1190.0         0.27         54.4 
      1191.0         0.17         53.8 
      1192.0         0.13         53.2 
      1193.0         0.17         51.0 
      1194.0         0.23         49.5 
      1195.0         0.20         44.7 
      1196.0         1.62         40.6 
      1197.0         0.27         41.5 
      1198.0         0.17         43.6 
      1199.0         0.27         44.6 
      1200.0         0.43         44.3 
      1201.0         0.20         43.5 
      1202.0         0.13         41.8 
      1203.0         0.13         41.0 
      1204.0         0.27         40.2 
      1205.0         0.17         37.2 
      1206.0         0.20         34.3 
      1207.0         0.25         31.8 
      1208.0         0.13         29.2 
      1209.0         0.13         28.8 
      1210.0         0.20         28.6 
      1211.0         0.20         31.9 
      1212.0         0.17         39.7 
      1213.0         0.17         39.3 
      1214.0         0.13         28.7 
      1215.0         0.17         25.7 
      1216.0         0.17         23.8 
      1217.0         0.17         22.9 
      1218.0         0.13         22.6 
      1219.0         0.17         22.6 
