~Version Information
VERS.                      2.0: CWLS Log ASCII Standard - VERSION 2.0
WRAP.                       NO: One line per depth step
~Well Information Block
STRT.FT                -7.0000: 
STOP.FT              2736.0000: 
STEP.FT                 0.2500: 
NULL.                -999.2500: 
COMP.          Pioneer Natural Resources: COMPANY
WELL.              Getem 21-23: WELL
FLD.           Purgatorie River: FIELD
LOC.           2623' FWL & 790' FNL----: LOCATION
PROV.                       CO: PROVINCE
CNTY.               Las Animas: COUNTRY
SRVC.          Patterson Wireline: SERVICE COMPANY
DATE.          Mon Jun 27 09:57:55 2005: LOG DATE
UWI.           05 071 08411 00: UNIQUE WELL ID
~Curve Information Block
DEPT.FT            0 000 00 00: Depth
CCL.                          : Casing Collar Locator
TT3.usec                      : CBL 3' Travel Time
AMP3.mV                       : CBL 3' Amplitude
GR.GAPI                       : Gamma Ray
~Parameter Information Block
~A  Depth       CCL         TT3         AMP3         GR     
# ...
   730.0000      0.0000    856.2465      6.4425    126.6835
   730.2500      0.0000    852.8613      6.4186    132.4959
   730.5000      0.0000    848.8900      6.4163    138.6284
   730.7500      0.0000    843.6959      6.4286    142.9166
   731.0000      0.0000    837.4145      6.4396    144.8057
   731.2500      0.0000    831.3467      6.4350    145.0382
   731.5000      0.0000    826.9940      6.4088    144.4830
   731.7500      0.0000    825.1787      6.3605    143.8535
   732.0000      0.0000    826.2585      6.2947    144.1584
   732.2500      0.0000    830.5334      6.2224    146.5155
   732.5000      0.0000    837.7708      6.1615    150.9425
   732.7500      0.0000    846.4141      6.1289    155.5450
   733.0000      0.0000    853.7960      6.1301    157.5974
   733.2500      0.0000    857.4200      6.1554    155.7823
   733.5000      0.0000    856.2185      6.1874    151.1005
   733.7500      0.0000    851.0821      6.2133    145.4178
   734.0000      0.0000    844.5902      6.2309    139.5595
   734.2500      0.0000    839.8498      6.2433    133.1473
   734.5000      0.0000    838.7096      6.2510    125.8762
   734.7500      0.0000    840.5004      6.2516    118.4060
   735.0000      0.0000    842.5126      6.2478    112.0925
   735.2500      0.0000    842.1461      6.2486    108.1525
   735.5000      0.0000    838.9359      6.2616    107.0189
   735.7500      0.0000    834.5466      6.2853    108.1441
   736.0000      0.0000    830.9945      6.3111    110.2955
   736.2500      0.0000    829.1870      6.3293    112.1859
   736.5000      0.0000    828.9371      6.3332    112.9723
   736.7500      0.0000    829.7043      6.3185    112.4388
   737.0000      0.0000    830.9291      6.2855    111.2764
   737.2500      0.0000    831.6860      6.2389    111.1419
   737.5000      0.0000    830.4434      6.1866    113.3733
   737.7500      0.0000    826.0110      6.1371    117.0366
   738.0000      0.0000    819.1670      6.0988    118.8488
   738.2500      0.0000    812.5950      6.0758    115.4446
   738.5000      0.0000    808.4312      6.0647    105.7006
   738.7500      0.0000    806.3900      6.0566     91.4600
   739.0000      0.0000    804.8027      6.0439     76.5765
   739.2500      0.0000    802.7120      6.0253     64.7965
   739.5000      0.0000    800.3325      6.0061     57.8624
   739.7500      0.0000    798.0255      5.9941     55.3792
   740.0000      0.0000    795.6083      5.9922     56.0306
   740.2500      0.0000    792.8141      5.9949     58.3454
   740.5000      0.0000    789.9659      5.9946     60.5036
   740.7500      0.0000    787.8025      5.9912     60.3751
   741.0000      0.0000    786.8613      5.9927     56.5483
   741.2500      0.0000    787.3987      6.0053     49.4300
   741.5000      0.0000    789.7512      6.0281     41.1236
   741.7500      0.0000    794.2212      6.0602     34.1936
   742.0000      0.0000    800.2375      6.1065     30.4405
   742.2500      0.0000    805.8340      6.1721     30.2600
   742.5000      0.0000    808.6243      6.2501     32.6117
   742.7500      0.0000    807.8557      6.3213     35.7280
   743.0000      0.0000    805.4584      6.3667     38.3576
   743.2500      0.0000    804.6675      6.3830     40.6835
   743.5000      0.0000    807.3804      6.3830     44.3508
   743.7500      0.0000    812.8209      6.3810     51.6545
   744.0000      0.0000    818.6158      6.3803     63.9957
   744.2500      0.0000    822.8604      6.3749     80.2470
   744.5000      0.0000    825.1351      6.3609     96.7075
   744.7500      0.0000    826.0446      6.3426    109.4113
   745.0000      0.0000    826.3167      6.3279    116.8273
   745.2500      0.0000    826.3640      6.3196    120.2664
   745.5000      0.0000    826.3445      6.3144    122.0359
   745.7500      0.0000    826.3611      6.3102    123.7249
   746.0000      0.0000    826.5275      6.3140    126.0192
   746.2500      0.0000    826.9001      6.3356    129.2126
   746.5000      0.0000    827.4078      6.3729    133.2476
   746.7500      0.0000    827.8856      6.4055    137.3640
   747.0000      0.0000    828.1727      6.4128    139.9196
   747.2500      0.0000    828.1811      6.3962    138.7141
   747.5000      0.0000    827.9120      6.3774    132.2915
   747.7500      0.0000    827.4608      6.3757    121.9251
   748.0000      0.0000    827.0043      6.3902    112.0801
   748.2500      0.0000    826.7324      6.4067    107.7210
   748.5000      0.0000    826.7535      6.4166    110.6510
   748.7500      0.0000    827.0831      6.4264    118.7101
   749.0000      0.0000    827.7754      6.4474    128.2282
   749.2500      0.0000    829.1467      6.4827    136.5810
   749.5000      0.0000    831.8795      6.5234    142.7120
   749.7500      0.0000    836.6932      6.5539    146.3501
   750.0000      0.0000    843.5852      6.5621    147.3503
   750.2500      0.0000    851.3538      6.5513    145.7617
   750.5000      0.0000    858.1733      6.5408    142.2727
   750.7500      0.0000    862.8143      6.5474    138.2296
   751.0000      0.0000    865.2577      6.5687    135.0091
   751.2500      0.0000    866.2649      6.5891    133.3748
   751.5000      0.0000    866.6390      6.5974    133.1517
   751.7500      0.0000    866.8674      6.5912    133.3255
   752.0000      0.0000    867.1342      6.5702    132.8129
   752.2500      0.0000    867.4420      6.5346    131.3574
   752.5000      0.0000    867.6911      6.4893    129.3635
   752.7500      0.0000    867.6920      6.4424    126.9589
   753.0000      0.0000    867.1045      6.3984    123.8976
   753.2500      0.0000    865.4513      6.3572    120.4241
   753.5000      0.0000    862.3561      6.3184    117.4390
   753.7500      0.0000    857.8678      6.2866    115.6219
   754.0000      0.0000    852.4791      6.2689    114.9615
   754.2500      0.0000    846.8081      6.2661    115.1160
   754.5000      0.0000    841.4296      6.2696    115.5066
   754.7500      0.0000    837.0183      6.2689    115.0017
   755.0000      0.0000    834.4453      6.2608    112.3068
   755.2500      0.0000    834.6277      6.2489    107.1727
   755.5000      0.0000    838.1325      6.2350    101.0680
   755.7500      0.0000    844.5732      6.2151     96.5670
   756.0000      0.0000    852.3273      6.1865     95.9887
   756.2500      0.0000    859.2532      6.1570    100.2265
   756.5000      0.0000    863.9741      6.1424    108.4763
   756.7500      0.0000    866.4560      6.1531    118.7323
   757.0000      0.0000    867.4740      6.1870    128.4113
   757.2500      0.0000    867.8159      6.2357    135.0976
   757.5000      0.0000    867.9467      6.2936    137.5534
   757.7500      0.0000    868.0763      6.3571    136.3699
   758.0000      0.0000    868.2703      6.4213    133.4352
   758.2500      0.0000    868.4816      6.4804    130.4344
   758.5000      0.0000    868.5731      6.5318    127.8685
   758.7500      0.0000    868.2827      6.5764    125.7277
   759.0000      0.0000    867.0040      6.6159    124.7651
   759.2500      0.0000    863.3297      6.6493    126.1990
   759.5000      0.0000    854.8605      6.6719    129.8995
   759.7500      0.0000    839.2618      6.6775    133.6371
   760.0000      0.0000    816.6161      6.6618    134.7276
   760.2500      0.0000    790.8690      6.6259    132.2595
   760.5000      0.0000    767.9916      6.5771    127.5922
   760.7500      0.0000    752.1603      6.5244    123.1316
   761.0000      0.0000    743.9058      6.4768    120.8466
   761.2500      0.0000    741.6724      6.4442    121.2717
   761.5000      0.0000    744.4028      6.4390    123.3297
   761.7500      0.0000    752.5632      6.4720    125.3238
   762.0000      0.0000    767.1393      6.5462    126.2452
   762.2500      0.0000    787.7157      6.6564    125.9149
   762.5000      0.0000    811.3438      6.7926    124.3099
   762.7500      0.0000    833.4466      6.9434    121.2796
   763.0000      0.0000    850.2518      7.0990    116.4756
   763.2500      0.0000    860.5580      7.2538    109.2212
