~Version Information
VERS.                      2.0: CWLS Log ASCII Standard - VERSION 2.0
WRAP.                       NO: One line per depth step
~Well Information Block
STRT.FT                 3.7500: 
STOP.FT               979.7500: 
STEP.FT                 0.2500: 
NULL.                -999.2500: 
COMP.          Pioneer Natural Resources: COMPANY
WELL.          Rising Star 22-11: WELL
FLD.           Purgatoire River: FIELD
LOC.           2152' FNL & 2105' FWL: LOCATION
PROV.                 Colorado: PROVINCE
CNTY.               Las Animas: COUNTRY
SRVC.                Patterson: SERVICE COMPANY
DATE.          Sat Apr 16 09:17:01 2005: LOG DATE
UWI.           05 071 08354 00: UNIQUE WELL ID
~Curve Information Block
DEPT.FT            0 000 00 00: Depth
GR.GAPI                       : Gamma Ray
CCL.                          : Casing Collar Locator
TT3.usec                      : CBL 3' Travel Time
AMP3.mV                       : CBL 3' Amplitude
~Parameter Information Block
~A  Depth        GR         CCL         TT3         AMP3    
# ...
   238.2500    102.1791      0.0000   1348.3990      6.3991
   238.5000    104.7382      0.0000   1349.6962      6.3101
   238.7500    106.9437      0.0000   1349.9596      6.2305
   239.0000    107.2569      0.0000   1350.0000      6.1614
   239.2500    105.1831      0.0000   1350.0000      6.0988
   239.5000    102.3918      0.0000   1350.0000      6.0323
   239.7500    102.0384      0.0000   1350.0000      5.9555
   240.0000    106.8197      0.0000   1350.0000      5.8746
   240.2500    117.0615      0.0000   1350.0000      5.8046
   240.5000    129.9841      0.0000   1350.0000      5.7554
   240.7500    140.9051      0.0000   1349.9596      5.7236
   241.0000    146.0287      0.0000   1349.7368      5.6999
   241.2500    144.8569      0.0000   1348.6635      5.6799
   241.5000    140.2049      0.0000   1344.6735      5.6674
   241.7500    135.9251      0.0000   1333.4541      5.6678
   242.0000    134.3499      0.0000   1309.6034      5.6798
   242.2500    135.0819      0.0000   1271.7404      5.6964
   242.5000    135.3645      0.0000   1227.5431      5.7139
   242.7500    131.7595      0.0000   1190.6321      5.7374
   243.0000    122.5233      0.0000   1170.8612      5.7748
   243.2500    109.0226      0.0000   1170.8668      5.8263
   243.5000     94.7525      0.0000   1190.6459      5.8844
   243.7500     82.9314      0.0000   1227.5583      5.9440
   244.0000     74.9877      0.0000   1271.7518      6.0083
   244.2500     70.5859      0.0000   1309.6097      6.0870
   244.5000     68.3070      0.0000   1333.4568      6.1847
   244.7500     66.5458      0.0000   1344.6743      6.2932
   245.0000     64.4647      0.0000   1348.6637      6.3932
   245.2500     62.2261      0.0000   1349.7368      6.4650
   245.5000     60.3004      0.0000   1349.9596      6.4998
   245.7500     58.7865      0.0000   1350.0000      6.5006
   246.0000     57.4474      0.0000   1350.0000      6.4773
   246.2500     56.2113      0.0000   1350.0000      6.4420
   246.5000     55.5606      0.0000   1349.9596      6.4068
   246.7500     56.3521      0.0000   1349.6963      6.3812
   247.0000     59.1147      0.0000   1348.3995      6.3685
   247.2500     63.5733      0.0000   1343.3744      6.3639
   247.5000     68.9398      0.0000   1328.4216      6.3544
   247.7500     74.4645      0.0000   1294.6322      6.3242
   248.0000     79.4532      0.0000   1237.9142      6.2645
   248.2500     82.9503      0.0000   1170.7649      6.1789
   248.5000     84.1090      0.0000   1123.3596      6.0776
   248.7500     83.3343      0.0000   1123.1052      5.9695
   249.0000     82.6357      0.0000   1169.2053      5.8617
   249.2500     84.1380      0.0000   1231.4520      5.7654
   249.5000     88.2196      0.0000   1273.4054      5.6968
   249.7500     93.3352      0.0000   1272.8009      5.6684
   250.0000     97.3979      0.0000   1225.9598      5.6816
   250.2500     99.0227      0.0000   1145.6787      5.7260
   250.5000     97.8521      0.0000   1057.2979      5.7848
   250.7500     94.4959      0.0000    987.9418      5.8405
   251.0000     90.3386      0.0000    954.2443      5.8809
   251.2500     86.9194      0.0000    960.1260      5.9050
   251.5000     85.1886      0.0000   1000.9553      5.9223
   251.7500     85.2912      0.0000   1062.1602      5.9430
   252.0000     86.9259      0.0000   1116.8704      5.9695
   252.2500     89.9201      0.0000   1138.5754      5.9977
   252.5000     94.6222      0.0000   1125.2072      6.0258
   252.7500    101.5465      0.0000   1106.3030      6.0554
   253.0000    110.3745      0.0000   1116.9292      6.0860
   253.2500    119.4108      0.0000   1163.1559      6.1131
   253.5000    126.1860      0.0000   1216.3492      6.1338
   253.7500    128.6526      0.0000   1238.8955      6.1482
   254.0000    126.2535      0.0000   1212.7081      6.1530
   254.2500    120.2970      0.0000   1150.3262      6.1409
   254.5000    113.1732      0.0000   1086.8397      6.1098
   254.7500    106.8231      0.0000   1056.4360      6.0673
   255.0000    101.8872      0.0000   1068.2153      6.0198
   255.2500     98.0780      0.0000   1104.5496      5.9618
   255.5000     94.9053      0.0000   1144.5562      5.8844
   255.7500     92.0185      0.0000   1183.5647      5.7918
   256.0000     89.3053      0.0000   1226.5446      5.7046
   256.2500     86.9046      0.0000   1271.5909      5.6456
   256.5000     85.0747      0.0000   1308.3550      5.6245
   256.7500     83.9217      0.0000   1328.1875      5.6314
   257.0000     83.1590      0.0000   1328.3813      5.6452
   257.2500     82.2463      0.0000   1309.5665      5.6477
   257.5000     81.0485      0.0000   1276.6968      5.6314
   257.7500     80.1730      0.0000   1243.6874      5.5939
   258.0000     80.2583      0.0000   1229.5779      5.5358
   258.2500     81.3055      0.0000   1243.7278      5.4700
   258.5000     83.2339      0.0000   1276.9252      5.4287
   258.7500     86.3547      0.0000   1310.6755      5.4460
   259.0000     90.2506      0.0000   1332.4987      5.5300
   259.2500     92.5799      0.0000   1339.8032      5.6548
   259.5000     90.2863      0.0000   1332.8866      5.7783
   259.7500     82.4088      0.0000   1309.0671      5.8626
   260.0000     71.1985      0.0000   1264.5948      5.8842
   260.2500     60.2676      0.0000   1200.8384      5.8397
   260.5000     52.1028      0.0000   1127.6180      5.7503
   260.7500     47.5269      0.0000   1060.4596      5.6570
   261.0000     46.7613      0.0000   1013.9763      5.5993
   261.2500     50.0293      0.0000    993.5070      5.5936
   261.5000     56.9930      0.0000    989.5341      5.6265
   261.7500     66.1203      0.0000    983.5077      5.6702
   262.0000     75.1260      0.0000    964.6286      5.7009
   262.2500     82.2143      0.0000    941.8209      5.7104
   262.5000     86.7492      0.0000    936.4603      5.7070
   262.7500     88.7603      0.0000    961.9965      5.7072
   263.0000     88.3580      0.0000   1013.5553      5.7226
   263.2500     85.9531      0.0000   1078.0771      5.7508
   263.5000     82.6614      0.0000   1146.9520      5.7780
   263.7500     80.0357      0.0000   1214.6317      5.7929
   264.0000     79.2500      0.0000   1272.8119      5.7957
   264.2500     80.3649      0.0000   1313.6311      5.7948
   264.5000     82.2196      0.0000   1336.1609      5.7973
   264.7500     83.2375      0.0000   1345.7629      5.8066
   265.0000     82.6497      0.0000   1348.7328      5.8271
   265.2500     81.0307      0.0000   1348.4728      5.8662
   265.5000     79.6431      0.0000   1344.6473      5.9277
   265.7500     79.2979      0.0000   1333.4520      6.0034
   266.0000     79.8247      0.0000   1309.5984      6.0770
   266.2500     80.5305      0.0000   1271.7312      6.1380
   266.5000     80.9129      0.0000   1227.5298      6.1898
   266.7500     80.9557      0.0000   1190.6173      6.2452
   267.0000     81.2207      0.0000   1170.8486      6.3162
   267.2500     82.7530      0.0000   1170.8237      6.4065
   267.5000     86.1969      0.0000   1190.3781      6.5085
   267.7500     90.5795      0.0000   1226.1287      6.6059
   268.0000     93.5036      0.0000   1265.7520      6.6807
   268.2500     93.2562      0.0000   1289.6143      6.7225
   268.5000     90.8708      0.0000   1280.3527      6.7353
   268.7500     89.6874      0.0000   1231.4128      6.7357
   269.0000     92.4213      0.0000   1152.5221      6.7411
   269.2500     98.4668      0.0000   1069.1028      6.7582
   269.5000    104.0359      0.0000   1008.6453      6.7836
   269.7500    105.1418      0.0000    981.7610      6.8137
   270.0000    100.8980      0.0000    980.1194      6.8469
   270.2500     94.2164      0.0000    994.1318      6.8744
   270.5000     89.4599      0.0000   1023.4326      6.8761
   270.7500     89.5224      0.0000   1065.8185      6.8360
   271.0000     94.7485      0.0000   1105.9888      6.7651
   271.2500    103.5851      0.0000   1125.5896      6.7101
   271.5000    113.5691      0.0000   1120.0905      6.7297
