~Version Information
VERS.                      2.0: CWLS Log ASCII Standard - VERSION 2.0
WRAP.                       NO: One line per depth step
~Well Information Block
STRT.FT               510.5000: 
STOP.FT              2075.5000: 
STEP.FT                 0.1000: 
NULL.                -999.2500: 
COMP.          Petrogulf Corporation: COMPANY
WELL.          Robinson 15-11V: WELL
FLD.           Purgatorie River: FIELD
LOC.           226' FNL & 592' FWL: LOCATION
CNTY.               Las Animas: COUNTY
SRVC.                         : SERVICE COMPANY
DATE.          Wed Aug 04 06:17:53 2004: LOG DATE
UWI.           05 071 08027 00: UNIQUE WELL ID
STAT.                 Colorado: STATE
~Curve Information Block
DEPT.FT            0 000 00 00: Depth
DCAL.in                       : CDL Caliper
RHOB.g/cc                     : CDL Bulk Density
RHOC.g/cc                     : CDL Density Correction
DPOR.pu                       : CDL Density Porosity
GR.GAPI                       : Gamma Ray
NPOR.pu                       : Neutron Porosity
~Parameter Information Block
~A  Depth       DCAL        RHOB        RHOC        DPOR         GR         NPOR    
# ...
  1038.5000      7.9312      2.6663      0.1200     -0.9856    155.3806     27.7437
  1038.6000      7.9312      2.6807      0.1569     -1.8616    160.1594     27.7453
  1038.7000      7.9312      2.6670      0.1125     -1.0333    167.1757     27.8896
  1038.8000      7.9274      2.6342      0.0754      0.9582    168.9518     28.0215
  1038.9000      7.9274      2.6102      0.0547      2.4139    166.2495     28.0053
  1039.0000      7.9256      2.6062      0.0669      2.6548    167.1170     27.8229
  1039.1000      7.9256      2.6139      0.0633      2.1889    172.0161     27.7168
  1039.2000      7.9256      2.6238      0.0279      1.5907    172.4909     27.7886
  1039.3000      7.9234      2.6295      0.0685      1.2438    169.0673     27.8321
  1039.4000      7.9234      2.6288      0.0323      1.2841    168.4884     27.7167
  1039.5000      7.9264      2.6253      0.0484      1.4991    169.5330     27.5746
  1039.6000      7.9264      2.6162      0.0625      2.0480    166.0937     27.5766
  1039.7000      7.9264      2.5993      0.0508      3.0743    157.3608     27.6240
  1039.8000      7.9566      2.5885     -0.0205      3.7289    147.6858     27.4396
  1039.9000      7.9566      2.5940      0.0160      3.3928    136.8317     27.0962
  1040.0000      7.9633      2.6025      0.0329      2.8812    124.6951     26.9097
  1040.1000      7.9633      2.6015      0.0131      2.9404    118.1055     26.8550
  1040.2000      7.9633      2.5985      0.0252      3.1200    118.6592     26.7593
  1040.3000      7.9748      2.6024      0.0706      2.8870    120.9380     26.6627
  1040.4000      7.9748      2.6094      0.0737      2.4585    122.8867     26.6460
  1040.5000      7.9808      2.6125      0.0958      2.2756    123.5715     26.7911
  1040.6000      7.9808      2.6045      0.0702      2.7601    123.7948     27.1493
  1040.7000      7.9808      2.5853      0.0747      3.9184    125.9714     27.4139
  1040.8000      7.9812      2.5694      0.0227      4.8860    130.8957     27.1548
  1040.9000      7.9812      2.5717      0.0391      4.7458    137.1311     26.4465
  1041.0000      7.9796      2.5858      0.0748      3.8923    140.3821     25.8132
  1041.1000      7.9796      2.5860      0.0933      3.8815    138.4609     25.5618
  1041.2000      7.9796      2.5557      0.0439      5.7144    132.7121     25.4845
  1041.3000      7.9828      2.5098      0.0269      8.4951    125.9076     25.3125
  1041.4000      7.9828      2.4773      0.0515     10.4670    121.3057     24.9052
  1041.5000      7.9959      2.4649      0.0456     11.2164    120.6119     24.2832
  1041.6000      7.9959      2.4520      0.0642     12.0026    121.9638     23.7491
  1041.7000      7.9959      2.4244      0.0130     13.6723    121.1639     23.4716
  1041.8000      8.0057      2.3974      0.0406     15.3081    118.8627     23.3642
  1041.9000      8.0057      2.3927      0.0687     15.5963    119.9619     23.4291
  1042.0000      8.0121      2.4168      0.1078     14.1324    125.1662     23.7231
  1042.1000      8.0121      2.4608      0.1607     11.4666    130.2814     24.2764
  1042.2000      8.0121      2.5067      0.2154      8.6874    131.7709     24.7951
  1042.3000      8.0240      2.5351      0.2319      6.9636    128.7176     24.9663
  1042.4000      8.0240      2.5350      0.2660      6.9712    127.4635     24.8567
  1042.5000      8.0291      2.5103      0.2667      8.4637    137.4601     24.4804
  1042.6000      8.0291      2.4819      0.1978     10.1886    156.2188     24.0696
  1042.7000      8.0291      2.4700      0.1680     10.9066    170.6165     24.0150
  1042.8000      8.0368      2.4698      0.1722     10.9189    171.9030     24.0217
  1042.9000      8.0368      2.4630      0.1651     11.3333    164.2468     23.6282
  1043.0000      8.0415      2.4476      0.1383     12.2660    158.9981     23.1861
  1043.1000      8.0415      2.4377      0.1323     12.8675    161.4445     23.0211
  1043.2000      8.0415      2.4387      0.2206     12.8034    164.6601     22.6946
  1043.3000      8.0228      2.4367      0.2792     12.9296    160.8353     21.9095
  1043.4000      8.0228      2.4069      0.3098     14.7331    152.3384     20.8770
  1043.5000      8.0206      2.3276      0.2545     19.5395    149.7767     19.5960
  1043.6000      8.0206      2.1900      0.1660     27.8797    157.7871     18.1299
  1043.7000      8.0206      2.0204     -0.0191     38.1577    167.2193     16.6884
  1043.8000      8.0337      1.8669      0.0151     47.4584    168.4039     15.1421
  1043.9000      8.0337      1.7386      0.0449     55.2353    163.9882     13.4934
  1044.0000      8.0460      1.6109      0.0641     62.9748    161.3458     12.0041
  1044.1000      8.0460      1.4637      0.0454     71.8978    162.5156     11.0263
  1044.2000      8.0460      1.2946     -0.0400     82.1440    164.0269     10.8436
  1044.3000      8.0606      1.1396     -0.1195     91.5412    162.7695     11.2890
  1044.4000      8.0606      1.0661     -0.1151     95.9917    159.5069     12.0289
  1044.5000      8.1452      1.1160      0.0184     92.9667    153.7810     13.2068
  1044.6000      8.1452      1.2678      0.2617     83.7697    144.3908     14.9791
  1044.7000      8.1452      1.4671      0.3695     71.6935    131.9522     16.9956
  1044.8000      8.2074      1.6687      0.4297     59.4755    119.2254     19.0197
  1044.9000      8.2074      1.8493      0.4628     48.5254    110.8635     21.1959
  1045.0000      8.0912      2.0066      0.4689     38.9950    107.9639     23.3271
  1045.1000      8.0912      2.1410      0.5090     30.8469    103.8693     25.0486
  1045.2000      8.0912      2.2531      0.4709     24.0537     95.1351     26.2365
  1045.3000      8.0459      2.3625      0.4109     17.4224     84.6439     26.8767
  1045.4000      8.0459      2.4837      0.3936     10.0792     74.4410     27.1428
  1045.5000      7.9861      2.5813      0.4033      4.1608     67.5063     27.1917
  1045.6000      7.9861      2.6112      0.2514      2.3534     64.3569     26.9526
  1045.7000      7.9861      2.5888      0.0729      3.7084     60.9415     26.2877
  1045.8000      7.9187      2.5556      0.0953      5.7198     59.2770     25.3044
  1045.9000      7.9187      2.5241      0.0479      7.6273     64.3941     24.3728
  1046.0000      7.9099      2.4973      0.0365      9.2545     71.9970     23.5579
  1046.1000      7.9099      2.4824      0.0244     10.1563     75.7629     22.6324
  1046.2000      7.9099      2.4771      0.0477     10.4783     75.9318     21.6676
  1046.3000      7.9109      2.4793      0.0014     10.3455     77.0554     20.9094
  1046.4000      7.9109      2.4945      0.0107      9.4247     81.3423     20.5017
  1046.5000      7.9102      2.5149      0.0626      8.1864     85.6233     20.3980
  1046.6000      7.9102      2.5250      0.0657      7.5763     88.2180     20.4259
  1046.7000      7.9102      2.5220      0.0823      7.7557     91.4038     20.4766
  1046.8000      7.9072      2.5113      0.0495      8.4077     95.6632     20.5114
  1046.9000      7.9072      2.4955      0.0338      9.3652     98.6655     20.4480
  1047.0000      7.9076      2.4801      0.0260     10.2974     99.1130     20.2346
  1047.1000      7.9076      2.4726      0.0328     10.7537     97.0070     19.9791
  1047.2000      7.9076      2.4706      0.0534     10.8736     94.0401     19.6647
  1047.3000      7.9077      2.4726      0.0217     10.7522     92.2753     19.2702
  1047.4000      7.9077      2.4810      0.0710     10.2433     93.1320     19.1512
  1047.5000      7.9083      2.4856      0.0887      9.9646     96.8706     19.4190
  1047.6000      7.9083      2.4755      0.0425     10.5757     97.8602     19.7036
  1047.7000      7.9083      2.4545      0.0216     11.8465     91.7604     19.8488
  1047.8000      7.9093      2.4378     -0.0050     12.8621     85.3504     19.9335
  1047.9000      7.9093      2.4333      0.0473     13.1354     85.7478     19.8449
  1048.0000      7.9085      2.4292      0.0657     13.3810     88.7201     19.5638
