~Version Information
VERS.                      2.0: CWLS Log ASCII Standard - VERSION 2.0
WRAP.                       NO: One line per depth step
~Well Information Block
STRT.FT               454.0000: 
STOP.FT              1389.0000: 
STEP.FT                 0.1000: 
NULL.                -999.2500: 
COMP.          Pioneer Natural Resources: COMPANY
WELL.          Lorencito 6-3-34-66: WELL
FLD.           Purgatoire River: FIELD
LOC.           2545' FNL & 1914' FWL: LOCATION
STAT.                 Colorado: State
CNTY.               Las Animas: COUNTY
CTRY. USA : Country
SECT. 3 : Section
TOWN. 34S : Township
RANG. 66W : Range
SRVC.                Patterson: SERVICE COMPANY
DATE.          Mon Sep 12 07:20:37 2005: LOG DATE
API.        05 071 08369 00: UNIQUE WELL ID
~Curve Information Block
DEPT.FT            0 000 00 00: Depth
DCAL.in                       : CDL Caliper
RHOB.g/cc                     : CDL Bulk Density
RHOC.g/cc                     : CDL Density Correction
DPOR.pu                       : CDL Density Porosity
GR.GAPI                       : Gamma Ray
NPOR.pu                       : Neutron Porosity
~Parameter Information Block
~A  Depth       DCAL        RHOB        RHOC        DPOR         GR         NPOR    
# ...
  1010.8000      7.9982      2.4719      0.0802     10.7933     48.2016     22.5598
  1010.9000      7.9982      2.4681      0.0700     11.0225     45.8015     23.6508
  1011.0000      7.9733      2.4690      0.1101     10.9710     45.3850     24.4607
  1011.1000      7.9733      2.4608      0.0395     11.4681     50.1486     24.4478
  1011.2000      7.9733      2.4530      0.0535     11.9408     55.9738     23.8289
  1011.3000      7.9448      2.4611      0.0810     11.4507     56.7333     23.5064
  1011.4000      7.9448      2.4802      0.0758     10.2921     53.9661     23.8102
  1011.5000      7.9764      2.5027      0.1105      8.9291     54.5086     24.3139
  1011.6000      7.9764      2.5302      0.1208      7.2578     60.4952     24.5799
  1011.7000      7.9764      2.5561      0.1539      5.6910     69.4095     24.4245
  1011.8000      7.8916      2.5634      0.1700      5.2504     78.9218     23.8458
  1011.9000      7.8916      2.5483      0.1168      6.1647     83.9068     22.8233
  1012.0000      7.9709      2.5268      0.0859      7.4681     83.8167     22.0653
  1012.1000      7.9709      2.5120      0.0950      8.3655     84.4839     22.2677
  1012.2000      7.9709      2.5042      0.0840      8.8360     87.4617     23.0303
  1012.3000      7.9739      2.5005      0.0485      9.0578     87.0789     23.7593
  1012.4000      7.9739      2.4982      0.0541      9.1982     79.6366     24.1414
  1012.5000      8.0482      2.4933      0.0147      9.4952     71.2337     24.2329
  1012.6000      8.0482      2.4901      0.0081      9.6916     68.8138     23.8321
  1012.7000      8.0482      2.5023      0.0331      8.9542     69.9677     23.0484
  1012.8000      8.0724      2.5344      0.0839      7.0072     68.5493     22.7573
  1012.9000      8.0724      2.5643      0.1114      5.1930     65.4760     22.8978
  1013.0000      8.0901      2.5593      0.1321      5.4967     62.7889     23.5759
  1013.1000      8.0901      2.5213      0.0499      7.8022     59.2513     25.1903
  1013.2000      8.0901      2.4875      0.0466      9.8509     55.1929     26.2765
  1013.3000      8.0410      2.4754      0.0681     10.5812     51.8391     25.7601
  1013.4000      8.0410      2.4700      0.0816     10.9120     49.8192     25.0201
  1013.5000      8.0467      2.4580      0.0344     11.6375     49.3088     25.1295
  1013.6000      8.0467      2.4435      0.0385     12.5166     49.7176     25.4346
  1013.7000      8.0467      2.4373      0.0114     12.8929     49.2731     24.8663
  1013.8000      8.0379      2.4461      0.0369     12.3568     47.4576     23.9447
  1013.9000      8.0379      2.4687      0.0635     10.9878     46.5581     23.6377
  1014.0000      7.9830      2.4955      0.0671      9.3618     48.0047     23.5717
  1014.1000      7.9830      2.5072      0.1278      8.6522     52.7808     23.5481
  1014.2000      7.9830      2.4971      0.1284      9.2689     59.2165     23.7185
  1014.3000      8.0645      2.4876      0.0750      9.8397     60.3237     23.6189
  1014.4000      8.0645      2.4953      0.0984      9.3755     53.4513     23.5955
  1014.5000      8.0151      2.5124      0.1067      8.3412     46.8288     24.0581
  1014.6000      8.0151      2.5296      0.1465      7.2992     48.2877     24.1905
  1014.7000      8.0151      2.5351      0.1542      6.9607     54.5533     23.7179
  1014.8000      7.9728      2.5203      0.1378      7.8603     57.6079     23.4237
  1014.9000      7.9728      2.5010      0.0556      9.0301     54.9106     23.5288
  1015.0000      8.0079      2.4991      0.1101      9.1477     49.0713     23.5255
  1015.1000      8.0079      2.5074      0.1075      8.6415     44.0419     23.1061
  1015.2000      8.0079      2.5090      0.0590      8.5429     42.6690     22.1670
  1015.3000      7.9781      2.5079      0.0381      8.6120     45.4025     20.9419
  1015.4000      7.9781      2.5231      0.0414      7.6882     48.0850     20.2856
  1015.5000      7.9967      2.5562      0.1487      5.6874     46.2774     20.3552
  1015.6000      7.9967      2.5831      0.1883      4.0549     42.5234     20.3879
  1015.7000      7.9967      2.5909      0.1418      3.5826     39.8403     20.5521
  1015.8000      7.9784      2.5821      0.1472      4.1146     38.5819     21.1270
  1015.9000      7.9784      2.5580      0.1051      5.5767     40.5012     21.0503
  1016.0000      7.8935      2.5282      0.0840      7.3807     44.4433     20.3874
  1016.1000      7.8935      2.5059      0.0528      8.7316     47.3750     20.3910
  1016.2000      7.8935      2.4947      0.0595      9.4135     50.2506     21.3139
  1016.3000      7.9260      2.4961      0.0422      9.3290     53.4359     22.6747
  1016.4000      7.9260      2.5086      0.0545      8.5692     54.4323     23.8942
  1016.5000      8.0303      2.5243      0.0716      7.6165     52.2443     23.9994
  1016.6000      8.0303      2.5399      0.0285      6.6700     48.5263     22.3265
  1016.7000      8.0303      2.5593      0.1013      5.4961     45.5673     20.0089
  1016.8000      8.0283      2.5771      0.1325      4.4207     44.4842     18.7170
  1016.9000      8.0283      2.5827      0.0986      4.0766     45.7044     18.7156
  1017.0000      8.0234      2.5765      0.0608      4.4552     47.8090     19.3508
  1017.1000      8.0234      2.5655      0.0549      5.1209     48.8058     20.1724
  1017.2000      8.0234      2.5555      0.0364      5.7302     49.2766     21.0635
  1017.3000      8.0261      2.5479      0.0049      6.1904     49.0942     21.2853
  1017.4000      8.0261      2.5408      0.0351      6.6164     49.2503     20.6744
  1017.5000      8.0786      2.5363      0.0271      6.8918     52.6446     20.3570
  1017.6000      8.0786      2.5377      0.0494      6.8033     56.3839     20.5690
  1017.7000      8.0786      2.5394      0.0722      6.7000     54.8478     20.4946
  1017.8000      8.1183      2.5301      0.0709      7.2640     50.3834     19.6912
  1017.9000      8.1183      2.5056      0.0635      8.7521     48.0751     18.9031
  1018.0000      8.1819      2.4791      0.0150     10.3579     49.1388     19.0442
  1018.1000      8.1819      2.4777     -0.0168     10.4415     53.0682     19.9553
  1018.2000      8.1819      2.5064      0.0540      8.7025     55.9330     20.9484
  1018.3000      8.1697      2.5327      0.0219      7.1089     54.7114     21.5567
  1018.4000      8.1697      2.5373      0.0060      6.8293     50.7230     21.4654
  1018.5000      8.1548      2.5344      0.0105      7.0031     46.8170     20.2872
  1018.6000      8.1548      2.5347      0.0453      6.9859     45.3008     18.0547
  1018.7000      8.1548      2.5327      0.0583      7.1118     44.4385     16.4417
  1018.8000      8.1446      2.5161      0.0509      8.1127     42.5359     16.6985
  1018.9000      8.1446      2.4775      0.0719     10.4529     41.5756     18.1965
  1019.0000      8.1555      2.4351     -0.0323     13.0242     40.2458     19.8138
  1019.1000      8.1555      2.4117     -0.0142     14.4410     35.3601     20.9046
  1019.2000      8.1555      2.4003     -0.0168     15.1336     30.8154     21.5290
  1019.3000      8.1090      2.3958     -0.0051     15.4058     32.2723     21.9335
  1019.4000      8.1090      2.4102      0.0032     14.5314     38.2144     22.2231
  1019.5000      8.1128      2.4377      0.0698     12.8643     43.6288     22.5030
  1019.6000      8.1128      2.4528      0.0685     11.9506     46.0506     22.7323
  1019.7000      8.1128      2.4481      0.0417     12.2375     46.7186     22.5494
  1019.8000      8.0981      2.4360      0.0923     12.9672     47.2225     21.8822
  1019.9000      8.0981      2.4213      0.0956     13.8628     47.4515     21.4017
  1020.0000      8.0194      2.4039      0.1066     14.9124     47.3112     21.7920
  1020.1000      8.0194      2.3948      0.1253     15.4641     46.8201     22.4189
  1020.2000      8.0194      2.4053      0.1166     14.8296     46.7881     22.3794
  1020.3000      7.8889      2.4313      0.1631     13.2539     48.3785     22.1390
